[{"city":"Delhi","state":"Delhi","latitude":28.6139,"longitude":77.209,"temp":29.6,"humidity":52,"rain":0.0,"pressure":979.9,"uv_index":7.8,"wind_gusts":33.1,"aqi":166,"pm10":287.8,"pm2_5":126.7,"no2":61.6,"co":394.0,"o3":43.0,"so2":39.9,"mosquito_risk":4,"arthritis_risk":5,"migraine_risk":7,"frizz_risk":1,"updated_at":"2026-06-19T07:14:23.696651+05:30"},{"city":"Mumbai","state":"Maharashtra","latitude":19.076,"longitude":72.8777,"temp":29.7,"humidity":62,"rain":0.0,"pressure":1007.6,"uv_index":7.6,"wind_gusts":45.7,"aqi":61,"pm10":24.0,"pm2_5":13.2,"no2":6.3,"co":158.0,"o3":46.0,"so2":6.5,"mosquito_risk":7,"arthritis_risk":5,"migraine_risk":4,"frizz_risk":1,"updated_at":"2026-06-19T07:14:23.696717+05:30"},{"city":"Bangalore","state":"Karnataka","latitude":12.9716,"longitude":77.5946,"temp":21.3,"humidity":89,"rain":0.0,"pressure":911.9,"uv_index":5.95,"wind_gusts":36.4,"aqi":58,"pm10":15.5,"pm2_5":12.8,"no2":13.2,"co":381.0,"o3":63.0,"so2":6.0,"mosquito_risk":3,"arthritis_risk":5,"migraine_risk":3,"frizz_risk":1,"updated_at":"2026-06-19T07:14:23.696734+05:30"},{"city":"Hyderabad","state":"Telangana","latitude":17.385,"longitude":78.4867,"temp":28.2,"humidity":56,"rain":0.0,"pressure":952.6,"uv_index":7.95,"wind_gusts":38.2,"aqi":73,"pm10":21.2,"pm2_5":17.4,"no2":12.1,"co":315.0,"o3":65.0,"so2":11.0,"mosquito_risk":4,"arthritis_risk":5,"migraine_risk":7,"frizz_risk":1,"updated_at":"2026-06-19T07:14:23.696746+05:30"},{"city":"Chennai","state":"Tamil Nadu","latitude":13.0827,"longitude":80.2707,"temp":27.6,"humidity":82,"rain":0.0,"pressure":1006.4,"uv_index":8.45,"wind_gusts":42.8,"aqi":80,"pm10":35.0,"pm2_5":28.4,"no2":19.1,"co":365.0,"o3":51.0,"so2":12.1,"mosquito_risk":7,"arthritis_risk":5,"migraine_risk":4,"frizz_risk":1,"updated_at":"2026-06-19T07:14:23.696758+05:30"},{"city":"Kolkata","state":"West Bengal","latitude":22.5726,"longitude":88.3639,"temp":30.0,"humidity":84,"rain":0.0,"pressure":1003.3,"uv_index":8.45,"wind_gusts":37.8,"aqi":125,"pm10":52.4,"pm2_5":41.8,"no2":10.4,"co":414.0,"o3":90.0,"so2":7.7,"mosquito_risk":7,"arthritis_risk":5,"migraine_risk":4,"frizz_risk":1,"updated_at":"2026-06-19T07:14:23.696769+05:30"},{"city":"Pune","state":"Maharashtra","latitude":18.5204,"longitude":73.8567,"temp":23.4,"humidity":83,"rain":0.0,"pressure":947.5,"uv_index":8.15,"wind_gusts":44.3,"aqi":51,"pm10":18.2,"pm2_5":11.9,"no2":8.7,"co":148.0,"o3":39.0,"so2":8.2,"mosquito_risk":3,"arthritis_risk":5,"migraine_risk":7,"frizz_risk":1,"updated_at":"2026-06-19T07:14:23.696777+05:30"},{"city":"Ahmedabad","state":"Gujarat","latitude":23.0225,"longitude":72.5714,"temp":24.5,"humidity":97,"rain":0.4,"pressure":1001.1,"uv_index":8.05,"wind_gusts":42.1,"aqi":68,"pm10":34.6,"pm2_5":19.3,"no2":8.3,"co":176.0,"o3":34.0,"so2":5.5,"mosquito_risk":6,"arthritis_risk":5,"migraine_risk":4,"frizz_risk":1,"updated_at":"2026-06-19T07:14:23.696786+05:30"},{"city":"Jaipur","state":"Rajasthan","latitude":26.9124,"longitude":75.7873,"temp":27.2,"humidity":67,"rain":0.0,"pressure":957.5,"uv_index":8.2,"wind_gusts":34.2,"aqi":121,"pm10":162.5,"pm2_5":36.0,"no2":5.9,"co":209.0,"o3":60.0,"so2":4.4,"mosquito_risk":7,"arthritis_risk":5,"migraine_risk":7,"frizz_risk":1,"updated_at":"2026-06-19T07:14:23.696794+05:30"},{"city":"Lucknow","state":"Uttar Pradesh","latitude":26.8467,"longitude":80.9462,"temp":32.3,"humidity":52,"rain":0.0,"pressure":989.2,"uv_index":8.35,"wind_gusts":33.8,"aqi":159,"pm10":159.3,"pm2_5":70.5,"no2":34.5,"co":478.0,"o3":47.0,"so2":13.0,"mosquito_risk":0,"arthritis_risk":5,"migraine_risk":7,"frizz_risk":1,"updated_at":"2026-06-19T07:14:23.696814+05:30"},{"city":"Kanpur","state":"Uttar Pradesh","latitude":26.4499,"longitude":80.3319,"temp":33.2,"humidity":47,"rain":0.0,"pressure":987.6,"uv_index":8.25,"wind_gusts":34.2,"aqi":156,"pm10":265.4,"pm2_5":56.6,"no2":17.0,"co":229.0,"o3":45.0,"so2":8.7,"mosquito_risk":0,"arthritis_risk":5,"migraine_risk":7,"frizz_risk":1,"updated_at":"2026-06-19T07:14:23.696822+05:30"},{"city":"Chandigarh","state":"Chandigarh","latitude":30.7333,"longitude":76.7794,"temp":27.5,"humidity":72,"rain":0.0,"pressure":965.9,"uv_index":7.8,"wind_gusts":28.4,"aqi":142,"pm10":61.0,"pm2_5":48.8,"no2":28.3,"co":565.0,"o3":54.0,"so2":6.2,"mosquito_risk":7,"arthritis_risk":5,"migraine_risk":7,"frizz_risk":1,"updated_at":"2026-06-19T07:14:23.696830+05:30"},{"city":"Srinagar","state":"Jammu and Kashmir","latitude":34.0837,"longitude":74.7973,"temp":16.7,"humidity":80,"rain":0.0,"pressure":841.4,"uv_index":8.15,"wind_gusts":24.1,"aqi":83,"pm10":33.4,"pm2_5":31.0,"no2":14.6,"co":412.0,"o3":52.0,"so2":1.6,"mosquito_risk":3,"arthritis_risk":5,"migraine_risk":7,"frizz_risk":0,"updated_at":"2026-06-19T07:14:23.696839+05:30"},{"city":"Jammu","state":"Jammu and Kashmir","latitude":32.7266,"longitude":74.857,"temp":27.1,"humidity":64,"rain":0.0,"pressure":969.3,"uv_index":8.2,"wind_gusts":60.8,"aqi":84,"pm10":25.9,"pm2_5":24.1,"no2":26.1,"co":358.0,"o3":43.0,"so2":2.3,"mosquito_risk":7,"arthritis_risk":5,"migraine_risk":7,"frizz_risk":1,"updated_at":"2026-06-19T07:14:23.696847+05:30"},{"city":"Amritsar","state":"Punjab","latitude":31.634,"longitude":74.8723,"temp":27.5,"humidity":72,"rain":0.0,"pressure":977.4,"uv_index":8.35,"wind_gusts":62.3,"aqi":133,"pm10":49.7,"pm2_5":41.9,"no2":25.1,"co":510.0,"o3":42.0,"so2":7.7,"mosquito_risk":7,"arthritis_risk":5,"migraine_risk":7,"frizz_risk":1,"updated_at":"2026-06-19T07:14:23.696856+05:30"},{"city":"Ludhiana","state":"Punjab","latitude":30.901,"longitude":75.8573,"temp":27.9,"humidity":69,"rain":0.0,"pressure":975.6,"uv_index":8.05,"wind_gusts":31.0,"aqi":152,"pm10":103.4,"pm2_5":90.8,"no2":36.3,"co":722.0,"o3":53.0,"so2":12.0,"mosquito_risk":7,"arthritis_risk":5,"migraine_risk":7,"frizz_risk":1,"updated_at":"2026-06-19T07:14:23.696863+05:30"},{"city":"Jalandhar","state":"Punjab","latitude":31.326,"longitude":75.5762,"temp":27.6,"humidity":71,"rain":0.0,"pressure":976.5,"uv_index":8.25,"wind_gusts":40.0,"aqi":151,"pm10":94.1,"pm2_5":80.6,"no2":38.1,"co":530.0,"o3":47.0,"so2":8.3,"mosquito_risk":7,"arthritis_risk":5,"migraine_risk":7,"frizz_risk":1,"updated_at":"2026-06-19T07:14:23.696870+05:30"},{"city":"Dehradun","state":"Uttarakhand","latitude":30.6284,"longitude":78.0322,"temp":18.1,"humidity":86,"rain":0.0,"pressure":829.3,"uv_index":7.7,"wind_gusts":31.7,"aqi":68,"pm10":16.6,"pm2_5":10.2,"no2":15.7,"co":229.0,"o3":45.0,"so2":0.2,"mosquito_risk":3,"arthritis_risk":10,"migraine_risk":7,"frizz_risk":0,"updated_at":"2026-06-19T07:14:23.696878+05:30"},{"city":"Shimla","state":"Himachal Pradesh","latitude":31.1048,"longitude":77.1734,"temp":15.0,"humidity":91,"rain":0.0,"pressure":782.6,"uv_index":7.75,"wind_gusts":33.8,"aqi":79,"pm10":23.9,"pm2_5":18.1,"no2":7.7,"co":219.0,"o3":83.0,"so2":0.1,"mosquito_risk":3,"arthritis_risk":10,"migraine_risk":7,"frizz_risk":0,"updated_at":"2026-06-19T07:14:23.696887+05:30"},{"city":"Manali","state":"Himachal Pradesh","latitude":32.2396,"longitude":77.1887,"temp":18.2,"humidity":69,"rain":0.0,"pressure":817.5,"uv_index":8.95,"wind_gusts":30.2,"aqi":75,"pm10":1.5,"pm2_5":1.5,"no2":8.3,"co":170.0,"o3":124.0,"so2":0.0,"mosquito_risk":3,"arthritis_risk":5,"migraine_risk":7,"frizz_risk":0,"updated_at":"2026-06-19T07:14:23.696906+05:30"},{"city":"Gurgaon","state":"Haryana","latitude":28.4595,"longitude":77.0266,"temp":28.3,"humidity":59,"rain":0.0,"pressure":978.5,"uv_index":7.9,"wind_gusts":29.2,"aqi":218,"pm10":286.8,"pm2_5":117.6,"no2":65.8,"co":344.0,"o3":33.0,"so2":38.8,"mosquito_risk":4,"arthritis_risk":5,"migraine_risk":7,"frizz_risk":1,"updated_at":"2026-06-19T07:14:23.696915+05:30"},{"city":"Noida","state":"Uttar Pradesh","latitude":28.5355,"longitude":77.391,"temp":29.4,"humidity":56,"rain":0.0,"pressure":981.1,"uv_index":7.85,"wind_gusts":24.5,"aqi":218,"pm10":286.8,"pm2_5":117.6,"no2":65.8,"co":423.0,"o3":33.0,"so2":38.8,"mosquito_risk":4,"arthritis_risk":5,"migraine_risk":7,"frizz_risk":1,"updated_at":"2026-06-19T07:14:23.696922+05:30"},{"city":"Ghaziabad","state":"Uttar Pradesh","latitude":28.6692,"longitude":77.4538,"temp":28.9,"humidity":58,"rain":0.0,"pressure":979.3,"uv_index":7.8,"wind_gusts":28.1,"aqi":168,"pm10":251.5,"pm2_5":129.0,"no2":65.8,"co":456.0,"o3":46.0,"so2":25.9,"mosquito_risk":4,"arthritis_risk":5,"migraine_risk":7,"frizz_risk":1,"updated_at":"2026-06-19T07:14:23.696930+05:30"},{"city":"Faridabad","state":"Haryana","latitude":28.4089,"longitude":77.3178,"temp":29.1,"humidity":56,"rain":0.0,"pressure":980.5,"uv_index":7.85,"wind_gusts":31.0,"aqi":218,"pm10":286.8,"pm2_5":117.6,"no2":65.8,"co":355.0,"o3":33.0,"so2":38.8,"mosquito_risk":4,"arthritis_risk":5,"migraine_risk":7,"frizz_risk":1,"updated_at":"2026-06-19T07:14:23.696938+05:30"},{"city":"Meerut","state":"Uttar Pradesh","latitude":28.9845,"longitude":77.7064,"temp":27.9,"humidity":64,"rain":0.0,"pressure":978.0,"uv_index":7.75,"wind_gusts":29.5,"aqi":168,"pm10":251.5,"pm2_5":129.0,"no2":65.8,"co":618.0,"o3":46.0,"so2":25.9,"mosquito_risk":7,"arthritis_risk":5,"migraine_risk":7,"frizz_risk":1,"updated_at":"2026-06-19T07:14:23.696946+05:30"},{"city":"Agra","state":"Uttar Pradesh","latitude":27.1767,"longitude":78.0081,"temp":30.4,"humidity":51,"rain":0.0,"pressure":984.8,"uv_index":8.15,"wind_gusts":31.3,"aqi":280,"pm10":495.5,"pm2_5":93.8,"no2":29.7,"co":237.0,"o3":30.0,"so2":7.8,"mosquito_risk":0,"arthritis_risk":5,"migraine_risk":7,"frizz_risk":1,"updated_at":"2026-06-19T07:14:23.696954+05:30"},{"city":"Varanasi","state":"Uttar Pradesh","latitude":25.3176,"longitude":82.9739,"temp":32.7,"humidity":51,"rain":0.0,"pressure":993.7,"uv_index":8.8,"wind_gusts":33.8,"aqi":106,"pm10":30.6,"pm2_5":25.9,"no2":13.3,"co":212.0,"o3":67.0,"so2":10.6,"mosquito_risk":0,"arthritis_risk":5,"migraine_risk":7,"frizz_risk":1,"updated_at":"2026-06-19T07:14:23.696962+05:30"},{"city":"Prayagraj","state":"Uttar Pradesh","latitude":25.4358,"longitude":81.8463,"temp":32.8,"humidity":51,"rain":0.0,"pressure":992.0,"uv_index":8.7,"wind_gusts":32.0,"aqi":108,"pm10":37.3,"pm2_5":28.2,"no2":14.2,"co":174.0,"o3":54.0,"so2":7.5,"mosquito_risk":0,"arthritis_risk":5,"migraine_risk":7,"frizz_risk":1,"updated_at":"2026-06-19T07:14:23.696970+05:30"},{"city":"Gorakhpur","state":"Uttar Pradesh","latitude":26.7606,"longitude":83.3732,"temp":30.4,"humidity":71,"rain":0.0,"pressure":993.0,"uv_index":8.45,"wind_gusts":27.0,"aqi":157,"pm10":77.5,"pm2_5":61.2,"no2":24.6,"co":539.0,"o3":57.0,"so2":12.2,"mosquito_risk":3,"arthritis_risk":5,"migraine_risk":7,"frizz_risk":1,"updated_at":"2026-06-19T07:14:23.696978+05:30"},{"city":"Bareilly","state":"Uttar Pradesh","latitude":28.367,"longitude":79.4304,"temp":29.0,"humidity":62,"rain":0.0,"pressure":983.1,"uv_index":8.15,"wind_gusts":33.8,"aqi":155,"pm10":134.6,"pm2_5":92.4,"no2":44.9,"co":527.0,"o3":51.0,"so2":15.9,"mosquito_risk":7,"arthritis_risk":5,"migraine_risk":7,"frizz_risk":1,"updated_at":"2026-06-19T07:14:23.696988+05:30"},{"city":"Aligarh","state":"Uttar Pradesh","latitude":27.8974,"longitude":78.088,"temp":29.2,"humidity":56,"rain":0.0,"pressure":982.3,"uv_index":8.0,"wind_gusts":29.5,"aqi":177,"pm10":247.7,"pm2_5":119.2,"no2":54.1,"co":377.0,"o3":56.0,"so2":18.9,"mosquito_risk":4,"arthritis_risk":5,"migraine_risk":7,"frizz_risk":1,"updated_at":"2026-06-19T07:14:23.696998+05:30"},{"city":"Moradabad","state":"Uttar Pradesh","latitude":28.8386,"longitude":78.7733,"temp":28.9,"humidity":61,"rain":0.0,"pressure":979.9,"uv_index":7.95,"wind_gusts":35.6,"aqi":158,"pm10":146.2,"pm2_5":100.8,"no2":44.8,"co":642.0,"o3":46.0,"so2":13.0,"mosquito_risk":7,"arthritis_risk":5,"migraine_risk":7,"frizz_risk":1,"updated_at":"2026-06-19T07:14:23.697005+05:30"},{"city":"Saharanpur","state":"Uttar Pradesh","latitude":29.9637,"longitude":77.546,"temp":27.0,"humidity":72,"rain":0.0,"pressure":972.3,"uv_index":7.5,"wind_gusts":27.7,"aqi":155,"pm10":129.9,"pm2_5":110.4,"no2":53.8,"co":580.0,"o3":52.0,"so2":15.2,"mosquito_risk":7,"arthritis_risk":5,"migraine_risk":7,"frizz_risk":1,"updated_at":"2026-06-19T07:14:23.697013+05:30"},{"city":"Jhansi","state":"Uttar Pradesh","latitude":25.4484,"longitude":78.5685,"temp":30.1,"humidity":60,"rain":0.0,"pressure":975.4,"uv_index":8.5,"wind_gusts":32.0,"aqi":75,"pm10":20.0,"pm2_5":14.1,"no2":7.2,"co":159.0,"o3":63.0,"so2":9.7,"mosquito_risk":0,"arthritis_risk":5,"migraine_risk":7,"frizz_risk":1,"updated_at":"2026-06-19T07:14:27.004081+05:30"},{"city":"Surat","state":"Gujarat","latitude":21.1702,"longitude":72.8311,"temp":27.8,"humidity":85,"rain":0.0,"pressure":1005.4,"uv_index":7.6,"wind_gusts":47.5,"aqi":70,"pm10":39.5,"pm2_5":24.8,"no2":27.7,"co":283.0,"o3":24.0,"so2":50.2,"mosquito_risk":7,"arthritis_risk":5,"migraine_risk":4,"frizz_risk":1,"updated_at":"2026-06-19T07:14:27.004119+05:30"},{"city":"Vadodara","state":"Gujarat","latitude":22.3072,"longitude":73.1812,"temp":26.3,"humidity":94,"rain":0.0,"pressure":1003.2,"uv_index":8.0,"wind_gusts":43.6,"aqi":63,"pm10":22.6,"pm2_5":12.9,"no2":9.8,"co":132.0,"o3":40.0,"so2":4.7,"mosquito_risk":7,"arthritis_risk":5,"migraine_risk":4,"frizz_risk":1,"updated_at":"2026-06-19T07:14:27.004130+05:30"},{"city":"Rajkot","state":"Gujarat","latitude":22.3039,"longitude":70.8022,"temp":27.8,"humidity":79,"rain":0.0,"pressure":992.4,"uv_index":7.55,"wind_gusts":45.4,"aqi":59,"pm10":33.6,"pm2_5":15.7,"no2":5.3,"co":105.0,"o3":38.0,"so2":4.1,"mosquito_risk":7,"arthritis_risk":5,"migraine_risk":7,"frizz_risk":1,"updated_at":"2026-06-19T07:14:27.004139+05:30"},{"city":"Thane","state":"Maharashtra","latitude":19.2183,"longitude":72.9781,"temp":28.8,"humidity":70,"rain":0.0,"pressure":1007.1,"uv_index":7.5,"wind_gusts":40.3,"aqi":61,"pm10":24.0,"pm2_5":13.2,"no2":6.3,"co":172.0,"o3":46.0,"so2":6.5,"mosquito_risk":7,"arthritis_risk":5,"migraine_risk":4,"frizz_risk":1,"updated_at":"2026-06-19T07:14:27.004147+05:30"},{"city":"Nagpur","state":"Maharashtra","latitude":21.1458,"longitude":79.0882,"temp":30.6,"humidity":53,"rain":0.0,"pressure":971.9,"uv_index":8.9,"wind_gusts":41.0,"aqi":87,"pm10":26.9,"pm2_5":22.2,"no2":19.3,"co":393.0,"o3":48.0,"so2":13.2,"mosquito_risk":0,"arthritis_risk":5,"migraine_risk":7,"frizz_risk":1,"updated_at":"2026-06-19T07:14:27.004155+05:30"},{"city":"Nashik","state":"Maharashtra","latitude":19.9975,"longitude":73.7898,"temp":23.9,"humidity":85,"rain":0.0,"pressure":944.9,"uv_index":8.05,"wind_gusts":42.8,"aqi":51,"pm10":16.5,"pm2_5":10.5,"no2":9.7,"co":156.0,"o3":36.0,"so2":11.9,"mosquito_risk":3,"arthritis_risk":5,"migraine_risk":7,"frizz_risk":1,"updated_at":"2026-06-19T07:14:27.004162+05:30"},{"city":"Aurangabad","state":"Maharashtra","latitude":19.8762,"longitude":75.3433,"temp":25.2,"humidity":74,"rain":0.0,"pressure":943.8,"uv_index":8.9,"wind_gusts":43.2,"aqi":51,"pm10":18.2,"pm2_5":12.1,"no2":9.0,"co":132.0,"o3":39.0,"so2":9.8,"mosquito_risk":7,"arthritis_risk":5,"migraine_risk":7,"frizz_risk":1,"updated_at":"2026-06-19T07:14:27.004169+05:30"},{"city":"Solapur","state":"Maharashtra","latitude":17.6599,"longitude":75.9064,"temp":26.5,"humidity":60,"rain":0.0,"pressure":957.4,"uv_index":8.9,"wind_gusts":41.8,"aqi":52,"pm10":17.4,"pm2_5":12.4,"no2":6.1,"co":132.0,"o3":47.0,"so2":3.9,"mosquito_risk":4,"arthritis_risk":5,"migraine_risk":7,"frizz_risk":1,"updated_at":"2026-06-19T07:14:27.004177+05:30"},{"city":"Kolhapur","state":"Maharashtra","latitude":16.705,"longitude":74.2433,"temp":23.7,"humidity":84,"rain":0.0,"pressure":948.1,"uv_index":8.45,"wind_gusts":47.2,"aqi":53,"pm10":19.5,"pm2_5":11.8,"no2":5.2,"co":137.0,"o3":43.0,"so2":2.9,"mosquito_risk":3,"arthritis_risk":5,"migraine_risk":7,"frizz_risk":1,"updated_at":"2026-06-19T07:14:27.004184+05:30"},{"city":"Goa","state":"Goa","latitude":15.2993,"longitude":74.124,"temp":26.0,"humidity":93,"rain":0.0,"pressure":998.4,"uv_index":8.6,"wind_gusts":29.9,"aqi":60,"pm10":41.2,"pm2_5":21.9,"no2":5.3,"co":247.0,"o3":47.0,"so2":2.5,"mosquito_risk":7,"arthritis_risk":5,"migraine_risk":7,"frizz_risk":1,"updated_at":"2026-06-19T07:14:27.004191+05:30"},{"city":"Jodhpur","state":"Rajasthan","latitude":26.2389,"longitude":73.0243,"temp":28.8,"humidity":66,"rain":0.0,"pressure":980.2,"uv_index":8.45,"wind_gusts":36.7,"aqi":100,"pm10":140.2,"pm2_5":37.4,"no2":4.8,"co":116.0,"o3":53.0,"so2":3.1,"mosquito_risk":7,"arthritis_risk":5,"migraine_risk":7,"frizz_risk":1,"updated_at":"2026-06-19T07:14:27.004198+05:30"},{"city":"Udaipur","state":"Rajasthan","latitude":24.5854,"longitude":73.7125,"temp":25.4,"humidity":77,"rain":0.0,"pressure":944.6,"uv_index":8.8,"wind_gusts":35.6,"aqi":60,"pm10":32.7,"pm2_5":16.9,"no2":8.6,"co":124.0,"o3":46.0,"so2":4.8,"mosquito_risk":7,"arthritis_risk":5,"migraine_risk":7,"frizz_risk":1,"updated_at":"2026-06-19T07:14:27.004205+05:30"},{"city":"Kota","state":"Rajasthan","latitude":25.2138,"longitude":75.8648,"temp":29.4,"humidity":62,"rain":0.0,"pressure":976.8,"uv_index":8.35,"wind_gusts":38.2,"aqi":69,"pm10":28.2,"pm2_5":17.8,"no2":6.9,"co":181.0,"o3":60.0,"so2":6.8,"mosquito_risk":7,"arthritis_risk":5,"migraine_risk":7,"frizz_risk":1,"updated_at":"2026-06-19T07:14:27.004213+05:30"},{"city":"Bikaner","state":"Rajasthan","latitude":28.0229,"longitude":73.3119,"temp":29.3,"humidity":64,"rain":0.0,"pressure":978.7,"uv_index":8.45,"wind_gusts":29.9,"aqi":122,"pm10":194.6,"pm2_5":57.0,"no2":3.1,"co":121.0,"o3":47.0,"so2":3.2,"mosquito_risk":7,"arthritis_risk":5,"migraine_risk":7,"frizz_risk":1,"updated_at":"2026-06-19T07:14:27.004219+05:30"},{"city":"Ajmer","state":"Rajasthan","latitude":26.4499,"longitude":74.6399,"temp":26.4,"humidity":71,"rain":0.0,"pressure":952.4,"uv_index":8.35,"wind_gusts":36.0,"aqi":76,"pm10":28.1,"pm2_5":15.9,"no2":6.3,"co":137.0,"o3":55.0,"so2":4.5,"mosquito_risk":7,"arthritis_risk":5,"migraine_risk":7,"frizz_risk":1,"updated_at":"2026-06-19T07:14:27.004226+05:30"},{"city":"Gwalior","state":"Madhya Pradesh","latitude":26.2183,"longitude":78.1828,"temp":31.0,"humidity":52,"rain":0.0,"pressure":980.5,"uv_index":8.3,"wind_gusts":36.4,"aqi":93,"pm10":28.6,"pm2_5":18.2,"no2":6.5,"co":157.0,"o3":58.0,"so2":5.0,"mosquito_risk":0,"arthritis_risk":5,"migraine_risk":7,"frizz_risk":1,"updated_at":"2026-06-19T07:14:27.004233+05:30"},{"city":"Indore","state":"Madhya Pradesh","latitude":22.7196,"longitude":75.8577,"temp":26.1,"humidity":74,"rain":0.0,"pressure":947.1,"uv_index":8.65,"wind_gusts":43.6,"aqi":66,"pm10":28.4,"pm2_5":18.0,"no2":7.6,"co":209.0,"o3":50.0,"so2":10.3,"mosquito_risk":7,"arthritis_risk":5,"migraine_risk":7,"frizz_risk":1,"updated_at":"2026-06-19T07:14:27.004239+05:30"},{"city":"Bhopal","state":"Madhya Pradesh","latitude":23.2599,"longitude":77.4126,"temp":26.6,"humidity":69,"rain":0.0,"pressure":952.2,"uv_index":8.7,"wind_gusts":34.9,"aqi":65,"pm10":26.7,"pm2_5":18.3,"no2":5.4,"co":228.0,"o3":66.0,"so2":4.9,"mosquito_risk":7,"arthritis_risk":5,"migraine_risk":7,"frizz_risk":1,"updated_at":"2026-06-19T07:14:27.004246+05:30"},{"city":"Jabalpur","state":"Madhya Pradesh","latitude":23.1815,"longitude":79.9864,"temp":28.1,"humidity":70,"rain":0.0,"pressure":959.8,"uv_index":8.9,"wind_gusts":30.6,"aqi":66,"pm10":24.9,"pm2_5":21.4,"no2":13.0,"co":280.0,"o3":54.0,"so2":3.4,"mosquito_risk":7,"arthritis_risk":5,"migraine_risk":7,"frizz_risk":1,"updated_at":"2026-06-19T07:14:27.004253+05:30"},{"city":"Ujjain","state":"Madhya Pradesh","latitude":23.1765,"longitude":75.7885,"temp":26.3,"humidity":76,"rain":0.0,"pressure":952.6,"uv_index":8.5,"wind_gusts":41.4,"aqi":64,"pm10":29.8,"pm2_5":17.7,"no2":6.9,"co":196.0,"o3":47.0,"so2":10.0,"mosquito_risk":7,"arthritis_risk":5,"migraine_risk":7,"frizz_risk":1,"updated_at":"2026-06-19T07:14:27.004260+05:30"},{"city":"Visakhapatnam","state":"Andhra Pradesh","latitude":17.6868,"longitude":83.2185,"temp":26.0,"humidity":97,"rain":0.2,"pressure":1002.2,"uv_index":6.4,"wind_gusts":36.7,"aqi":109,"pm10":37.3,"pm2_5":29.6,"no2":24.1,"co":374.0,"o3":78.0,"so2":41.9,"mosquito_risk":10,"arthritis_risk":5,"migraine_risk":4,"frizz_risk":1,"updated_at":"2026-06-19T07:14:27.004266+05:30"},{"city":"Vijayawada","state":"Andhra Pradesh","latitude":16.5062,"longitude":80.648,"temp":29.1,"humidity":69,"rain":0.0,"pressure":1000.8,"uv_index":7.1,"wind_gusts":28.8,"aqi":81,"pm10":31.5,"pm2_5":28.6,"no2":9.7,"co":231.0,"o3":87.0,"so2":4.6,"mosquito_risk":7,"arthritis_risk":5,"migraine_risk":4,"frizz_risk":1,"updated_at":"2026-06-19T07:14:27.004273+05:30"},{"city":"Guntur","state":"Andhra Pradesh","latitude":16.3067,"longitude":80.4365,"temp":28.6,"humidity":67,"rain":0.0,"pressure":1002.0,"uv_index":8.05,"wind_gusts":34.6,"aqi":75,"pm10":29.6,"pm2_5":26.9,"no2":10.1,"co":210.0,"o3":83.0,"so2":4.3,"mosquito_risk":7,"arthritis_risk":5,"migraine_risk":4,"frizz_risk":1,"updated_at":"2026-06-19T07:14:27.004282+05:30"},{"city":"Nellore","state":"Andhra Pradesh","latitude":14.4426,"longitude":79.9865,"temp":27.1,"humidity":88,"rain":0.0,"pressure":1004.9,"uv_index":7.25,"wind_gusts":29.5,"aqi":66,"pm10":21.8,"pm2_5":18.5,"no2":11.6,"co":167.0,"o3":52.0,"so2":4.2,"mosquito_risk":7,"arthritis_risk":5,"migraine_risk":4,"frizz_risk":1,"updated_at":"2026-06-19T07:14:27.004290+05:30"},{"city":"Kurnool","state":"Andhra Pradesh","latitude":15.8281,"longitude":78.0373,"temp":28.5,"humidity":64,"rain":0.0,"pressure":976.9,"uv_index":2.9,"wind_gusts":37.4,"aqi":64,"pm10":18.5,"pm2_5":14.0,"no2":7.7,"co":175.0,"o3":45.0,"so2":3.7,"mosquito_risk":7,"arthritis_risk":5,"migraine_risk":3,"frizz_risk":1,"updated_at":"2026-06-19T07:14:27.004298+05:30"},{"city":"Kakinada","state":"Andhra Pradesh","latitude":16.9891,"longitude":82.2475,"temp":27.6,"humidity":93,"rain":0.0,"pressure":1006.1,"uv_index":4.35,"wind_gusts":31.0,"aqi":89,"pm10":32.6,"pm2_5":23.6,"no2":5.5,"co":189.0,"o3":105.0,"so2":5.0,"mosquito_risk":7,"arthritis_risk":5,"migraine_risk":0,"frizz_risk":1,"updated_at":"2026-06-19T07:14:27.004305+05:30"},{"city":"Tirupati","state":"Andhra Pradesh","latitude":13.6288,"longitude":79.4192,"temp":26.5,"humidity":92,"rain":0.0,"pressure":990.6,"uv_index":3.1,"wind_gusts":50.0,"aqi":70,"pm10":25.0,"pm2_5":21.1,"no2":18.1,"co":236.0,"o3":36.0,"so2":3.7,"mosquito_risk":7,"arthritis_risk":5,"migraine_risk":3,"frizz_risk":1,"updated_at":"2026-06-19T07:14:27.004311+05:30"},{"city":"Warangal","state":"Telangana","latitude":17.9689,"longitude":79.5941,"temp":29.9,"humidity":58,"rain":0.0,"pressure":976.8,"uv_index":7.9,"wind_gusts":34.2,"aqi":90,"pm10":31.9,"pm2_5":29.0,"no2":11.4,"co":300.0,"o3":70.0,"so2":10.0,"mosquito_risk":4,"arthritis_risk":5,"migraine_risk":7,"frizz_risk":1,"updated_at":"2026-06-19T07:14:27.004317+05:30"},{"city":"Nizamabad","state":"Telangana","latitude":18.6725,"longitude":78.0941,"temp":29.9,"humidity":49,"rain":0.0,"pressure":963.9,"uv_index":8.95,"wind_gusts":31.7,"aqi":73,"pm10":27.4,"pm2_5":23.7,"no2":16.7,"co":232.0,"o3":48.0,"so2":5.9,"mosquito_risk":4,"arthritis_risk":5,"migraine_risk":7,"frizz_risk":1,"updated_at":"2026-06-19T07:14:27.004324+05:30"},{"city":"Mysore","state":"Karnataka","latitude":12.2958,"longitude":76.6396,"temp":21.2,"humidity":92,"rain":0.0,"pressure":929.0,"uv_index":7.55,"wind_gusts":38.5,"aqi":55,"pm10":14.3,"pm2_5":10.4,"no2":11.0,"co":171.0,"o3":50.0,"so2":2.7,"mosquito_risk":3,"arthritis_risk":5,"migraine_risk":7,"frizz_risk":1,"updated_at":"2026-06-19T07:14:27.004330+05:30"},{"city":"Mangalore","state":"Karnataka","latitude":12.9141,"longitude":74.856,"temp":24.1,"humidity":96,"rain":0.0,"pressure":1008.1,"uv_index":8.55,"wind_gusts":27.7,"aqi":67,"pm10":23.3,"pm2_5":15.6,"no2":11.5,"co":283.0,"o3":31.0,"so2":3.7,"mosquito_risk":3,"arthritis_risk":0,"migraine_risk":4,"frizz_risk":1,"updated_at":"2026-06-19T07:14:27.004336+05:30"},{"city":"Hubli-Dharwad","state":"Karnataka","latitude":15.3647,"longitude":75.124,"temp":23.9,"humidity":84,"rain":0.0,"pressure":941.4,"uv_index":8.0,"wind_gusts":37.1,"aqi":51,"pm10":19.6,"pm2_5":10.7,"no2":3.5,"co":139.0,"o3":44.0,"so2":2.1,"mosquito_risk":3,"arthritis_risk":5,"migraine_risk":7,"frizz_risk":1,"updated_at":"2026-06-19T07:14:27.004342+05:30"},{"city":"Belgaum","state":"Karnataka","latitude":15.8497,"longitude":74.4977,"temp":22.1,"humidity":90,"rain":0.0,"pressure":925.9,"uv_index":8.85,"wind_gusts":38.2,"aqi":55,"pm10":26.2,"pm2_5":17.2,"no2":5.6,"co":114.0,"o3":39.0,"so2":1.1,"mosquito_risk":3,"arthritis_risk":5,"migraine_risk":7,"frizz_risk":1,"updated_at":"2026-06-19T07:14:30.479911+05:30"},{"city":"Coimbatore","state":"Tamil Nadu","latitude":11.0168,"longitude":76.9558,"temp":23.8,"humidity":92,"rain":0.0,"pressure":962.4,"uv_index":8.0,"wind_gusts":36.7,"aqi":38,"pm10":6.6,"pm2_5":5.6,"no2":9.1,"co":242.0,"o3":44.0,"so2":3.8,"mosquito_risk":3,"arthritis_risk":5,"migraine_risk":7,"frizz_risk":1,"updated_at":"2026-06-19T07:14:30.479950+05:30"},{"city":"Madurai","state":"Tamil Nadu","latitude":9.9252,"longitude":78.1198,"temp":27.5,"humidity":72,"rain":0.0,"pressure":993.3,"uv_index":7.4,"wind_gusts":28.8,"aqi":64,"pm10":18.0,"pm2_5":14.8,"no2":18.8,"co":273.0,"o3":34.0,"so2":5.0,"mosquito_risk":7,"arthritis_risk":5,"migraine_risk":7,"frizz_risk":1,"updated_at":"2026-06-19T07:14:30.479962+05:30"},{"city":"Trichy","state":"Tamil Nadu","latitude":10.7905,"longitude":78.7047,"temp":27.5,"humidity":77,"rain":0.0,"pressure":999.7,"uv_index":7.1,"wind_gusts":38.9,"aqi":54,"pm10":9.5,"pm2_5":8.0,"no2":8.5,"co":174.0,"o3":61.0,"so2":3.7,"mosquito_risk":7,"arthritis_risk":5,"migraine_risk":7,"frizz_risk":1,"updated_at":"2026-06-19T07:14:30.479970+05:30"},{"city":"Salem","state":"Tamil Nadu","latitude":11.6643,"longitude":78.146,"temp":25.7,"humidity":86,"rain":0.0,"pressure":977.7,"uv_index":6.9,"wind_gusts":21.6,"aqi":58,"pm10":22.1,"pm2_5":19.6,"no2":14.3,"co":273.0,"o3":53.0,"so2":9.0,"mosquito_risk":7,"arthritis_risk":5,"migraine_risk":7,"frizz_risk":1,"updated_at":"2026-06-19T07:14:30.479979+05:30"},{"city":"Tirunelveli","state":"Tamil Nadu","latitude":8.7139,"longitude":77.7567,"temp":28.6,"humidity":66,"rain":0.0,"pressure":1003.5,"uv_index":7.4,"wind_gusts":36.0,"aqi":51,"pm10":18.5,"pm2_5":12.7,"no2":8.2,"co":264.0,"o3":34.0,"so2":2.8,"mosquito_risk":7,"arthritis_risk":5,"migraine_risk":4,"frizz_risk":1,"updated_at":"2026-06-19T07:14:30.479988+05:30"},{"city":"Vellore","state":"Tamil Nadu","latitude":12.9165,"longitude":79.1325,"temp":26.9,"humidity":74,"rain":0.0,"pressure":984.2,"uv_index":7.9,"wind_gusts":42.5,"aqi":69,"pm10":27.7,"pm2_5":21.9,"no2":15.2,"co":254.0,"o3":50.0,"so2":6.7,"mosquito_risk":7,"arthritis_risk":5,"migraine_risk":7,"frizz_risk":1,"updated_at":"2026-06-19T07:14:30.479996+05:30"},{"city":"Erode","state":"Tamil Nadu","latitude":11.341,"longitude":77.7172,"temp":26.1,"humidity":84,"rain":0.0,"pressure":989.6,"uv_index":6.0,"wind_gusts":23.8,"aqi":50,"pm10":11.4,"pm2_5":9.7,"no2":12.5,"co":227.0,"o3":48.0,"so2":3.7,"mosquito_risk":7,"arthritis_risk":5,"migraine_risk":3,"frizz_risk":1,"updated_at":"2026-06-19T07:14:30.480004+05:30"},{"city":"Kochi","state":"Kerala","latitude":9.9312,"longitude":76.2673,"temp":24.8,"humidity":96,"rain":0.2,"pressure":1010.0,"uv_index":8.4,"wind_gusts":22.7,"aqi":60,"pm10":20.3,"pm2_5":15.6,"no2":16.2,"co":235.0,"o3":18.0,"so2":4.0,"mosquito_risk":6,"arthritis_risk":0,"migraine_risk":4,"frizz_risk":1,"updated_at":"2026-06-19T07:14:30.480012+05:30"},{"city":"Thiruvananthapuram","state":"Kerala","latitude":8.5241,"longitude":76.9366,"temp":24.9,"humidity":97,"rain":0.0,"pressure":1009.1,"uv_index":7.2,"wind_gusts":35.6,"aqi":55,"pm10":27.1,"pm2_5":14.8,"no2":6.5,"co":244.0,"o3":44.0,"so2":3.7,"mosquito_risk":3,"arthritis_risk":0,"migraine_risk":4,"frizz_risk":1,"updated_at":"2026-06-19T07:14:30.480020+05:30"},{"city":"Kozhikode","state":"Kerala","latitude":11.2588,"longitude":75.7804,"temp":23.9,"humidity":99,"rain":0.2,"pressure":1009.5,"uv_index":7.95,"wind_gusts":32.8,"aqi":51,"pm10":25.8,"pm2_5":12.1,"no2":2.5,"co":247.0,"o3":55.0,"so2":2.0,"mosquito_risk":6,"arthritis_risk":0,"migraine_risk":4,"frizz_risk":1,"updated_at":"2026-06-19T07:14:30.480026+05:30"},{"city":"Thrissur","state":"Kerala","latitude":10.5276,"longitude":76.2144,"temp":24.5,"humidity":99,"rain":0.1,"pressure":1008.6,"uv_index":7.15,"wind_gusts":25.9,"aqi":61,"pm10":19.6,"pm2_5":14.9,"no2":10.7,"co":314.0,"o3":33.0,"so2":4.1,"mosquito_risk":6,"arthritis_risk":0,"migraine_risk":4,"frizz_risk":1,"updated_at":"2026-06-19T07:14:30.480034+05:30"},{"city":"Kannur","state":"Kerala","latitude":11.8745,"longitude":75.3704,"temp":24.1,"humidity":98,"rain":0.2,"pressure":1008.7,"uv_index":6.75,"wind_gusts":31.7,"aqi":66,"pm10":22.1,"pm2_5":15.2,"no2":15.7,"co":259.0,"o3":29.0,"so2":3.0,"mosquito_risk":6,"arthritis_risk":0,"migraine_risk":4,"frizz_risk":1,"updated_at":"2026-06-19T07:14:30.480041+05:30"},{"city":"Patna","state":"Bihar","latitude":25.5941,"longitude":85.1376,"temp":29.0,"humidity":78,"rain":0.0,"pressure":997.0,"uv_index":8.9,"wind_gusts":28.1,"aqi":155,"pm10":95.9,"pm2_5":74.3,"no2":18.9,"co":358.0,"o3":79.0,"so2":11.9,"mosquito_risk":7,"arthritis_risk":5,"migraine_risk":7,"frizz_risk":1,"updated_at":"2026-06-19T07:14:30.480049+05:30"},{"city":"Gaya","state":"Bihar","latitude":24.7914,"longitude":85.0002,"temp":28.6,"humidity":76,"rain":0.0,"pressure":990.5,"uv_index":8.5,"wind_gusts":29.5,"aqi":156,"pm10":68.9,"pm2_5":53.0,"no2":20.7,"co":228.0,"o3":71.0,"so2":14.0,"mosquito_risk":7,"arthritis_risk":5,"migraine_risk":7,"frizz_risk":1,"updated_at":"2026-06-19T07:14:30.480056+05:30"},{"city":"Muzaffarpur","state":"Bihar","latitude":26.1209,"longitude":85.3647,"temp":28.0,"humidity":85,"rain":0.0,"pressure":997.5,"uv_index":8.9,"wind_gusts":24.1,"aqi":156,"pm10":93.4,"pm2_5":72.9,"no2":16.3,"co":570.0,"o3":86.0,"so2":11.2,"mosquito_risk":7,"arthritis_risk":5,"migraine_risk":7,"frizz_risk":1,"updated_at":"2026-06-19T07:14:30.480063+05:30"},{"city":"Bhagalpur","state":"Bihar","latitude":25.2425,"longitude":87.0117,"temp":28.5,"humidity":79,"rain":0.0,"pressure":998.5,"uv_index":8.7,"wind_gusts":34.6,"aqi":161,"pm10":84.5,"pm2_5":76.4,"no2":14.6,"co":622.0,"o3":72.0,"so2":21.0,"mosquito_risk":7,"arthritis_risk":5,"migraine_risk":7,"frizz_risk":1,"updated_at":"2026-06-19T07:14:30.480069+05:30"},{"city":"Ranchi","state":"Jharkhand","latitude":23.3441,"longitude":85.3096,"temp":27.1,"humidity":69,"rain":0.0,"pressure":936.0,"uv_index":8.0,"wind_gusts":34.2,"aqi":150,"pm10":74.7,"pm2_5":64.0,"no2":11.8,"co":268.0,"o3":96.0,"so2":11.5,"mosquito_risk":7,"arthritis_risk":5,"migraine_risk":7,"frizz_risk":1,"updated_at":"2026-06-19T07:14:30.480076+05:30"},{"city":"Jamshedpur","state":"Jharkhand","latitude":22.8046,"longitude":86.2029,"temp":30.2,"humidity":69,"rain":0.0,"pressure":988.3,"uv_index":8.5,"wind_gusts":36.4,"aqi":157,"pm10":89.4,"pm2_5":73.3,"no2":21.3,"co":567.0,"o3":84.0,"so2":36.3,"mosquito_risk":3,"arthritis_risk":5,"migraine_risk":7,"frizz_risk":1,"updated_at":"2026-06-19T07:14:30.480084+05:30"},{"city":"Dhanbad","state":"Jharkhand","latitude":23.7957,"longitude":86.4304,"temp":27.9,"humidity":82,"rain":0.0,"pressure":977.6,"uv_index":8.45,"wind_gusts":37.1,"aqi":170,"pm10":99.0,"pm2_5":81.3,"no2":40.6,"co":377.0,"o3":65.0,"so2":112.7,"mosquito_risk":7,"arthritis_risk":5,"migraine_risk":7,"frizz_risk":1,"updated_at":"2026-06-19T07:14:30.480090+05:30"},{"city":"Bokaro","state":"Jharkhand","latitude":23.6693,"longitude":86.1511,"temp":29.6,"humidity":70,"rain":0.0,"pressure":981.6,"uv_index":7.35,"wind_gusts":38.5,"aqi":165,"pm10":94.1,"pm2_5":76.6,"no2":37.2,"co":308.0,"o3":60.0,"so2":95.0,"mosquito_risk":7,"arthritis_risk":5,"migraine_risk":7,"frizz_risk":1,"updated_at":"2026-06-19T07:14:30.480098+05:30"},{"city":"Bhubaneswar","state":"Odisha","latitude":20.2961,"longitude":85.8245,"temp":29.8,"humidity":83,"rain":0.0,"pressure":999.9,"uv_index":8.2,"wind_gusts":42.8,"aqi":122,"pm10":38.8,"pm2_5":32.1,"no2":6.8,"co":364.0,"o3":102.0,"so2":9.7,"mosquito_risk":7,"arthritis_risk":5,"migraine_risk":7,"frizz_risk":1,"updated_at":"2026-06-19T07:14:30.480105+05:30"},{"city":"Cuttack","state":"Odisha","latitude":20.4625,"longitude":85.8828,"temp":29.9,"humidity":84,"rain":0.0,"pressure":1001.7,"uv_index":7.4,"wind_gusts":44.3,"aqi":122,"pm10":38.8,"pm2_5":32.1,"no2":6.8,"co":347.0,"o3":102.0,"so2":9.7,"mosquito_risk":7,"arthritis_risk":5,"migraine_risk":4,"frizz_risk":1,"updated_at":"2026-06-19T07:14:30.480112+05:30"},{"city":"Rourkela","state":"Odisha","latitude":22.2604,"longitude":84.8536,"temp":29.6,"humidity":75,"rain":0.0,"pressure":982.5,"uv_index":9.0,"wind_gusts":37.1,"aqi":153,"pm10":94.3,"pm2_5":76.6,"no2":21.3,"co":438.0,"o3":89.0,"so2":8.3,"mosquito_risk":7,"arthritis_risk":5,"migraine_risk":7,"frizz_risk":1,"updated_at":"2026-06-19T07:14:30.480119+05:30"},{"city":"Raipur","state":"Chhattisgarh","latitude":21.2514,"longitude":81.6296,"temp":29.6,"humidity":65,"rain":0.0,"pressure":973.1,"uv_index":8.3,"wind_gusts":46.4,"aqi":112,"pm10":74.7,"pm2_5":68.7,"no2":65.9,"co":812.0,"o3":19.0,"so2":108.3,"mosquito_risk":7,"arthritis_risk":5,"migraine_risk":7,"frizz_risk":1,"updated_at":"2026-06-19T07:14:30.480126+05:30"},{"city":"Bhilai","state":"Chhattisgarh","latitude":21.1938,"longitude":81.3509,"temp":28.3,"humidity":72,"rain":0.0,"pressure":973.4,"uv_index":8.3,"wind_gusts":45.0,"aqi":109,"pm10":73.6,"pm2_5":68.0,"no2":55.1,"co":1148.0,"o3":25.0,"so2":99.8,"mosquito_risk":7,"arthritis_risk":5,"migraine_risk":7,"frizz_risk":1,"updated_at":"2026-06-19T07:14:30.480132+05:30"},{"city":"Guwahati","state":"Assam","latitude":26.1158,"longitude":91.7086,"temp":26.2,"humidity":92,"rain":0.0,"pressure":1000.3,"uv_index":8.8,"wind_gusts":35.3,"aqi":95,"pm10":37.6,"pm2_5":31.8,"no2":7.2,"co":296.0,"o3":75.0,"so2":3.6,"mosquito_risk":7,"arthritis_risk":5,"migraine_risk":4,"frizz_risk":1,"updated_at":"2026-06-19T07:14:30.480138+05:30"},{"city":"Agartala","state":"Tripura","latitude":23.8315,"longitude":91.2868,"temp":27.1,"humidity":86,"rain":0.0,"pressure":1005.0,"uv_index":8.55,"wind_gusts":31.0,"aqi":86,"pm10":28.1,"pm2_5":23.4,"no2":11.7,"co":195.0,"o3":57.0,"so2":3.2,"mosquito_risk":7,"arthritis_risk":5,"migraine_risk":4,"frizz_risk":1,"updated_at":"2026-06-19T07:14:30.480145+05:30"},{"city":"Shillong","state":"Meghalaya","latitude":25.5788,"longitude":91.8933,"temp":21.2,"humidity":84,"rain":0.0,"pressure":857.3,"uv_index":8.3,"wind_gusts":24.5,"aqi":66,"pm10":7.5,"pm2_5":5.7,"no2":3.9,"co":235.0,"o3":85.0,"so2":3.3,"mosquito_risk":3,"arthritis_risk":5,"migraine_risk":7,"frizz_risk":1,"updated_at":"2026-06-19T07:14:30.480152+05:30"},{"city":"Imphal","state":"Manipur","latitude":24.817,"longitude":93.9368,"temp":24.3,"humidity":85,"rain":0.0,"pressure":922.4,"uv_index":8.65,"wind_gusts":29.9,"aqi":72,"pm10":13.5,"pm2_5":10.4,"no2":5.2,"co":318.0,"o3":66.0,"so2":2.5,"mosquito_risk":3,"arthritis_risk":5,"migraine_risk":7,"frizz_risk":1,"updated_at":"2026-06-19T07:14:30.480159+05:30"},{"city":"Aizawl","state":"Mizoram","latitude":23.7271,"longitude":92.7176,"temp":21.6,"humidity":84,"rain":0.1,"pressure":892.1,"uv_index":8.45,"wind_gusts":26.6,"aqi":56,"pm10":13.0,"pm2_5":11.2,"no2":3.3,"co":179.0,"o3":47.0,"so2":0.6,"mosquito_risk":6,"arthritis_risk":5,"migraine_risk":7,"frizz_risk":1,"updated_at":"2026-06-19T07:14:30.480165+05:30"},{"city":"Kohima","state":"Nagaland","latitude":25.6701,"longitude":94.1077,"temp":21.3,"humidity":91,"rain":0.0,"pressure":855.3,"uv_index":7.85,"wind_gusts":21.6,"aqi":64,"pm10":16.8,"pm2_5":11.8,"no2":2.3,"co":263.0,"o3":83.0,"so2":2.0,"mosquito_risk":3,"arthritis_risk":5,"migraine_risk":7,"frizz_risk":1,"updated_at":"2026-06-19T07:14:30.480172+05:30"},{"city":"Gangtok","state":"Sikkim","latitude":27.3314,"longitude":88.6138,"temp":18.1,"humidity":97,"rain":0.7,"pressure":836.5,"uv_index":8.1,"wind_gusts":33.8,"aqi":49,"pm10":12.5,"pm2_5":10.4,"no2":4.9,"co":459.0,"o3":111.0,"so2":3.1,"mosquito_risk":6,"arthritis_risk":10,"migraine_risk":7,"frizz_risk":1,"updated_at":"2026-06-19T07:14:30.480178+05:30"},{"city":"Siliguri","state":"West Bengal","latitude":26.7271,"longitude":88.3953,"temp":24.3,"humidity":98,"rain":0.5,"pressure":991.6,"uv_index":6.95,"wind_gusts":25.6,"aqi":95,"pm10":28.8,"pm2_5":24.2,"no2":7.6,"co":428.0,"o3":124.0,"so2":4.5,"mosquito_risk":6,"arthritis_risk":5,"migraine_risk":7,"frizz_risk":1,"updated_at":"2026-06-19T07:14:33.792186+05:30"},{"city":"Durgapur","state":"West Bengal","latitude":23.5204,"longitude":87.3119,"temp":26.3,"humidity":97,"rain":0.1,"pressure":992.7,"uv_index":9.05,"wind_gusts":28.4,"aqi":176,"pm10":107.6,"pm2_5":98.3,"no2":42.7,"co":833.0,"o3":48.0,"so2":67.9,"mosquito_risk":10,"arthritis_risk":5,"migraine_risk":7,"frizz_risk":1,"updated_at":"2026-06-19T07:14:33.792223+05:30"},{"city":"Asansol","state":"West Bengal","latitude":23.6739,"longitude":86.9524,"temp":27.4,"humidity":89,"rain":0.0,"pressure":991.5,"uv_index":8.9,"wind_gusts":31.3,"aqi":170,"pm10":92.9,"pm2_5":79.2,"no2":40.5,"co":578.0,"o3":58.0,"so2":73.6,"mosquito_risk":7,"arthritis_risk":5,"migraine_risk":7,"frizz_risk":1,"updated_at":"2026-06-19T07:14:33.792235+05:30"},{"city":"Pondicherry","state":"Puducherry","latitude":11.9139,"longitude":79.8145,"temp":27.7,"humidity":86,"rain":0.0,"pressure":1007.7,"uv_index":7.85,"wind_gusts":44.3,"aqi":75,"pm10":27.5,"pm2_5":22.9,"no2":15.8,"co":362.0,"o3":62.0,"so2":12.4,"mosquito_risk":7,"arthritis_risk":5,"migraine_risk":4,"frizz_risk":1,"updated_at":"2026-06-19T07:14:33.792245+05:30"},{"city":"Port Blair","state":"Andaman and Nicobar Islands","latitude":11.6234,"longitude":92.7265,"temp":27.2,"humidity":90,"rain":0.0,"pressure":1008.7,"uv_index":7.85,"wind_gusts":36.0,"aqi":23,"pm10":17.1,"pm2_5":7.7,"no2":0.3,"co":101.0,"o3":49.0,"so2":0.3,"mosquito_risk":7,"arthritis_risk":0,"migraine_risk":4,"frizz_risk":1,"updated_at":"2026-06-19T07:14:33.792253+05:30"},{"city":"Haridwar","state":"Uttarakhand","latitude":29.9457,"longitude":78.1642,"temp":27.4,"humidity":84,"rain":0.0,"pressure":970.4,"uv_index":7.65,"wind_gusts":23.4,"aqi":141,"pm10":87.8,"pm2_5":67.8,"no2":31.5,"co":302.0,"o3":63.0,"so2":7.0,"mosquito_risk":7,"arthritis_risk":5,"migraine_risk":7,"frizz_risk":1,"updated_at":"2026-06-19T07:14:33.792261+05:30"},{"city":"Rishikesh","state":"Uttarakhand","latitude":30.0869,"longitude":78.2676,"temp":26.6,"humidity":77,"rain":0.0,"pressure":963.4,"uv_index":7.75,"wind_gusts":22.7,"aqi":114,"pm10":70.8,"pm2_5":40.6,"no2":9.2,"co":339.0,"o3":105.0,"so2":3.6,"mosquito_risk":7,"arthritis_risk":5,"migraine_risk":7,"frizz_risk":1,"updated_at":"2026-06-19T07:14:33.792269+05:30"},{"city":"Nainital","state":"Uttarakhand","latitude":29.3919,"longitude":79.4542,"temp":17.0,"humidity":89,"rain":0.0,"pressure":804.7,"uv_index":7.85,"wind_gusts":28.8,"aqi":115,"pm10":72.4,"pm2_5":49.1,"no2":23.7,"co":272.0,"o3":64.0,"so2":4.1,"mosquito_risk":3,"arthritis_risk":10,"migraine_risk":7,"frizz_risk":0,"updated_at":"2026-06-19T07:14:33.792277+05:30"},{"city":"Mussoorie","state":"Uttarakhand","latitude":30.4599,"longitude":78.0664,"temp":16.8,"humidity":88,"rain":0.0,"pressure":801.9,"uv_index":7.6,"wind_gusts":37.4,"aqi":108,"pm10":48.8,"pm2_5":36.1,"no2":28.9,"co":226.0,"o3":56.0,"so2":4.0,"mosquito_risk":3,"arthritis_risk":10,"migraine_risk":7,"frizz_risk":0,"updated_at":"2026-06-19T07:14:33.792284+05:30"},{"city":"Dharamshala","state":"Himachal Pradesh","latitude":32.219,"longitude":76.3234,"temp":22.2,"humidity":74,"rain":0.0,"pressure":867.6,"uv_index":7.6,"wind_gusts":44.3,"aqi":49,"pm10":4.6,"pm2_5":3.0,"no2":4.0,"co":267.0,"o3":99.0,"so2":0.2,"mosquito_risk":3,"arthritis_risk":5,"migraine_risk":7,"frizz_risk":1,"updated_at":"2026-06-19T07:14:33.792291+05:30"},{"city":"Dalhousie","state":"Himachal Pradesh","latitude":32.5387,"longitude":75.971,"temp":15.5,"humidity":93,"rain":0.0,"pressure":802.4,"uv_index":8.6,"wind_gusts":33.8,"aqi":78,"pm10":12.0,"pm2_5":9.2,"no2":10.0,"co":277.0,"o3":76.0,"so2":0.6,"mosquito_risk":3,"arthritis_risk":10,"migraine_risk":7,"frizz_risk":0,"updated_at":"2026-06-19T07:14:33.792299+05:30"},{"city":"Patiala","state":"Punjab","latitude":30.3398,"longitude":76.3869,"temp":28.4,"humidity":63,"rain":0.0,"pressure":975.1,"uv_index":7.7,"wind_gusts":28.4,"aqi":159,"pm10":127.6,"pm2_5":106.6,"no2":29.5,"co":674.0,"o3":68.0,"so2":11.6,"mosquito_risk":7,"arthritis_risk":5,"migraine_risk":7,"frizz_risk":1,"updated_at":"2026-06-19T07:14:33.792307+05:30"},{"city":"Bhatinda","state":"Punjab","latitude":30.211,"longitude":74.9455,"temp":29.3,"humidity":61,"rain":0.0,"pressure":980.9,"uv_index":8.3,"wind_gusts":34.9,"aqi":148,"pm10":82.2,"pm2_5":69.2,"no2":43.1,"co":514.0,"o3":41.0,"so2":8.6,"mosquito_risk":7,"arthritis_risk":5,"migraine_risk":7,"frizz_risk":1,"updated_at":"2026-06-19T07:14:33.792314+05:30"},{"city":"Rohtak","state":"Haryana","latitude":28.8955,"longitude":76.6066,"temp":27.9,"humidity":67,"rain":0.0,"pressure":978.8,"uv_index":7.8,"wind_gusts":30.2,"aqi":233,"pm10":361.4,"pm2_5":128.1,"no2":53.4,"co":357.0,"o3":31.0,"so2":19.0,"mosquito_risk":7,"arthritis_risk":5,"migraine_risk":7,"frizz_risk":1,"updated_at":"2026-06-19T07:14:33.792320+05:30"},{"city":"Panipat","state":"Haryana","latitude":29.3909,"longitude":76.9635,"temp":27.8,"humidity":63,"rain":0.0,"pressure":977.1,"uv_index":7.65,"wind_gusts":27.7,"aqi":525,"pm10":366.9,"pm2_5":141.1,"no2":50.3,"co":509.0,"o3":31.0,"so2":10.3,"mosquito_risk":7,"arthritis_risk":5,"migraine_risk":7,"frizz_risk":1,"updated_at":"2026-06-19T07:14:33.792326+05:30"},{"city":"Mathura","state":"Uttar Pradesh","latitude":27.4924,"longitude":77.6737,"temp":29.2,"humidity":61,"rain":0.0,"pressure":983.7,"uv_index":8.1,"wind_gusts":28.1,"aqi":162,"pm10":136.4,"pm2_5":62.4,"no2":43.3,"co":271.0,"o3":15.0,"so2":8.0,"mosquito_risk":7,"arthritis_risk":5,"migraine_risk":7,"frizz_risk":1,"updated_at":"2026-06-19T07:14:33.792333+05:30"},{"city":"Vrindavan","state":"Uttar Pradesh","latitude":27.5823,"longitude":77.7027,"temp":29.4,"humidity":59,"rain":0.0,"pressure":984.2,"uv_index":8.1,"wind_gusts":27.7,"aqi":162,"pm10":136.4,"pm2_5":62.4,"no2":43.3,"co":278.0,"o3":15.0,"so2":8.0,"mosquito_risk":4,"arthritis_risk":5,"migraine_risk":7,"frizz_risk":1,"updated_at":"2026-06-19T07:14:33.792339+05:30"},{"city":"Ayodhya","state":"Uttar Pradesh","latitude":26.7922,"longitude":82.1998,"temp":30.8,"humidity":65,"rain":0.0,"pressure":990.9,"uv_index":8.45,"wind_gusts":31.0,"aqi":158,"pm10":141.6,"pm2_5":88.7,"no2":46.5,"co":557.0,"o3":48.0,"so2":14.1,"mosquito_risk":3,"arthritis_risk":5,"migraine_risk":7,"frizz_risk":1,"updated_at":"2026-06-19T07:14:33.792346+05:30"},{"city":"Ratlam","state":"Madhya Pradesh","latitude":23.3315,"longitude":75.0367,"temp":25.1,"humidity":83,"rain":0.0,"pressure":953.7,"uv_index":7.5,"wind_gusts":43.6,"aqi":63,"pm10":27.1,"pm2_5":15.3,"no2":6.7,"co":144.0,"o3":47.0,"so2":9.5,"mosquito_risk":7,"arthritis_risk":5,"migraine_risk":7,"frizz_risk":1,"updated_at":"2026-06-19T07:14:33.792353+05:30"},{"city":"Sagar","state":"Madhya Pradesh","latitude":23.8388,"longitude":78.7378,"temp":27.7,"humidity":65,"rain":0.0,"pressure":948.7,"uv_index":8.75,"wind_gusts":31.7,"aqi":61,"pm10":18.1,"pm2_5":13.2,"no2":6.1,"co":191.0,"o3":70.0,"so2":2.4,"mosquito_risk":7,"arthritis_risk":5,"migraine_risk":7,"frizz_risk":1,"updated_at":"2026-06-19T07:14:33.792359+05:30"},{"city":"Satna","state":"Madhya Pradesh","latitude":24.6005,"longitude":80.8322,"temp":30.4,"humidity":58,"rain":0.0,"pressure":968.5,"uv_index":8.3,"wind_gusts":37.4,"aqi":77,"pm10":27.5,"pm2_5":19.8,"no2":8.2,"co":194.0,"o3":69.0,"so2":4.0,"mosquito_risk":0,"arthritis_risk":5,"migraine_risk":7,"frizz_risk":1,"updated_at":"2026-06-19T07:14:33.792365+05:30"},{"city":"Akola","state":"Maharashtra","latitude":20.7002,"longitude":77.0082,"temp":29.2,"humidity":56,"rain":0.0,"pressure":974.6,"uv_index":8.8,"wind_gusts":40.7,"aqi":58,"pm10":24.4,"pm2_5":15.1,"no2":7.4,"co":124.0,"o3":58.0,"so2":10.3,"mosquito_risk":4,"arthritis_risk":5,"migraine_risk":7,"frizz_risk":1,"updated_at":"2026-06-19T07:14:33.792372+05:30"},{"city":"Amravati","state":"Maharashtra","latitude":20.9374,"longitude":77.7796,"temp":29.0,"humidity":55,"rain":0.0,"pressure":966.5,"uv_index":8.7,"wind_gusts":37.1,"aqi":60,"pm10":23.9,"pm2_5":16.5,"no2":7.9,"co":166.0,"o3":66.0,"so2":10.6,"mosquito_risk":4,"arthritis_risk":5,"migraine_risk":7,"frizz_risk":1,"updated_at":"2026-06-19T07:14:33.792380+05:30"},{"city":"Latur","state":"Maharashtra","latitude":18.4088,"longitude":76.5604,"temp":27.0,"humidity":55,"rain":0.0,"pressure":939.5,"uv_index":8.95,"wind_gusts":27.0,"aqi":62,"pm10":19.8,"pm2_5":15.1,"no2":6.0,"co":148.0,"o3":68.0,"so2":9.2,"mosquito_risk":4,"arthritis_risk":5,"migraine_risk":7,"frizz_risk":1,"updated_at":"2026-06-19T07:14:33.792387+05:30"},{"city":"Nanded","state":"Maharashtra","latitude":19.1383,"longitude":77.3091,"temp":30.8,"humidity":47,"rain":0.0,"pressure":968.0,"uv_index":8.9,"wind_gusts":34.2,"aqi":58,"pm10":19.7,"pm2_5":14.1,"no2":7.0,"co":151.0,"o3":53.0,"so2":5.3,"mosquito_risk":0,"arthritis_risk":5,"migraine_risk":7,"frizz_risk":1,"updated_at":"2026-06-19T07:14:33.792394+05:30"},{"city":"Gulbarga","state":"Karnataka","latitude":17.3297,"longitude":76.8343,"temp":27.5,"humidity":53,"rain":0.0,"pressure":958.7,"uv_index":8.95,"wind_gusts":35.3,"aqi":56,"pm10":16.1,"pm2_5":12.1,"no2":6.0,"co":143.0,"o3":47.0,"so2":4.0,"mosquito_risk":4,"arthritis_risk":5,"migraine_risk":7,"frizz_risk":1,"updated_at":"2026-06-19T07:14:33.792401+05:30"},{"city":"Bidar","state":"Karnataka","latitude":17.9104,"longitude":77.5199,"temp":27.5,"humidity":56,"rain":0.0,"pressure":935.1,"uv_index":8.9,"wind_gusts":31.3,"aqi":66,"pm10":19.5,"pm2_5":16.1,"no2":10.2,"co":168.0,"o3":65.0,"so2":7.3,"mosquito_risk":4,"arthritis_risk":5,"migraine_risk":7,"frizz_risk":1,"updated_at":"2026-06-19T07:14:33.792408+05:30"},{"city":"Hospet","state":"Karnataka","latitude":15.2689,"longitude":76.3909,"temp":25.3,"humidity":77,"rain":0.0,"pressure":956.4,"uv_index":8.9,"wind_gusts":38.5,"aqi":51,"pm10":20.4,"pm2_5":11.3,"no2":3.8,"co":130.0,"o3":46.0,"so2":2.1,"mosquito_risk":7,"arthritis_risk":5,"migraine_risk":7,"frizz_risk":1,"updated_at":"2026-06-19T07:14:33.792414+05:30"},{"city":"Tirupur","state":"Tamil Nadu","latitude":11.1085,"longitude":77.3411,"temp":24.7,"humidity":89,"rain":0.0,"pressure":975.8,"uv_index":7.6,"wind_gusts":29.9,"aqi":50,"pm10":12.0,"pm2_5":10.2,"no2":13.2,"co":190.0,"o3":42.0,"so2":4.5,"mosquito_risk":3,"arthritis_risk":5,"migraine_risk":7,"frizz_risk":1,"updated_at":"2026-06-19T07:14:33.792420+05:30"},{"city":"Alappuzha","state":"Kerala","latitude":9.4981,"longitude":76.3388,"temp":25.7,"humidity":94,"rain":0.1,"pressure":1009.9,"uv_index":6.5,"wind_gusts":29.5,"aqi":56,"pm10":17.6,"pm2_5":11.6,"no2":10.5,"co":165.0,"o3":37.0,"so2":3.7,"mosquito_risk":10,"arthritis_risk":0,"migraine_risk":4,"frizz_risk":1,"updated_at":"2026-06-19T07:14:33.792427+05:30"},{"city":"Munnar","state":"Kerala","latitude":10.0889,"longitude":77.0595,"temp":16.7,"humidity":99,"rain":0.1,"pressure":856.6,"uv_index":4.65,"wind_gusts":22.3,"aqi":23,"pm10":2.2,"pm2_5":2.2,"no2":6.4,"co":118.0,"o3":28.0,"so2":1.2,"mosquito_risk":6,"arthritis_risk":10,"migraine_risk":3,"frizz_risk":1,"updated_at":"2026-06-19T07:14:33.792434+05:30"},{"city":"Silchar","state":"Assam","latitude":24.8333,"longitude":92.7789,"temp":27.8,"humidity":86,"rain":0.0,"pressure":1004.1,"uv_index":8.1,"wind_gusts":30.2,"aqi":86,"pm10":43.1,"pm2_5":33.4,"no2":10.5,"co":257.0,"o3":68.0,"so2":5.3,"mosquito_risk":7,"arthritis_risk":5,"migraine_risk":4,"frizz_risk":1,"updated_at":"2026-06-19T07:14:33.792441+05:30"},{"city":"Dibrugarh","state":"Assam","latitude":27.4728,"longitude":94.912,"temp":26.1,"humidity":99,"rain":0.0,"pressure":994.0,"uv_index":8.65,"wind_gusts":22.3,"aqi":67,"pm10":20.4,"pm2_5":17.2,"no2":5.7,"co":276.0,"o3":103.0,"so2":2.2,"mosquito_risk":7,"arthritis_risk":5,"migraine_risk":7,"frizz_risk":1,"updated_at":"2026-06-19T07:14:33.792464+05:30"}]