[{"city":"Delhi","state":"Delhi","latitude":28.6139,"longitude":77.209,"temp":29.9,"humidity":35,"rain":0.0,"pressure":979.1,"uv_index":7.05,"wind_gusts":31.3,"aqi":141,"pm10":209.1,"pm2_5":44.4,"mosquito_risk":4,"arthritis_risk":5,"migraine_risk":7,"frizz_risk":0,"updated_at":"2026-04-29T23:43:45.826455+05:30"},{"city":"Mumbai","state":"Maharashtra","latitude":19.076,"longitude":72.8777,"temp":28.7,"humidity":81,"rain":0.0,"pressure":1008.3,"uv_index":8.05,"wind_gusts":46.1,"aqi":77,"pm10":44.4,"pm2_5":20.9,"mosquito_risk":7,"arthritis_risk":0,"migraine_risk":4,"frizz_risk":1,"updated_at":"2026-04-29T23:43:45.826497+05:30"},{"city":"Bangalore","state":"Karnataka","latitude":12.9716,"longitude":77.5946,"temp":27.2,"humidity":51,"rain":0.0,"pressure":912.5,"uv_index":9.5,"wind_gusts":37.4,"aqi":98,"pm10":54.5,"pm2_5":48.1,"mosquito_risk":4,"arthritis_risk":5,"migraine_risk":7,"frizz_risk":1,"updated_at":"2026-04-29T23:43:45.826512+05:30"},{"city":"Hyderabad","state":"Telangana","latitude":17.385,"longitude":78.4867,"temp":31.5,"humidity":37,"rain":0.0,"pressure":952.7,"uv_index":9.3,"wind_gusts":27.4,"aqi":121,"pm10":56.0,"pm2_5":48.0,"mosquito_risk":0,"arthritis_risk":5,"migraine_risk":7,"frizz_risk":0,"updated_at":"2026-04-29T23:43:45.826522+05:30"},{"city":"Chennai","state":"Tamil Nadu","latitude":13.0827,"longitude":80.2707,"temp":29.8,"humidity":83,"rain":0.0,"pressure":1007.0,"uv_index":9.25,"wind_gusts":55.8,"aqi":56,"pm10":18.8,"pm2_5":14.5,"mosquito_risk":7,"arthritis_risk":5,"migraine_risk":4,"frizz_risk":1,"updated_at":"2026-04-29T23:43:45.826531+05:30"},{"city":"Kolkata","state":"West Bengal","latitude":22.5726,"longitude":88.3639,"temp":25.4,"humidity":90,"rain":0.0,"pressure":1004.7,"uv_index":8.85,"wind_gusts":50.4,"aqi":66,"pm10":15.7,"pm2_5":12.3,"mosquito_risk":7,"arthritis_risk":5,"migraine_risk":4,"frizz_risk":1,"updated_at":"2026-04-29T23:43:45.826541+05:30"},{"city":"Pune","state":"Maharashtra","latitude":18.5204,"longitude":73.8567,"temp":26.4,"humidity":59,"rain":0.0,"pressure":948.0,"uv_index":8.6,"wind_gusts":43.6,"aqi":66,"pm10":29.7,"pm2_5":17.4,"mosquito_risk":4,"arthritis_risk":5,"migraine_risk":7,"frizz_risk":1,"updated_at":"2026-04-29T23:43:45.826559+05:30"},{"city":"Ahmedabad","state":"Gujarat","latitude":23.0225,"longitude":72.5714,"temp":31.2,"humidity":63,"rain":0.0,"pressure":998.9,"uv_index":8.2,"wind_gusts":52.9,"aqi":52,"pm10":49.7,"pm2_5":16.9,"mosquito_risk":3,"arthritis_risk":5,"migraine_risk":7,"frizz_risk":1,"updated_at":"2026-04-29T23:43:45.826567+05:30"},{"city":"Jaipur","state":"Rajasthan","latitude":26.9124,"longitude":75.7873,"temp":31.6,"humidity":21,"rain":0.0,"pressure":956.5,"uv_index":8.05,"wind_gusts":48.2,"aqi":162,"pm10":374.4,"pm2_5":52.4,"mosquito_risk":0,"arthritis_risk":5,"migraine_risk":7,"frizz_risk":0,"updated_at":"2026-04-29T23:43:45.826574+05:30"},{"city":"Lucknow","state":"Uttar Pradesh","latitude":26.8467,"longitude":80.9462,"temp":28.0,"humidity":60,"rain":0.0,"pressure":990.8,"uv_index":7.9,"wind_gusts":40.0,"aqi":143,"pm10":62.6,"pm2_5":52.0,"mosquito_risk":4,"arthritis_risk":5,"migraine_risk":7,"frizz_risk":1,"updated_at":"2026-04-29T23:43:45.826582+05:30"},{"city":"Kanpur","state":"Uttar Pradesh","latitude":26.4499,"longitude":80.3319,"temp":30.1,"humidity":43,"rain":0.0,"pressure":988.5,"uv_index":7.9,"wind_gusts":43.2,"aqi":158,"pm10":170.0,"pm2_5":57.4,"mosquito_risk":0,"arthritis_risk":5,"migraine_risk":7,"frizz_risk":1,"updated_at":"2026-04-29T23:43:45.826589+05:30"},{"city":"Chandigarh","state":"Chandigarh","latitude":30.7333,"longitude":76.7794,"temp":21.9,"humidity":70,"rain":0.0,"pressure":964.8,"uv_index":7.4,"wind_gusts":34.6,"aqi":66,"pm10":30.3,"pm2_5":26.3,"mosquito_risk":3,"arthritis_risk":5,"migraine_risk":7,"frizz_risk":1,"updated_at":"2026-04-29T23:43:45.826596+05:30"},{"city":"Srinagar","state":"Jammu and Kashmir","latitude":34.0837,"longitude":74.7973,"temp":10.6,"humidity":96,"rain":0.0,"pressure":838.9,"uv_index":5.8,"wind_gusts":21.6,"aqi":97,"pm10":48.9,"pm2_5":45.4,"mosquito_risk":3,"arthritis_risk":10,"migraine_risk":3,"frizz_risk":0,"updated_at":"2026-04-29T23:43:45.826604+05:30"},{"city":"Jammu","state":"Jammu and Kashmir","latitude":32.7266,"longitude":74.857,"temp":19.2,"humidity":71,"rain":0.0,"pressure":969.3,"uv_index":7.0,"wind_gusts":51.5,"aqi":68,"pm10":43.4,"pm2_5":31.0,"mosquito_risk":3,"arthritis_risk":5,"migraine_risk":7,"frizz_risk":0,"updated_at":"2026-04-29T23:43:45.826612+05:30"},{"city":"Amritsar","state":"Punjab","latitude":31.634,"longitude":74.8723,"temp":22.9,"humidity":63,"rain":0.0,"pressure":977.4,"uv_index":8.1,"wind_gusts":40.7,"aqi":127,"pm10":46.0,"pm2_5":35.9,"mosquito_risk":3,"arthritis_risk":5,"migraine_risk":7,"frizz_risk":0,"updated_at":"2026-04-29T23:43:45.826619+05:30"},{"city":"Ludhiana","state":"Punjab","latitude":30.901,"longitude":75.8573,"temp":24.6,"humidity":66,"rain":0.0,"pressure":975.1,"uv_index":7.7,"wind_gusts":28.8,"aqi":93,"pm10":94.5,"pm2_5":58.7,"mosquito_risk":3,"arthritis_risk":5,"migraine_risk":7,"frizz_risk":1,"updated_at":"2026-04-29T23:43:45.826626+05:30"},{"city":"Jalandhar","state":"Punjab","latitude":31.326,"longitude":75.5762,"temp":23.3,"humidity":67,"rain":0.0,"pressure":976.2,"uv_index":7.9,"wind_gusts":33.8,"aqi":90,"pm10":64.5,"pm2_5":55.9,"mosquito_risk":3,"arthritis_risk":5,"migraine_risk":7,"frizz_risk":1,"updated_at":"2026-04-29T23:43:45.826635+05:30"},{"city":"Dehradun","state":"Uttarakhand","latitude":30.6284,"longitude":78.0322,"temp":12.5,"humidity":78,"rain":0.0,"pressure":826.3,"uv_index":6.15,"wind_gusts":40.7,"aqi":54,"pm10":19.2,"pm2_5":11.7,"mosquito_risk":3,"arthritis_risk":5,"migraine_risk":7,"frizz_risk":0,"updated_at":"2026-04-29T23:43:45.826643+05:30"},{"city":"Shimla","state":"Himachal Pradesh","latitude":31.1048,"longitude":77.1734,"temp":9.3,"humidity":76,"rain":0.0,"pressure":779.2,"uv_index":7.9,"wind_gusts":40.7,"aqi":52,"pm10":22.9,"pm2_5":13.9,"mosquito_risk":3,"arthritis_risk":5,"migraine_risk":7,"frizz_risk":0,"updated_at":"2026-04-29T23:43:45.826650+05:30"},{"city":"Manali","state":"Himachal Pradesh","latitude":32.2396,"longitude":77.1887,"temp":9.8,"humidity":82,"rain":0.0,"pressure":814.3,"uv_index":6.9,"wind_gusts":38.9,"aqi":72,"pm10":7.7,"pm2_5":5.4,"mosquito_risk":3,"arthritis_risk":10,"migraine_risk":7,"frizz_risk":0,"updated_at":"2026-04-29T23:43:45.826657+05:30"},{"city":"Gurgaon","state":"Haryana","latitude":28.4595,"longitude":77.0266,"temp":29.1,"humidity":36,"rain":0.0,"pressure":977.5,"uv_index":7.4,"wind_gusts":30.2,"aqi":628,"pm10":1743.4,"pm2_5":192.3,"mosquito_risk":4,"arthritis_risk":5,"migraine_risk":7,"frizz_risk":0,"updated_at":"2026-04-29T23:43:45.826663+05:30"},{"city":"Noida","state":"Uttar Pradesh","latitude":28.5355,"longitude":77.391,"temp":26.0,"humidity":48,"rain":0.0,"pressure":980.3,"uv_index":6.95,"wind_gusts":33.8,"aqi":628,"pm10":1743.4,"pm2_5":192.3,"mosquito_risk":4,"arthritis_risk":5,"migraine_risk":7,"frizz_risk":0,"updated_at":"2026-04-29T23:43:45.826670+05:30"},{"city":"Ghaziabad","state":"Uttar Pradesh","latitude":28.6692,"longitude":77.4538,"temp":26.9,"humidity":44,"rain":0.0,"pressure":978.7,"uv_index":6.85,"wind_gusts":31.3,"aqi":132,"pm10":179.7,"pm2_5":41.1,"mosquito_risk":4,"arthritis_risk":5,"migraine_risk":7,"frizz_risk":0,"updated_at":"2026-04-29T23:43:45.826677+05:30"},{"city":"Faridabad","state":"Haryana","latitude":28.4089,"longitude":77.3178,"temp":28.8,"humidity":38,"rain":0.0,"pressure":979.8,"uv_index":6.95,"wind_gusts":35.3,"aqi":628,"pm10":1743.4,"pm2_5":192.3,"mosquito_risk":4,"arthritis_risk":5,"migraine_risk":7,"frizz_risk":0,"updated_at":"2026-04-29T23:43:45.826683+05:30"},{"city":"Meerut","state":"Uttar Pradesh","latitude":28.9845,"longitude":77.7064,"temp":27.0,"humidity":42,"rain":0.0,"pressure":977.8,"uv_index":6.45,"wind_gusts":29.5,"aqi":132,"pm10":179.7,"pm2_5":41.1,"mosquito_risk":4,"arthritis_risk":5,"migraine_risk":7,"frizz_risk":0,"updated_at":"2026-04-29T23:43:45.826690+05:30"},{"city":"Agra","state":"Uttar Pradesh","latitude":27.1767,"longitude":78.0081,"temp":30.4,"humidity":37,"rain":0.0,"pressure":983.7,"uv_index":7.5,"wind_gusts":47.2,"aqi":876,"pm10":1613.1,"pm2_5":182.5,"mosquito_risk":0,"arthritis_risk":5,"migraine_risk":7,"frizz_risk":0,"updated_at":"2026-04-29T23:43:45.826697+05:30"},{"city":"Varanasi","state":"Uttar Pradesh","latitude":25.3176,"longitude":82.9739,"temp":27.6,"humidity":66,"rain":0.0,"pressure":996.6,"uv_index":8.45,"wind_gusts":52.2,"aqi":131,"pm10":39.1,"pm2_5":30.5,"mosquito_risk":7,"arthritis_risk":5,"migraine_risk":7,"frizz_risk":1,"updated_at":"2026-04-29T23:43:45.826707+05:30"},{"city":"Prayagraj","state":"Uttar Pradesh","latitude":25.4358,"longitude":81.8463,"temp":28.7,"humidity":59,"rain":0.0,"pressure":993.5,"uv_index":8.35,"wind_gusts":58.3,"aqi":122,"pm10":46.7,"pm2_5":37.1,"mosquito_risk":4,"arthritis_risk":5,"migraine_risk":7,"frizz_risk":1,"updated_at":"2026-04-29T23:43:45.826715+05:30"},{"city":"Gorakhpur","state":"Uttar Pradesh","latitude":26.7606,"longitude":83.3732,"temp":24.5,"humidity":85,"rain":0.0,"pressure":997.3,"uv_index":8.25,"wind_gusts":38.9,"aqi":113,"pm10":55.4,"pm2_5":35.5,"mosquito_risk":3,"arthritis_risk":5,"migraine_risk":7,"frizz_risk":1,"updated_at":"2026-04-29T23:43:45.826722+05:30"},{"city":"Bareilly","state":"Uttar Pradesh","latitude":28.367,"longitude":79.4304,"temp":26.9,"humidity":53,"rain":0.0,"pressure":983.9,"uv_index":7.45,"wind_gusts":30.6,"aqi":101,"pm10":70.1,"pm2_5":39.2,"mosquito_risk":4,"arthritis_risk":5,"migraine_risk":7,"frizz_risk":1,"updated_at":"2026-04-29T23:43:45.826728+05:30"},{"city":"Aligarh","state":"Uttar Pradesh","latitude":27.8974,"longitude":78.088,"temp":27.9,"humidity":43,"rain":0.0,"pressure":981.8,"uv_index":5.25,"wind_gusts":28.8,"aqi":458,"pm10":819.6,"pm2_5":102.7,"mosquito_risk":4,"arthritis_risk":5,"migraine_risk":3,"frizz_risk":0,"updated_at":"2026-04-29T23:43:45.826734+05:30"},{"city":"Moradabad","state":"Uttar Pradesh","latitude":28.8386,"longitude":78.7733,"temp":27.0,"humidity":45,"rain":0.0,"pressure":980.4,"uv_index":5.2,"wind_gusts":28.1,"aqi":126,"pm10":86.4,"pm2_5":45.5,"mosquito_risk":4,"arthritis_risk":5,"migraine_risk":3,"frizz_risk":0,"updated_at":"2026-04-29T23:43:45.826741+05:30"},{"city":"Saharanpur","state":"Uttar Pradesh","latitude":29.9637,"longitude":77.546,"temp":24.9,"humidity":59,"rain":0.0,"pressure":972.2,"uv_index":7.05,"wind_gusts":34.6,"aqi":92,"pm10":68.7,"pm2_5":38.8,"mosquito_risk":0,"arthritis_risk":5,"migraine_risk":7,"frizz_risk":1,"updated_at":"2026-04-29T23:43:45.826749+05:30"},{"city":"Jhansi","state":"Uttar Pradesh","latitude":25.4484,"longitude":78.5685,"temp":30.4,"humidity":38,"rain":0.0,"pressure":974.1,"uv_index":7.7,"wind_gusts":38.5,"aqi":58,"pm10":100.4,"pm2_5":33.3,"mosquito_risk":0,"arthritis_risk":5,"migraine_risk":7,"frizz_risk":0,"updated_at":"2026-04-29T23:43:49.075949+05:30"},{"city":"Surat","state":"Gujarat","latitude":21.1702,"longitude":72.8311,"temp":28.2,"humidity":87,"rain":0.0,"pressure":1005.1,"uv_index":7.85,"wind_gusts":46.8,"aqi":68,"pm10":27.8,"pm2_5":17.2,"mosquito_risk":7,"arthritis_risk":5,"migraine_risk":4,"frizz_risk":1,"updated_at":"2026-04-29T23:43:49.075978+05:30"},{"city":"Vadodara","state":"Gujarat","latitude":22.3072,"longitude":73.1812,"temp":29.6,"humidity":72,"rain":0.0,"pressure":1001.8,"uv_index":8.15,"wind_gusts":54.7,"aqi":59,"pm10":23.4,"pm2_5":14.5,"mosquito_risk":7,"arthritis_risk":5,"migraine_risk":4,"frizz_risk":1,"updated_at":"2026-04-29T23:43:49.075987+05:30"},{"city":"Rajkot","state":"Gujarat","latitude":22.3039,"longitude":70.8022,"temp":28.0,"humidity":74,"rain":0.0,"pressure":992.1,"uv_index":7.9,"wind_gusts":51.8,"aqi":51,"pm10":39.2,"pm2_5":13.2,"mosquito_risk":7,"arthritis_risk":5,"migraine_risk":7,"frizz_risk":1,"updated_at":"2026-04-29T23:43:49.075994+05:30"},{"city":"Thane","state":"Maharashtra","latitude":19.2183,"longitude":72.9781,"temp":28.5,"humidity":82,"rain":0.0,"pressure":1007.7,"uv_index":8.05,"wind_gusts":40.7,"aqi":77,"pm10":44.4,"pm2_5":20.9,"mosquito_risk":7,"arthritis_risk":5,"migraine_risk":4,"frizz_risk":1,"updated_at":"2026-04-29T23:43:49.076001+05:30"},{"city":"Nagpur","state":"Maharashtra","latitude":21.1458,"longitude":79.0882,"temp":34.0,"humidity":17,"rain":0.0,"pressure":970.1,"uv_index":8.85,"wind_gusts":60.1,"aqi":62,"pm10":18.3,"pm2_5":14.9,"mosquito_risk":0,"arthritis_risk":5,"migraine_risk":7,"frizz_risk":0,"updated_at":"2026-04-29T23:43:49.076008+05:30"},{"city":"Nashik","state":"Maharashtra","latitude":19.9975,"longitude":73.7898,"temp":24.9,"humidity":68,"rain":0.0,"pressure":945.1,"uv_index":8.3,"wind_gusts":45.7,"aqi":60,"pm10":35.3,"pm2_5":15.9,"mosquito_risk":3,"arthritis_risk":5,"migraine_risk":7,"frizz_risk":1,"updated_at":"2026-04-29T23:43:49.076015+05:30"},{"city":"Aurangabad","state":"Maharashtra","latitude":19.8762,"longitude":75.3433,"temp":30.1,"humidity":32,"rain":0.0,"pressure":943.4,"uv_index":9.05,"wind_gusts":55.8,"aqi":66,"pm10":21.9,"pm2_5":11.6,"mosquito_risk":0,"arthritis_risk":5,"migraine_risk":7,"frizz_risk":0,"updated_at":"2026-04-29T23:43:49.076025+05:30"},{"city":"Solapur","state":"Maharashtra","latitude":17.6599,"longitude":75.9064,"temp":33.6,"humidity":24,"rain":0.0,"pressure":955.9,"uv_index":9.1,"wind_gusts":38.5,"aqi":77,"pm10":28.5,"pm2_5":24.6,"mosquito_risk":0,"arthritis_risk":5,"migraine_risk":7,"frizz_risk":0,"updated_at":"2026-04-29T23:43:49.076032+05:30"},{"city":"Kolhapur","state":"Maharashtra","latitude":16.705,"longitude":74.2433,"temp":24.9,"humidity":74,"rain":0.0,"pressure":947.9,"uv_index":9.0,"wind_gusts":44.3,"aqi":69,"pm10":24.6,"pm2_5":15.3,"mosquito_risk":3,"arthritis_risk":5,"migraine_risk":7,"frizz_risk":1,"updated_at":"2026-04-29T23:43:49.076039+05:30"},{"city":"Goa","state":"Goa","latitude":15.2993,"longitude":74.124,"temp":29.5,"humidity":79,"rain":0.0,"pressure":998.5,"uv_index":8.75,"wind_gusts":43.2,"aqi":71,"pm10":41.0,"pm2_5":21.5,"mosquito_risk":7,"arthritis_risk":5,"migraine_risk":7,"frizz_risk":1,"updated_at":"2026-04-29T23:43:49.076046+05:30"},{"city":"Jodhpur","state":"Rajasthan","latitude":26.2389,"longitude":73.0243,"temp":31.9,"humidity":34,"rain":0.0,"pressure":978.3,"uv_index":8.25,"wind_gusts":50.4,"aqi":137,"pm10":166.7,"pm2_5":31.2,"mosquito_risk":0,"arthritis_risk":5,"migraine_risk":7,"frizz_risk":0,"updated_at":"2026-04-29T23:43:49.076052+05:30"},{"city":"Udaipur","state":"Rajasthan","latitude":24.5854,"longitude":73.7125,"temp":30.6,"humidity":28,"rain":0.0,"pressure":943.8,"uv_index":8.75,"wind_gusts":41.4,"aqi":51,"pm10":38.5,"pm2_5":15.2,"mosquito_risk":0,"arthritis_risk":5,"migraine_risk":7,"frizz_risk":0,"updated_at":"2026-04-29T23:43:49.076058+05:30"},{"city":"Kota","state":"Rajasthan","latitude":25.2138,"longitude":75.8648,"temp":32.7,"humidity":24,"rain":0.0,"pressure":975.1,"uv_index":8.3,"wind_gusts":43.6,"aqi":63,"pm10":62.9,"pm2_5":25.7,"mosquito_risk":0,"arthritis_risk":5,"migraine_risk":7,"frizz_risk":0,"updated_at":"2026-04-29T23:43:49.076065+05:30"},{"city":"Bikaner","state":"Rajasthan","latitude":28.0229,"longitude":73.3119,"temp":30.4,"humidity":28,"rain":0.0,"pressure":977.3,"uv_index":8.15,"wind_gusts":37.1,"aqi":79,"pm10":94.8,"pm2_5":27.5,"mosquito_risk":0,"arthritis_risk":5,"migraine_risk":7,"frizz_risk":0,"updated_at":"2026-04-29T23:43:49.076072+05:30"},{"city":"Ajmer","state":"Rajasthan","latitude":26.4499,"longitude":74.6399,"temp":29.9,"humidity":32,"rain":0.0,"pressure":952.0,"uv_index":8.2,"wind_gusts":51.5,"aqi":73,"pm10":108.7,"pm2_5":25.1,"mosquito_risk":4,"arthritis_risk":5,"migraine_risk":7,"frizz_risk":0,"updated_at":"2026-04-29T23:43:49.076078+05:30"},{"city":"Gwalior","state":"Madhya Pradesh","latitude":26.2183,"longitude":78.1828,"temp":31.0,"humidity":28,"rain":0.0,"pressure":979.0,"uv_index":8.05,"wind_gusts":44.3,"aqi":175,"pm10":227.2,"pm2_5":54.0,"mosquito_risk":0,"arthritis_risk":5,"migraine_risk":7,"frizz_risk":0,"updated_at":"2026-04-29T23:43:49.076085+05:30"},{"city":"Indore","state":"Madhya Pradesh","latitude":22.7196,"longitude":75.8577,"temp":30.8,"humidity":25,"rain":0.0,"pressure":946.1,"uv_index":8.65,"wind_gusts":55.4,"aqi":58,"pm10":23.3,"pm2_5":14.7,"mosquito_risk":0,"arthritis_risk":5,"migraine_risk":7,"frizz_risk":0,"updated_at":"2026-04-29T23:43:49.076091+05:30"},{"city":"Bhopal","state":"Madhya Pradesh","latitude":23.2599,"longitude":77.4126,"temp":31.8,"humidity":20,"rain":0.0,"pressure":951.0,"uv_index":8.6,"wind_gusts":53.3,"aqi":60,"pm10":20.2,"pm2_5":11.3,"mosquito_risk":0,"arthritis_risk":5,"migraine_risk":7,"frizz_risk":0,"updated_at":"2026-04-29T23:43:49.076097+05:30"},{"city":"Jabalpur","state":"Madhya Pradesh","latitude":23.1815,"longitude":79.9864,"temp":31.6,"humidity":19,"rain":0.0,"pressure":958.0,"uv_index":8.75,"wind_gusts":40.7,"aqi":46,"pm10":11.9,"pm2_5":8.4,"mosquito_risk":0,"arthritis_risk":5,"migraine_risk":7,"frizz_risk":0,"updated_at":"2026-04-29T23:43:49.076103+05:30"},{"city":"Ujjain","state":"Madhya Pradesh","latitude":23.1765,"longitude":75.7885,"temp":30.2,"humidity":25,"rain":0.0,"pressure":951.3,"uv_index":8.55,"wind_gusts":52.6,"aqi":68,"pm10":26.0,"pm2_5":17.2,"mosquito_risk":0,"arthritis_risk":5,"migraine_risk":7,"frizz_risk":0,"updated_at":"2026-04-29T23:43:49.076109+05:30"},{"city":"Visakhapatnam","state":"Andhra Pradesh","latitude":17.6868,"longitude":83.2185,"temp":28.4,"humidity":86,"rain":0.0,"pressure":1003.2,"uv_index":9.1,"wind_gusts":54.4,"aqi":59,"pm10":18.6,"pm2_5":14.6,"mosquito_risk":7,"arthritis_risk":5,"migraine_risk":4,"frizz_risk":1,"updated_at":"2026-04-29T23:43:49.076116+05:30"},{"city":"Vijayawada","state":"Andhra Pradesh","latitude":16.5062,"longitude":80.648,"temp":29.2,"humidity":82,"rain":0.0,"pressure":1002.0,"uv_index":8.75,"wind_gusts":36.0,"aqi":80,"pm10":17.9,"pm2_5":15.4,"mosquito_risk":7,"arthritis_risk":5,"migraine_risk":4,"frizz_risk":1,"updated_at":"2026-04-29T23:43:49.076122+05:30"},{"city":"Guntur","state":"Andhra Pradesh","latitude":16.3067,"longitude":80.4365,"temp":29.2,"humidity":88,"rain":0.0,"pressure":1003.2,"uv_index":8.9,"wind_gusts":37.1,"aqi":106,"pm10":17.8,"pm2_5":15.5,"mosquito_risk":7,"arthritis_risk":5,"migraine_risk":4,"frizz_risk":1,"updated_at":"2026-04-29T23:43:49.076128+05:30"},{"city":"Nellore","state":"Andhra Pradesh","latitude":14.4426,"longitude":79.9865,"temp":29.6,"humidity":79,"rain":0.0,"pressure":1005.6,"uv_index":9.25,"wind_gusts":37.4,"aqi":71,"pm10":14.6,"pm2_5":12.9,"mosquito_risk":7,"arthritis_risk":5,"migraine_risk":4,"frizz_risk":1,"updated_at":"2026-04-29T23:43:49.076135+05:30"},{"city":"Kurnool","state":"Andhra Pradesh","latitude":15.8281,"longitude":78.0373,"temp":33.0,"humidity":35,"rain":0.0,"pressure":975.9,"uv_index":8.8,"wind_gusts":28.8,"aqi":119,"pm10":54.1,"pm2_5":44.2,"mosquito_risk":0,"arthritis_risk":5,"migraine_risk":7,"frizz_risk":0,"updated_at":"2026-04-29T23:43:49.076141+05:30"},{"city":"Kakinada","state":"Andhra Pradesh","latitude":16.9891,"longitude":82.2475,"temp":29.1,"humidity":82,"rain":0.0,"pressure":1006.8,"uv_index":9.1,"wind_gusts":43.6,"aqi":53,"pm10":18.5,"pm2_5":13.7,"mosquito_risk":7,"arthritis_risk":5,"migraine_risk":4,"frizz_risk":1,"updated_at":"2026-04-29T23:43:49.076148+05:30"},{"city":"Tirupati","state":"Andhra Pradesh","latitude":13.6288,"longitude":79.4192,"temp":30.1,"humidity":68,"rain":0.0,"pressure":991.5,"uv_index":9.3,"wind_gusts":31.0,"aqi":70,"pm10":13.6,"pm2_5":13.0,"mosquito_risk":3,"arthritis_risk":5,"migraine_risk":7,"frizz_risk":1,"updated_at":"2026-04-29T23:43:49.076154+05:30"},{"city":"Warangal","state":"Telangana","latitude":17.9689,"longitude":79.5941,"temp":31.2,"humidity":45,"rain":0.0,"pressure":977.1,"uv_index":9.15,"wind_gusts":32.0,"aqi":127,"pm10":46.7,"pm2_5":43.8,"mosquito_risk":0,"arthritis_risk":5,"migraine_risk":7,"frizz_risk":1,"updated_at":"2026-04-29T23:43:49.076160+05:30"},{"city":"Nizamabad","state":"Telangana","latitude":18.6725,"longitude":78.0941,"temp":32.7,"humidity":23,"rain":0.0,"pressure":962.2,"uv_index":9.1,"wind_gusts":38.9,"aqi":93,"pm10":43.9,"pm2_5":34.7,"mosquito_risk":0,"arthritis_risk":5,"migraine_risk":7,"frizz_risk":0,"updated_at":"2026-04-29T23:43:49.076166+05:30"},{"city":"Mysore","state":"Karnataka","latitude":12.2958,"longitude":76.6396,"temp":24.6,"humidity":80,"rain":0.0,"pressure":929.2,"uv_index":9.35,"wind_gusts":43.2,"aqi":126,"pm10":36.1,"pm2_5":29.8,"mosquito_risk":3,"arthritis_risk":5,"migraine_risk":7,"frizz_risk":1,"updated_at":"2026-04-29T23:43:49.076172+05:30"},{"city":"Mangalore","state":"Karnataka","latitude":12.9141,"longitude":74.856,"temp":30.1,"humidity":71,"rain":0.0,"pressure":1007.3,"uv_index":9.1,"wind_gusts":41.4,"aqi":76,"pm10":50.2,"pm2_5":24.4,"mosquito_risk":3,"arthritis_risk":5,"migraine_risk":4,"frizz_risk":1,"updated_at":"2026-04-29T23:43:49.076179+05:30"},{"city":"Hubli-Dharwad","state":"Karnataka","latitude":15.3647,"longitude":75.124,"temp":25.1,"humidity":92,"rain":0.0,"pressure":941.5,"uv_index":9.0,"wind_gusts":54.0,"aqi":73,"pm10":27.0,"pm2_5":17.3,"mosquito_risk":7,"arthritis_risk":5,"migraine_risk":7,"frizz_risk":1,"updated_at":"2026-04-29T23:43:49.076185+05:30"},{"city":"Belgaum","state":"Karnataka","latitude":15.8497,"longitude":74.4977,"temp":24.2,"humidity":91,"rain":0.0,"pressure":926.5,"uv_index":9.2,"wind_gusts":43.6,"aqi":68,"pm10":26.6,"pm2_5":15.4,"mosquito_risk":3,"arthritis_risk":5,"migraine_risk":7,"frizz_risk":1,"updated_at":"2026-04-29T23:43:52.326064+05:30"},{"city":"Coimbatore","state":"Tamil Nadu","latitude":11.0168,"longitude":76.9558,"temp":26.0,"humidity":86,"rain":0.0,"pressure":962.1,"uv_index":9.3,"wind_gusts":52.2,"aqi":78,"pm10":25.9,"pm2_5":21.3,"mosquito_risk":7,"arthritis_risk":5,"migraine_risk":7,"frizz_risk":1,"updated_at":"2026-04-29T23:43:52.326094+05:30"},{"city":"Madurai","state":"Tamil Nadu","latitude":9.9252,"longitude":78.1198,"temp":30.4,"humidity":65,"rain":0.0,"pressure":993.8,"uv_index":8.35,"wind_gusts":47.2,"aqi":64,"pm10":14.8,"pm2_5":14.3,"mosquito_risk":3,"arthritis_risk":5,"migraine_risk":7,"frizz_risk":1,"updated_at":"2026-04-29T23:43:52.326103+05:30"},{"city":"Trichy","state":"Tamil Nadu","latitude":10.7905,"longitude":78.7047,"temp":29.6,"humidity":71,"rain":0.0,"pressure":1000.1,"uv_index":9.2,"wind_gusts":45.4,"aqi":51,"pm10":7.5,"pm2_5":7.0,"mosquito_risk":7,"arthritis_risk":5,"migraine_risk":4,"frizz_risk":1,"updated_at":"2026-04-29T23:43:52.326111+05:30"},{"city":"Salem","state":"Tamil Nadu","latitude":11.6643,"longitude":78.146,"temp":30.7,"humidity":58,"rain":0.0,"pressure":977.6,"uv_index":8.85,"wind_gusts":40.7,"aqi":85,"pm10":8.8,"pm2_5":8.5,"mosquito_risk":0,"arthritis_risk":5,"migraine_risk":7,"frizz_risk":1,"updated_at":"2026-04-29T23:43:52.326118+05:30"},{"city":"Tirunelveli","state":"Tamil Nadu","latitude":8.7139,"longitude":77.7567,"temp":28.0,"humidity":78,"rain":0.0,"pressure":1004.2,"uv_index":8.5,"wind_gusts":32.0,"aqi":52,"pm10":15.9,"pm2_5":15.1,"mosquito_risk":7,"arthritis_risk":5,"migraine_risk":4,"frizz_risk":1,"updated_at":"2026-04-29T23:43:52.326125+05:30"},{"city":"Vellore","state":"Tamil Nadu","latitude":12.9165,"longitude":79.1325,"temp":29.6,"humidity":71,"rain":0.0,"pressure":984.5,"uv_index":9.35,"wind_gusts":36.4,"aqi":74,"pm10":17.2,"pm2_5":16.5,"mosquito_risk":7,"arthritis_risk":5,"migraine_risk":7,"frizz_risk":1,"updated_at":"2026-04-29T23:43:52.326133+05:30"},{"city":"Erode","state":"Tamil Nadu","latitude":11.341,"longitude":77.7172,"temp":29.2,"humidity":70,"rain":0.0,"pressure":989.2,"uv_index":8.65,"wind_gusts":45.0,"aqi":80,"pm10":30.0,"pm2_5":27.5,"mosquito_risk":7,"arthritis_risk":5,"migraine_risk":7,"frizz_risk":1,"updated_at":"2026-04-29T23:43:52.326140+05:30"},{"city":"Kochi","state":"Kerala","latitude":9.9312,"longitude":76.2673,"temp":26.1,"humidity":91,"rain":0.0,"pressure":1010.4,"uv_index":7.7,"wind_gusts":34.9,"aqi":80,"pm10":32.6,"pm2_5":29.0,"mosquito_risk":7,"arthritis_risk":0,"migraine_risk":4,"frizz_risk":1,"updated_at":"2026-04-29T23:43:52.326147+05:30"},{"city":"Thiruvananthapuram","state":"Kerala","latitude":8.5241,"longitude":76.9366,"temp":25.6,"humidity":96,"rain":0.0,"pressure":1009.6,"uv_index":8.05,"wind_gusts":27.0,"aqi":45,"pm10":10.0,"pm2_5":7.2,"mosquito_risk":7,"arthritis_risk":0,"migraine_risk":4,"frizz_risk":1,"updated_at":"2026-04-29T23:43:52.326154+05:30"},{"city":"Kozhikode","state":"Kerala","latitude":11.2588,"longitude":75.7804,"temp":27.3,"humidity":85,"rain":0.1,"pressure":1008.8,"uv_index":9.0,"wind_gusts":36.0,"aqi":70,"pm10":43.5,"pm2_5":20.3,"mosquito_risk":10,"arthritis_risk":0,"migraine_risk":4,"frizz_risk":1,"updated_at":"2026-04-29T23:43:52.326161+05:30"},{"city":"Thrissur","state":"Kerala","latitude":10.5276,"longitude":76.2144,"temp":26.4,"humidity":93,"rain":0.1,"pressure":1008.5,"uv_index":8.05,"wind_gusts":33.1,"aqi":84,"pm10":35.0,"pm2_5":30.9,"mosquito_risk":10,"arthritis_risk":0,"migraine_risk":4,"frizz_risk":1,"updated_at":"2026-04-29T23:43:52.326168+05:30"},{"city":"Kannur","state":"Kerala","latitude":11.8745,"longitude":75.3704,"temp":29.6,"humidity":73,"rain":0.0,"pressure":1007.9,"uv_index":9.0,"wind_gusts":42.8,"aqi":77,"pm10":48.5,"pm2_5":23.7,"mosquito_risk":7,"arthritis_risk":5,"migraine_risk":4,"frizz_risk":1,"updated_at":"2026-04-29T23:43:52.326175+05:30"},{"city":"Patna","state":"Bihar","latitude":25.5941,"longitude":85.1376,"temp":25.1,"humidity":82,"rain":0.0,"pressure":999.3,"uv_index":8.55,"wind_gusts":39.2,"aqi":98,"pm10":32.0,"pm2_5":24.0,"mosquito_risk":7,"arthritis_risk":5,"migraine_risk":7,"frizz_risk":1,"updated_at":"2026-04-29T23:43:52.326181+05:30"},{"city":"Gaya","state":"Bihar","latitude":24.7914,"longitude":85.0002,"temp":27.1,"humidity":74,"rain":0.0,"pressure":992.1,"uv_index":8.65,"wind_gusts":57.2,"aqi":127,"pm10":37.7,"pm2_5":32.0,"mosquito_risk":7,"arthritis_risk":5,"migraine_risk":7,"frizz_risk":1,"updated_at":"2026-04-29T23:43:52.326188+05:30"},{"city":"Muzaffarpur","state":"Bihar","latitude":26.1209,"longitude":85.3647,"temp":24.4,"humidity":82,"rain":0.0,"pressure":1000.6,"uv_index":8.55,"wind_gusts":54.4,"aqi":86,"pm10":32.2,"pm2_5":24.0,"mosquito_risk":3,"arthritis_risk":5,"migraine_risk":4,"frizz_risk":1,"updated_at":"2026-04-29T23:43:52.326194+05:30"},{"city":"Bhagalpur","state":"Bihar","latitude":25.2425,"longitude":87.0117,"temp":23.8,"humidity":84,"rain":0.0,"pressure":1001.2,"uv_index":8.55,"wind_gusts":55.1,"aqi":66,"pm10":15.9,"pm2_5":11.7,"mosquito_risk":3,"arthritis_risk":5,"migraine_risk":4,"frizz_risk":1,"updated_at":"2026-04-29T23:43:52.326201+05:30"},{"city":"Ranchi","state":"Jharkhand","latitude":23.3441,"longitude":85.3096,"temp":22.8,"humidity":80,"rain":0.0,"pressure":936.2,"uv_index":9.15,"wind_gusts":40.7,"aqi":101,"pm10":42.1,"pm2_5":36.7,"mosquito_risk":3,"arthritis_risk":5,"migraine_risk":7,"frizz_risk":1,"updated_at":"2026-04-29T23:43:52.326207+05:30"},{"city":"Jamshedpur","state":"Jharkhand","latitude":22.8046,"longitude":86.2029,"temp":25.9,"humidity":85,"rain":0.0,"pressure":989.7,"uv_index":8.95,"wind_gusts":47.9,"aqi":123,"pm10":41.2,"pm2_5":38.6,"mosquito_risk":7,"arthritis_risk":5,"migraine_risk":7,"frizz_risk":1,"updated_at":"2026-04-29T23:43:52.326214+05:30"},{"city":"Dhanbad","state":"Jharkhand","latitude":23.7957,"longitude":86.4304,"temp":25.1,"humidity":86,"rain":0.0,"pressure":979.6,"uv_index":8.9,"wind_gusts":58.3,"aqi":158,"pm10":77.8,"pm2_5":75.4,"mosquito_risk":7,"arthritis_risk":5,"migraine_risk":7,"frizz_risk":1,"updated_at":"2026-04-29T23:43:52.326220+05:30"},{"city":"Bokaro","state":"Jharkhand","latitude":23.6693,"longitude":86.1511,"temp":25.5,"humidity":81,"rain":0.0,"pressure":982.7,"uv_index":8.9,"wind_gusts":61.6,"aqi":155,"pm10":80.6,"pm2_5":75.9,"mosquito_risk":7,"arthritis_risk":5,"migraine_risk":7,"frizz_risk":1,"updated_at":"2026-04-29T23:43:52.326226+05:30"},{"city":"Bhubaneswar","state":"Odisha","latitude":20.2961,"longitude":85.8245,"temp":27.5,"humidity":89,"rain":0.0,"pressure":1000.8,"uv_index":9.1,"wind_gusts":56.9,"aqi":55,"pm10":11.7,"pm2_5":9.3,"mosquito_risk":7,"arthritis_risk":5,"migraine_risk":4,"frizz_risk":1,"updated_at":"2026-04-29T23:43:52.326233+05:30"},{"city":"Cuttack","state":"Odisha","latitude":20.4625,"longitude":85.8828,"temp":27.8,"humidity":87,"rain":0.0,"pressure":1002.6,"uv_index":9.1,"wind_gusts":45.4,"aqi":55,"pm10":11.7,"pm2_5":9.3,"mosquito_risk":7,"arthritis_risk":5,"migraine_risk":4,"frizz_risk":1,"updated_at":"2026-04-29T23:43:52.326240+05:30"},{"city":"Rourkela","state":"Odisha","latitude":22.2604,"longitude":84.8536,"temp":28.8,"humidity":50,"rain":0.0,"pressure":984.1,"uv_index":8.9,"wind_gusts":49.7,"aqi":145,"pm10":41.0,"pm2_5":38.4,"mosquito_risk":4,"arthritis_risk":5,"migraine_risk":7,"frizz_risk":1,"updated_at":"2026-04-29T23:43:52.326246+05:30"},{"city":"Raipur","state":"Chhattisgarh","latitude":21.2514,"longitude":81.6296,"temp":32.3,"humidity":26,"rain":0.0,"pressure":971.4,"uv_index":8.9,"wind_gusts":54.0,"aqi":103,"pm10":33.2,"pm2_5":28.9,"mosquito_risk":0,"arthritis_risk":5,"migraine_risk":7,"frizz_risk":0,"updated_at":"2026-04-29T23:43:52.326253+05:30"},{"city":"Bhilai","state":"Chhattisgarh","latitude":21.1938,"longitude":81.3509,"temp":31.6,"humidity":27,"rain":0.0,"pressure":971.9,"uv_index":8.9,"wind_gusts":51.8,"aqi":98,"pm10":27.1,"pm2_5":22.8,"mosquito_risk":0,"arthritis_risk":5,"migraine_risk":7,"frizz_risk":0,"updated_at":"2026-04-29T23:43:52.326259+05:30"},{"city":"Guwahati","state":"Assam","latitude":26.1158,"longitude":91.7086,"temp":20.5,"humidity":99,"rain":0.1,"pressure":1004.8,"uv_index":7.15,"wind_gusts":31.3,"aqi":67,"pm10":24.8,"pm2_5":21.1,"mosquito_risk":6,"arthritis_risk":5,"migraine_risk":4,"frizz_risk":1,"updated_at":"2026-04-29T23:43:52.326265+05:30"},{"city":"Agartala","state":"Tripura","latitude":23.8315,"longitude":91.2868,"temp":21.7,"humidity":90,"rain":0.0,"pressure":1007.7,"uv_index":6.55,"wind_gusts":38.2,"aqi":79,"pm10":34.8,"pm2_5":29.6,"mosquito_risk":3,"arthritis_risk":5,"migraine_risk":4,"frizz_risk":1,"updated_at":"2026-04-29T23:43:52.326271+05:30"},{"city":"Shillong","state":"Meghalaya","latitude":25.5788,"longitude":91.8933,"temp":13.9,"humidity":79,"rain":0.0,"pressure":856.7,"uv_index":7.5,"wind_gusts":49.3,"aqi":29,"pm10":13.3,"pm2_5":9.0,"mosquito_risk":3,"arthritis_risk":5,"migraine_risk":7,"frizz_risk":0,"updated_at":"2026-04-29T23:43:52.326277+05:30"},{"city":"Imphal","state":"Manipur","latitude":24.817,"longitude":93.9368,"temp":15.9,"humidity":97,"rain":0.0,"pressure":923.8,"uv_index":6.15,"wind_gusts":23.8,"aqi":83,"pm10":30.3,"pm2_5":28.8,"mosquito_risk":3,"arthritis_risk":10,"migraine_risk":7,"frizz_risk":0,"updated_at":"2026-04-29T23:43:52.326283+05:30"},{"city":"Aizawl","state":"Mizoram","latitude":23.7271,"longitude":92.7176,"temp":14.6,"humidity":98,"rain":0.0,"pressure":893.3,"uv_index":6.2,"wind_gusts":30.2,"aqi":81,"pm10":31.8,"pm2_5":22.6,"mosquito_risk":3,"arthritis_risk":10,"migraine_risk":7,"frizz_risk":0,"updated_at":"2026-04-29T23:43:52.326289+05:30"},{"city":"Kohima","state":"Nagaland","latitude":25.6701,"longitude":94.1077,"temp":15.1,"humidity":81,"rain":0.0,"pressure":855.0,"uv_index":7.25,"wind_gusts":25.6,"aqi":53,"pm10":23.8,"pm2_5":13.3,"mosquito_risk":3,"arthritis_risk":10,"migraine_risk":7,"frizz_risk":0,"updated_at":"2026-04-29T23:43:52.326296+05:30"},{"city":"Gangtok","state":"Sikkim","latitude":27.3314,"longitude":88.6138,"temp":14.5,"humidity":74,"rain":0.1,"pressure":836.3,"uv_index":5.5,"wind_gusts":29.2,"aqi":47,"pm10":8.9,"pm2_5":6.0,"mosquito_risk":6,"arthritis_risk":5,"migraine_risk":3,"frizz_risk":0,"updated_at":"2026-04-29T23:43:52.326302+05:30"},{"city":"Siliguri","state":"West Bengal","latitude":26.7271,"longitude":88.3953,"temp":20.4,"humidity":94,"rain":0.0,"pressure":994.8,"uv_index":1.8,"wind_gusts":32.8,"aqi":58,"pm10":17.8,"pm2_5":12.6,"mosquito_risk":3,"arthritis_risk":5,"migraine_risk":3,"frizz_risk":1,"updated_at":"2026-04-29T23:43:55.584214+05:30"},{"city":"Durgapur","state":"West Bengal","latitude":23.5204,"longitude":87.3119,"temp":25.0,"humidity":88,"rain":0.0,"pressure":993.8,"uv_index":8.85,"wind_gusts":43.6,"aqi":137,"pm10":42.0,"pm2_5":40.9,"mosquito_risk":7,"arthritis_risk":5,"migraine_risk":7,"frizz_risk":1,"updated_at":"2026-04-29T23:43:55.584243+05:30"},{"city":"Asansol","state":"West Bengal","latitude":23.6739,"longitude":86.9524,"temp":24.7,"humidity":91,"rain":0.0,"pressure":992.9,"uv_index":8.85,"wind_gusts":64.8,"aqi":151,"pm10":55.2,"pm2_5":53.8,"mosquito_risk":3,"arthritis_risk":5,"migraine_risk":7,"frizz_risk":1,"updated_at":"2026-04-29T23:43:55.584253+05:30"},{"city":"Pondicherry","state":"Puducherry","latitude":11.9139,"longitude":79.8145,"temp":29.6,"humidity":79,"rain":0.0,"pressure":1008.6,"uv_index":9.05,"wind_gusts":52.9,"aqi":51,"pm10":11.9,"pm2_5":8.7,"mosquito_risk":7,"arthritis_risk":0,"migraine_risk":4,"frizz_risk":1,"updated_at":"2026-04-29T23:43:55.584260+05:30"},{"city":"Port Blair","state":"Andaman and Nicobar Islands","latitude":11.6234,"longitude":92.7265,"temp":27.1,"humidity":84,"rain":0.0,"pressure":1008.0,"uv_index":9.1,"wind_gusts":28.1,"aqi":33,"pm10":10.1,"pm2_5":7.6,"mosquito_risk":7,"arthritis_risk":0,"migraine_risk":4,"frizz_risk":1,"updated_at":"2026-04-29T23:43:55.584269+05:30"},{"city":"Haridwar","state":"Uttarakhand","latitude":29.9457,"longitude":78.1642,"temp":21.4,"humidity":72,"rain":0.0,"pressure":970.5,"uv_index":6.45,"wind_gusts":27.4,"aqi":81,"pm10":85.7,"pm2_5":39.6,"mosquito_risk":3,"arthritis_risk":5,"migraine_risk":7,"frizz_risk":1,"updated_at":"2026-04-29T23:43:55.584276+05:30"},{"city":"Rishikesh","state":"Uttarakhand","latitude":30.0869,"longitude":78.2676,"temp":19.6,"humidity":76,"rain":0.0,"pressure":963.2,"uv_index":6.85,"wind_gusts":26.3,"aqi":80,"pm10":101.5,"pm2_5":36.6,"mosquito_risk":3,"arthritis_risk":5,"migraine_risk":7,"frizz_risk":0,"updated_at":"2026-04-29T23:43:55.584283+05:30"},{"city":"Nainital","state":"Uttarakhand","latitude":29.3919,"longitude":79.4542,"temp":13.1,"humidity":83,"rain":0.0,"pressure":802.7,"uv_index":5.65,"wind_gusts":47.5,"aqi":94,"pm10":136.0,"pm2_5":46.2,"mosquito_risk":3,"arthritis_risk":10,"migraine_risk":3,"frizz_risk":0,"updated_at":"2026-04-29T23:43:55.584291+05:30"},{"city":"Mussoorie","state":"Uttarakhand","latitude":30.4599,"longitude":78.0664,"temp":13.4,"humidity":65,"rain":0.0,"pressure":800.1,"uv_index":5.9,"wind_gusts":36.7,"aqi":68,"pm10":56.0,"pm2_5":29.7,"mosquito_risk":3,"arthritis_risk":5,"migraine_risk":3,"frizz_risk":0,"updated_at":"2026-04-29T23:43:55.584298+05:30"},{"city":"Dharamshala","state":"Himachal Pradesh","latitude":32.219,"longitude":76.3234,"temp":19.5,"humidity":43,"rain":0.0,"pressure":866.4,"uv_index":7.95,"wind_gusts":51.8,"aqi":43,"pm10":17.8,"pm2_5":12.0,"mosquito_risk":0,"arthritis_risk":5,"migraine_risk":7,"frizz_risk":0,"updated_at":"2026-04-29T23:43:55.584305+05:30"},{"city":"Dalhousie","state":"Himachal Pradesh","latitude":32.5387,"longitude":75.971,"temp":10.4,"humidity":79,"rain":0.0,"pressure":799.3,"uv_index":7.5,"wind_gusts":51.8,"aqi":55,"pm10":41.3,"pm2_5":26.2,"mosquito_risk":3,"arthritis_risk":5,"migraine_risk":7,"frizz_risk":0,"updated_at":"2026-04-29T23:43:55.584312+05:30"},{"city":"Patiala","state":"Punjab","latitude":30.3398,"longitude":76.3869,"temp":25.9,"humidity":55,"rain":0.0,"pressure":974.5,"uv_index":7.35,"wind_gusts":49.7,"aqi":161,"pm10":114.3,"pm2_5":45.9,"mosquito_risk":4,"arthritis_risk":5,"migraine_risk":7,"frizz_risk":1,"updated_at":"2026-04-29T23:43:55.584319+05:30"},{"city":"Bhatinda","state":"Punjab","latitude":30.211,"longitude":74.9455,"temp":27.4,"humidity":50,"rain":0.0,"pressure":979.7,"uv_index":8.05,"wind_gusts":47.2,"aqi":93,"pm10":327.8,"pm2_5":74.7,"mosquito_risk":4,"arthritis_risk":5,"migraine_risk":7,"frizz_risk":0,"updated_at":"2026-04-29T23:43:55.584326+05:30"},{"city":"Rohtak","state":"Haryana","latitude":28.8955,"longitude":76.6066,"temp":27.9,"humidity":44,"rain":0.0,"pressure":977.9,"uv_index":7.45,"wind_gusts":27.7,"aqi":198,"pm10":530.9,"pm2_5":75.2,"mosquito_risk":4,"arthritis_risk":5,"migraine_risk":7,"frizz_risk":0,"updated_at":"2026-04-29T23:43:55.584332+05:30"},{"city":"Panipat","state":"Haryana","latitude":29.3909,"longitude":76.9635,"temp":25.9,"humidity":59,"rain":0.0,"pressure":976.5,"uv_index":7.3,"wind_gusts":37.1,"aqi":501,"pm10":931.3,"pm2_5":108.5,"mosquito_risk":4,"arthritis_risk":5,"migraine_risk":7,"frizz_risk":1,"updated_at":"2026-04-29T23:43:55.584338+05:30"},{"city":"Mathura","state":"Uttar Pradesh","latitude":27.4924,"longitude":77.6737,"temp":29.4,"humidity":38,"rain":0.0,"pressure":982.7,"uv_index":7.6,"wind_gusts":38.2,"aqi":722,"pm10":1438.0,"pm2_5":168.6,"mosquito_risk":4,"arthritis_risk":5,"migraine_risk":7,"frizz_risk":0,"updated_at":"2026-04-29T23:43:55.584345+05:30"},{"city":"Vrindavan","state":"Uttar Pradesh","latitude":27.5823,"longitude":77.7027,"temp":29.0,"humidity":39,"rain":0.0,"pressure":983.1,"uv_index":7.5,"wind_gusts":39.6,"aqi":722,"pm10":1438.0,"pm2_5":168.6,"mosquito_risk":4,"arthritis_risk":5,"migraine_risk":7,"frizz_risk":0,"updated_at":"2026-04-29T23:43:55.584351+05:30"},{"city":"Ayodhya","state":"Uttar Pradesh","latitude":26.7922,"longitude":82.1998,"temp":24.7,"humidity":83,"rain":0.0,"pressure":993.8,"uv_index":8.05,"wind_gusts":37.4,"aqi":143,"pm10":52.7,"pm2_5":39.0,"mosquito_risk":3,"arthritis_risk":5,"migraine_risk":7,"frizz_risk":1,"updated_at":"2026-04-29T23:43:55.584356+05:30"},{"city":"Ratlam","state":"Madhya Pradesh","latitude":23.3315,"longitude":75.0367,"temp":29.9,"humidity":30,"rain":0.0,"pressure":952.4,"uv_index":8.5,"wind_gusts":47.9,"aqi":78,"pm10":24.7,"pm2_5":15.0,"mosquito_risk":4,"arthritis_risk":5,"migraine_risk":7,"frizz_risk":0,"updated_at":"2026-04-29T23:43:55.584362+05:30"},{"city":"Sagar","state":"Madhya Pradesh","latitude":23.8388,"longitude":78.7378,"temp":30.1,"humidity":23,"rain":0.0,"pressure":947.0,"uv_index":8.65,"wind_gusts":43.9,"aqi":49,"pm10":27.9,"pm2_5":14.3,"mosquito_risk":0,"arthritis_risk":5,"migraine_risk":7,"frizz_risk":0,"updated_at":"2026-04-29T23:43:55.584368+05:30"},{"city":"Satna","state":"Madhya Pradesh","latitude":24.6005,"longitude":80.8322,"temp":30.0,"humidity":34,"rain":0.0,"pressure":968.1,"uv_index":8.6,"wind_gusts":45.7,"aqi":66,"pm10":58.0,"pm2_5":29.8,"mosquito_risk":4,"arthritis_risk":5,"migraine_risk":7,"frizz_risk":0,"updated_at":"2026-04-29T23:43:55.584374+05:30"},{"city":"Akola","state":"Maharashtra","latitude":20.7002,"longitude":77.0082,"temp":32.2,"humidity":22,"rain":0.0,"pressure":972.9,"uv_index":8.85,"wind_gusts":54.4,"aqi":76,"pm10":20.4,"pm2_5":12.9,"mosquito_risk":0,"arthritis_risk":5,"migraine_risk":7,"frizz_risk":0,"updated_at":"2026-04-29T23:43:55.584381+05:30"},{"city":"Amravati","state":"Maharashtra","latitude":20.9374,"longitude":77.7796,"temp":33.1,"humidity":18,"rain":0.0,"pressure":964.9,"uv_index":8.85,"wind_gusts":59.8,"aqi":78,"pm10":17.7,"pm2_5":11.4,"mosquito_risk":0,"arthritis_risk":5,"migraine_risk":7,"frizz_risk":0,"updated_at":"2026-04-29T23:43:55.584388+05:30"},{"city":"Latur","state":"Maharashtra","latitude":18.4088,"longitude":76.5604,"temp":31.0,"humidity":22,"rain":0.0,"pressure":938.4,"uv_index":9.05,"wind_gusts":29.2,"aqi":71,"pm10":41.6,"pm2_5":35.0,"mosquito_risk":0,"arthritis_risk":5,"migraine_risk":7,"frizz_risk":0,"updated_at":"2026-04-29T23:43:55.584396+05:30"},{"city":"Nanded","state":"Maharashtra","latitude":19.1383,"longitude":77.3091,"temp":33.8,"humidity":19,"rain":0.0,"pressure":966.7,"uv_index":9.0,"wind_gusts":32.0,"aqi":71,"pm10":33.8,"pm2_5":27.2,"mosquito_risk":0,"arthritis_risk":5,"migraine_risk":7,"frizz_risk":0,"updated_at":"2026-04-29T23:43:55.584407+05:30"},{"city":"Gulbarga","state":"Karnataka","latitude":17.3297,"longitude":76.8343,"temp":33.0,"humidity":30,"rain":0.0,"pressure":957.7,"uv_index":9.1,"wind_gusts":27.0,"aqi":87,"pm10":50.9,"pm2_5":42.7,"mosquito_risk":0,"arthritis_risk":5,"migraine_risk":7,"frizz_risk":0,"updated_at":"2026-04-29T23:43:55.584413+05:30"},{"city":"Bidar","state":"Karnataka","latitude":17.9104,"longitude":77.5199,"temp":30.8,"humidity":33,"rain":0.0,"pressure":934.7,"uv_index":9.15,"wind_gusts":32.0,"aqi":96,"pm10":59.0,"pm2_5":48.8,"mosquito_risk":0,"arthritis_risk":5,"migraine_risk":7,"frizz_risk":0,"updated_at":"2026-04-29T23:43:55.584419+05:30"},{"city":"Hospet","state":"Karnataka","latitude":15.2689,"longitude":76.3909,"temp":28.8,"humidity":59,"rain":0.0,"pressure":956.3,"uv_index":9.0,"wind_gusts":42.8,"aqi":116,"pm10":36.1,"pm2_5":30.5,"mosquito_risk":4,"arthritis_risk":5,"migraine_risk":7,"frizz_risk":1,"updated_at":"2026-04-29T23:43:55.584424+05:30"},{"city":"Tirupur","state":"Tamil Nadu","latitude":11.1085,"longitude":77.3411,"temp":27.1,"humidity":82,"rain":0.0,"pressure":975.2,"uv_index":8.95,"wind_gusts":54.0,"aqi":88,"pm10":30.9,"pm2_5":27.3,"mosquito_risk":7,"arthritis_risk":5,"migraine_risk":7,"frizz_risk":1,"updated_at":"2026-04-29T23:43:55.584431+05:30"},{"city":"Alappuzha","state":"Kerala","latitude":9.4981,"longitude":76.3388,"temp":25.8,"humidity":93,"rain":0.0,"pressure":1010.4,"uv_index":7.5,"wind_gusts":32.4,"aqi":66,"pm10":33.9,"pm2_5":28.3,"mosquito_risk":7,"arthritis_risk":0,"migraine_risk":4,"frizz_risk":1,"updated_at":"2026-04-29T23:43:55.584437+05:30"},{"city":"Munnar","state":"Kerala","latitude":10.0889,"longitude":77.0595,"temp":18.5,"humidity":95,"rain":0.0,"pressure":858.0,"uv_index":8.25,"wind_gusts":25.9,"aqi":77,"pm10":32.2,"pm2_5":30.0,"mosquito_risk":3,"arthritis_risk":10,"migraine_risk":7,"frizz_risk":1,"updated_at":"2026-04-29T23:43:55.584443+05:30"},{"city":"Silchar","state":"Assam","latitude":24.8333,"longitude":92.7789,"temp":20.2,"humidity":97,"rain":0.0,"pressure":1008.2,"uv_index":6.25,"wind_gusts":24.8,"aqi":95,"pm10":33.9,"pm2_5":31.3,"mosquito_risk":3,"arthritis_risk":0,"migraine_risk":4,"frizz_risk":1,"updated_at":"2026-04-29T23:43:55.584449+05:30"},{"city":"Dibrugarh","state":"Assam","latitude":27.4728,"longitude":94.912,"temp":21.5,"humidity":97,"rain":0.3,"pressure":997.8,"uv_index":6.3,"wind_gusts":31.0,"aqi":100,"pm10":26.1,"pm2_5":22.5,"mosquito_risk":6,"arthritis_risk":5,"migraine_risk":7,"frizz_risk":1,"updated_at":"2026-04-29T23:43:55.584456+05:30"}]