[{"city":"Delhi","state":"Delhi","latitude":28.6139,"longitude":77.209,"temp":33.6,"humidity":26,"rain":0.0,"pressure":979.4,"uv_index":7.3,"wind_gusts":37.1,"aqi":475,"pm10":698.5,"pm2_5":85.7,"mosquito_risk":0,"arthritis_risk":5,"migraine_risk":7,"frizz_risk":0,"updated_at":"2026-04-21T19:18:56.355515+05:30"},{"city":"Mumbai","state":"Maharashtra","latitude":19.076,"longitude":72.8777,"temp":30.1,"humidity":69,"rain":0.0,"pressure":1006.2,"uv_index":7.3,"wind_gusts":24.8,"aqi":191,"pm10":37.5,"pm2_5":27.1,"mosquito_risk":3,"arthritis_risk":5,"migraine_risk":4,"frizz_risk":1,"updated_at":"2026-04-21T19:18:56.355560+05:30"},{"city":"Bangalore","state":"Karnataka","latitude":12.9716,"longitude":77.5946,"temp":31.5,"humidity":20,"rain":0.0,"pressure":910.1,"uv_index":9.6,"wind_gusts":28.4,"aqi":144,"pm10":20.8,"pm2_5":18.4,"mosquito_risk":0,"arthritis_risk":5,"migraine_risk":7,"frizz_risk":0,"updated_at":"2026-04-21T19:18:56.355575+05:30"},{"city":"Hyderabad","state":"Telangana","latitude":17.385,"longitude":78.4867,"temp":31.3,"humidity":49,"rain":0.0,"pressure":952.3,"uv_index":9.2,"wind_gusts":29.2,"aqi":173,"pm10":45.6,"pm2_5":40.6,"mosquito_risk":0,"arthritis_risk":5,"migraine_risk":7,"frizz_risk":1,"updated_at":"2026-04-21T19:18:56.355585+05:30"},{"city":"Chennai","state":"Tamil Nadu","latitude":13.0827,"longitude":80.2707,"temp":29.9,"humidity":75,"rain":0.0,"pressure":1005.2,"uv_index":9.3,"wind_gusts":36.0,"aqi":53,"pm10":11.8,"pm2_5":8.9,"mosquito_risk":7,"arthritis_risk":5,"migraine_risk":4,"frizz_risk":1,"updated_at":"2026-04-21T19:18:56.355594+05:30"},{"city":"Kolkata","state":"West Bengal","latitude":22.5726,"longitude":88.3639,"temp":29.8,"humidity":80,"rain":0.0,"pressure":1002.4,"uv_index":8.9,"wind_gusts":32.0,"aqi":127,"pm10":38.2,"pm2_5":33.9,"mosquito_risk":7,"arthritis_risk":5,"migraine_risk":4,"frizz_risk":1,"updated_at":"2026-04-21T19:18:56.355606+05:30"},{"city":"Pune","state":"Maharashtra","latitude":18.5204,"longitude":73.8567,"temp":32.9,"humidity":42,"rain":0.0,"pressure":947.1,"uv_index":8.35,"wind_gusts":36.7,"aqi":152,"pm10":36.4,"pm2_5":30.6,"mosquito_risk":0,"arthritis_risk":5,"migraine_risk":7,"frizz_risk":1,"updated_at":"2026-04-21T19:18:56.355614+05:30"},{"city":"Ahmedabad","state":"Gujarat","latitude":23.0225,"longitude":72.5714,"temp":35.6,"humidity":19,"rain":0.0,"pressure":1000.2,"uv_index":8.15,"wind_gusts":27.0,"aqi":83,"pm10":15.0,"pm2_5":9.0,"mosquito_risk":0,"arthritis_risk":5,"migraine_risk":7,"frizz_risk":0,"updated_at":"2026-04-21T19:18:56.355621+05:30"},{"city":"Jaipur","state":"Rajasthan","latitude":26.9124,"longitude":75.7873,"temp":35.8,"humidity":15,"rain":0.0,"pressure":957.2,"uv_index":7.95,"wind_gusts":33.8,"aqi":128,"pm10":247.7,"pm2_5":35.7,"mosquito_risk":0,"arthritis_risk":5,"migraine_risk":10,"frizz_risk":0,"updated_at":"2026-04-21T19:18:56.355629+05:30"},{"city":"Lucknow","state":"Uttar Pradesh","latitude":26.8467,"longitude":80.9462,"temp":34.5,"humidity":23,"rain":0.0,"pressure":988.9,"uv_index":7.85,"wind_gusts":48.6,"aqi":126,"pm10":328.8,"pm2_5":53.4,"mosquito_risk":0,"arthritis_risk":5,"migraine_risk":7,"frizz_risk":0,"updated_at":"2026-04-21T19:18:56.355639+05:30"},{"city":"Kanpur","state":"Uttar Pradesh","latitude":26.4499,"longitude":80.3319,"temp":31.9,"humidity":28,"rain":0.0,"pressure":987.1,"uv_index":7.85,"wind_gusts":40.3,"aqi":295,"pm10":676.1,"pm2_5":82.7,"mosquito_risk":0,"arthritis_risk":5,"migraine_risk":7,"frizz_risk":0,"updated_at":"2026-04-21T19:18:56.355646+05:30"},{"city":"Chandigarh","state":"Chandigarh","latitude":30.7333,"longitude":76.7794,"temp":29.7,"humidity":29,"rain":0.0,"pressure":965.2,"uv_index":7.25,"wind_gusts":34.2,"aqi":136,"pm10":22.1,"pm2_5":13.6,"mosquito_risk":4,"arthritis_risk":5,"migraine_risk":7,"frizz_risk":0,"updated_at":"2026-04-21T19:18:56.355653+05:30"},{"city":"Srinagar","state":"Jammu and Kashmir","latitude":34.0837,"longitude":74.7973,"temp":18.8,"humidity":54,"rain":0.0,"pressure":840.8,"uv_index":8.45,"wind_gusts":15.5,"aqi":109,"pm10":32.9,"pm2_5":18.2,"mosquito_risk":0,"arthritis_risk":5,"migraine_risk":7,"frizz_risk":0,"updated_at":"2026-04-21T19:18:56.355661+05:30"},{"city":"Jammu","state":"Jammu and Kashmir","latitude":32.7266,"longitude":74.857,"temp":30.7,"humidity":35,"rain":0.0,"pressure":969.4,"uv_index":8.0,"wind_gusts":29.9,"aqi":111,"pm10":38.3,"pm2_5":20.9,"mosquito_risk":0,"arthritis_risk":5,"migraine_risk":7,"frizz_risk":0,"updated_at":"2026-04-21T19:18:56.355668+05:30"},{"city":"Amritsar","state":"Punjab","latitude":31.634,"longitude":74.8723,"temp":31.3,"humidity":27,"rain":0.0,"pressure":977.6,"uv_index":7.95,"wind_gusts":31.3,"aqi":132,"pm10":20.9,"pm2_5":11.7,"mosquito_risk":0,"arthritis_risk":5,"migraine_risk":7,"frizz_risk":0,"updated_at":"2026-04-21T19:18:56.355674+05:30"},{"city":"Ludhiana","state":"Punjab","latitude":30.901,"longitude":75.8573,"temp":33.4,"humidity":17,"rain":0.0,"pressure":975.3,"uv_index":7.5,"wind_gusts":31.0,"aqi":127,"pm10":51.2,"pm2_5":18.6,"mosquito_risk":0,"arthritis_risk":5,"migraine_risk":7,"frizz_risk":0,"updated_at":"2026-04-21T19:18:56.355682+05:30"},{"city":"Jalandhar","state":"Punjab","latitude":31.326,"longitude":75.5762,"temp":32.1,"humidity":20,"rain":0.0,"pressure":976.5,"uv_index":7.7,"wind_gusts":32.0,"aqi":135,"pm10":54.8,"pm2_5":17.8,"mosquito_risk":0,"arthritis_risk":5,"migraine_risk":7,"frizz_risk":0,"updated_at":"2026-04-21T19:18:56.355689+05:30"},{"city":"Dehradun","state":"Uttarakhand","latitude":30.6284,"longitude":78.0322,"temp":19.8,"humidity":50,"rain":0.0,"pressure":829.5,"uv_index":7.7,"wind_gusts":41.0,"aqi":128,"pm10":21.0,"pm2_5":11.6,"mosquito_risk":0,"arthritis_risk":5,"migraine_risk":7,"frizz_risk":0,"updated_at":"2026-04-21T19:18:56.355695+05:30"},{"city":"Shimla","state":"Himachal Pradesh","latitude":31.1048,"longitude":77.1734,"temp":19.5,"humidity":31,"rain":0.0,"pressure":785.5,"uv_index":7.75,"wind_gusts":48.2,"aqi":113,"pm10":22.7,"pm2_5":10.0,"mosquito_risk":0,"arthritis_risk":5,"migraine_risk":7,"frizz_risk":0,"updated_at":"2026-04-21T19:18:56.355702+05:30"},{"city":"Manali","state":"Himachal Pradesh","latitude":32.2396,"longitude":77.1887,"temp":19.7,"humidity":59,"rain":0.0,"pressure":821.7,"uv_index":9.9,"wind_gusts":34.6,"aqi":125,"pm10":25.2,"pm2_5":8.6,"mosquito_risk":0,"arthritis_risk":5,"migraine_risk":7,"frizz_risk":0,"updated_at":"2026-04-21T19:18:56.355708+05:30"},{"city":"Gurgaon","state":"Haryana","latitude":28.4595,"longitude":77.0266,"temp":32.2,"humidity":26,"rain":0.0,"pressure":977.9,"uv_index":7.4,"wind_gusts":35.3,"aqi":1380,"pm10":1888.7,"pm2_5":198.4,"mosquito_risk":0,"arthritis_risk":5,"migraine_risk":7,"frizz_risk":0,"updated_at":"2026-04-21T19:18:56.355715+05:30"},{"city":"Noida","state":"Uttar Pradesh","latitude":28.5355,"longitude":77.391,"temp":33.4,"humidity":26,"rain":0.0,"pressure":980.9,"uv_index":7.3,"wind_gusts":36.7,"aqi":1380,"pm10":1888.7,"pm2_5":198.4,"mosquito_risk":0,"arthritis_risk":5,"migraine_risk":7,"frizz_risk":0,"updated_at":"2026-04-21T19:18:56.355721+05:30"},{"city":"Ghaziabad","state":"Uttar Pradesh","latitude":28.6692,"longitude":77.4538,"temp":32.7,"humidity":30,"rain":0.0,"pressure":979.0,"uv_index":7.3,"wind_gusts":37.1,"aqi":344,"pm10":532.7,"pm2_5":73.8,"mosquito_risk":0,"arthritis_risk":5,"migraine_risk":7,"frizz_risk":0,"updated_at":"2026-04-21T19:18:56.355728+05:30"},{"city":"Faridabad","state":"Haryana","latitude":28.4089,"longitude":77.3178,"temp":33.6,"humidity":22,"rain":0.0,"pressure":980.1,"uv_index":7.35,"wind_gusts":34.2,"aqi":1380,"pm10":1888.7,"pm2_5":198.4,"mosquito_risk":0,"arthritis_risk":5,"migraine_risk":7,"frizz_risk":0,"updated_at":"2026-04-21T19:18:56.355736+05:30"},{"city":"Meerut","state":"Uttar Pradesh","latitude":28.9845,"longitude":77.7064,"temp":31.5,"humidity":35,"rain":0.0,"pressure":977.6,"uv_index":7.2,"wind_gusts":38.9,"aqi":344,"pm10":532.7,"pm2_5":73.8,"mosquito_risk":0,"arthritis_risk":5,"migraine_risk":7,"frizz_risk":0,"updated_at":"2026-04-21T19:18:56.355744+05:30"},{"city":"Agra","state":"Uttar Pradesh","latitude":27.1767,"longitude":78.0081,"temp":33.8,"humidity":31,"rain":0.0,"pressure":983.7,"uv_index":7.7,"wind_gusts":30.2,"aqi":980,"pm10":523.4,"pm2_5":67.1,"mosquito_risk":0,"arthritis_risk":5,"migraine_risk":7,"frizz_risk":0,"updated_at":"2026-04-21T19:18:56.355752+05:30"},{"city":"Varanasi","state":"Uttar Pradesh","latitude":25.3176,"longitude":82.9739,"temp":34.8,"humidity":18,"rain":0.0,"pressure":992.6,"uv_index":8.55,"wind_gusts":40.7,"aqi":158,"pm10":75.2,"pm2_5":25.0,"mosquito_risk":0,"arthritis_risk":5,"migraine_risk":7,"frizz_risk":0,"updated_at":"2026-04-21T19:18:56.355760+05:30"},{"city":"Prayagraj","state":"Uttar Pradesh","latitude":25.4358,"longitude":81.8463,"temp":34.5,"humidity":23,"rain":0.0,"pressure":991.4,"uv_index":8.35,"wind_gusts":33.1,"aqi":142,"pm10":64.0,"pm2_5":21.0,"mosquito_risk":0,"arthritis_risk":5,"migraine_risk":7,"frizz_risk":0,"updated_at":"2026-04-21T19:18:56.355766+05:30"},{"city":"Gorakhpur","state":"Uttar Pradesh","latitude":26.7606,"longitude":83.3732,"temp":34.5,"humidity":17,"rain":0.0,"pressure":991.4,"uv_index":8.3,"wind_gusts":47.9,"aqi":129,"pm10":34.0,"pm2_5":15.7,"mosquito_risk":0,"arthritis_risk":5,"migraine_risk":7,"frizz_risk":0,"updated_at":"2026-04-21T19:18:56.355773+05:30"},{"city":"Bareilly","state":"Uttar Pradesh","latitude":28.367,"longitude":79.4304,"temp":31.7,"humidity":29,"rain":0.0,"pressure":982.6,"uv_index":7.6,"wind_gusts":42.1,"aqi":139,"pm10":61.7,"pm2_5":21.9,"mosquito_risk":0,"arthritis_risk":5,"migraine_risk":7,"frizz_risk":0,"updated_at":"2026-04-21T19:18:56.355779+05:30"},{"city":"Aligarh","state":"Uttar Pradesh","latitude":27.8974,"longitude":78.088,"temp":32.9,"humidity":28,"rain":0.0,"pressure":981.6,"uv_index":7.45,"wind_gusts":38.9,"aqi":863,"pm10":1262.9,"pm2_5":148.1,"mosquito_risk":0,"arthritis_risk":5,"migraine_risk":7,"frizz_risk":0,"updated_at":"2026-04-21T19:18:56.355785+05:30"},{"city":"Moradabad","state":"Uttar Pradesh","latitude":28.8386,"longitude":78.7733,"temp":31.2,"humidity":28,"rain":0.0,"pressure":979.5,"uv_index":7.4,"wind_gusts":38.5,"aqi":132,"pm10":179.7,"pm2_5":39.3,"mosquito_risk":0,"arthritis_risk":5,"migraine_risk":7,"frizz_risk":0,"updated_at":"2026-04-21T19:18:56.355792+05:30"},{"city":"Saharanpur","state":"Uttar Pradesh","latitude":29.9637,"longitude":77.546,"temp":30.8,"humidity":32,"rain":0.0,"pressure":971.9,"uv_index":7.0,"wind_gusts":31.7,"aqi":133,"pm10":104.1,"pm2_5":27.7,"mosquito_risk":0,"arthritis_risk":5,"migraine_risk":7,"frizz_risk":0,"updated_at":"2026-04-21T19:18:56.355798+05:30"},{"city":"Jhansi","state":"Uttar Pradesh","latitude":25.4484,"longitude":78.5685,"temp":35.2,"humidity":17,"rain":0.0,"pressure":974.7,"uv_index":8.25,"wind_gusts":33.8,"aqi":143,"pm10":94.1,"pm2_5":22.2,"mosquito_risk":0,"arthritis_risk":5,"migraine_risk":10,"frizz_risk":0,"updated_at":"2026-04-21T19:18:59.614643+05:30"},{"city":"Surat","state":"Gujarat","latitude":21.1702,"longitude":72.8311,"temp":29.9,"humidity":54,"rain":0.0,"pressure":1005.0,"uv_index":7.85,"wind_gusts":27.4,"aqi":105,"pm10":62.6,"pm2_5":53.0,"mosquito_risk":4,"arthritis_risk":5,"migraine_risk":4,"frizz_risk":1,"updated_at":"2026-04-21T19:18:59.614676+05:30"},{"city":"Vadodara","state":"Gujarat","latitude":22.3072,"longitude":73.1812,"temp":35.6,"humidity":21,"rain":0.0,"pressure":1002.0,"uv_index":8.15,"wind_gusts":28.8,"aqi":132,"pm10":26.7,"pm2_5":18.9,"mosquito_risk":0,"arthritis_risk":5,"migraine_risk":7,"frizz_risk":0,"updated_at":"2026-04-21T19:18:59.614686+05:30"},{"city":"Rajkot","state":"Gujarat","latitude":22.3039,"longitude":70.8022,"temp":33.0,"humidity":20,"rain":0.0,"pressure":993.1,"uv_index":7.85,"wind_gusts":30.2,"aqi":95,"pm10":31.4,"pm2_5":11.9,"mosquito_risk":0,"arthritis_risk":5,"migraine_risk":7,"frizz_risk":0,"updated_at":"2026-04-21T19:18:59.614694+05:30"},{"city":"Thane","state":"Maharashtra","latitude":19.2183,"longitude":72.9781,"temp":30.0,"humidity":62,"rain":0.0,"pressure":1005.8,"uv_index":7.75,"wind_gusts":33.8,"aqi":191,"pm10":37.5,"pm2_5":27.1,"mosquito_risk":7,"arthritis_risk":5,"migraine_risk":4,"frizz_risk":1,"updated_at":"2026-04-21T19:18:59.614701+05:30"},{"city":"Nagpur","state":"Maharashtra","latitude":21.1458,"longitude":79.0882,"temp":35.4,"humidity":28,"rain":0.0,"pressure":970.0,"uv_index":8.95,"wind_gusts":28.1,"aqi":155,"pm10":24.2,"pm2_5":20.6,"mosquito_risk":0,"arthritis_risk":5,"migraine_risk":10,"frizz_risk":0,"updated_at":"2026-04-21T19:18:59.614709+05:30"},{"city":"Nashik","state":"Maharashtra","latitude":19.9975,"longitude":73.7898,"temp":30.6,"humidity":46,"rain":0.0,"pressure":944.8,"uv_index":8.15,"wind_gusts":39.2,"aqi":141,"pm10":33.5,"pm2_5":24.7,"mosquito_risk":0,"arthritis_risk":5,"migraine_risk":7,"frizz_risk":1,"updated_at":"2026-04-21T19:18:59.614716+05:30"},{"city":"Aurangabad","state":"Maharashtra","latitude":19.8762,"longitude":75.3433,"temp":33.9,"humidity":26,"rain":0.0,"pressure":942.6,"uv_index":8.2,"wind_gusts":35.3,"aqi":138,"pm10":32.1,"pm2_5":25.8,"mosquito_risk":0,"arthritis_risk":5,"migraine_risk":7,"frizz_risk":0,"updated_at":"2026-04-21T19:18:59.614723+05:30"},{"city":"Solapur","state":"Maharashtra","latitude":17.6599,"longitude":75.9064,"temp":34.2,"humidity":34,"rain":0.0,"pressure":955.0,"uv_index":9.0,"wind_gusts":32.0,"aqi":176,"pm10":36.3,"pm2_5":30.9,"mosquito_risk":0,"arthritis_risk":5,"migraine_risk":7,"frizz_risk":1,"updated_at":"2026-04-21T19:18:59.614730+05:30"},{"city":"Kolhapur","state":"Maharashtra","latitude":16.705,"longitude":74.2433,"temp":28.9,"humidity":68,"rain":0.0,"pressure":946.7,"uv_index":9.05,"wind_gusts":39.6,"aqi":169,"pm10":45.8,"pm2_5":40.2,"mosquito_risk":7,"arthritis_risk":5,"migraine_risk":7,"frizz_risk":1,"updated_at":"2026-04-21T19:18:59.614737+05:30"},{"city":"Goa","state":"Goa","latitude":15.2993,"longitude":74.124,"temp":29.1,"humidity":80,"rain":0.0,"pressure":996.2,"uv_index":9.05,"wind_gusts":26.3,"aqi":75,"pm10":27.2,"pm2_5":17.0,"mosquito_risk":7,"arthritis_risk":5,"migraine_risk":7,"frizz_risk":1,"updated_at":"2026-04-21T19:18:59.614743+05:30"},{"city":"Jodhpur","state":"Rajasthan","latitude":26.2389,"longitude":73.0243,"temp":35.8,"humidity":19,"rain":0.0,"pressure":980.4,"uv_index":8.1,"wind_gusts":31.0,"aqi":115,"pm10":177.0,"pm2_5":28.2,"mosquito_risk":0,"arthritis_risk":5,"migraine_risk":10,"frizz_risk":0,"updated_at":"2026-04-21T19:18:59.614750+05:30"},{"city":"Udaipur","state":"Rajasthan","latitude":24.5854,"longitude":73.7125,"temp":31.8,"humidity":19,"rain":0.0,"pressure":946.1,"uv_index":8.7,"wind_gusts":46.1,"aqi":86,"pm10":8.2,"pm2_5":6.6,"mosquito_risk":0,"arthritis_risk":5,"migraine_risk":7,"frizz_risk":0,"updated_at":"2026-04-21T19:18:59.614757+05:30"},{"city":"Kota","state":"Rajasthan","latitude":25.2138,"longitude":75.8648,"temp":36.0,"humidity":18,"rain":0.0,"pressure":975.5,"uv_index":8.2,"wind_gusts":31.7,"aqi":105,"pm10":32.7,"pm2_5":12.3,"mosquito_risk":0,"arthritis_risk":5,"migraine_risk":10,"frizz_risk":0,"updated_at":"2026-04-21T19:18:59.614764+05:30"},{"city":"Bikaner","state":"Rajasthan","latitude":28.0229,"longitude":73.3119,"temp":37.7,"humidity":15,"rain":0.0,"pressure":978.7,"uv_index":8.05,"wind_gusts":27.7,"aqi":109,"pm10":35.4,"pm2_5":11.8,"mosquito_risk":0,"arthritis_risk":5,"migraine_risk":10,"frizz_risk":0,"updated_at":"2026-04-21T19:18:59.614771+05:30"},{"city":"Ajmer","state":"Rajasthan","latitude":26.4499,"longitude":74.6399,"temp":33.3,"humidity":23,"rain":0.0,"pressure":952.6,"uv_index":8.15,"wind_gusts":34.6,"aqi":100,"pm10":99.4,"pm2_5":22.8,"mosquito_risk":0,"arthritis_risk":5,"migraine_risk":7,"frizz_risk":0,"updated_at":"2026-04-21T19:18:59.614778+05:30"},{"city":"Gwalior","state":"Madhya Pradesh","latitude":26.2183,"longitude":78.1828,"temp":34.2,"humidity":35,"rain":0.0,"pressure":979.9,"uv_index":7.95,"wind_gusts":32.4,"aqi":212,"pm10":43.1,"pm2_5":13.0,"mosquito_risk":0,"arthritis_risk":5,"migraine_risk":7,"frizz_risk":1,"updated_at":"2026-04-21T19:18:59.614784+05:30"},{"city":"Indore","state":"Madhya Pradesh","latitude":22.7196,"longitude":75.8577,"temp":32.3,"humidity":26,"rain":0.0,"pressure":947.2,"uv_index":8.6,"wind_gusts":39.2,"aqi":99,"pm10":19.6,"pm2_5":15.2,"mosquito_risk":0,"arthritis_risk":5,"migraine_risk":7,"frizz_risk":0,"updated_at":"2026-04-21T19:18:59.614790+05:30"},{"city":"Bhopal","state":"Madhya Pradesh","latitude":23.2599,"longitude":77.4126,"temp":33.9,"humidity":18,"rain":0.0,"pressure":951.8,"uv_index":8.65,"wind_gusts":35.6,"aqi":100,"pm10":14.9,"pm2_5":11.1,"mosquito_risk":0,"arthritis_risk":5,"migraine_risk":7,"frizz_risk":0,"updated_at":"2026-04-21T19:18:59.614797+05:30"},{"city":"Jabalpur","state":"Madhya Pradesh","latitude":23.1815,"longitude":79.9864,"temp":32.8,"humidity":27,"rain":0.0,"pressure":958.6,"uv_index":8.8,"wind_gusts":35.3,"aqi":126,"pm10":27.5,"pm2_5":15.1,"mosquito_risk":0,"arthritis_risk":5,"migraine_risk":7,"frizz_risk":0,"updated_at":"2026-04-21T19:18:59.614803+05:30"},{"city":"Ujjain","state":"Madhya Pradesh","latitude":23.1765,"longitude":75.7885,"temp":33.1,"humidity":22,"rain":0.0,"pressure":952.9,"uv_index":8.55,"wind_gusts":41.0,"aqi":91,"pm10":17.8,"pm2_5":14.4,"mosquito_risk":0,"arthritis_risk":5,"migraine_risk":7,"frizz_risk":0,"updated_at":"2026-04-21T19:18:59.614810+05:30"},{"city":"Visakhapatnam","state":"Andhra Pradesh","latitude":17.6868,"longitude":83.2185,"temp":29.1,"humidity":77,"rain":0.0,"pressure":1002.1,"uv_index":9.2,"wind_gusts":40.7,"aqi":58,"pm10":20.0,"pm2_5":15.3,"mosquito_risk":7,"arthritis_risk":5,"migraine_risk":4,"frizz_risk":1,"updated_at":"2026-04-21T19:18:59.614817+05:30"},{"city":"Vijayawada","state":"Andhra Pradesh","latitude":16.5062,"longitude":80.648,"temp":33.9,"humidity":46,"rain":0.0,"pressure":1000.8,"uv_index":9.05,"wind_gusts":30.2,"aqi":81,"pm10":29.3,"pm2_5":26.0,"mosquito_risk":0,"arthritis_risk":5,"migraine_risk":4,"frizz_risk":1,"updated_at":"2026-04-21T19:18:59.614824+05:30"},{"city":"Guntur","state":"Andhra Pradesh","latitude":16.3067,"longitude":80.4365,"temp":31.3,"humidity":56,"rain":0.0,"pressure":1002.0,"uv_index":9.1,"wind_gusts":32.4,"aqi":103,"pm10":33.6,"pm2_5":29.8,"mosquito_risk":0,"arthritis_risk":5,"migraine_risk":4,"frizz_risk":1,"updated_at":"2026-04-21T19:18:59.614830+05:30"},{"city":"Nellore","state":"Andhra Pradesh","latitude":14.4426,"longitude":79.9865,"temp":29.7,"humidity":76,"rain":0.0,"pressure":1003.6,"uv_index":9.3,"wind_gusts":37.8,"aqi":82,"pm10":13.9,"pm2_5":10.7,"mosquito_risk":7,"arthritis_risk":5,"migraine_risk":4,"frizz_risk":1,"updated_at":"2026-04-21T19:18:59.614837+05:30"},{"city":"Kurnool","state":"Andhra Pradesh","latitude":15.8281,"longitude":78.0373,"temp":31.4,"humidity":57,"rain":0.0,"pressure":974.9,"uv_index":9.25,"wind_gusts":51.5,"aqi":147,"pm10":42.8,"pm2_5":38.0,"mosquito_risk":0,"arthritis_risk":5,"migraine_risk":7,"frizz_risk":1,"updated_at":"2026-04-21T19:18:59.614845+05:30"},{"city":"Kakinada","state":"Andhra Pradesh","latitude":16.9891,"longitude":82.2475,"temp":32.0,"humidity":61,"rain":0.0,"pressure":1005.7,"uv_index":9.2,"wind_gusts":25.9,"aqi":47,"pm10":15.8,"pm2_5":10.5,"mosquito_risk":3,"arthritis_risk":5,"migraine_risk":4,"frizz_risk":1,"updated_at":"2026-04-21T19:18:59.614851+05:30"},{"city":"Tirupati","state":"Andhra Pradesh","latitude":13.6288,"longitude":79.4192,"temp":33.4,"humidity":39,"rain":0.0,"pressure":989.3,"uv_index":9.35,"wind_gusts":33.5,"aqi":94,"pm10":20.0,"pm2_5":18.2,"mosquito_risk":0,"arthritis_risk":5,"migraine_risk":7,"frizz_risk":1,"updated_at":"2026-04-21T19:18:59.614858+05:30"},{"city":"Warangal","state":"Telangana","latitude":17.9689,"longitude":79.5941,"temp":32.0,"humidity":54,"rain":0.0,"pressure":976.9,"uv_index":9.15,"wind_gusts":30.2,"aqi":151,"pm10":46.9,"pm2_5":41.4,"mosquito_risk":0,"arthritis_risk":5,"migraine_risk":7,"frizz_risk":1,"updated_at":"2026-04-21T19:18:59.614865+05:30"},{"city":"Nizamabad","state":"Telangana","latitude":18.6725,"longitude":78.0941,"temp":34.8,"humidity":34,"rain":0.0,"pressure":962.4,"uv_index":9.1,"wind_gusts":23.4,"aqi":145,"pm10":37.7,"pm2_5":32.9,"mosquito_risk":0,"arthritis_risk":5,"migraine_risk":7,"frizz_risk":1,"updated_at":"2026-04-21T19:18:59.614871+05:30"},{"city":"Mysore","state":"Karnataka","latitude":12.2958,"longitude":76.6396,"temp":31.1,"humidity":35,"rain":0.0,"pressure":926.8,"uv_index":9.5,"wind_gusts":40.7,"aqi":154,"pm10":27.1,"pm2_5":23.4,"mosquito_risk":0,"arthritis_risk":5,"migraine_risk":7,"frizz_risk":0,"updated_at":"2026-04-21T19:18:59.614877+05:30"},{"city":"Mangalore","state":"Karnataka","latitude":12.9141,"longitude":74.856,"temp":29.6,"humidity":82,"rain":0.0,"pressure":1004.4,"uv_index":9.1,"wind_gusts":24.8,"aqi":87,"pm10":35.4,"pm2_5":27.3,"mosquito_risk":7,"arthritis_risk":5,"migraine_risk":4,"frizz_risk":1,"updated_at":"2026-04-21T19:18:59.614883+05:30"},{"city":"Hubli-Dharwad","state":"Karnataka","latitude":15.3647,"longitude":75.124,"temp":29.8,"humidity":54,"rain":0.0,"pressure":939.8,"uv_index":9.25,"wind_gusts":29.5,"aqi":162,"pm10":38.5,"pm2_5":33.2,"mosquito_risk":4,"arthritis_risk":5,"migraine_risk":7,"frizz_risk":1,"updated_at":"2026-04-21T19:18:59.614890+05:30"},{"city":"Belgaum","state":"Karnataka","latitude":15.8497,"longitude":74.4977,"temp":27.7,"humidity":67,"rain":0.0,"pressure":924.9,"uv_index":9.25,"wind_gusts":29.9,"aqi":168,"pm10":32.4,"pm2_5":26.7,"mosquito_risk":7,"arthritis_risk":5,"migraine_risk":7,"frizz_risk":1,"updated_at":"2026-04-21T19:19:02.875046+05:30"},{"city":"Coimbatore","state":"Tamil Nadu","latitude":11.0168,"longitude":76.9558,"temp":28.5,"humidity":69,"rain":0.0,"pressure":959.8,"uv_index":9.4,"wind_gusts":52.9,"aqi":135,"pm10":22.9,"pm2_5":19.7,"mosquito_risk":7,"arthritis_risk":5,"migraine_risk":7,"frizz_risk":1,"updated_at":"2026-04-21T19:19:02.875078+05:30"},{"city":"Madurai","state":"Tamil Nadu","latitude":9.9252,"longitude":78.1198,"temp":31.8,"humidity":60,"rain":0.0,"pressure":991.1,"uv_index":9.15,"wind_gusts":41.8,"aqi":104,"pm10":12.2,"pm2_5":11.0,"mosquito_risk":0,"arthritis_risk":5,"migraine_risk":7,"frizz_risk":1,"updated_at":"2026-04-21T19:19:02.875088+05:30"},{"city":"Trichy","state":"Tamil Nadu","latitude":10.7905,"longitude":78.7047,"temp":33.1,"humidity":52,"rain":0.0,"pressure":997.3,"uv_index":9.3,"wind_gusts":28.4,"aqi":76,"pm10":10.7,"pm2_5":10.1,"mosquito_risk":0,"arthritis_risk":5,"migraine_risk":7,"frizz_risk":1,"updated_at":"2026-04-21T19:19:02.875096+05:30"},{"city":"Salem","state":"Tamil Nadu","latitude":11.6643,"longitude":78.146,"temp":33.7,"humidity":33,"rain":0.0,"pressure":974.7,"uv_index":9.4,"wind_gusts":20.5,"aqi":127,"pm10":15.0,"pm2_5":12.0,"mosquito_risk":0,"arthritis_risk":5,"migraine_risk":7,"frizz_risk":0,"updated_at":"2026-04-21T19:19:02.875104+05:30"},{"city":"Tirunelveli","state":"Tamil Nadu","latitude":8.7139,"longitude":77.7567,"temp":32.1,"humidity":55,"rain":0.0,"pressure":1001.3,"uv_index":8.75,"wind_gusts":53.6,"aqi":97,"pm10":16.3,"pm2_5":14.6,"mosquito_risk":0,"arthritis_risk":5,"migraine_risk":4,"frizz_risk":1,"updated_at":"2026-04-21T19:19:02.875112+05:30"},{"city":"Vellore","state":"Tamil Nadu","latitude":12.9165,"longitude":79.1325,"temp":32.0,"humidity":42,"rain":0.0,"pressure":982.4,"uv_index":9.4,"wind_gusts":28.8,"aqi":89,"pm10":19.2,"pm2_5":17.5,"mosquito_risk":0,"arthritis_risk":5,"migraine_risk":7,"frizz_risk":1,"updated_at":"2026-04-21T19:19:02.875119+05:30"},{"city":"Erode","state":"Tamil Nadu","latitude":11.341,"longitude":77.7172,"temp":35.8,"humidity":32,"rain":0.0,"pressure":985.8,"uv_index":9.35,"wind_gusts":24.8,"aqi":107,"pm10":16.8,"pm2_5":13.6,"mosquito_risk":0,"arthritis_risk":5,"migraine_risk":10,"frizz_risk":1,"updated_at":"2026-04-21T19:19:02.875126+05:30"},{"city":"Kochi","state":"Kerala","latitude":9.9312,"longitude":76.2673,"temp":29.8,"humidity":80,"rain":0.0,"pressure":1006.6,"uv_index":9.05,"wind_gusts":31.7,"aqi":73,"pm10":26.0,"pm2_5":19.7,"mosquito_risk":7,"arthritis_risk":5,"migraine_risk":4,"frizz_risk":1,"updated_at":"2026-04-21T19:19:02.875134+05:30"},{"city":"Thiruvananthapuram","state":"Kerala","latitude":8.5241,"longitude":76.9366,"temp":29.2,"humidity":80,"rain":0.0,"pressure":1006.6,"uv_index":8.8,"wind_gusts":30.2,"aqi":55,"pm10":18.1,"pm2_5":12.6,"mosquito_risk":7,"arthritis_risk":5,"migraine_risk":4,"frizz_risk":1,"updated_at":"2026-04-21T19:19:02.875141+05:30"},{"city":"Kozhikode","state":"Kerala","latitude":11.2588,"longitude":75.7804,"temp":30.3,"humidity":78,"rain":0.0,"pressure":1005.9,"uv_index":9.1,"wind_gusts":31.7,"aqi":68,"pm10":32.5,"pm2_5":21.9,"mosquito_risk":3,"arthritis_risk":5,"migraine_risk":4,"frizz_risk":1,"updated_at":"2026-04-21T19:19:02.875149+05:30"},{"city":"Thrissur","state":"Kerala","latitude":10.5276,"longitude":76.2144,"temp":29.9,"humidity":78,"rain":0.0,"pressure":1005.1,"uv_index":9.05,"wind_gusts":38.2,"aqi":73,"pm10":23.3,"pm2_5":18.0,"mosquito_risk":7,"arthritis_risk":5,"migraine_risk":4,"frizz_risk":1,"updated_at":"2026-04-21T19:19:02.875157+05:30"},{"city":"Kannur","state":"Kerala","latitude":11.8745,"longitude":75.3704,"temp":29.7,"humidity":81,"rain":0.0,"pressure":1005.2,"uv_index":9.1,"wind_gusts":32.8,"aqi":75,"pm10":32.4,"pm2_5":23.7,"mosquito_risk":7,"arthritis_risk":5,"migraine_risk":4,"frizz_risk":1,"updated_at":"2026-04-21T19:19:02.875164+05:30"},{"city":"Patna","state":"Bihar","latitude":25.5941,"longitude":85.1376,"temp":34.4,"humidity":28,"rain":0.0,"pressure":994.7,"uv_index":8.65,"wind_gusts":37.4,"aqi":143,"pm10":92.2,"pm2_5":30.7,"mosquito_risk":0,"arthritis_risk":5,"migraine_risk":7,"frizz_risk":0,"updated_at":"2026-04-21T19:19:02.875171+05:30"},{"city":"Gaya","state":"Bihar","latitude":24.7914,"longitude":85.0002,"temp":34.9,"humidity":23,"rain":0.0,"pressure":989.0,"uv_index":8.75,"wind_gusts":33.8,"aqi":158,"pm10":116.4,"pm2_5":39.0,"mosquito_risk":0,"arthritis_risk":5,"migraine_risk":7,"frizz_risk":0,"updated_at":"2026-04-21T19:19:02.875177+05:30"},{"city":"Muzaffarpur","state":"Bihar","latitude":26.1209,"longitude":85.3647,"temp":32.6,"humidity":30,"rain":0.0,"pressure":994.2,"uv_index":8.65,"wind_gusts":36.7,"aqi":134,"pm10":76.8,"pm2_5":27.4,"mosquito_risk":0,"arthritis_risk":5,"migraine_risk":7,"frizz_risk":0,"updated_at":"2026-04-21T19:19:02.875183+05:30"},{"city":"Bhagalpur","state":"Bihar","latitude":25.2425,"longitude":87.0117,"temp":32.0,"humidity":42,"rain":0.0,"pressure":995.2,"uv_index":8.7,"wind_gusts":27.4,"aqi":156,"pm10":88.7,"pm2_5":32.5,"mosquito_risk":0,"arthritis_risk":5,"migraine_risk":7,"frizz_risk":1,"updated_at":"2026-04-21T19:19:02.875190+05:30"},{"city":"Ranchi","state":"Jharkhand","latitude":23.3441,"longitude":85.3096,"temp":31.4,"humidity":29,"rain":0.0,"pressure":935.7,"uv_index":9.25,"wind_gusts":34.2,"aqi":158,"pm10":29.9,"pm2_5":25.7,"mosquito_risk":0,"arthritis_risk":5,"migraine_risk":7,"frizz_risk":0,"updated_at":"2026-04-21T19:19:02.875196+05:30"},{"city":"Jamshedpur","state":"Jharkhand","latitude":22.8046,"longitude":86.2029,"temp":35.0,"humidity":35,"rain":0.0,"pressure":986.1,"uv_index":9.05,"wind_gusts":22.7,"aqi":190,"pm10":43.9,"pm2_5":34.1,"mosquito_risk":0,"arthritis_risk":5,"migraine_risk":7,"frizz_risk":1,"updated_at":"2026-04-21T19:19:02.875203+05:30"},{"city":"Dhanbad","state":"Jharkhand","latitude":23.7957,"longitude":86.4304,"temp":37.2,"humidity":16,"rain":0.0,"pressure":975.4,"uv_index":9.05,"wind_gusts":28.1,"aqi":157,"pm10":73.6,"pm2_5":47.1,"mosquito_risk":0,"arthritis_risk":5,"migraine_risk":10,"frizz_risk":0,"updated_at":"2026-04-21T19:19:02.875209+05:30"},{"city":"Bokaro","state":"Jharkhand","latitude":23.6693,"longitude":86.1511,"temp":34.7,"humidity":18,"rain":0.0,"pressure":979.6,"uv_index":9.05,"wind_gusts":34.6,"aqi":163,"pm10":63.3,"pm2_5":41.7,"mosquito_risk":0,"arthritis_risk":5,"migraine_risk":7,"frizz_risk":0,"updated_at":"2026-04-21T19:19:02.875216+05:30"},{"city":"Bhubaneswar","state":"Odisha","latitude":20.2961,"longitude":85.8245,"temp":28.5,"humidity":82,"rain":0.0,"pressure":1000.1,"uv_index":9.15,"wind_gusts":27.7,"aqi":171,"pm10":24.6,"pm2_5":22.1,"mosquito_risk":7,"arthritis_risk":5,"migraine_risk":4,"frizz_risk":1,"updated_at":"2026-04-21T19:19:02.875223+05:30"},{"city":"Cuttack","state":"Odisha","latitude":20.4625,"longitude":85.8828,"temp":29.8,"humidity":79,"rain":0.0,"pressure":1001.8,"uv_index":9.1,"wind_gusts":25.2,"aqi":171,"pm10":24.6,"pm2_5":22.1,"mosquito_risk":7,"arthritis_risk":5,"migraine_risk":4,"frizz_risk":1,"updated_at":"2026-04-21T19:19:02.875229+05:30"},{"city":"Rourkela","state":"Odisha","latitude":22.2604,"longitude":84.8536,"temp":34.6,"humidity":35,"rain":0.0,"pressure":981.5,"uv_index":8.95,"wind_gusts":31.0,"aqi":206,"pm10":46.4,"pm2_5":43.3,"mosquito_risk":0,"arthritis_risk":5,"migraine_risk":7,"frizz_risk":1,"updated_at":"2026-04-21T19:19:02.875236+05:30"},{"city":"Raipur","state":"Chhattisgarh","latitude":21.2514,"longitude":81.6296,"temp":36.1,"humidity":25,"rain":0.0,"pressure":971.3,"uv_index":9.0,"wind_gusts":33.5,"aqi":167,"pm10":38.5,"pm2_5":35.4,"mosquito_risk":0,"arthritis_risk":5,"migraine_risk":10,"frizz_risk":0,"updated_at":"2026-04-21T19:19:02.875243+05:30"},{"city":"Bhilai","state":"Chhattisgarh","latitude":21.1938,"longitude":81.3509,"temp":35.3,"humidity":29,"rain":0.0,"pressure":971.6,"uv_index":9.0,"wind_gusts":31.0,"aqi":158,"pm10":35.3,"pm2_5":31.9,"mosquito_risk":0,"arthritis_risk":5,"migraine_risk":10,"frizz_risk":0,"updated_at":"2026-04-21T19:19:02.875249+05:30"},{"city":"Guwahati","state":"Assam","latitude":26.1158,"longitude":91.7086,"temp":26.6,"humidity":86,"rain":0.0,"pressure":997.0,"uv_index":8.6,"wind_gusts":44.6,"aqi":99,"pm10":52.5,"pm2_5":40.0,"mosquito_risk":7,"arthritis_risk":5,"migraine_risk":7,"frizz_risk":1,"updated_at":"2026-04-21T19:19:02.875255+05:30"},{"city":"Agartala","state":"Tripura","latitude":23.8315,"longitude":91.2868,"temp":29.8,"humidity":75,"rain":0.0,"pressure":1002.3,"uv_index":8.8,"wind_gusts":33.5,"aqi":83,"pm10":29.8,"pm2_5":26.1,"mosquito_risk":7,"arthritis_risk":5,"migraine_risk":4,"frizz_risk":1,"updated_at":"2026-04-21T19:19:02.875262+05:30"},{"city":"Shillong","state":"Meghalaya","latitude":25.5788,"longitude":91.8933,"temp":17.4,"humidity":91,"rain":0.0,"pressure":854.2,"uv_index":9.05,"wind_gusts":70.6,"aqi":89,"pm10":51.1,"pm2_5":36.9,"mosquito_risk":3,"arthritis_risk":10,"migraine_risk":7,"frizz_risk":0,"updated_at":"2026-04-21T19:19:02.875269+05:30"},{"city":"Imphal","state":"Manipur","latitude":24.817,"longitude":93.9368,"temp":21.4,"humidity":86,"rain":0.0,"pressure":920.9,"uv_index":9.2,"wind_gusts":83.2,"aqi":153,"pm10":54.4,"pm2_5":45.8,"mosquito_risk":3,"arthritis_risk":5,"migraine_risk":7,"frizz_risk":1,"updated_at":"2026-04-21T19:19:02.875276+05:30"},{"city":"Aizawl","state":"Mizoram","latitude":23.7271,"longitude":92.7176,"temp":23.3,"humidity":78,"rain":0.0,"pressure":891.2,"uv_index":9.05,"wind_gusts":65.2,"aqi":101,"pm10":47.8,"pm2_5":40.3,"mosquito_risk":3,"arthritis_risk":5,"migraine_risk":7,"frizz_risk":1,"updated_at":"2026-04-21T19:19:02.875282+05:30"},{"city":"Kohima","state":"Nagaland","latitude":25.6701,"longitude":94.1077,"temp":19.8,"humidity":61,"rain":0.0,"pressure":853.0,"uv_index":9.15,"wind_gusts":107.6,"aqi":118,"pm10":58.0,"pm2_5":38.5,"mosquito_risk":3,"arthritis_risk":5,"migraine_risk":7,"frizz_risk":0,"updated_at":"2026-04-21T19:19:02.875289+05:30"},{"city":"Gangtok","state":"Sikkim","latitude":27.3314,"longitude":88.6138,"temp":18.8,"humidity":79,"rain":0.0,"pressure":835.6,"uv_index":9.0,"wind_gusts":18.4,"aqi":121,"pm10":31.8,"pm2_5":19.4,"mosquito_risk":3,"arthritis_risk":5,"migraine_risk":7,"frizz_risk":0,"updated_at":"2026-04-21T19:19:02.875295+05:30"},{"city":"Siliguri","state":"West Bengal","latitude":26.7271,"longitude":88.3953,"temp":24.6,"humidity":79,"rain":0.0,"pressure":988.7,"uv_index":8.55,"wind_gusts":31.0,"aqi":139,"pm10":75.7,"pm2_5":53.2,"mosquito_risk":3,"arthritis_risk":5,"migraine_risk":7,"frizz_risk":1,"updated_at":"2026-04-21T19:19:06.135752+05:30"},{"city":"Durgapur","state":"West Bengal","latitude":23.5204,"longitude":87.3119,"temp":32.1,"humidity":54,"rain":0.0,"pressure":990.4,"uv_index":8.95,"wind_gusts":43.6,"aqi":159,"pm10":85.2,"pm2_5":54.7,"mosquito_risk":0,"arthritis_risk":5,"migraine_risk":7,"frizz_risk":1,"updated_at":"2026-04-21T19:19:06.135783+05:30"},{"city":"Asansol","state":"West Bengal","latitude":23.6739,"longitude":86.9524,"temp":34.0,"humidity":47,"rain":0.0,"pressure":988.8,"uv_index":9.0,"wind_gusts":37.8,"aqi":158,"pm10":77.5,"pm2_5":43.8,"mosquito_risk":0,"arthritis_risk":5,"migraine_risk":7,"frizz_risk":1,"updated_at":"2026-04-21T19:19:06.135794+05:30"},{"city":"Pondicherry","state":"Puducherry","latitude":11.9139,"longitude":79.8145,"temp":29.4,"humidity":80,"rain":0.0,"pressure":1006.4,"uv_index":9.25,"wind_gusts":32.0,"aqi":109,"pm10":9.4,"pm2_5":6.8,"mosquito_risk":7,"arthritis_risk":5,"migraine_risk":4,"frizz_risk":1,"updated_at":"2026-04-21T19:19:06.135802+05:30"},{"city":"Port Blair","state":"Andaman and Nicobar Islands","latitude":11.6234,"longitude":92.7265,"temp":29.8,"humidity":72,"rain":0.0,"pressure":1006.2,"uv_index":9.1,"wind_gusts":16.2,"aqi":58,"pm10":15.7,"pm2_5":13.2,"mosquito_risk":7,"arthritis_risk":5,"migraine_risk":4,"frizz_risk":1,"updated_at":"2026-04-21T19:19:06.135810+05:30"},{"city":"Haridwar","state":"Uttarakhand","latitude":29.9457,"longitude":78.1642,"temp":30.1,"humidity":35,"rain":0.0,"pressure":970.7,"uv_index":7.1,"wind_gusts":35.3,"aqi":136,"pm10":43.1,"pm2_5":17.6,"mosquito_risk":0,"arthritis_risk":5,"migraine_risk":7,"frizz_risk":0,"updated_at":"2026-04-21T19:19:06.135818+05:30"},{"city":"Rishikesh","state":"Uttarakhand","latitude":30.0869,"longitude":78.2676,"temp":28.1,"humidity":46,"rain":0.0,"pressure":963.8,"uv_index":7.2,"wind_gusts":36.4,"aqi":132,"pm10":24.2,"pm2_5":13.0,"mosquito_risk":4,"arthritis_risk":5,"migraine_risk":7,"frizz_risk":0,"updated_at":"2026-04-21T19:19:06.135825+05:30"},{"city":"Nainital","state":"Uttarakhand","latitude":29.3919,"longitude":79.4542,"temp":23.6,"humidity":28,"rain":0.0,"pressure":806.1,"uv_index":8.05,"wind_gusts":53.6,"aqi":136,"pm10":38.8,"pm2_5":14.8,"mosquito_risk":0,"arthritis_risk":5,"migraine_risk":7,"frizz_risk":0,"updated_at":"2026-04-21T19:19:06.135833+05:30"},{"city":"Mussoorie","state":"Uttarakhand","latitude":30.4599,"longitude":78.0664,"temp":21.1,"humidity":40,"rain":0.0,"pressure":802.5,"uv_index":7.55,"wind_gusts":38.5,"aqi":135,"pm10":23.7,"pm2_5":14.4,"mosquito_risk":0,"arthritis_risk":5,"migraine_risk":7,"frizz_risk":0,"updated_at":"2026-04-21T19:19:06.135841+05:30"},{"city":"Dharamshala","state":"Himachal Pradesh","latitude":32.219,"longitude":76.3234,"temp":25.1,"humidity":32,"rain":0.0,"pressure":868.4,"uv_index":7.85,"wind_gusts":32.4,"aqi":103,"pm10":23.0,"pm2_5":10.7,"mosquito_risk":4,"arthritis_risk":5,"migraine_risk":7,"frizz_risk":0,"updated_at":"2026-04-21T19:19:06.135848+05:30"},{"city":"Dalhousie","state":"Himachal Pradesh","latitude":32.5387,"longitude":75.971,"temp":23.8,"humidity":33,"rain":0.0,"pressure":804.3,"uv_index":8.1,"wind_gusts":32.0,"aqi":126,"pm10":27.7,"pm2_5":14.0,"mosquito_risk":0,"arthritis_risk":5,"migraine_risk":7,"frizz_risk":0,"updated_at":"2026-04-21T19:19:06.135856+05:30"},{"city":"Patiala","state":"Punjab","latitude":30.3398,"longitude":76.3869,"temp":32.2,"humidity":26,"rain":0.0,"pressure":974.5,"uv_index":7.2,"wind_gusts":30.2,"aqi":419,"pm10":571.8,"pm2_5":63.8,"mosquito_risk":0,"arthritis_risk":5,"migraine_risk":7,"frizz_risk":0,"updated_at":"2026-04-21T19:19:06.135863+05:30"},{"city":"Bhatinda","state":"Punjab","latitude":30.211,"longitude":74.9455,"temp":35.1,"humidity":19,"rain":0.0,"pressure":980.0,"uv_index":7.85,"wind_gusts":34.2,"aqi":120,"pm10":39.8,"pm2_5":13.9,"mosquito_risk":0,"arthritis_risk":5,"migraine_risk":10,"frizz_risk":0,"updated_at":"2026-04-21T19:19:06.135870+05:30"},{"city":"Rohtak","state":"Haryana","latitude":28.8955,"longitude":76.6066,"temp":32.1,"humidity":27,"rain":0.0,"pressure":978.2,"uv_index":7.35,"wind_gusts":38.2,"aqi":670,"pm10":823.3,"pm2_5":97.6,"mosquito_risk":0,"arthritis_risk":5,"migraine_risk":7,"frizz_risk":0,"updated_at":"2026-04-21T19:19:06.135877+05:30"},{"city":"Panipat","state":"Haryana","latitude":29.3909,"longitude":76.9635,"temp":32.4,"humidity":26,"rain":0.0,"pressure":976.6,"uv_index":7.15,"wind_gusts":36.4,"aqi":1242,"pm10":1363.5,"pm2_5":151.3,"mosquito_risk":0,"arthritis_risk":5,"migraine_risk":7,"frizz_risk":0,"updated_at":"2026-04-21T19:19:06.135883+05:30"},{"city":"Mathura","state":"Uttar Pradesh","latitude":27.4924,"longitude":77.6737,"temp":34.9,"humidity":27,"rain":0.0,"pressure":982.8,"uv_index":7.6,"wind_gusts":32.4,"aqi":1072,"pm10":1195.8,"pm2_5":131.3,"mosquito_risk":0,"arthritis_risk":5,"migraine_risk":7,"frizz_risk":0,"updated_at":"2026-04-21T19:19:06.135889+05:30"},{"city":"Vrindavan","state":"Uttar Pradesh","latitude":27.5823,"longitude":77.7027,"temp":33.4,"humidity":26,"rain":0.0,"pressure":983.2,"uv_index":7.55,"wind_gusts":35.3,"aqi":1072,"pm10":1195.8,"pm2_5":131.3,"mosquito_risk":0,"arthritis_risk":5,"migraine_risk":7,"frizz_risk":0,"updated_at":"2026-04-21T19:19:06.135896+05:30"},{"city":"Ayodhya","state":"Uttar Pradesh","latitude":26.7922,"longitude":82.1998,"temp":34.5,"humidity":19,"rain":0.0,"pressure":990.2,"uv_index":8.05,"wind_gusts":49.7,"aqi":128,"pm10":102.7,"pm2_5":24.6,"mosquito_risk":0,"arthritis_risk":5,"migraine_risk":7,"frizz_risk":0,"updated_at":"2026-04-21T19:19:06.135901+05:30"},{"city":"Ratlam","state":"Madhya Pradesh","latitude":23.3315,"longitude":75.0367,"temp":30.6,"humidity":39,"rain":0.0,"pressure":953.5,"uv_index":8.45,"wind_gusts":33.8,"aqi":93,"pm10":17.2,"pm2_5":13.5,"mosquito_risk":0,"arthritis_risk":5,"migraine_risk":7,"frizz_risk":0,"updated_at":"2026-04-21T19:19:06.135908+05:30"},{"city":"Sagar","state":"Madhya Pradesh","latitude":23.8388,"longitude":78.7378,"temp":34.0,"humidity":20,"rain":0.0,"pressure":947.9,"uv_index":8.65,"wind_gusts":36.7,"aqi":122,"pm10":14.6,"pm2_5":9.6,"mosquito_risk":0,"arthritis_risk":5,"migraine_risk":7,"frizz_risk":0,"updated_at":"2026-04-21T19:19:06.135914+05:30"},{"city":"Satna","state":"Madhya Pradesh","latitude":24.6005,"longitude":80.8322,"temp":35.5,"humidity":19,"rain":0.0,"pressure":967.7,"uv_index":8.65,"wind_gusts":35.3,"aqi":130,"pm10":92.0,"pm2_5":20.8,"mosquito_risk":0,"arthritis_risk":5,"migraine_risk":10,"frizz_risk":0,"updated_at":"2026-04-21T19:19:06.135920+05:30"},{"city":"Akola","state":"Maharashtra","latitude":20.7002,"longitude":77.0082,"temp":36.9,"humidity":21,"rain":0.0,"pressure":972.3,"uv_index":8.85,"wind_gusts":27.4,"aqi":132,"pm10":26.8,"pm2_5":22.7,"mosquito_risk":0,"arthritis_risk":5,"migraine_risk":10,"frizz_risk":0,"updated_at":"2026-04-21T19:19:06.135927+05:30"},{"city":"Amravati","state":"Maharashtra","latitude":20.9374,"longitude":77.7796,"temp":34.8,"humidity":27,"rain":0.0,"pressure":964.3,"uv_index":8.85,"wind_gusts":37.8,"aqi":130,"pm10":28.5,"pm2_5":23.3,"mosquito_risk":0,"arthritis_risk":5,"migraine_risk":7,"frizz_risk":0,"updated_at":"2026-04-21T19:19:06.135934+05:30"},{"city":"Latur","state":"Maharashtra","latitude":18.4088,"longitude":76.5604,"temp":32.3,"humidity":32,"rain":0.0,"pressure":938.0,"uv_index":9.1,"wind_gusts":35.3,"aqi":174,"pm10":42.4,"pm2_5":37.7,"mosquito_risk":0,"arthritis_risk":5,"migraine_risk":7,"frizz_risk":0,"updated_at":"2026-04-21T19:19:06.135940+05:30"},{"city":"Nanded","state":"Maharashtra","latitude":19.1383,"longitude":77.3091,"temp":34.9,"humidity":28,"rain":0.0,"pressure":965.8,"uv_index":9.0,"wind_gusts":24.5,"aqi":148,"pm10":31.0,"pm2_5":25.8,"mosquito_risk":0,"arthritis_risk":5,"migraine_risk":7,"frizz_risk":0,"updated_at":"2026-04-21T19:19:06.135946+05:30"},{"city":"Gulbarga","state":"Karnataka","latitude":17.3297,"longitude":76.8343,"temp":35.2,"humidity":30,"rain":0.0,"pressure":956.7,"uv_index":9.15,"wind_gusts":29.5,"aqi":176,"pm10":37.8,"pm2_5":32.6,"mosquito_risk":0,"arthritis_risk":5,"migraine_risk":10,"frizz_risk":0,"updated_at":"2026-04-21T19:19:06.135953+05:30"},{"city":"Bidar","state":"Karnataka","latitude":17.9104,"longitude":77.5199,"temp":34.0,"humidity":30,"rain":0.0,"pressure":934.1,"uv_index":8.1,"wind_gusts":22.3,"aqi":148,"pm10":36.2,"pm2_5":31.8,"mosquito_risk":0,"arthritis_risk":5,"migraine_risk":7,"frizz_risk":0,"updated_at":"2026-04-21T19:19:06.135959+05:30"},{"city":"Hospet","state":"Karnataka","latitude":15.2689,"longitude":76.3909,"temp":30.9,"humidity":53,"rain":0.0,"pressure":955.0,"uv_index":9.3,"wind_gusts":35.3,"aqi":171,"pm10":42.4,"pm2_5":34.6,"mosquito_risk":0,"arthritis_risk":5,"migraine_risk":7,"frizz_risk":1,"updated_at":"2026-04-21T19:19:06.135965+05:30"},{"city":"Tirupur","state":"Tamil Nadu","latitude":11.1085,"longitude":77.3411,"temp":35.1,"humidity":31,"rain":0.0,"pressure":972.6,"uv_index":9.45,"wind_gusts":40.3,"aqi":128,"pm10":21.4,"pm2_5":17.2,"mosquito_risk":0,"arthritis_risk":5,"migraine_risk":10,"frizz_risk":0,"updated_at":"2026-04-21T19:19:06.135972+05:30"},{"city":"Alappuzha","state":"Kerala","latitude":9.4981,"longitude":76.3388,"temp":29.9,"humidity":79,"rain":0.0,"pressure":1006.9,"uv_index":7.85,"wind_gusts":29.2,"aqi":68,"pm10":26.1,"pm2_5":18.7,"mosquito_risk":7,"arthritis_risk":5,"migraine_risk":4,"frizz_risk":1,"updated_at":"2026-04-21T19:19:06.135978+05:30"},{"city":"Munnar","state":"Kerala","latitude":10.0889,"longitude":77.0595,"temp":23.5,"humidity":88,"rain":0.0,"pressure":856.4,"uv_index":9.65,"wind_gusts":40.0,"aqi":99,"pm10":22.8,"pm2_5":19.5,"mosquito_risk":3,"arthritis_risk":5,"migraine_risk":7,"frizz_risk":1,"updated_at":"2026-04-21T19:19:06.135984+05:30"},{"city":"Silchar","state":"Assam","latitude":24.8333,"longitude":92.7789,"temp":26.2,"humidity":84,"rain":0.0,"pressure":1001.8,"uv_index":8.8,"wind_gusts":47.5,"aqi":151,"pm10":71.7,"pm2_5":56.2,"mosquito_risk":7,"arthritis_risk":5,"migraine_risk":4,"frizz_risk":1,"updated_at":"2026-04-21T19:19:06.135991+05:30"},{"city":"Dibrugarh","state":"Assam","latitude":27.4728,"longitude":94.912,"temp":23.8,"humidity":90,"rain":0.0,"pressure":992.4,"uv_index":7.95,"wind_gusts":34.6,"aqi":71,"pm10":23.3,"pm2_5":17.3,"mosquito_risk":3,"arthritis_risk":5,"migraine_risk":7,"frizz_risk":1,"updated_at":"2026-04-21T19:19:06.135998+05:30"}]