[{"city":"Delhi","state":"Delhi","latitude":28.6139,"longitude":77.209,"temp":30.2,"humidity":83,"rain":0.0,"pressure":975.6,"uv_index":7.05,"wind_gusts":22.7,"aqi":129,"pm10":78.2,"pm2_5":54.6,"no2":34.7,"co":811.0,"o3":73.0,"so2":34.4,"mosquito_risk":3,"arthritis_risk":5,"migraine_risk":7,"frizz_risk":1,"updated_at":"2026-07-06T00:51:07.572707+05:30"},{"city":"Mumbai","state":"Maharashtra","latitude":19.076,"longitude":72.8777,"temp":26.8,"humidity":89,"rain":0.2,"pressure":1000.2,"uv_index":1.15,"wind_gusts":66.2,"aqi":34,"pm10":33.5,"pm2_5":14.6,"no2":4.9,"co":119.0,"o3":54.0,"so2":4.1,"mosquito_risk":10,"arthritis_risk":5,"migraine_risk":0,"frizz_risk":1,"updated_at":"2026-07-06T00:51:07.572756+05:30"},{"city":"Bangalore","state":"Karnataka","latitude":12.9716,"longitude":77.5946,"temp":20.9,"humidity":86,"rain":0.0,"pressure":909.3,"uv_index":6.1,"wind_gusts":70.6,"aqi":25,"pm10":4.6,"pm2_5":3.2,"no2":5.4,"co":173.0,"o3":44.0,"so2":2.8,"mosquito_risk":3,"arthritis_risk":5,"migraine_risk":7,"frizz_risk":1,"updated_at":"2026-07-06T00:51:07.572772+05:30"},{"city":"Hyderabad","state":"Telangana","latitude":17.385,"longitude":78.4867,"temp":24.4,"humidity":78,"rain":0.1,"pressure":947.6,"uv_index":4.1,"wind_gusts":62.6,"aqi":24,"pm10":5.1,"pm2_5":3.4,"no2":5.3,"co":131.0,"o3":44.0,"so2":3.5,"mosquito_risk":6,"arthritis_risk":5,"migraine_risk":3,"frizz_risk":1,"updated_at":"2026-07-06T00:51:07.572783+05:30"},{"city":"Chennai","state":"Tamil Nadu","latitude":13.0827,"longitude":80.2707,"temp":31.8,"humidity":43,"rain":0.0,"pressure":1004.0,"uv_index":7.85,"wind_gusts":55.4,"aqi":52,"pm10":16.5,"pm2_5":11.0,"no2":10.4,"co":168.0,"o3":48.0,"so2":7.5,"mosquito_risk":0,"arthritis_risk":5,"migraine_risk":4,"frizz_risk":1,"updated_at":"2026-07-06T00:51:07.572792+05:30"},{"city":"Kolkata","state":"West Bengal","latitude":22.5726,"longitude":88.3639,"temp":26.2,"humidity":96,"rain":0.2,"pressure":993.7,"uv_index":7.6,"wind_gusts":40.7,"aqi":48,"pm10":14.0,"pm2_5":12.0,"no2":7.3,"co":216.0,"o3":70.0,"so2":5.3,"mosquito_risk":10,"arthritis_risk":5,"migraine_risk":7,"frizz_risk":1,"updated_at":"2026-07-06T00:51:07.572801+05:30"},{"city":"Pune","state":"Maharashtra","latitude":18.5204,"longitude":73.8567,"temp":23.2,"humidity":94,"rain":0.1,"pressure":940.1,"uv_index":1.0,"wind_gusts":59.4,"aqi":20,"pm10":1.4,"pm2_5":1.2,"no2":5.0,"co":113.0,"o3":48.0,"so2":4.0,"mosquito_risk":6,"arthritis_risk":5,"migraine_risk":3,"frizz_risk":1,"updated_at":"2026-07-06T00:51:07.572808+05:30"},{"city":"Ahmedabad","state":"Gujarat","latitude":23.0225,"longitude":72.5714,"temp":27.5,"humidity":97,"rain":0.0,"pressure":992.9,"uv_index":7.25,"wind_gusts":29.9,"aqi":79,"pm10":42.1,"pm2_5":24.6,"no2":14.0,"co":441.0,"o3":58.0,"so2":7.2,"mosquito_risk":7,"arthritis_risk":5,"migraine_risk":7,"frizz_risk":1,"updated_at":"2026-07-06T00:51:07.572816+05:30"},{"city":"Jaipur","state":"Rajasthan","latitude":26.9124,"longitude":75.7873,"temp":29.2,"humidity":81,"rain":0.0,"pressure":952.3,"uv_index":8.15,"wind_gusts":20.2,"aqi":75,"pm10":20.3,"pm2_5":18.0,"no2":20.4,"co":533.0,"o3":69.0,"so2":7.2,"mosquito_risk":7,"arthritis_risk":5,"migraine_risk":7,"frizz_risk":1,"updated_at":"2026-07-06T00:51:07.572823+05:30"},{"city":"Lucknow","state":"Uttar Pradesh","latitude":26.8467,"longitude":80.9462,"temp":30.0,"humidity":81,"rain":0.0,"pressure":985.7,"uv_index":8.15,"wind_gusts":33.1,"aqi":91,"pm10":41.1,"pm2_5":40.9,"no2":23.6,"co":327.0,"o3":63.0,"so2":10.3,"mosquito_risk":7,"arthritis_risk":5,"migraine_risk":7,"frizz_risk":1,"updated_at":"2026-07-06T00:51:07.572834+05:30"},{"city":"Kanpur","state":"Uttar Pradesh","latitude":26.4499,"longitude":80.3319,"temp":30.1,"humidity":86,"rain":0.0,"pressure":983.8,"uv_index":8.0,"wind_gusts":35.6,"aqi":78,"pm10":28.4,"pm2_5":28.2,"no2":18.8,"co":361.0,"o3":68.0,"so2":6.7,"mosquito_risk":3,"arthritis_risk":5,"migraine_risk":7,"frizz_risk":1,"updated_at":"2026-07-06T00:51:07.572841+05:30"},{"city":"Chandigarh","state":"Chandigarh","latitude":30.7333,"longitude":76.7794,"temp":29.0,"humidity":80,"rain":0.0,"pressure":962.5,"uv_index":6.9,"wind_gusts":22.3,"aqi":158,"pm10":85.0,"pm2_5":83.1,"no2":28.8,"co":587.0,"o3":87.0,"so2":15.4,"mosquito_risk":7,"arthritis_risk":5,"migraine_risk":7,"frizz_risk":1,"updated_at":"2026-07-06T00:51:07.572848+05:30"},{"city":"Srinagar","state":"Jammu and Kashmir","latitude":34.0837,"longitude":74.7973,"temp":22.0,"humidity":71,"rain":0.0,"pressure":836.8,"uv_index":9.05,"wind_gusts":26.3,"aqi":90,"pm10":54.1,"pm2_5":49.9,"no2":31.3,"co":653.0,"o3":22.0,"so2":2.2,"mosquito_risk":3,"arthritis_risk":5,"migraine_risk":7,"frizz_risk":1,"updated_at":"2026-07-06T00:51:07.572855+05:30"},{"city":"Jammu","state":"Jammu and Kashmir","latitude":32.7266,"longitude":74.857,"temp":30.0,"humidity":75,"rain":0.0,"pressure":965.6,"uv_index":8.6,"wind_gusts":28.1,"aqi":153,"pm10":102.4,"pm2_5":89.4,"no2":48.2,"co":439.0,"o3":51.0,"so2":11.7,"mosquito_risk":7,"arthritis_risk":5,"migraine_risk":7,"frizz_risk":1,"updated_at":"2026-07-06T00:51:07.572861+05:30"},{"city":"Amritsar","state":"Punjab","latitude":31.634,"longitude":74.8723,"temp":30.1,"humidity":79,"rain":0.0,"pressure":973.0,"uv_index":8.45,"wind_gusts":37.8,"aqi":161,"pm10":92.4,"pm2_5":82.9,"no2":20.4,"co":617.0,"o3":87.0,"so2":10.2,"mosquito_risk":3,"arthritis_risk":5,"migraine_risk":7,"frizz_risk":1,"updated_at":"2026-07-06T00:51:07.572868+05:30"},{"city":"Ludhiana","state":"Punjab","latitude":30.901,"longitude":75.8573,"temp":29.9,"humidity":85,"rain":0.0,"pressure":971.3,"uv_index":7.8,"wind_gusts":29.9,"aqi":177,"pm10":149.5,"pm2_5":109.0,"no2":31.7,"co":824.0,"o3":74.0,"so2":11.8,"mosquito_risk":7,"arthritis_risk":5,"migraine_risk":7,"frizz_risk":1,"updated_at":"2026-07-06T00:51:07.572875+05:30"},{"city":"Jalandhar","state":"Punjab","latitude":31.326,"longitude":75.5762,"temp":29.4,"humidity":85,"rain":0.0,"pressure":972.3,"uv_index":8.2,"wind_gusts":29.9,"aqi":172,"pm10":113.2,"pm2_5":90.1,"no2":23.8,"co":1054.0,"o3":80.0,"so2":9.8,"mosquito_risk":7,"arthritis_risk":5,"migraine_risk":7,"frizz_risk":1,"updated_at":"2026-07-06T00:51:07.572882+05:30"},{"city":"Dehradun","state":"Uttarakhand","latitude":30.6284,"longitude":78.0322,"temp":19.3,"humidity":99,"rain":0.0,"pressure":827.8,"uv_index":6.75,"wind_gusts":29.9,"aqi":61,"pm10":28.1,"pm2_5":27.8,"no2":18.3,"co":261.0,"o3":81.0,"so2":0.8,"mosquito_risk":3,"arthritis_risk":10,"migraine_risk":7,"frizz_risk":1,"updated_at":"2026-07-06T00:51:07.572889+05:30"},{"city":"Shimla","state":"Himachal Pradesh","latitude":31.1048,"longitude":77.1734,"temp":16.6,"humidity":97,"rain":0.0,"pressure":782.1,"uv_index":7.45,"wind_gusts":29.5,"aqi":75,"pm10":40.3,"pm2_5":39.1,"no2":9.1,"co":386.0,"o3":101.0,"so2":1.2,"mosquito_risk":3,"arthritis_risk":10,"migraine_risk":7,"frizz_risk":1,"updated_at":"2026-07-06T00:51:07.572896+05:30"},{"city":"Manali","state":"Himachal Pradesh","latitude":32.2396,"longitude":77.1887,"temp":20.9,"humidity":92,"rain":0.0,"pressure":817.9,"uv_index":9.15,"wind_gusts":36.0,"aqi":51,"pm10":11.1,"pm2_5":11.0,"no2":10.7,"co":265.0,"o3":113.0,"so2":0.1,"mosquito_risk":3,"arthritis_risk":5,"migraine_risk":7,"frizz_risk":1,"updated_at":"2026-07-06T00:51:07.572906+05:30"},{"city":"Gurgaon","state":"Haryana","latitude":28.4595,"longitude":77.0266,"temp":30.1,"humidity":83,"rain":0.0,"pressure":973.9,"uv_index":7.0,"wind_gusts":26.6,"aqi":121,"pm10":81.0,"pm2_5":50.5,"no2":32.8,"co":510.0,"o3":70.0,"so2":21.6,"mosquito_risk":3,"arthritis_risk":5,"migraine_risk":7,"frizz_risk":1,"updated_at":"2026-07-06T00:51:07.572914+05:30"},{"city":"Noida","state":"Uttar Pradesh","latitude":28.5355,"longitude":77.391,"temp":30.2,"humidity":81,"rain":0.0,"pressure":977.0,"uv_index":6.4,"wind_gusts":20.9,"aqi":121,"pm10":81.0,"pm2_5":50.5,"no2":32.8,"co":978.0,"o3":70.0,"so2":21.6,"mosquito_risk":3,"arthritis_risk":5,"migraine_risk":7,"frizz_risk":1,"updated_at":"2026-07-06T00:51:07.572921+05:30"},{"city":"Ghaziabad","state":"Uttar Pradesh","latitude":28.6692,"longitude":77.4538,"temp":30.0,"humidity":82,"rain":0.0,"pressure":975.3,"uv_index":7.1,"wind_gusts":21.2,"aqi":103,"pm10":45.2,"pm2_5":43.0,"no2":20.4,"co":555.0,"o3":81.0,"so2":11.1,"mosquito_risk":7,"arthritis_risk":5,"migraine_risk":7,"frizz_risk":1,"updated_at":"2026-07-06T00:51:07.572928+05:30"},{"city":"Faridabad","state":"Haryana","latitude":28.4089,"longitude":77.3178,"temp":30.5,"humidity":80,"rain":0.0,"pressure":976.2,"uv_index":7.0,"wind_gusts":25.6,"aqi":121,"pm10":81.0,"pm2_5":50.5,"no2":32.8,"co":625.0,"o3":70.0,"so2":21.6,"mosquito_risk":3,"arthritis_risk":5,"migraine_risk":7,"frizz_risk":1,"updated_at":"2026-07-06T00:51:07.572935+05:30"},{"city":"Meerut","state":"Uttar Pradesh","latitude":28.9845,"longitude":77.7064,"temp":29.3,"humidity":84,"rain":0.0,"pressure":974.4,"uv_index":6.3,"wind_gusts":28.4,"aqi":103,"pm10":45.2,"pm2_5":43.0,"no2":20.4,"co":493.0,"o3":81.0,"so2":11.1,"mosquito_risk":7,"arthritis_risk":5,"migraine_risk":7,"frizz_risk":1,"updated_at":"2026-07-06T00:51:07.572943+05:30"},{"city":"Agra","state":"Uttar Pradesh","latitude":27.1767,"longitude":78.0081,"temp":29.6,"humidity":83,"rain":0.0,"pressure":980.0,"uv_index":8.05,"wind_gusts":23.0,"aqi":98,"pm10":63.8,"pm2_5":37.3,"no2":27.0,"co":388.0,"o3":53.0,"so2":10.3,"mosquito_risk":7,"arthritis_risk":5,"migraine_risk":7,"frizz_risk":1,"updated_at":"2026-07-06T00:51:07.572950+05:30"},{"city":"Varanasi","state":"Uttar Pradesh","latitude":25.3176,"longitude":82.9739,"temp":29.4,"humidity":77,"rain":0.0,"pressure":989.0,"uv_index":5.7,"wind_gusts":50.0,"aqi":85,"pm10":25.5,"pm2_5":25.4,"no2":18.0,"co":381.0,"o3":65.0,"so2":8.9,"mosquito_risk":7,"arthritis_risk":5,"migraine_risk":3,"frizz_risk":1,"updated_at":"2026-07-06T00:51:07.572957+05:30"},{"city":"Prayagraj","state":"Uttar Pradesh","latitude":25.4358,"longitude":81.8463,"temp":27.2,"humidity":95,"rain":0.0,"pressure":987.7,"uv_index":7.05,"wind_gusts":45.7,"aqi":88,"pm10":38.9,"pm2_5":38.8,"no2":25.1,"co":353.0,"o3":51.0,"so2":9.1,"mosquito_risk":7,"arthritis_risk":5,"migraine_risk":7,"frizz_risk":1,"updated_at":"2026-07-06T00:51:07.572964+05:30"},{"city":"Gorakhpur","state":"Uttar Pradesh","latitude":26.7606,"longitude":83.3732,"temp":29.8,"humidity":81,"rain":0.0,"pressure":989.3,"uv_index":5.65,"wind_gusts":49.3,"aqi":88,"pm10":30.9,"pm2_5":30.5,"no2":16.2,"co":449.0,"o3":71.0,"so2":6.6,"mosquito_risk":7,"arthritis_risk":5,"migraine_risk":3,"frizz_risk":1,"updated_at":"2026-07-06T00:51:07.572971+05:30"},{"city":"Bareilly","state":"Uttar Pradesh","latitude":28.367,"longitude":79.4304,"temp":29.6,"humidity":85,"rain":0.1,"pressure":979.9,"uv_index":5.35,"wind_gusts":22.3,"aqi":86,"pm10":36.2,"pm2_5":35.9,"no2":23.6,"co":371.0,"o3":52.0,"so2":8.6,"mosquito_risk":10,"arthritis_risk":5,"migraine_risk":3,"frizz_risk":1,"updated_at":"2026-07-06T00:51:07.572980+05:30"},{"city":"Aligarh","state":"Uttar Pradesh","latitude":27.8974,"longitude":78.088,"temp":30.3,"humidity":77,"rain":0.0,"pressure":978.1,"uv_index":6.0,"wind_gusts":23.0,"aqi":96,"pm10":59.0,"pm2_5":47.8,"no2":28.2,"co":478.0,"o3":53.0,"so2":9.4,"mosquito_risk":3,"arthritis_risk":5,"migraine_risk":3,"frizz_risk":1,"updated_at":"2026-07-06T00:51:07.572988+05:30"},{"city":"Moradabad","state":"Uttar Pradesh","latitude":28.8386,"longitude":78.7733,"temp":30.1,"humidity":82,"rain":0.0,"pressure":976.7,"uv_index":4.5,"wind_gusts":22.7,"aqi":103,"pm10":44.5,"pm2_5":44.2,"no2":24.5,"co":404.0,"o3":62.0,"so2":11.0,"mosquito_risk":3,"arthritis_risk":5,"migraine_risk":3,"frizz_risk":1,"updated_at":"2026-07-06T00:51:07.572994+05:30"},{"city":"Saharanpur","state":"Uttar Pradesh","latitude":29.9637,"longitude":77.546,"temp":28.8,"humidity":89,"rain":0.0,"pressure":969.3,"uv_index":5.8,"wind_gusts":26.3,"aqi":150,"pm10":32.9,"pm2_5":32.5,"no2":8.4,"co":409.0,"o3":104.0,"so2":4.5,"mosquito_risk":7,"arthritis_risk":5,"migraine_risk":3,"frizz_risk":1,"updated_at":"2026-07-06T00:51:07.573000+05:30"},{"city":"Jhansi","state":"Uttar Pradesh","latitude":25.4484,"longitude":78.5685,"temp":28.8,"humidity":95,"rain":0.0,"pressure":969.8,"uv_index":8.3,"wind_gusts":29.2,"aqi":68,"pm10":30.5,"pm2_5":29.9,"no2":21.1,"co":219.0,"o3":68.0,"so2":6.0,"mosquito_risk":7,"arthritis_risk":5,"migraine_risk":7,"frizz_risk":1,"updated_at":"2026-07-06T00:51:10.836455+05:30"},{"city":"Surat","state":"Gujarat","latitude":21.1702,"longitude":72.8311,"temp":26.3,"humidity":98,"rain":0.0,"pressure":997.6,"uv_index":6.35,"wind_gusts":38.9,"aqi":81,"pm10":30.5,"pm2_5":24.4,"no2":34.5,"co":884.0,"o3":20.0,"so2":47.9,"mosquito_risk":7,"arthritis_risk":5,"migraine_risk":7,"frizz_risk":1,"updated_at":"2026-07-06T00:51:10.836488+05:30"},{"city":"Vadodara","state":"Gujarat","latitude":22.3072,"longitude":73.1812,"temp":26.6,"humidity":98,"rain":0.0,"pressure":995.0,"uv_index":7.45,"wind_gusts":24.8,"aqi":68,"pm10":28.6,"pm2_5":22.8,"no2":22.0,"co":429.0,"o3":39.0,"so2":12.1,"mosquito_risk":7,"arthritis_risk":5,"migraine_risk":7,"frizz_risk":1,"updated_at":"2026-07-06T00:51:10.836500+05:30"},{"city":"Rajkot","state":"Gujarat","latitude":22.3039,"longitude":70.8022,"temp":27.1,"humidity":92,"rain":0.0,"pressure":985.5,"uv_index":7.55,"wind_gusts":39.2,"aqi":70,"pm10":48.0,"pm2_5":21.2,"no2":7.6,"co":111.0,"o3":40.0,"so2":5.4,"mosquito_risk":7,"arthritis_risk":5,"migraine_risk":7,"frizz_risk":1,"updated_at":"2026-07-06T00:51:10.836510+05:30"},{"city":"Thane","state":"Maharashtra","latitude":19.2183,"longitude":72.9781,"temp":25.9,"humidity":95,"rain":0.4,"pressure":999.1,"uv_index":0.5,"wind_gusts":48.6,"aqi":34,"pm10":33.5,"pm2_5":14.6,"no2":4.9,"co":128.0,"o3":54.0,"so2":4.1,"mosquito_risk":10,"arthritis_risk":5,"migraine_risk":3,"frizz_risk":1,"updated_at":"2026-07-06T00:51:10.836519+05:30"},{"city":"Nagpur","state":"Maharashtra","latitude":21.1458,"longitude":79.0882,"temp":26.4,"humidity":87,"rain":0.0,"pressure":965.1,"uv_index":6.4,"wind_gusts":32.4,"aqi":39,"pm10":11.4,"pm2_5":11.3,"no2":14.7,"co":212.0,"o3":38.0,"so2":9.4,"mosquito_risk":7,"arthritis_risk":5,"migraine_risk":7,"frizz_risk":1,"updated_at":"2026-07-06T00:51:10.836528+05:30"},{"city":"Nashik","state":"Maharashtra","latitude":19.9975,"longitude":73.7898,"temp":23.5,"humidity":96,"rain":0.0,"pressure":936.0,"uv_index":1.5,"wind_gusts":31.0,"aqi":21,"pm10":1.7,"pm2_5":1.4,"no2":5.5,"co":115.0,"o3":45.0,"so2":2.7,"mosquito_risk":3,"arthritis_risk":5,"migraine_risk":3,"frizz_risk":1,"updated_at":"2026-07-06T00:51:10.836536+05:30"},{"city":"Aurangabad","state":"Maharashtra","latitude":19.8762,"longitude":75.3433,"temp":23.1,"humidity":97,"rain":0.1,"pressure":935.8,"uv_index":3.25,"wind_gusts":34.9,"aqi":24,"pm10":1.8,"pm2_5":1.6,"no2":5.9,"co":137.0,"o3":44.0,"so2":5.6,"mosquito_risk":6,"arthritis_risk":5,"migraine_risk":3,"frizz_risk":1,"updated_at":"2026-07-06T00:51:10.836544+05:30"},{"city":"Solapur","state":"Maharashtra","latitude":17.6599,"longitude":75.9064,"temp":23.5,"humidity":93,"rain":0.1,"pressure":951.6,"uv_index":1.3,"wind_gusts":68.8,"aqi":22,"pm10":2.2,"pm2_5":1.9,"no2":3.8,"co":116.0,"o3":45.0,"so2":1.9,"mosquito_risk":6,"arthritis_risk":5,"migraine_risk":3,"frizz_risk":1,"updated_at":"2026-07-06T00:51:10.836553+05:30"},{"city":"Kolhapur","state":"Maharashtra","latitude":16.705,"longitude":74.2433,"temp":22.0,"humidity":96,"rain":0.3,"pressure":942.9,"uv_index":0.85,"wind_gusts":69.1,"aqi":23,"pm10":3.6,"pm2_5":2.3,"no2":2.6,"co":109.0,"o3":51.0,"so2":1.3,"mosquito_risk":6,"arthritis_risk":5,"migraine_risk":3,"frizz_risk":1,"updated_at":"2026-07-06T00:51:10.836563+05:30"},{"city":"Goa","state":"Goa","latitude":15.2993,"longitude":74.124,"temp":24.1,"humidity":99,"rain":0.6,"pressure":995.5,"uv_index":2.6,"wind_gusts":44.3,"aqi":50,"pm10":26.1,"pm2_5":12.8,"no2":1.4,"co":147.0,"o3":57.0,"so2":0.6,"mosquito_risk":6,"arthritis_risk":5,"migraine_risk":3,"frizz_risk":1,"updated_at":"2026-07-06T00:51:10.836571+05:30"},{"city":"Jodhpur","state":"Rajasthan","latitude":26.2389,"longitude":73.0243,"temp":30.3,"humidity":80,"rain":0.1,"pressure":974.5,"uv_index":8.45,"wind_gusts":31.0,"aqi":105,"pm10":49.9,"pm2_5":22.2,"no2":6.6,"co":194.0,"o3":74.0,"so2":2.7,"mosquito_risk":6,"arthritis_risk":5,"migraine_risk":7,"frizz_risk":1,"updated_at":"2026-07-06T00:51:10.836579+05:30"},{"city":"Udaipur","state":"Rajasthan","latitude":24.5854,"longitude":73.7125,"temp":25.8,"humidity":98,"rain":0.0,"pressure":938.2,"uv_index":7.55,"wind_gusts":32.8,"aqi":71,"pm10":38.2,"pm2_5":25.4,"no2":13.8,"co":335.0,"o3":45.0,"so2":4.1,"mosquito_risk":7,"arthritis_risk":5,"migraine_risk":7,"frizz_risk":1,"updated_at":"2026-07-06T00:51:10.836588+05:30"},{"city":"Kota","state":"Rajasthan","latitude":25.2138,"longitude":75.8648,"temp":29.1,"humidity":82,"rain":0.0,"pressure":970.5,"uv_index":8.25,"wind_gusts":32.8,"aqi":74,"pm10":24.2,"pm2_5":22.4,"no2":10.1,"co":329.0,"o3":81.0,"so2":5.4,"mosquito_risk":7,"arthritis_risk":5,"migraine_risk":7,"frizz_risk":1,"updated_at":"2026-07-06T00:51:10.836597+05:30"},{"city":"Bikaner","state":"Rajasthan","latitude":28.0229,"longitude":73.3119,"temp":33.9,"humidity":51,"rain":0.0,"pressure":973.1,"uv_index":8.45,"wind_gusts":34.2,"aqi":140,"pm10":65.9,"pm2_5":37.4,"no2":5.0,"co":212.0,"o3":81.0,"so2":5.7,"mosquito_risk":0,"arthritis_risk":5,"migraine_risk":7,"frizz_risk":1,"updated_at":"2026-07-06T00:51:10.836605+05:30"},{"city":"Ajmer","state":"Rajasthan","latitude":26.4499,"longitude":74.6399,"temp":27.9,"humidity":81,"rain":0.0,"pressure":946.8,"uv_index":8.3,"wind_gusts":24.5,"aqi":87,"pm10":27.2,"pm2_5":17.9,"no2":7.9,"co":495.0,"o3":80.0,"so2":2.2,"mosquito_risk":7,"arthritis_risk":5,"migraine_risk":7,"frizz_risk":1,"updated_at":"2026-07-06T00:51:10.836614+05:30"},{"city":"Gwalior","state":"Madhya Pradesh","latitude":26.2183,"longitude":78.1828,"temp":29.2,"humidity":87,"rain":0.0,"pressure":975.3,"uv_index":8.15,"wind_gusts":36.7,"aqi":70,"pm10":24.6,"pm2_5":24.0,"no2":17.0,"co":233.0,"o3":62.0,"so2":5.4,"mosquito_risk":7,"arthritis_risk":5,"migraine_risk":7,"frizz_risk":1,"updated_at":"2026-07-06T00:51:10.836622+05:30"},{"city":"Indore","state":"Madhya Pradesh","latitude":22.7196,"longitude":75.8577,"temp":25.8,"humidity":95,"rain":0.0,"pressure":939.1,"uv_index":8.2,"wind_gusts":25.2,"aqi":65,"pm10":39.1,"pm2_5":38.5,"no2":23.8,"co":737.0,"o3":43.0,"so2":7.1,"mosquito_risk":7,"arthritis_risk":5,"migraine_risk":7,"frizz_risk":1,"updated_at":"2026-07-06T00:51:10.836631+05:30"},{"city":"Bhopal","state":"Madhya Pradesh","latitude":23.2599,"longitude":77.4126,"temp":25.6,"humidity":97,"rain":0.0,"pressure":945.2,"uv_index":8.3,"wind_gusts":19.4,"aqi":71,"pm10":19.2,"pm2_5":18.8,"no2":11.3,"co":405.0,"o3":63.0,"so2":2.7,"mosquito_risk":7,"arthritis_risk":5,"migraine_risk":7,"frizz_risk":1,"updated_at":"2026-07-06T00:51:10.836639+05:30"},{"city":"Jabalpur","state":"Madhya Pradesh","latitude":23.1815,"longitude":79.9864,"temp":25.2,"humidity":98,"rain":0.0,"pressure":953.3,"uv_index":8.25,"wind_gusts":23.4,"aqi":69,"pm10":16.3,"pm2_5":16.1,"no2":8.1,"co":264.0,"o3":70.0,"so2":2.4,"mosquito_risk":7,"arthritis_risk":5,"migraine_risk":7,"frizz_risk":1,"updated_at":"2026-07-06T00:51:10.836647+05:30"},{"city":"Ujjain","state":"Madhya Pradesh","latitude":23.1765,"longitude":75.7885,"temp":25.8,"humidity":95,"rain":0.0,"pressure":944.8,"uv_index":7.7,"wind_gusts":26.3,"aqi":62,"pm10":34.7,"pm2_5":33.9,"no2":13.0,"co":1035.0,"o3":60.0,"so2":3.8,"mosquito_risk":7,"arthritis_risk":5,"migraine_risk":7,"frizz_risk":1,"updated_at":"2026-07-06T00:51:10.836656+05:30"},{"city":"Visakhapatnam","state":"Andhra Pradesh","latitude":17.6868,"longitude":83.2185,"temp":28.8,"humidity":67,"rain":0.0,"pressure":995.6,"uv_index":8.4,"wind_gusts":65.9,"aqi":32,"pm10":14.1,"pm2_5":10.3,"no2":9.4,"co":189.0,"o3":52.0,"so2":15.2,"mosquito_risk":7,"arthritis_risk":5,"migraine_risk":7,"frizz_risk":1,"updated_at":"2026-07-06T00:51:10.836665+05:30"},{"city":"Vijayawada","state":"Andhra Pradesh","latitude":16.5062,"longitude":80.648,"temp":30.0,"humidity":58,"rain":0.0,"pressure":997.1,"uv_index":2.2,"wind_gusts":58.7,"aqi":34,"pm10":14.1,"pm2_5":10.4,"no2":6.8,"co":116.0,"o3":44.0,"so2":4.6,"mosquito_risk":4,"arthritis_risk":5,"migraine_risk":3,"frizz_risk":1,"updated_at":"2026-07-06T00:51:10.836673+05:30"},{"city":"Guntur","state":"Andhra Pradesh","latitude":16.3067,"longitude":80.4365,"temp":30.5,"humidity":55,"rain":0.0,"pressure":998.5,"uv_index":2.95,"wind_gusts":62.6,"aqi":31,"pm10":10.2,"pm2_5":7.3,"no2":6.2,"co":110.0,"o3":43.0,"so2":4.3,"mosquito_risk":0,"arthritis_risk":5,"migraine_risk":3,"frizz_risk":1,"updated_at":"2026-07-06T00:51:10.836681+05:30"},{"city":"Nellore","state":"Andhra Pradesh","latitude":14.4426,"longitude":79.9865,"temp":30.7,"humidity":48,"rain":0.0,"pressure":1001.8,"uv_index":8.2,"wind_gusts":55.1,"aqi":30,"pm10":10.9,"pm2_5":6.4,"no2":3.4,"co":114.0,"o3":51.0,"so2":2.7,"mosquito_risk":0,"arthritis_risk":5,"migraine_risk":4,"frizz_risk":1,"updated_at":"2026-07-06T00:51:10.836690+05:30"},{"city":"Kurnool","state":"Andhra Pradesh","latitude":15.8281,"longitude":78.0373,"temp":26.3,"humidity":72,"rain":0.0,"pressure":973.2,"uv_index":5.6,"wind_gusts":68.4,"aqi":25,"pm10":4.4,"pm2_5":2.8,"no2":4.3,"co":109.0,"o3":45.0,"so2":3.2,"mosquito_risk":7,"arthritis_risk":5,"migraine_risk":3,"frizz_risk":1,"updated_at":"2026-07-06T00:51:10.836699+05:30"},{"city":"Kakinada","state":"Andhra Pradesh","latitude":16.9891,"longitude":82.2475,"temp":28.5,"humidity":68,"rain":0.0,"pressure":1000.8,"uv_index":5.5,"wind_gusts":65.2,"aqi":36,"pm10":20.8,"pm2_5":14.7,"no2":5.5,"co":223.0,"o3":67.0,"so2":3.9,"mosquito_risk":7,"arthritis_risk":5,"migraine_risk":0,"frizz_risk":1,"updated_at":"2026-07-06T00:51:10.836707+05:30"},{"city":"Tirupati","state":"Andhra Pradesh","latitude":13.6288,"longitude":79.4192,"temp":28.4,"humidity":54,"rain":0.0,"pressure":988.3,"uv_index":8.55,"wind_gusts":58.3,"aqi":31,"pm10":9.9,"pm2_5":6.4,"no2":4.4,"co":111.0,"o3":46.0,"so2":1.8,"mosquito_risk":4,"arthritis_risk":5,"migraine_risk":7,"frizz_risk":1,"updated_at":"2026-07-06T00:51:10.836716+05:30"},{"city":"Warangal","state":"Telangana","latitude":17.9689,"longitude":79.5941,"temp":25.0,"humidity":87,"rain":0.3,"pressure":972.5,"uv_index":2.1,"wind_gusts":47.9,"aqi":25,"pm10":3.3,"pm2_5":3.0,"no2":5.1,"co":126.0,"o3":44.0,"so2":2.8,"mosquito_risk":10,"arthritis_risk":5,"migraine_risk":3,"frizz_risk":1,"updated_at":"2026-07-06T00:51:10.836723+05:30"},{"city":"Nizamabad","state":"Telangana","latitude":18.6725,"longitude":78.0941,"temp":24.1,"humidity":89,"rain":0.1,"pressure":957.8,"uv_index":2.65,"wind_gusts":57.6,"aqi":23,"pm10":2.6,"pm2_5":2.5,"no2":4.8,"co":119.0,"o3":42.0,"so2":2.9,"mosquito_risk":6,"arthritis_risk":5,"migraine_risk":3,"frizz_risk":1,"updated_at":"2026-07-06T00:51:10.836732+05:30"},{"city":"Mysore","state":"Karnataka","latitude":12.2958,"longitude":76.6396,"temp":21.2,"humidity":92,"rain":0.0,"pressure":926.8,"uv_index":7.6,"wind_gusts":70.2,"aqi":24,"pm10":4.1,"pm2_5":2.6,"no2":3.3,"co":108.0,"o3":47.0,"so2":1.5,"mosquito_risk":3,"arthritis_risk":5,"migraine_risk":7,"frizz_risk":1,"updated_at":"2026-07-06T00:51:10.836740+05:30"},{"city":"Mangalore","state":"Karnataka","latitude":12.9141,"longitude":74.856,"temp":25.7,"humidity":89,"rain":0.1,"pressure":1006.0,"uv_index":7.1,"wind_gusts":59.8,"aqi":53,"pm10":26.4,"pm2_5":14.8,"no2":5.2,"co":95.0,"o3":43.0,"so2":2.3,"mosquito_risk":10,"arthritis_risk":5,"migraine_risk":4,"frizz_risk":1,"updated_at":"2026-07-06T00:51:10.836748+05:30"},{"city":"Hubli-Dharwad","state":"Karnataka","latitude":15.3647,"longitude":75.124,"temp":21.5,"humidity":98,"rain":0.1,"pressure":937.0,"uv_index":4.75,"wind_gusts":63.7,"aqi":23,"pm10":1.3,"pm2_5":0.9,"no2":2.1,"co":96.0,"o3":52.0,"so2":0.8,"mosquito_risk":6,"arthritis_risk":5,"migraine_risk":3,"frizz_risk":1,"updated_at":"2026-07-06T00:51:10.836756+05:30"},{"city":"Belgaum","state":"Karnataka","latitude":15.8497,"longitude":74.4977,"temp":21.1,"humidity":97,"rain":0.1,"pressure":921.5,"uv_index":1.95,"wind_gusts":62.6,"aqi":24,"pm10":2.6,"pm2_5":1.6,"no2":2.1,"co":99.0,"o3":53.0,"so2":1.1,"mosquito_risk":6,"arthritis_risk":5,"migraine_risk":3,"frizz_risk":1,"updated_at":"2026-07-06T00:51:14.085828+05:30"},{"city":"Coimbatore","state":"Tamil Nadu","latitude":11.0168,"longitude":76.9558,"temp":23.8,"humidity":90,"rain":0.0,"pressure":960.9,"uv_index":8.4,"wind_gusts":63.4,"aqi":22,"pm10":7.1,"pm2_5":4.5,"no2":3.7,"co":111.0,"o3":43.0,"so2":1.9,"mosquito_risk":3,"arthritis_risk":5,"migraine_risk":7,"frizz_risk":1,"updated_at":"2026-07-06T00:51:14.085863+05:30"},{"city":"Madurai","state":"Tamil Nadu","latitude":9.9252,"longitude":78.1198,"temp":28.2,"humidity":65,"rain":0.0,"pressure":992.5,"uv_index":7.85,"wind_gusts":76.3,"aqi":50,"pm10":22.4,"pm2_5":14.6,"no2":13.8,"co":109.0,"o3":32.0,"so2":4.2,"mosquito_risk":7,"arthritis_risk":5,"migraine_risk":7,"frizz_risk":1,"updated_at":"2026-07-06T00:51:14.085875+05:30"},{"city":"Trichy","state":"Tamil Nadu","latitude":10.7905,"longitude":78.7047,"temp":29.4,"humidity":54,"rain":0.0,"pressure":998.2,"uv_index":8.1,"wind_gusts":76.7,"aqi":39,"pm10":18.5,"pm2_5":10.6,"no2":4.4,"co":106.0,"o3":46.0,"so2":2.3,"mosquito_risk":4,"arthritis_risk":5,"migraine_risk":7,"frizz_risk":1,"updated_at":"2026-07-06T00:51:14.085885+05:30"},{"city":"Salem","state":"Tamil Nadu","latitude":11.6643,"longitude":78.146,"temp":24.7,"humidity":82,"rain":0.0,"pressure":976.3,"uv_index":8.3,"wind_gusts":43.6,"aqi":44,"pm10":21.4,"pm2_5":15.4,"no2":13.8,"co":192.0,"o3":31.0,"so2":5.2,"mosquito_risk":3,"arthritis_risk":5,"migraine_risk":7,"frizz_risk":1,"updated_at":"2026-07-06T00:51:14.085895+05:30"},{"city":"Tirunelveli","state":"Tamil Nadu","latitude":8.7139,"longitude":77.7567,"temp":28.2,"humidity":65,"rain":0.0,"pressure":1003.6,"uv_index":8.65,"wind_gusts":59.4,"aqi":37,"pm10":18.1,"pm2_5":10.9,"no2":5.7,"co":117.0,"o3":38.0,"so2":1.8,"mosquito_risk":7,"arthritis_risk":5,"migraine_risk":4,"frizz_risk":1,"updated_at":"2026-07-06T00:51:14.085905+05:30"},{"city":"Vellore","state":"Tamil Nadu","latitude":12.9165,"longitude":79.1325,"temp":28.1,"humidity":57,"rain":0.0,"pressure":982.3,"uv_index":8.1,"wind_gusts":58.0,"aqi":31,"pm10":10.0,"pm2_5":6.6,"no2":4.6,"co":117.0,"o3":46.0,"so2":2.4,"mosquito_risk":4,"arthritis_risk":5,"migraine_risk":7,"frizz_risk":1,"updated_at":"2026-07-06T00:51:14.085914+05:30"},{"city":"Erode","state":"Tamil Nadu","latitude":11.341,"longitude":77.7172,"temp":25.9,"humidity":80,"rain":0.0,"pressure":988.2,"uv_index":8.35,"wind_gusts":63.4,"aqi":38,"pm10":16.0,"pm2_5":11.6,"no2":11.2,"co":122.0,"o3":35.0,"so2":3.4,"mosquito_risk":7,"arthritis_risk":5,"migraine_risk":7,"frizz_risk":1,"updated_at":"2026-07-06T00:51:14.085923+05:30"},{"city":"Kochi","state":"Kerala","latitude":9.9312,"longitude":76.2673,"temp":27.4,"humidity":83,"rain":0.0,"pressure":1009.7,"uv_index":7.7,"wind_gusts":49.3,"aqi":53,"pm10":22.5,"pm2_5":12.7,"no2":8.0,"co":94.0,"o3":35.0,"so2":3.3,"mosquito_risk":7,"arthritis_risk":0,"migraine_risk":4,"frizz_risk":1,"updated_at":"2026-07-06T00:51:14.085932+05:30"},{"city":"Thiruvananthapuram","state":"Kerala","latitude":8.5241,"longitude":76.9366,"temp":25.8,"humidity":90,"rain":0.0,"pressure":1009.7,"uv_index":8.4,"wind_gusts":48.2,"aqi":52,"pm10":27.5,"pm2_5":13.2,"no2":2.4,"co":92.0,"o3":53.0,"so2":1.0,"mosquito_risk":7,"arthritis_risk":0,"migraine_risk":4,"frizz_risk":1,"updated_at":"2026-07-06T00:51:14.085940+05:30"},{"city":"Kozhikode","state":"Kerala","latitude":11.2588,"longitude":75.7804,"temp":23.9,"humidity":99,"rain":0.6,"pressure":1008.8,"uv_index":8.05,"wind_gusts":38.5,"aqi":50,"pm10":28.5,"pm2_5":13.9,"no2":0.8,"co":107.0,"o3":56.0,"so2":0.7,"mosquito_risk":6,"arthritis_risk":0,"migraine_risk":4,"frizz_risk":1,"updated_at":"2026-07-06T00:51:14.085949+05:30"},{"city":"Thrissur","state":"Kerala","latitude":10.5276,"longitude":76.2144,"temp":25.8,"humidity":91,"rain":0.0,"pressure":1007.8,"uv_index":8.1,"wind_gusts":46.4,"aqi":50,"pm10":21.9,"pm2_5":12.9,"no2":7.2,"co":109.0,"o3":35.0,"so2":2.8,"mosquito_risk":7,"arthritis_risk":5,"migraine_risk":4,"frizz_risk":1,"updated_at":"2026-07-06T00:51:14.085959+05:30"},{"city":"Kannur","state":"Kerala","latitude":11.8745,"longitude":75.3704,"temp":24.3,"humidity":95,"rain":0.4,"pressure":1007.4,"uv_index":8.6,"wind_gusts":42.1,"aqi":49,"pm10":23.5,"pm2_5":11.8,"no2":4.3,"co":105.0,"o3":41.0,"so2":1.3,"mosquito_risk":6,"arthritis_risk":5,"migraine_risk":4,"frizz_risk":1,"updated_at":"2026-07-06T00:51:14.085967+05:30"},{"city":"Patna","state":"Bihar","latitude":25.5941,"longitude":85.1376,"temp":29.0,"humidity":78,"rain":0.0,"pressure":991.5,"uv_index":6.35,"wind_gusts":56.5,"aqi":65,"pm10":12.7,"pm2_5":12.5,"no2":8.9,"co":232.0,"o3":72.0,"so2":5.5,"mosquito_risk":7,"arthritis_risk":5,"migraine_risk":7,"frizz_risk":1,"updated_at":"2026-07-06T00:51:14.085975+05:30"},{"city":"Gaya","state":"Bihar","latitude":24.7914,"longitude":85.0002,"temp":27.1,"humidity":86,"rain":0.0,"pressure":984.3,"uv_index":5.9,"wind_gusts":53.3,"aqi":59,"pm10":13.8,"pm2_5":13.6,"no2":10.7,"co":198.0,"o3":67.0,"so2":7.4,"mosquito_risk":7,"arthritis_risk":5,"migraine_risk":3,"frizz_risk":1,"updated_at":"2026-07-06T00:51:14.085984+05:30"},{"city":"Muzaffarpur","state":"Bihar","latitude":26.1209,"longitude":85.3647,"temp":29.1,"humidity":80,"rain":0.0,"pressure":992.1,"uv_index":4.15,"wind_gusts":56.2,"aqi":66,"pm10":13.2,"pm2_5":13.0,"no2":9.1,"co":235.0,"o3":72.0,"so2":5.0,"mosquito_risk":7,"arthritis_risk":5,"migraine_risk":3,"frizz_risk":1,"updated_at":"2026-07-06T00:51:14.085992+05:30"},{"city":"Bhagalpur","state":"Bihar","latitude":25.2425,"longitude":87.0117,"temp":28.0,"humidity":83,"rain":0.1,"pressure":992.0,"uv_index":6.65,"wind_gusts":60.5,"aqi":52,"pm10":8.2,"pm2_5":8.1,"no2":9.5,"co":214.0,"o3":67.0,"so2":5.3,"mosquito_risk":10,"arthritis_risk":5,"migraine_risk":7,"frizz_risk":1,"updated_at":"2026-07-06T00:51:14.086020+05:30"},{"city":"Ranchi","state":"Jharkhand","latitude":23.3441,"longitude":85.3096,"temp":23.2,"humidity":97,"rain":0.1,"pressure":927.0,"uv_index":1.2,"wind_gusts":32.0,"aqi":52,"pm10":10.0,"pm2_5":10.0,"no2":9.5,"co":202.0,"o3":70.0,"so2":10.1,"mosquito_risk":6,"arthritis_risk":5,"migraine_risk":3,"frizz_risk":1,"updated_at":"2026-07-06T00:51:14.086031+05:30"},{"city":"Jamshedpur","state":"Jharkhand","latitude":22.8046,"longitude":86.2029,"temp":26.1,"humidity":93,"rain":0.1,"pressure":978.5,"uv_index":8.2,"wind_gusts":31.3,"aqi":49,"pm10":17.6,"pm2_5":17.1,"no2":20.3,"co":456.0,"o3":49.0,"so2":25.3,"mosquito_risk":10,"arthritis_risk":5,"migraine_risk":7,"frizz_risk":1,"updated_at":"2026-07-06T00:51:14.086040+05:30"},{"city":"Dhanbad","state":"Jharkhand","latitude":23.7957,"longitude":86.4304,"temp":25.7,"humidity":93,"rain":0.6,"pressure":968.4,"uv_index":4.95,"wind_gusts":47.2,"aqi":60,"pm10":18.4,"pm2_5":18.1,"no2":24.0,"co":228.0,"o3":49.0,"so2":47.5,"mosquito_risk":10,"arthritis_risk":5,"migraine_risk":3,"frizz_risk":1,"updated_at":"2026-07-06T00:51:14.086049+05:30"},{"city":"Bokaro","state":"Jharkhand","latitude":23.6693,"longitude":86.1511,"temp":25.8,"humidity":94,"rain":0.1,"pressure":972.3,"uv_index":3.65,"wind_gusts":40.3,"aqi":60,"pm10":16.0,"pm2_5":15.8,"no2":21.9,"co":222.0,"o3":54.0,"so2":45.9,"mosquito_risk":10,"arthritis_risk":5,"migraine_risk":3,"frizz_risk":1,"updated_at":"2026-07-06T00:51:14.086058+05:30"},{"city":"Bhubaneswar","state":"Odisha","latitude":20.2961,"longitude":85.8245,"temp":25.6,"humidity":95,"rain":0.3,"pressure":991.2,"uv_index":8.6,"wind_gusts":66.6,"aqi":32,"pm10":6.4,"pm2_5":6.4,"no2":9.1,"co":187.0,"o3":63.0,"so2":5.6,"mosquito_risk":10,"arthritis_risk":5,"migraine_risk":7,"frizz_risk":1,"updated_at":"2026-07-06T00:51:14.086066+05:30"},{"city":"Cuttack","state":"Odisha","latitude":20.4625,"longitude":85.8828,"temp":25.9,"humidity":95,"rain":1.9,"pressure":992.6,"uv_index":8.6,"wind_gusts":62.6,"aqi":32,"pm10":6.4,"pm2_5":6.4,"no2":9.1,"co":201.0,"o3":63.0,"so2":5.6,"mosquito_risk":10,"arthritis_risk":5,"migraine_risk":7,"frizz_risk":1,"updated_at":"2026-07-06T00:51:14.086075+05:30"},{"city":"Rourkela","state":"Odisha","latitude":22.2604,"longitude":84.8536,"temp":25.5,"humidity":96,"rain":0.1,"pressure":973.7,"uv_index":0.9,"wind_gusts":34.9,"aqi":53,"pm10":19.8,"pm2_5":19.8,"no2":13.8,"co":388.0,"o3":56.0,"so2":11.3,"mosquito_risk":10,"arthritis_risk":5,"migraine_risk":3,"frizz_risk":1,"updated_at":"2026-07-06T00:51:14.086083+05:30"},{"city":"Raipur","state":"Chhattisgarh","latitude":21.2514,"longitude":81.6296,"temp":25.0,"humidity":96,"rain":0.3,"pressure":965.4,"uv_index":1.8,"wind_gusts":46.4,"aqi":64,"pm10":14.1,"pm2_5":14.1,"no2":20.0,"co":267.0,"o3":56.0,"so2":28.1,"mosquito_risk":10,"arthritis_risk":5,"migraine_risk":3,"frizz_risk":1,"updated_at":"2026-07-06T00:51:14.086092+05:30"},{"city":"Bhilai","state":"Chhattisgarh","latitude":21.1938,"longitude":81.3509,"temp":25.0,"humidity":97,"rain":0.4,"pressure":966.2,"uv_index":2.05,"wind_gusts":44.6,"aqi":58,"pm10":12.7,"pm2_5":12.6,"no2":15.2,"co":497.0,"o3":58.0,"so2":21.1,"mosquito_risk":10,"arthritis_risk":5,"migraine_risk":3,"frizz_risk":1,"updated_at":"2026-07-06T00:51:14.086100+05:30"},{"city":"Guwahati","state":"Assam","latitude":26.1158,"longitude":91.7086,"temp":26.3,"humidity":97,"rain":0.1,"pressure":995.9,"uv_index":3.15,"wind_gusts":23.4,"aqi":28,"pm10":10.7,"pm2_5":10.5,"no2":9.3,"co":214.0,"o3":30.0,"so2":1.5,"mosquito_risk":10,"arthritis_risk":5,"migraine_risk":3,"frizz_risk":1,"updated_at":"2026-07-06T00:51:14.086108+05:30"},{"city":"Agartala","state":"Tripura","latitude":23.8315,"longitude":91.2868,"temp":25.1,"humidity":98,"rain":0.2,"pressure":999.4,"uv_index":2.45,"wind_gusts":46.4,"aqi":27,"pm10":4.2,"pm2_5":3.9,"no2":6.7,"co":138.0,"o3":48.0,"so2":1.6,"mosquito_risk":10,"arthritis_risk":5,"migraine_risk":3,"frizz_risk":1,"updated_at":"2026-07-06T00:51:14.086117+05:30"},{"city":"Shillong","state":"Meghalaya","latitude":25.5788,"longitude":91.8933,"temp":20.0,"humidity":98,"rain":0.0,"pressure":853.3,"uv_index":3.3,"wind_gusts":37.1,"aqi":24,"pm10":1.4,"pm2_5":1.4,"no2":3.2,"co":130.0,"o3":52.0,"so2":0.9,"mosquito_risk":3,"arthritis_risk":5,"migraine_risk":3,"frizz_risk":1,"updated_at":"2026-07-06T00:51:14.086125+05:30"},{"city":"Imphal","state":"Manipur","latitude":24.817,"longitude":93.9368,"temp":23.9,"humidity":96,"rain":0.0,"pressure":919.5,"uv_index":7.8,"wind_gusts":27.0,"aqi":22,"pm10":9.4,"pm2_5":9.2,"no2":7.3,"co":248.0,"o3":28.0,"so2":1.9,"mosquito_risk":3,"arthritis_risk":5,"migraine_risk":7,"frizz_risk":1,"updated_at":"2026-07-06T00:51:14.086134+05:30"},{"city":"Aizawl","state":"Mizoram","latitude":23.7271,"longitude":92.7176,"temp":20.6,"humidity":97,"rain":0.1,"pressure":887.7,"uv_index":1.45,"wind_gusts":41.4,"aqi":18,"pm10":1.5,"pm2_5":1.4,"no2":3.0,"co":143.0,"o3":36.0,"so2":0.6,"mosquito_risk":6,"arthritis_risk":5,"migraine_risk":3,"frizz_risk":1,"updated_at":"2026-07-06T00:51:14.086143+05:30"},{"city":"Kohima","state":"Nagaland","latitude":25.6701,"longitude":94.1077,"temp":20.8,"humidity":87,"rain":0.0,"pressure":852.0,"uv_index":7.5,"wind_gusts":26.3,"aqi":20,"pm10":6.6,"pm2_5":6.4,"no2":9.4,"co":140.0,"o3":24.0,"so2":1.1,"mosquito_risk":3,"arthritis_risk":5,"migraine_risk":7,"frizz_risk":1,"updated_at":"2026-07-06T00:51:14.086151+05:30"},{"city":"Gangtok","state":"Sikkim","latitude":27.3314,"longitude":88.6138,"temp":18.1,"humidity":100,"rain":0.0,"pressure":834.1,"uv_index":4.4,"wind_gusts":29.9,"aqi":46,"pm10":6.4,"pm2_5":6.2,"no2":5.7,"co":235.0,"o3":86.0,"so2":1.0,"mosquito_risk":3,"arthritis_risk":10,"migraine_risk":3,"frizz_risk":1,"updated_at":"2026-07-06T00:51:14.086160+05:30"},{"city":"Siliguri","state":"West Bengal","latitude":26.7271,"longitude":88.3953,"temp":27.5,"humidity":75,"rain":0.0,"pressure":986.3,"uv_index":3.2,"wind_gusts":42.5,"aqi":50,"pm10":10.1,"pm2_5":9.8,"no2":5.3,"co":217.0,"o3":83.0,"so2":1.9,"mosquito_risk":7,"arthritis_risk":5,"migraine_risk":3,"frizz_risk":1,"updated_at":"2026-07-06T00:51:17.375644+05:30"},{"city":"Durgapur","state":"West Bengal","latitude":23.5204,"longitude":87.3119,"temp":26.0,"humidity":95,"rain":0.1,"pressure":983.1,"uv_index":7.15,"wind_gusts":38.5,"aqi":51,"pm10":15.7,"pm2_5":14.8,"no2":17.6,"co":257.0,"o3":57.0,"so2":20.2,"mosquito_risk":10,"arthritis_risk":5,"migraine_risk":7,"frizz_risk":1,"updated_at":"2026-07-06T00:51:17.375685+05:30"},{"city":"Asansol","state":"West Bengal","latitude":23.6739,"longitude":86.9524,"temp":25.4,"humidity":97,"rain":0.1,"pressure":981.5,"uv_index":6.55,"wind_gusts":40.0,"aqi":51,"pm10":14.1,"pm2_5":13.6,"no2":18.1,"co":253.0,"o3":56.0,"so2":21.2,"mosquito_risk":10,"arthritis_risk":5,"migraine_risk":7,"frizz_risk":1,"updated_at":"2026-07-06T00:51:17.375699+05:30"},{"city":"Pondicherry","state":"Puducherry","latitude":11.9139,"longitude":79.8145,"temp":28.6,"humidity":59,"rain":0.0,"pressure":1006.1,"uv_index":8.2,"wind_gusts":51.8,"aqi":52,"pm10":18.6,"pm2_5":12.5,"no2":11.4,"co":171.0,"o3":43.0,"so2":8.9,"mosquito_risk":4,"arthritis_risk":5,"migraine_risk":4,"frizz_risk":1,"updated_at":"2026-07-06T00:51:17.375710+05:30"},{"city":"Port Blair","state":"Andaman and Nicobar Islands","latitude":11.6234,"longitude":92.7265,"temp":27.6,"humidity":84,"rain":0.0,"pressure":1007.2,"uv_index":8.65,"wind_gusts":40.7,"aqi":51,"pm10":16.9,"pm2_5":10.0,"no2":0.2,"co":89.0,"o3":52.0,"so2":0.5,"mosquito_risk":7,"arthritis_risk":5,"migraine_risk":4,"frizz_risk":1,"updated_at":"2026-07-06T00:51:17.375722+05:30"},{"city":"Haridwar","state":"Uttarakhand","latitude":29.9457,"longitude":78.1642,"temp":28.3,"humidity":88,"rain":0.0,"pressure":967.7,"uv_index":6.8,"wind_gusts":27.7,"aqi":104,"pm10":32.7,"pm2_5":32.4,"no2":7.5,"co":388.0,"o3":99.0,"so2":4.3,"mosquito_risk":7,"arthritis_risk":5,"migraine_risk":7,"frizz_risk":1,"updated_at":"2026-07-06T00:51:17.375732+05:30"},{"city":"Rishikesh","state":"Uttarakhand","latitude":30.0869,"longitude":78.2676,"temp":27.4,"humidity":88,"rain":0.0,"pressure":960.7,"uv_index":6.2,"wind_gusts":23.0,"aqi":69,"pm10":23.9,"pm2_5":23.5,"no2":4.7,"co":325.0,"o3":108.0,"so2":3.2,"mosquito_risk":7,"arthritis_risk":5,"migraine_risk":7,"frizz_risk":1,"updated_at":"2026-07-06T00:51:17.375741+05:30"},{"city":"Nainital","state":"Uttarakhand","latitude":29.3919,"longitude":79.4542,"temp":16.9,"humidity":99,"rain":0.0,"pressure":802.9,"uv_index":3.4,"wind_gusts":28.8,"aqi":46,"pm10":11.5,"pm2_5":11.4,"no2":10.0,"co":304.0,"o3":71.0,"so2":1.7,"mosquito_risk":3,"arthritis_risk":10,"migraine_risk":3,"frizz_risk":1,"updated_at":"2026-07-06T00:51:17.375752+05:30"},{"city":"Mussoorie","state":"Uttarakhand","latitude":30.4599,"longitude":78.0664,"temp":17.9,"humidity":100,"rain":0.1,"pressure":800.9,"uv_index":7.7,"wind_gusts":32.0,"aqi":93,"pm10":32.2,"pm2_5":31.7,"no2":7.5,"co":361.0,"o3":118.0,"so2":5.2,"mosquito_risk":6,"arthritis_risk":10,"migraine_risk":7,"frizz_risk":1,"updated_at":"2026-07-06T00:51:17.375761+05:30"},{"city":"Dharamshala","state":"Himachal Pradesh","latitude":32.219,"longitude":76.3234,"temp":22.9,"humidity":75,"rain":0.0,"pressure":865.5,"uv_index":7.75,"wind_gusts":29.5,"aqi":36,"pm10":6.4,"pm2_5":6.3,"no2":14.0,"co":383.0,"o3":38.0,"so2":0.4,"mosquito_risk":3,"arthritis_risk":5,"migraine_risk":7,"frizz_risk":1,"updated_at":"2026-07-06T00:51:17.375770+05:30"},{"city":"Dalhousie","state":"Himachal Pradesh","latitude":32.5387,"longitude":75.971,"temp":17.8,"humidity":95,"rain":0.0,"pressure":801.8,"uv_index":8.7,"wind_gusts":31.3,"aqi":92,"pm10":35.6,"pm2_5":32.2,"no2":22.3,"co":469.0,"o3":77.0,"so2":2.8,"mosquito_risk":3,"arthritis_risk":10,"migraine_risk":7,"frizz_risk":1,"updated_at":"2026-07-06T00:51:17.375780+05:30"},{"city":"Patiala","state":"Punjab","latitude":30.3398,"longitude":76.3869,"temp":29.2,"humidity":85,"rain":0.0,"pressure":971.3,"uv_index":6.65,"wind_gusts":26.3,"aqi":175,"pm10":159.3,"pm2_5":123.4,"no2":43.9,"co":857.0,"o3":52.0,"so2":12.5,"mosquito_risk":7,"arthritis_risk":5,"migraine_risk":7,"frizz_risk":1,"updated_at":"2026-07-06T00:51:17.375790+05:30"},{"city":"Bhatinda","state":"Punjab","latitude":30.211,"longitude":74.9455,"temp":31.7,"humidity":71,"rain":0.0,"pressure":975.7,"uv_index":8.1,"wind_gusts":23.0,"aqi":159,"pm10":127.1,"pm2_5":67.8,"no2":22.3,"co":473.0,"o3":84.0,"so2":10.6,"mosquito_risk":3,"arthritis_risk":5,"migraine_risk":7,"frizz_risk":1,"updated_at":"2026-07-06T00:51:17.375798+05:30"},{"city":"Rohtak","state":"Haryana","latitude":28.8955,"longitude":76.6066,"temp":30.5,"humidity":79,"rain":0.0,"pressure":974.3,"uv_index":6.65,"wind_gusts":24.5,"aqi":149,"pm10":80.6,"pm2_5":55.1,"no2":35.7,"co":669.0,"o3":68.0,"so2":26.0,"mosquito_risk":3,"arthritis_risk":5,"migraine_risk":7,"frizz_risk":1,"updated_at":"2026-07-06T00:51:17.375807+05:30"},{"city":"Panipat","state":"Haryana","latitude":29.3909,"longitude":76.9635,"temp":29.5,"humidity":86,"rain":0.0,"pressure":973.3,"uv_index":6.2,"wind_gusts":24.1,"aqi":158,"pm10":53.6,"pm2_5":48.7,"no2":21.1,"co":578.0,"o3":97.0,"so2":18.7,"mosquito_risk":7,"arthritis_risk":5,"migraine_risk":7,"frizz_risk":1,"updated_at":"2026-07-06T00:51:17.375815+05:30"},{"city":"Mathura","state":"Uttar Pradesh","latitude":27.4924,"longitude":77.6737,"temp":30.3,"humidity":79,"rain":0.0,"pressure":979.0,"uv_index":7.3,"wind_gusts":21.6,"aqi":104,"pm10":65.2,"pm2_5":44.4,"no2":37.0,"co":385.0,"o3":42.0,"so2":8.6,"mosquito_risk":3,"arthritis_risk":5,"migraine_risk":7,"frizz_risk":1,"updated_at":"2026-07-06T00:51:17.375825+05:30"},{"city":"Vrindavan","state":"Uttar Pradesh","latitude":27.5823,"longitude":77.7027,"temp":30.5,"humidity":77,"rain":0.0,"pressure":979.5,"uv_index":7.3,"wind_gusts":22.3,"aqi":104,"pm10":65.2,"pm2_5":44.4,"no2":37.0,"co":404.0,"o3":42.0,"so2":8.6,"mosquito_risk":3,"arthritis_risk":5,"migraine_risk":7,"frizz_risk":1,"updated_at":"2026-07-06T00:51:17.375833+05:30"},{"city":"Ayodhya","state":"Uttar Pradesh","latitude":26.7922,"longitude":82.1998,"temp":30.1,"humidity":77,"rain":0.0,"pressure":987.6,"uv_index":7.95,"wind_gusts":39.6,"aqi":93,"pm10":39.7,"pm2_5":39.2,"no2":23.5,"co":412.0,"o3":56.0,"so2":7.2,"mosquito_risk":3,"arthritis_risk":5,"migraine_risk":7,"frizz_risk":1,"updated_at":"2026-07-06T00:51:17.375842+05:30"},{"city":"Ratlam","state":"Madhya Pradesh","latitude":23.3315,"longitude":75.0367,"temp":25.2,"humidity":98,"rain":0.0,"pressure":945.6,"uv_index":6.5,"wind_gusts":28.4,"aqi":57,"pm10":32.6,"pm2_5":31.0,"no2":11.1,"co":277.0,"o3":59.0,"so2":3.3,"mosquito_risk":7,"arthritis_risk":5,"migraine_risk":7,"frizz_risk":1,"updated_at":"2026-07-06T00:51:17.375851+05:30"},{"city":"Sagar","state":"Madhya Pradesh","latitude":23.8388,"longitude":78.7378,"temp":25.3,"humidity":96,"rain":0.0,"pressure":942.0,"uv_index":7.9,"wind_gusts":25.6,"aqi":69,"pm10":14.5,"pm2_5":14.2,"no2":7.1,"co":231.0,"o3":77.0,"so2":1.9,"mosquito_risk":7,"arthritis_risk":5,"migraine_risk":7,"frizz_risk":1,"updated_at":"2026-07-06T00:51:17.375860+05:30"},{"city":"Satna","state":"Madhya Pradesh","latitude":24.6005,"longitude":80.8322,"temp":25.5,"humidity":98,"rain":0.0,"pressure":963.2,"uv_index":6.55,"wind_gusts":33.1,"aqi":60,"pm10":21.7,"pm2_5":21.5,"no2":14.3,"co":343.0,"o3":63.0,"so2":3.5,"mosquito_risk":7,"arthritis_risk":5,"migraine_risk":7,"frizz_risk":1,"updated_at":"2026-07-06T00:51:17.375869+05:30"},{"city":"Akola","state":"Maharashtra","latitude":20.7002,"longitude":77.0082,"temp":27.2,"humidity":75,"rain":0.0,"pressure":966.7,"uv_index":7.45,"wind_gusts":30.2,"aqi":27,"pm10":4.0,"pm2_5":4.0,"no2":8.9,"co":142.0,"o3":40.0,"so2":5.9,"mosquito_risk":7,"arthritis_risk":5,"migraine_risk":7,"frizz_risk":1,"updated_at":"2026-07-06T00:51:17.375879+05:30"},{"city":"Amravati","state":"Maharashtra","latitude":20.9374,"longitude":77.7796,"temp":26.9,"humidity":78,"rain":0.0,"pressure":959.3,"uv_index":3.75,"wind_gusts":30.6,"aqi":28,"pm10":4.1,"pm2_5":4.1,"no2":9.1,"co":140.0,"o3":42.0,"so2":6.0,"mosquito_risk":7,"arthritis_risk":5,"migraine_risk":3,"frizz_risk":1,"updated_at":"2026-07-06T00:51:17.375888+05:30"},{"city":"Latur","state":"Maharashtra","latitude":18.4088,"longitude":76.5604,"temp":23.6,"humidity":87,"rain":0.1,"pressure":933.0,"uv_index":2.25,"wind_gusts":60.5,"aqi":22,"pm10":2.3,"pm2_5":2.1,"no2":4.1,"co":121.0,"o3":43.0,"so2":1.8,"mosquito_risk":6,"arthritis_risk":5,"migraine_risk":3,"frizz_risk":1,"updated_at":"2026-07-06T00:51:17.375898+05:30"},{"city":"Nanded","state":"Maharashtra","latitude":19.1383,"longitude":77.3091,"temp":26.0,"humidity":78,"rain":0.0,"pressure":961.4,"uv_index":1.95,"wind_gusts":55.1,"aqi":23,"pm10":3.0,"pm2_5":2.4,"no2":4.7,"co":120.0,"o3":44.0,"so2":3.6,"mosquito_risk":7,"arthritis_risk":5,"migraine_risk":3,"frizz_risk":1,"updated_at":"2026-07-06T00:51:17.375907+05:30"},{"city":"Gulbarga","state":"Karnataka","latitude":17.3297,"longitude":76.8343,"temp":23.8,"humidity":88,"rain":0.3,"pressure":953.4,"uv_index":1.25,"wind_gusts":66.6,"aqi":22,"pm10":5.4,"pm2_5":2.9,"no2":4.8,"co":115.0,"o3":43.0,"so2":2.3,"mosquito_risk":6,"arthritis_risk":5,"migraine_risk":3,"frizz_risk":1,"updated_at":"2026-07-06T00:51:17.375916+05:30"},{"city":"Bidar","state":"Karnataka","latitude":17.9104,"longitude":77.5199,"temp":23.5,"humidity":84,"rain":0.0,"pressure":929.4,"uv_index":1.65,"wind_gusts":63.7,"aqi":22,"pm10":3.3,"pm2_5":2.5,"no2":4.8,"co":115.0,"o3":43.0,"so2":2.2,"mosquito_risk":3,"arthritis_risk":5,"migraine_risk":3,"frizz_risk":1,"updated_at":"2026-07-06T00:51:17.375925+05:30"},{"city":"Hospet","state":"Karnataka","latitude":15.2689,"longitude":76.3909,"temp":23.3,"humidity":87,"rain":0.0,"pressure":952.3,"uv_index":6.25,"wind_gusts":70.6,"aqi":24,"pm10":2.3,"pm2_5":1.5,"no2":2.7,"co":109.0,"o3":50.0,"so2":1.2,"mosquito_risk":3,"arthritis_risk":5,"migraine_risk":7,"frizz_risk":1,"updated_at":"2026-07-06T00:51:17.375933+05:30"},{"city":"Tirupur","state":"Tamil Nadu","latitude":11.1085,"longitude":77.3411,"temp":24.1,"humidity":92,"rain":0.0,"pressure":974.1,"uv_index":8.45,"wind_gusts":72.7,"aqi":39,"pm10":17.2,"pm2_5":13.0,"no2":13.7,"co":109.0,"o3":31.0,"so2":4.1,"mosquito_risk":3,"arthritis_risk":5,"migraine_risk":7,"frizz_risk":1,"updated_at":"2026-07-06T00:51:17.375942+05:30"},{"city":"Alappuzha","state":"Kerala","latitude":9.4981,"longitude":76.3388,"temp":27.2,"humidity":85,"rain":0.0,"pressure":1010.0,"uv_index":7.95,"wind_gusts":43.9,"aqi":53,"pm10":27.3,"pm2_5":15.1,"no2":6.0,"co":84.0,"o3":45.0,"so2":2.0,"mosquito_risk":7,"arthritis_risk":0,"migraine_risk":4,"frizz_risk":1,"updated_at":"2026-07-06T00:51:17.375951+05:30"},{"city":"Munnar","state":"Kerala","latitude":10.0889,"longitude":77.0595,"temp":17.0,"humidity":99,"rain":0.2,"pressure":856.4,"uv_index":6.75,"wind_gusts":57.2,"aqi":24,"pm10":7.0,"pm2_5":4.8,"no2":5.5,"co":90.0,"o3":31.0,"so2":1.9,"mosquito_risk":6,"arthritis_risk":10,"migraine_risk":7,"frizz_risk":1,"updated_at":"2026-07-06T00:51:17.375961+05:30"},{"city":"Silchar","state":"Assam","latitude":24.8333,"longitude":92.7789,"temp":26.3,"humidity":96,"rain":0.0,"pressure":999.2,"uv_index":3.45,"wind_gusts":32.0,"aqi":43,"pm10":7.4,"pm2_5":7.4,"no2":5.8,"co":182.0,"o3":47.0,"so2":1.7,"mosquito_risk":7,"arthritis_risk":5,"migraine_risk":3,"frizz_risk":1,"updated_at":"2026-07-06T00:51:17.375969+05:30"},{"city":"Dibrugarh","state":"Assam","latitude":27.4728,"longitude":94.912,"temp":28.6,"humidity":78,"rain":0.0,"pressure":989.6,"uv_index":7.0,"wind_gusts":31.3,"aqi":43,"pm10":15.3,"pm2_5":15.1,"no2":16.7,"co":160.0,"o3":10.0,"so2":1.0,"mosquito_risk":7,"arthritis_risk":5,"migraine_risk":7,"frizz_risk":1,"updated_at":"2026-07-06T00:51:17.375978+05:30"}]