[{"city":"Delhi","state":"Delhi","latitude":28.6139,"longitude":77.209,"temp":36.3,"humidity":25,"rain":0.0,"pressure":976.2,"uv_index":7.55,"wind_gusts":29.9,"aqi":316,"pm10":419.1,"pm2_5":77.1,"no2":8.1,"co":406.0,"o3":238.0,"so2":27.8,"mosquito_risk":0,"arthritis_risk":5,"migraine_risk":10,"frizz_risk":0,"updated_at":"2026-05-01T17:10:52.852452+05:30"},{"city":"Mumbai","state":"Maharashtra","latitude":19.076,"longitude":72.8777,"temp":31.0,"humidity":67,"rain":0.0,"pressure":1006.2,"uv_index":7.9,"wind_gusts":45.7,"aqi":66,"pm10":51.7,"pm2_5":20.4,"no2":6.3,"co":217.0,"o3":88.0,"so2":14.8,"mosquito_risk":3,"arthritis_risk":5,"migraine_risk":4,"frizz_risk":1,"updated_at":"2026-05-01T17:10:52.852526+05:30"},{"city":"Bangalore","state":"Karnataka","latitude":12.9716,"longitude":77.5946,"temp":31.7,"humidity":42,"rain":0.0,"pressure":909.5,"uv_index":9.55,"wind_gusts":36.0,"aqi":162,"pm10":40.4,"pm2_5":31.3,"no2":17.2,"co":816.0,"o3":177.0,"so2":8.2,"mosquito_risk":0,"arthritis_risk":5,"migraine_risk":7,"frizz_risk":1,"updated_at":"2026-05-01T17:10:52.852558+05:30"},{"city":"Hyderabad","state":"Telangana","latitude":17.385,"longitude":78.4867,"temp":38.3,"humidity":16,"rain":0.0,"pressure":948.8,"uv_index":9.25,"wind_gusts":37.1,"aqi":81,"pm10":50.3,"pm2_5":17.8,"no2":0.7,"co":235.0,"o3":133.0,"so2":3.5,"mosquito_risk":0,"arthritis_risk":5,"migraine_risk":10,"frizz_risk":0,"updated_at":"2026-05-01T17:10:52.852580+05:30"},{"city":"Chennai","state":"Tamil Nadu","latitude":13.0827,"longitude":80.2707,"temp":33.2,"humidity":62,"rain":0.0,"pressure":1002.1,"uv_index":9.25,"wind_gusts":50.8,"aqi":127,"pm10":34.2,"pm2_5":28.5,"no2":5.6,"co":233.0,"o3":185.0,"so2":11.1,"mosquito_risk":3,"arthritis_risk":5,"migraine_risk":4,"frizz_risk":1,"updated_at":"2026-05-01T17:10:52.852600+05:30"},{"city":"Kolkata","state":"West Bengal","latitude":22.5726,"longitude":88.3639,"temp":28.6,"humidity":70,"rain":0.0,"pressure":1001.3,"uv_index":7.9,"wind_gusts":22.7,"aqi":64,"pm10":37.7,"pm2_5":28.0,"no2":9.3,"co":585.0,"o3":128.0,"so2":12.3,"mosquito_risk":7,"arthritis_risk":5,"migraine_risk":4,"frizz_risk":1,"updated_at":"2026-05-01T17:10:52.852621+05:30"},{"city":"Pune","state":"Maharashtra","latitude":18.5204,"longitude":73.8567,"temp":33.2,"humidity":32,"rain":0.0,"pressure":946.2,"uv_index":8.5,"wind_gusts":50.0,"aqi":55,"pm10":40.9,"pm2_5":12.5,"no2":1.8,"co":171.0,"o3":98.0,"so2":2.3,"mosquito_risk":0,"arthritis_risk":5,"migraine_risk":7,"frizz_risk":0,"updated_at":"2026-05-01T17:10:52.852639+05:30"},{"city":"Ahmedabad","state":"Gujarat","latitude":23.0225,"longitude":72.5714,"temp":42.9,"humidity":16,"rain":0.0,"pressure":994.3,"uv_index":8.1,"wind_gusts":45.0,"aqi":56,"pm10":49.4,"pm2_5":14.7,"no2":2.2,"co":182.0,"o3":116.0,"so2":3.3,"mosquito_risk":0,"arthritis_risk":5,"migraine_risk":10,"frizz_risk":0,"updated_at":"2026-05-01T17:10:52.852658+05:30"},{"city":"Jaipur","state":"Rajasthan","latitude":26.9124,"longitude":75.7873,"temp":39.4,"humidity":11,"rain":0.0,"pressure":953.0,"uv_index":8.1,"wind_gusts":42.5,"aqi":175,"pm10":339.0,"pm2_5":43.5,"no2":0.7,"co":168.0,"o3":139.0,"so2":2.7,"mosquito_risk":0,"arthritis_risk":5,"migraine_risk":10,"frizz_risk":0,"updated_at":"2026-05-01T17:10:52.852675+05:30"},{"city":"Lucknow","state":"Uttar Pradesh","latitude":26.8467,"longitude":80.9462,"temp":32.6,"humidity":41,"rain":0.0,"pressure":988.0,"uv_index":8.0,"wind_gusts":29.5,"aqi":141,"pm10":87.5,"pm2_5":29.9,"no2":1.7,"co":277.0,"o3":175.0,"so2":8.0,"mosquito_risk":0,"arthritis_risk":5,"migraine_risk":7,"frizz_risk":1,"updated_at":"2026-05-01T17:10:52.852699+05:30"},{"city":"Kanpur","state":"Uttar Pradesh","latitude":26.4499,"longitude":80.3319,"temp":35.2,"humidity":30,"rain":0.0,"pressure":985.7,"uv_index":8.05,"wind_gusts":29.9,"aqi":146,"pm10":189.1,"pm2_5":39.8,"no2":1.8,"co":245.0,"o3":177.0,"so2":7.2,"mosquito_risk":0,"arthritis_risk":5,"migraine_risk":10,"frizz_risk":0,"updated_at":"2026-05-01T17:10:52.852717+05:30"},{"city":"Chandigarh","state":"Chandigarh","latitude":30.7333,"longitude":76.7794,"temp":32.7,"humidity":31,"rain":0.0,"pressure":963.3,"uv_index":7.55,"wind_gusts":37.4,"aqi":167,"pm10":97.8,"pm2_5":31.5,"no2":2.1,"co":285.0,"o3":187.0,"so2":17.7,"mosquito_risk":0,"arthritis_risk":5,"migraine_risk":7,"frizz_risk":0,"updated_at":"2026-05-01T17:10:52.852732+05:30"},{"city":"Srinagar","state":"Jammu and Kashmir","latitude":34.0837,"longitude":74.7973,"temp":20.1,"humidity":56,"rain":0.0,"pressure":839.4,"uv_index":8.75,"wind_gusts":22.7,"aqi":93,"pm10":13.4,"pm2_5":9.0,"no2":0.9,"co":259.0,"o3":142.0,"so2":2.4,"mosquito_risk":0,"arthritis_risk":5,"migraine_risk":7,"frizz_risk":0,"updated_at":"2026-05-01T17:10:52.852747+05:30"},{"city":"Jammu","state":"Jammu and Kashmir","latitude":32.7266,"longitude":74.857,"temp":32.0,"humidity":32,"rain":0.0,"pressure":967.6,"uv_index":8.35,"wind_gusts":32.0,"aqi":113,"pm10":18.3,"pm2_5":10.1,"no2":1.4,"co":236.0,"o3":157.0,"so2":1.8,"mosquito_risk":0,"arthritis_risk":5,"migraine_risk":7,"frizz_risk":0,"updated_at":"2026-05-01T17:10:52.852762+05:30"},{"city":"Amritsar","state":"Punjab","latitude":31.634,"longitude":74.8723,"temp":35.0,"humidity":24,"rain":0.0,"pressure":974.9,"uv_index":8.25,"wind_gusts":30.6,"aqi":150,"pm10":63.8,"pm2_5":21.4,"no2":1.2,"co":220.0,"o3":193.0,"so2":7.3,"mosquito_risk":0,"arthritis_risk":5,"migraine_risk":7,"frizz_risk":0,"updated_at":"2026-05-01T17:10:52.852775+05:30"},{"city":"Ludhiana","state":"Punjab","latitude":30.901,"longitude":75.8573,"temp":34.8,"humidity":25,"rain":0.0,"pressure":972.9,"uv_index":7.85,"wind_gusts":33.5,"aqi":168,"pm10":175.1,"pm2_5":43.2,"no2":0.5,"co":263.0,"o3":170.0,"so2":6.8,"mosquito_risk":0,"arthritis_risk":5,"migraine_risk":7,"frizz_risk":0,"updated_at":"2026-05-01T17:10:52.852789+05:30"},{"city":"Jalandhar","state":"Punjab","latitude":31.326,"longitude":75.5762,"temp":33.8,"humidity":30,"rain":0.0,"pressure":974.2,"uv_index":8.0,"wind_gusts":33.8,"aqi":150,"pm10":205.8,"pm2_5":48.9,"no2":0.2,"co":272.0,"o3":170.0,"so2":7.6,"mosquito_risk":0,"arthritis_risk":5,"migraine_risk":7,"frizz_risk":0,"updated_at":"2026-05-01T17:10:52.852803+05:30"},{"city":"Dehradun","state":"Uttarakhand","latitude":30.6284,"longitude":78.0322,"temp":17.8,"humidity":71,"rain":0.0,"pressure":826.8,"uv_index":7.95,"wind_gusts":34.9,"aqi":115,"pm10":71.5,"pm2_5":34.3,"no2":1.3,"co":268.0,"o3":161.0,"so2":3.1,"mosquito_risk":3,"arthritis_risk":5,"migraine_risk":7,"frizz_risk":0,"updated_at":"2026-05-01T17:10:52.852817+05:30"},{"city":"Shimla","state":"Himachal Pradesh","latitude":31.1048,"longitude":77.1734,"temp":17.4,"humidity":48,"rain":0.0,"pressure":782.0,"uv_index":8.1,"wind_gusts":46.8,"aqi":142,"pm10":47.8,"pm2_5":24.4,"no2":0.7,"co":185.0,"o3":173.0,"so2":12.6,"mosquito_risk":0,"arthritis_risk":5,"migraine_risk":7,"frizz_risk":0,"updated_at":"2026-05-01T17:10:52.852832+05:30"},{"city":"Manali","state":"Himachal Pradesh","latitude":32.2396,"longitude":77.1887,"temp":14.4,"humidity":78,"rain":0.0,"pressure":814.3,"uv_index":10.1,"wind_gusts":42.5,"aqi":113,"pm10":6.8,"pm2_5":5.3,"no2":0.1,"co":150.0,"o3":158.0,"so2":0.4,"mosquito_risk":3,"arthritis_risk":5,"migraine_risk":7,"frizz_risk":0,"updated_at":"2026-05-01T17:10:52.852849+05:30"},{"city":"Gurgaon","state":"Haryana","latitude":28.4595,"longitude":77.0266,"temp":35.2,"humidity":26,"rain":0.0,"pressure":974.9,"uv_index":7.7,"wind_gusts":31.7,"aqi":1313,"pm10":998.4,"pm2_5":125.3,"no2":6.3,"co":321.0,"o3":210.0,"so2":18.5,"mosquito_risk":0,"arthritis_risk":5,"migraine_risk":10,"frizz_risk":0,"updated_at":"2026-05-01T17:10:52.852863+05:30"},{"city":"Noida","state":"Uttar Pradesh","latitude":28.5355,"longitude":77.391,"temp":34.8,"humidity":35,"rain":0.0,"pressure":977.8,"uv_index":7.6,"wind_gusts":29.2,"aqi":1313,"pm10":998.4,"pm2_5":125.3,"no2":6.3,"co":508.0,"o3":210.0,"so2":18.5,"mosquito_risk":0,"arthritis_risk":5,"migraine_risk":7,"frizz_risk":1,"updated_at":"2026-05-01T17:10:52.852878+05:30"},{"city":"Ghaziabad","state":"Uttar Pradesh","latitude":28.6692,"longitude":77.4538,"temp":34.6,"humidity":34,"rain":0.0,"pressure":976.4,"uv_index":7.55,"wind_gusts":32.8,"aqi":185,"pm10":323.2,"pm2_5":56.2,"no2":4.3,"co":301.0,"o3":193.0,"so2":10.3,"mosquito_risk":0,"arthritis_risk":5,"migraine_risk":7,"frizz_risk":1,"updated_at":"2026-05-01T17:10:52.852894+05:30"},{"city":"Faridabad","state":"Haryana","latitude":28.4089,"longitude":77.3178,"temp":35.8,"humidity":28,"rain":0.0,"pressure":976.9,"uv_index":7.65,"wind_gusts":29.5,"aqi":1313,"pm10":998.4,"pm2_5":125.3,"no2":6.3,"co":269.0,"o3":210.0,"so2":18.5,"mosquito_risk":0,"arthritis_risk":5,"migraine_risk":10,"frizz_risk":0,"updated_at":"2026-05-01T17:10:52.852909+05:30"},{"city":"Meerut","state":"Uttar Pradesh","latitude":28.9845,"longitude":77.7064,"temp":33.2,"humidity":37,"rain":0.0,"pressure":975.5,"uv_index":7.5,"wind_gusts":34.9,"aqi":185,"pm10":323.2,"pm2_5":56.2,"no2":4.3,"co":288.0,"o3":193.0,"so2":10.3,"mosquito_risk":0,"arthritis_risk":5,"migraine_risk":7,"frizz_risk":1,"updated_at":"2026-05-01T17:10:52.852923+05:30"},{"city":"Agra","state":"Uttar Pradesh","latitude":27.1767,"longitude":78.0081,"temp":37.8,"humidity":21,"rain":0.0,"pressure":980.4,"uv_index":7.9,"wind_gusts":27.7,"aqi":565,"pm10":420.0,"pm2_5":58.2,"no2":2.1,"co":218.0,"o3":156.0,"so2":7.2,"mosquito_risk":0,"arthritis_risk":5,"migraine_risk":10,"frizz_risk":0,"updated_at":"2026-05-01T17:10:52.852938+05:30"},{"city":"Varanasi","state":"Uttar Pradesh","latitude":25.3176,"longitude":82.9739,"temp":33.8,"humidity":38,"rain":0.0,"pressure":992.0,"uv_index":8.55,"wind_gusts":29.5,"aqi":162,"pm10":81.0,"pm2_5":27.5,"no2":2.1,"co":271.0,"o3":181.0,"so2":10.9,"mosquito_risk":0,"arthritis_risk":5,"migraine_risk":7,"frizz_risk":1,"updated_at":"2026-05-01T17:10:52.852952+05:30"},{"city":"Prayagraj","state":"Uttar Pradesh","latitude":25.4358,"longitude":81.8463,"temp":34.8,"humidity":32,"rain":0.0,"pressure":990.1,"uv_index":8.4,"wind_gusts":26.6,"aqi":168,"pm10":78.5,"pm2_5":28.7,"no2":1.3,"co":255.0,"o3":190.0,"so2":8.5,"mosquito_risk":0,"arthritis_risk":5,"migraine_risk":7,"frizz_risk":0,"updated_at":"2026-05-01T17:10:52.852966+05:30"},{"city":"Gorakhpur","state":"Uttar Pradesh","latitude":26.7606,"longitude":83.3732,"temp":28.0,"humidity":58,"rain":0.0,"pressure":993.1,"uv_index":8.35,"wind_gusts":37.1,"aqi":120,"pm10":74.7,"pm2_5":27.9,"no2":2.2,"co":310.0,"o3":165.0,"so2":3.7,"mosquito_risk":4,"arthritis_risk":5,"migraine_risk":7,"frizz_risk":1,"updated_at":"2026-05-01T17:10:52.852980+05:30"},{"city":"Bareilly","state":"Uttar Pradesh","latitude":28.367,"longitude":79.4304,"temp":32.5,"humidity":39,"rain":0.0,"pressure":981.2,"uv_index":7.85,"wind_gusts":34.6,"aqi":138,"pm10":266.4,"pm2_5":50.3,"no2":1.1,"co":265.0,"o3":182.0,"so2":11.1,"mosquito_risk":0,"arthritis_risk":5,"migraine_risk":7,"frizz_risk":1,"updated_at":"2026-05-01T17:10:52.852997+05:30"},{"city":"Aligarh","state":"Uttar Pradesh","latitude":27.8974,"longitude":78.088,"temp":35.5,"humidity":29,"rain":0.0,"pressure":978.8,"uv_index":7.75,"wind_gusts":29.5,"aqi":667,"pm10":599.8,"pm2_5":82.9,"no2":2.8,"co":244.0,"o3":184.0,"so2":14.1,"mosquito_risk":0,"arthritis_risk":5,"migraine_risk":10,"frizz_risk":0,"updated_at":"2026-05-01T17:10:52.853011+05:30"},{"city":"Moradabad","state":"Uttar Pradesh","latitude":28.8386,"longitude":78.7733,"temp":32.3,"humidity":40,"rain":0.0,"pressure":978.1,"uv_index":7.7,"wind_gusts":35.6,"aqi":151,"pm10":109.0,"pm2_5":34.0,"no2":2.4,"co":297.0,"o3":180.0,"so2":17.9,"mosquito_risk":0,"arthritis_risk":5,"migraine_risk":7,"frizz_risk":1,"updated_at":"2026-05-01T17:10:52.853025+05:30"},{"city":"Saharanpur","state":"Uttar Pradesh","latitude":29.9637,"longitude":77.546,"temp":31.3,"humidity":42,"rain":0.0,"pressure":970.3,"uv_index":7.3,"wind_gusts":36.4,"aqi":147,"pm10":130.4,"pm2_5":33.9,"no2":3.8,"co":286.0,"o3":171.0,"so2":9.2,"mosquito_risk":0,"arthritis_risk":5,"migraine_risk":7,"frizz_risk":1,"updated_at":"2026-05-01T17:10:52.853038+05:30"},{"city":"Jhansi","state":"Uttar Pradesh","latitude":25.4484,"longitude":78.5685,"temp":38.8,"humidity":16,"rain":0.0,"pressure":970.9,"uv_index":8.35,"wind_gusts":38.5,"aqi":90,"pm10":75.9,"pm2_5":21.8,"no2":1.1,"co":146.0,"o3":138.0,"so2":8.8,"mosquito_risk":0,"arthritis_risk":5,"migraine_risk":10,"frizz_risk":0,"updated_at":"2026-05-01T17:10:56.421916+05:30"},{"city":"Surat","state":"Gujarat","latitude":21.1702,"longitude":72.8311,"temp":31.9,"humidity":63,"rain":0.0,"pressure":1002.3,"uv_index":7.7,"wind_gusts":56.9,"aqi":63,"pm10":36.3,"pm2_5":17.5,"no2":11.8,"co":223.0,"o3":70.0,"so2":28.5,"mosquito_risk":3,"arthritis_risk":5,"migraine_risk":4,"frizz_risk":1,"updated_at":"2026-05-01T17:10:56.421986+05:30"},{"city":"Vadodara","state":"Gujarat","latitude":22.3072,"longitude":73.1812,"temp":38.4,"humidity":37,"rain":0.0,"pressure":997.9,"uv_index":8.05,"wind_gusts":52.9,"aqi":56,"pm10":35.3,"pm2_5":14.1,"no2":1.9,"co":186.0,"o3":119.0,"so2":3.6,"mosquito_risk":0,"arthritis_risk":5,"migraine_risk":10,"frizz_risk":1,"updated_at":"2026-05-01T17:10:56.422028+05:30"},{"city":"Rajkot","state":"Gujarat","latitude":22.3039,"longitude":70.8022,"temp":40.0,"humidity":21,"rain":0.0,"pressure":988.3,"uv_index":7.7,"wind_gusts":54.4,"aqi":49,"pm10":40.9,"pm2_5":14.1,"no2":1.3,"co":145.0,"o3":108.0,"so2":5.2,"mosquito_risk":0,"arthritis_risk":5,"migraine_risk":10,"frizz_risk":0,"updated_at":"2026-05-01T17:10:56.422065+05:30"},{"city":"Thane","state":"Maharashtra","latitude":19.2183,"longitude":72.9781,"temp":32.7,"humidity":55,"rain":0.0,"pressure":1005.2,"uv_index":7.9,"wind_gusts":41.0,"aqi":66,"pm10":51.7,"pm2_5":20.4,"no2":6.3,"co":212.0,"o3":88.0,"so2":14.8,"mosquito_risk":0,"arthritis_risk":5,"migraine_risk":4,"frizz_risk":1,"updated_at":"2026-05-01T17:10:56.422102+05:30"},{"city":"Nagpur","state":"Maharashtra","latitude":21.1458,"longitude":79.0882,"temp":39.5,"humidity":17,"rain":0.0,"pressure":967.5,"uv_index":8.9,"wind_gusts":40.7,"aqi":137,"pm10":75.4,"pm2_5":26.3,"no2":4.5,"co":156.0,"o3":152.0,"so2":15.8,"mosquito_risk":0,"arthritis_risk":5,"migraine_risk":10,"frizz_risk":0,"updated_at":"2026-05-01T17:10:56.422140+05:30"},{"city":"Nashik","state":"Maharashtra","latitude":19.9975,"longitude":73.7898,"temp":33.2,"humidity":34,"rain":0.0,"pressure":943.1,"uv_index":8.2,"wind_gusts":51.1,"aqi":60,"pm10":40.7,"pm2_5":13.4,"no2":1.1,"co":156.0,"o3":97.0,"so2":3.0,"mosquito_risk":0,"arthritis_risk":5,"migraine_risk":7,"frizz_risk":0,"updated_at":"2026-05-01T17:10:56.422176+05:30"},{"city":"Aurangabad","state":"Maharashtra","latitude":19.8762,"longitude":75.3433,"temp":37.2,"humidity":19,"rain":0.0,"pressure":940.4,"uv_index":9.05,"wind_gusts":47.9,"aqi":55,"pm10":35.5,"pm2_5":12.7,"no2":1.0,"co":152.0,"o3":115.0,"so2":2.6,"mosquito_risk":0,"arthritis_risk":5,"migraine_risk":10,"frizz_risk":0,"updated_at":"2026-05-01T17:10:56.422216+05:30"},{"city":"Solapur","state":"Maharashtra","latitude":17.6599,"longitude":75.9064,"temp":38.8,"humidity":15,"rain":0.0,"pressure":952.9,"uv_index":9.05,"wind_gusts":47.2,"aqi":54,"pm10":29.7,"pm2_5":9.7,"no2":0.9,"co":151.0,"o3":112.0,"so2":1.4,"mosquito_risk":0,"arthritis_risk":5,"migraine_risk":10,"frizz_risk":0,"updated_at":"2026-05-01T17:10:56.422256+05:30"},{"city":"Kolhapur","state":"Maharashtra","latitude":16.705,"longitude":74.2433,"temp":32.7,"humidity":34,"rain":0.0,"pressure":946.3,"uv_index":8.95,"wind_gusts":47.5,"aqi":59,"pm10":35.7,"pm2_5":12.9,"no2":2.0,"co":157.0,"o3":95.0,"so2":1.1,"mosquito_risk":0,"arthritis_risk":5,"migraine_risk":7,"frizz_risk":0,"updated_at":"2026-05-01T17:10:56.422295+05:30"},{"city":"Goa","state":"Goa","latitude":15.2993,"longitude":74.124,"temp":33.0,"humidity":53,"rain":0.0,"pressure":995.9,"uv_index":8.9,"wind_gusts":37.8,"aqi":63,"pm10":26.2,"pm2_5":14.3,"no2":0.5,"co":140.0,"o3":85.0,"so2":0.9,"mosquito_risk":0,"arthritis_risk":5,"migraine_risk":7,"frizz_risk":1,"updated_at":"2026-05-01T17:10:56.422333+05:30"},{"city":"Jodhpur","state":"Rajasthan","latitude":26.2389,"longitude":73.0243,"temp":39.8,"humidity":18,"rain":0.0,"pressure":975.7,"uv_index":8.3,"wind_gusts":47.5,"aqi":142,"pm10":199.8,"pm2_5":26.7,"no2":0.7,"co":148.0,"o3":117.0,"so2":1.9,"mosquito_risk":0,"arthritis_risk":5,"migraine_risk":10,"frizz_risk":0,"updated_at":"2026-05-01T17:10:56.422373+05:30"},{"city":"Udaipur","state":"Rajasthan","latitude":24.5854,"longitude":73.7125,"temp":38.0,"humidity":18,"rain":0.0,"pressure":941.0,"uv_index":8.75,"wind_gusts":38.9,"aqi":59,"pm10":57.0,"pm2_5":14.7,"no2":0.6,"co":145.0,"o3":113.0,"so2":1.8,"mosquito_risk":0,"arthritis_risk":5,"migraine_risk":10,"frizz_risk":0,"updated_at":"2026-05-01T17:10:56.422412+05:30"},{"city":"Kota","state":"Rajasthan","latitude":25.2138,"longitude":75.8648,"temp":40.3,"humidity":15,"rain":0.0,"pressure":971.6,"uv_index":8.3,"wind_gusts":41.8,"aqi":73,"pm10":44.4,"pm2_5":12.8,"no2":0.5,"co":152.0,"o3":131.0,"so2":2.3,"mosquito_risk":0,"arthritis_risk":5,"migraine_risk":10,"frizz_risk":0,"updated_at":"2026-05-01T17:10:56.422452+05:30"},{"city":"Bikaner","state":"Rajasthan","latitude":28.0229,"longitude":73.3119,"temp":41.2,"humidity":11,"rain":0.0,"pressure":973.7,"uv_index":8.25,"wind_gusts":38.5,"aqi":77,"pm10":79.4,"pm2_5":17.9,"no2":0.2,"co":156.0,"o3":120.0,"so2":4.0,"mosquito_risk":0,"arthritis_risk":5,"migraine_risk":10,"frizz_risk":0,"updated_at":"2026-05-01T17:10:56.422492+05:30"},{"city":"Ajmer","state":"Rajasthan","latitude":26.4499,"longitude":74.6399,"temp":38.6,"humidity":14,"rain":0.0,"pressure":948.4,"uv_index":8.25,"wind_gusts":49.7,"aqi":72,"pm10":72.4,"pm2_5":17.0,"no2":0.4,"co":144.0,"o3":127.0,"so2":2.0,"mosquito_risk":0,"arthritis_risk":5,"migraine_risk":10,"frizz_risk":0,"updated_at":"2026-05-01T17:10:56.422532+05:30"},{"city":"Gwalior","state":"Madhya Pradesh","latitude":26.2183,"longitude":78.1828,"temp":39.0,"humidity":16,"rain":0.0,"pressure":975.7,"uv_index":8.15,"wind_gusts":37.8,"aqi":91,"pm10":94.8,"pm2_5":24.7,"no2":0.6,"co":150.0,"o3":140.0,"so2":5.6,"mosquito_risk":0,"arthritis_risk":5,"migraine_risk":10,"frizz_risk":0,"updated_at":"2026-05-01T17:10:56.422572+05:30"},{"city":"Indore","state":"Madhya Pradesh","latitude":22.7196,"longitude":75.8577,"temp":38.0,"humidity":17,"rain":0.0,"pressure":943.2,"uv_index":8.65,"wind_gusts":41.4,"aqi":60,"pm10":61.2,"pm2_5":17.5,"no2":1.2,"co":179.0,"o3":123.0,"so2":3.9,"mosquito_risk":0,"arthritis_risk":5,"migraine_risk":10,"frizz_risk":0,"updated_at":"2026-05-01T17:10:56.422617+05:30"},{"city":"Bhopal","state":"Madhya Pradesh","latitude":23.2599,"longitude":77.4126,"temp":38.7,"humidity":16,"rain":0.0,"pressure":948.1,"uv_index":8.65,"wind_gusts":36.0,"aqi":71,"pm10":123.4,"pm2_5":24.0,"no2":0.6,"co":164.0,"o3":118.0,"so2":3.0,"mosquito_risk":0,"arthritis_risk":5,"migraine_risk":10,"frizz_risk":0,"updated_at":"2026-05-01T17:10:56.422656+05:30"},{"city":"Jabalpur","state":"Madhya Pradesh","latitude":23.1815,"longitude":79.9864,"temp":38.3,"humidity":17,"rain":0.0,"pressure":955.6,"uv_index":8.8,"wind_gusts":32.8,"aqi":95,"pm10":114.3,"pm2_5":27.9,"no2":1.6,"co":152.0,"o3":133.0,"so2":3.7,"mosquito_risk":0,"arthritis_risk":5,"migraine_risk":10,"frizz_risk":0,"updated_at":"2026-05-01T17:10:56.422695+05:30"},{"city":"Ujjain","state":"Madhya Pradesh","latitude":23.1765,"longitude":75.7885,"temp":38.5,"humidity":16,"rain":0.0,"pressure":948.6,"uv_index":8.55,"wind_gusts":40.3,"aqi":59,"pm10":66.6,"pm2_5":17.2,"no2":0.8,"co":152.0,"o3":122.0,"so2":3.3,"mosquito_risk":0,"arthritis_risk":5,"migraine_risk":10,"frizz_risk":0,"updated_at":"2026-05-01T17:10:56.422735+05:30"},{"city":"Visakhapatnam","state":"Andhra Pradesh","latitude":17.6868,"longitude":83.2185,"temp":31.3,"humidity":74,"rain":0.0,"pressure":999.3,"uv_index":9.15,"wind_gusts":52.6,"aqi":53,"pm10":20.5,"pm2_5":15.7,"no2":10.8,"co":278.0,"o3":98.0,"so2":8.7,"mosquito_risk":3,"arthritis_risk":5,"migraine_risk":7,"frizz_risk":1,"updated_at":"2026-05-01T17:10:56.422774+05:30"},{"city":"Vijayawada","state":"Andhra Pradesh","latitude":16.5062,"longitude":80.648,"temp":40.8,"humidity":19,"rain":0.0,"pressure":995.8,"uv_index":9.2,"wind_gusts":37.4,"aqi":118,"pm10":36.2,"pm2_5":28.7,"no2":6.0,"co":247.0,"o3":164.0,"so2":7.0,"mosquito_risk":0,"arthritis_risk":5,"migraine_risk":10,"frizz_risk":0,"updated_at":"2026-05-01T17:10:56.422813+05:30"},{"city":"Guntur","state":"Andhra Pradesh","latitude":16.3067,"longitude":80.4365,"temp":40.2,"humidity":21,"rain":0.0,"pressure":997.1,"uv_index":9.2,"wind_gusts":40.7,"aqi":131,"pm10":34.6,"pm2_5":25.1,"no2":4.9,"co":257.0,"o3":161.0,"so2":5.0,"mosquito_risk":0,"arthritis_risk":5,"migraine_risk":10,"frizz_risk":0,"updated_at":"2026-05-01T17:10:56.422850+05:30"},{"city":"Nellore","state":"Andhra Pradesh","latitude":14.4426,"longitude":79.9865,"temp":35.8,"humidity":50,"rain":0.0,"pressure":999.7,"uv_index":9.25,"wind_gusts":47.2,"aqi":159,"pm10":32.7,"pm2_5":26.3,"no2":2.4,"co":238.0,"o3":182.0,"so2":5.5,"mosquito_risk":0,"arthritis_risk":5,"migraine_risk":10,"frizz_risk":1,"updated_at":"2026-05-01T17:10:56.422894+05:30"},{"city":"Kurnool","state":"Andhra Pradesh","latitude":15.8281,"longitude":78.0373,"temp":40.2,"humidity":15,"rain":0.0,"pressure":971.7,"uv_index":9.2,"wind_gusts":39.2,"aqi":89,"pm10":41.6,"pm2_5":14.8,"no2":0.8,"co":180.0,"o3":150.0,"so2":5.3,"mosquito_risk":0,"arthritis_risk":5,"migraine_risk":10,"frizz_risk":0,"updated_at":"2026-05-01T17:10:56.422937+05:30"},{"city":"Kakinada","state":"Andhra Pradesh","latitude":16.9891,"longitude":82.2475,"temp":33.8,"humidity":60,"rain":0.0,"pressure":1002.4,"uv_index":9.15,"wind_gusts":41.0,"aqi":48,"pm10":20.7,"pm2_5":15.1,"no2":2.0,"co":223.0,"o3":112.0,"so2":2.5,"mosquito_risk":0,"arthritis_risk":5,"migraine_risk":4,"frizz_risk":1,"updated_at":"2026-05-01T17:10:56.422975+05:30"},{"city":"Tirupati","state":"Andhra Pradesh","latitude":13.6288,"longitude":79.4192,"temp":30.8,"humidity":54,"rain":0.1,"pressure":986.4,"uv_index":9.3,"wind_gusts":57.2,"aqi":149,"pm10":46.1,"pm2_5":38.1,"no2":3.8,"co":265.0,"o3":176.0,"so2":4.6,"mosquito_risk":3,"arthritis_risk":5,"migraine_risk":7,"frizz_risk":1,"updated_at":"2026-05-01T17:10:56.423017+05:30"},{"city":"Warangal","state":"Telangana","latitude":17.9689,"longitude":79.5941,"temp":39.0,"humidity":17,"rain":0.0,"pressure":973.3,"uv_index":9.15,"wind_gusts":34.9,"aqi":106,"pm10":39.1,"pm2_5":15.6,"no2":0.6,"co":162.0,"o3":139.0,"so2":4.8,"mosquito_risk":0,"arthritis_risk":5,"migraine_risk":10,"frizz_risk":0,"updated_at":"2026-05-01T17:10:56.423057+05:30"},{"city":"Nizamabad","state":"Telangana","latitude":18.6725,"longitude":78.0941,"temp":38.7,"humidity":16,"rain":0.0,"pressure":959.8,"uv_index":9.1,"wind_gusts":33.5,"aqi":77,"pm10":41.3,"pm2_5":16.3,"no2":0.6,"co":152.0,"o3":131.0,"so2":2.4,"mosquito_risk":0,"arthritis_risk":5,"migraine_risk":10,"frizz_risk":0,"updated_at":"2026-05-01T17:10:56.423098+05:30"},{"city":"Mysore","state":"Karnataka","latitude":12.2958,"longitude":76.6396,"temp":27.5,"humidity":61,"rain":0.0,"pressure":927.3,"uv_index":9.35,"wind_gusts":40.0,"aqi":131,"pm10":36.8,"pm2_5":27.8,"no2":4.0,"co":307.0,"o3":177.0,"so2":3.8,"mosquito_risk":7,"arthritis_risk":5,"migraine_risk":7,"frizz_risk":1,"updated_at":"2026-05-01T17:10:56.423137+05:30"},{"city":"Mangalore","state":"Karnataka","latitude":12.9141,"longitude":74.856,"temp":31.3,"humidity":70,"rain":0.0,"pressure":1004.7,"uv_index":9.0,"wind_gusts":41.0,"aqi":68,"pm10":27.1,"pm2_5":15.3,"no2":1.5,"co":150.0,"o3":88.0,"so2":1.0,"mosquito_risk":3,"arthritis_risk":5,"migraine_risk":4,"frizz_risk":1,"updated_at":"2026-05-01T17:10:56.423176+05:30"},{"city":"Hubli-Dharwad","state":"Karnataka","latitude":15.3647,"longitude":75.124,"temp":33.0,"humidity":38,"rain":0.0,"pressure":938.9,"uv_index":9.2,"wind_gusts":46.4,"aqi":57,"pm10":35.2,"pm2_5":14.0,"no2":1.6,"co":177.0,"o3":104.0,"so2":1.0,"mosquito_risk":0,"arthritis_risk":5,"migraine_risk":7,"frizz_risk":1,"updated_at":"2026-05-01T17:10:56.423218+05:30"},{"city":"Belgaum","state":"Karnataka","latitude":15.8497,"longitude":74.4977,"temp":30.9,"humidity":44,"rain":0.0,"pressure":924.6,"uv_index":9.15,"wind_gusts":46.4,"aqi":54,"pm10":32.6,"pm2_5":11.9,"no2":1.2,"co":153.0,"o3":93.0,"so2":1.4,"mosquito_risk":0,"arthritis_risk":5,"migraine_risk":7,"frizz_risk":1,"updated_at":"2026-05-01T17:10:59.953132+05:30"},{"city":"Coimbatore","state":"Tamil Nadu","latitude":11.0168,"longitude":76.9558,"temp":29.9,"humidity":62,"rain":0.1,"pressure":959.8,"uv_index":9.2,"wind_gusts":46.1,"aqi":118,"pm10":31.1,"pm2_5":24.7,"no2":3.0,"co":268.0,"o3":152.0,"so2":2.9,"mosquito_risk":10,"arthritis_risk":5,"migraine_risk":7,"frizz_risk":1,"updated_at":"2026-05-01T17:10:59.953174+05:30"},{"city":"Madurai","state":"Tamil Nadu","latitude":9.9252,"longitude":78.1198,"temp":31.0,"humidity":62,"rain":0.0,"pressure":991.2,"uv_index":8.9,"wind_gusts":41.4,"aqi":103,"pm10":22.5,"pm2_5":17.4,"no2":3.6,"co":245.0,"o3":144.0,"so2":2.6,"mosquito_risk":3,"arthritis_risk":5,"migraine_risk":7,"frizz_risk":1,"updated_at":"2026-05-01T17:10:59.953197+05:30"},{"city":"Trichy","state":"Tamil Nadu","latitude":10.7905,"longitude":78.7047,"temp":35.5,"humidity":42,"rain":0.0,"pressure":996.1,"uv_index":8.9,"wind_gusts":46.8,"aqi":106,"pm10":31.8,"pm2_5":25.3,"no2":4.3,"co":217.0,"o3":158.0,"so2":5.9,"mosquito_risk":0,"arthritis_risk":5,"migraine_risk":10,"frizz_risk":1,"updated_at":"2026-05-01T17:10:59.953216+05:30"},{"city":"Salem","state":"Tamil Nadu","latitude":11.6643,"longitude":78.146,"temp":33.0,"humidity":44,"rain":0.0,"pressure":974.2,"uv_index":9.25,"wind_gusts":42.5,"aqi":151,"pm10":41.2,"pm2_5":33.2,"no2":3.4,"co":274.0,"o3":203.0,"so2":12.1,"mosquito_risk":0,"arthritis_risk":5,"migraine_risk":7,"frizz_risk":1,"updated_at":"2026-05-01T17:10:59.953235+05:30"},{"city":"Tirunelveli","state":"Tamil Nadu","latitude":8.7139,"longitude":77.7567,"temp":32.3,"humidity":52,"rain":0.0,"pressure":1000.4,"uv_index":8.85,"wind_gusts":43.9,"aqi":54,"pm10":11.4,"pm2_5":9.5,"no2":2.5,"co":221.0,"o3":118.0,"so2":1.0,"mosquito_risk":0,"arthritis_risk":5,"migraine_risk":4,"frizz_risk":1,"updated_at":"2026-05-01T17:10:59.953253+05:30"},{"city":"Vellore","state":"Tamil Nadu","latitude":12.9165,"longitude":79.1325,"temp":38.0,"humidity":27,"rain":0.0,"pressure":979.5,"uv_index":9.3,"wind_gusts":30.6,"aqi":146,"pm10":49.5,"pm2_5":40.2,"no2":4.2,"co":302.0,"o3":173.0,"so2":5.2,"mosquito_risk":0,"arthritis_risk":5,"migraine_risk":10,"frizz_risk":0,"updated_at":"2026-05-01T17:10:59.953272+05:30"},{"city":"Erode","state":"Tamil Nadu","latitude":11.341,"longitude":77.7172,"temp":29.4,"humidity":63,"rain":0.0,"pressure":986.7,"uv_index":9.25,"wind_gusts":52.2,"aqi":108,"pm10":36.6,"pm2_5":26.7,"no2":2.4,"co":280.0,"o3":171.0,"so2":1.9,"mosquito_risk":7,"arthritis_risk":5,"migraine_risk":7,"frizz_risk":1,"updated_at":"2026-05-01T17:10:59.953289+05:30"},{"city":"Kochi","state":"Kerala","latitude":9.9312,"longitude":76.2673,"temp":28.1,"humidity":83,"rain":0.0,"pressure":1007.3,"uv_index":8.8,"wind_gusts":33.5,"aqi":55,"pm10":19.7,"pm2_5":14.6,"no2":2.9,"co":187.0,"o3":104.0,"so2":1.7,"mosquito_risk":7,"arthritis_risk":5,"migraine_risk":4,"frizz_risk":1,"updated_at":"2026-05-01T17:10:59.953307+05:30"},{"city":"Thiruvananthapuram","state":"Kerala","latitude":8.5241,"longitude":76.9366,"temp":27.2,"humidity":88,"rain":0.1,"pressure":1006.5,"uv_index":8.85,"wind_gusts":32.4,"aqi":48,"pm10":11.1,"pm2_5":8.2,"no2":2.2,"co":158.0,"o3":111.0,"so2":1.6,"mosquito_risk":10,"arthritis_risk":5,"migraine_risk":4,"frizz_risk":1,"updated_at":"2026-05-01T17:10:59.953325+05:30"},{"city":"Kozhikode","state":"Kerala","latitude":11.2588,"longitude":75.7804,"temp":29.0,"humidity":81,"rain":0.0,"pressure":1006.1,"uv_index":7.7,"wind_gusts":38.9,"aqi":59,"pm10":32.6,"pm2_5":17.4,"no2":0.6,"co":175.0,"o3":78.0,"so2":1.0,"mosquito_risk":7,"arthritis_risk":5,"migraine_risk":4,"frizz_risk":1,"updated_at":"2026-05-01T17:10:59.953343+05:30"},{"city":"Thrissur","state":"Kerala","latitude":10.5276,"longitude":76.2144,"temp":28.1,"humidity":83,"rain":0.1,"pressure":1005.5,"uv_index":8.7,"wind_gusts":35.6,"aqi":62,"pm10":27.1,"pm2_5":19.7,"no2":3.1,"co":162.0,"o3":107.0,"so2":1.9,"mosquito_risk":10,"arthritis_risk":5,"migraine_risk":4,"frizz_risk":1,"updated_at":"2026-05-01T17:10:59.953364+05:30"},{"city":"Kannur","state":"Kerala","latitude":11.8745,"longitude":75.3704,"temp":31.6,"humidity":65,"rain":0.0,"pressure":1005.0,"uv_index":8.9,"wind_gusts":43.2,"aqi":69,"pm10":30.0,"pm2_5":17.1,"no2":1.8,"co":173.0,"o3":87.0,"so2":1.0,"mosquito_risk":3,"arthritis_risk":5,"migraine_risk":4,"frizz_risk":1,"updated_at":"2026-05-01T17:10:59.953391+05:30"},{"city":"Patna","state":"Bihar","latitude":25.5941,"longitude":85.1376,"temp":27.1,"humidity":69,"rain":0.0,"pressure":996.5,"uv_index":8.4,"wind_gusts":28.4,"aqi":146,"pm10":73.6,"pm2_5":34.8,"no2":3.7,"co":353.0,"o3":181.0,"so2":6.7,"mosquito_risk":7,"arthritis_risk":5,"migraine_risk":7,"frizz_risk":1,"updated_at":"2026-05-01T17:10:59.953416+05:30"},{"city":"Gaya","state":"Bihar","latitude":24.7914,"longitude":85.0002,"temp":31.2,"humidity":44,"rain":0.0,"pressure":989.2,"uv_index":8.7,"wind_gusts":23.0,"aqi":160,"pm10":83.8,"pm2_5":29.9,"no2":2.1,"co":325.0,"o3":178.0,"so2":6.8,"mosquito_risk":0,"arthritis_risk":5,"migraine_risk":7,"frizz_risk":1,"updated_at":"2026-05-01T17:10:59.953434+05:30"},{"city":"Muzaffarpur","state":"Bihar","latitude":26.1209,"longitude":85.3647,"temp":22.0,"humidity":91,"rain":0.1,"pressure":996.9,"uv_index":6.55,"wind_gusts":31.3,"aqi":141,"pm10":57.4,"pm2_5":31.9,"no2":4.5,"co":349.0,"o3":177.0,"so2":9.3,"mosquito_risk":6,"arthritis_risk":5,"migraine_risk":7,"frizz_risk":1,"updated_at":"2026-05-01T17:10:59.953452+05:30"},{"city":"Bhagalpur","state":"Bihar","latitude":25.2425,"longitude":87.0117,"temp":25.6,"humidity":74,"rain":0.0,"pressure":997.6,"uv_index":8.5,"wind_gusts":39.6,"aqi":160,"pm10":49.9,"pm2_5":28.5,"no2":5.3,"co":321.0,"o3":179.0,"so2":5.5,"mosquito_risk":7,"arthritis_risk":5,"migraine_risk":7,"frizz_risk":1,"updated_at":"2026-05-01T17:10:59.953469+05:30"},{"city":"Ranchi","state":"Jharkhand","latitude":23.3441,"longitude":85.3096,"temp":24.9,"humidity":62,"rain":0.1,"pressure":934.0,"uv_index":9.05,"wind_gusts":33.5,"aqi":141,"pm10":96.2,"pm2_5":35.5,"no2":2.9,"co":183.0,"o3":160.0,"so2":7.8,"mosquito_risk":6,"arthritis_risk":5,"migraine_risk":7,"frizz_risk":1,"updated_at":"2026-05-01T17:10:59.953486+05:30"},{"city":"Jamshedpur","state":"Jharkhand","latitude":22.8046,"longitude":86.2029,"temp":29.2,"humidity":51,"rain":0.0,"pressure":986.2,"uv_index":9.0,"wind_gusts":34.9,"aqi":177,"pm10":82.9,"pm2_5":39.0,"no2":5.0,"co":297.0,"o3":177.0,"so2":15.3,"mosquito_risk":4,"arthritis_risk":5,"migraine_risk":7,"frizz_risk":1,"updated_at":"2026-05-01T17:10:59.953505+05:30"},{"city":"Dhanbad","state":"Jharkhand","latitude":23.7957,"longitude":86.4304,"temp":30.6,"humidity":52,"rain":0.0,"pressure":975.1,"uv_index":8.9,"wind_gusts":21.6,"aqi":179,"pm10":97.3,"pm2_5":49.0,"no2":23.6,"co":375.0,"o3":191.0,"so2":42.2,"mosquito_risk":0,"arthritis_risk":5,"migraine_risk":7,"frizz_risk":1,"updated_at":"2026-05-01T17:10:59.953525+05:30"},{"city":"Bokaro","state":"Jharkhand","latitude":23.6693,"longitude":86.1511,"temp":31.9,"humidity":41,"rain":0.0,"pressure":979.1,"uv_index":8.95,"wind_gusts":25.9,"aqi":184,"pm10":92.0,"pm2_5":39.0,"no2":18.1,"co":289.0,"o3":179.0,"so2":40.5,"mosquito_risk":0,"arthritis_risk":5,"migraine_risk":7,"frizz_risk":1,"updated_at":"2026-05-01T17:10:59.953541+05:30"},{"city":"Bhubaneswar","state":"Odisha","latitude":20.2961,"longitude":85.8245,"temp":31.9,"humidity":62,"rain":0.0,"pressure":997.5,"uv_index":8.4,"wind_gusts":44.3,"aqi":77,"pm10":48.2,"pm2_5":23.6,"no2":5.0,"co":259.0,"o3":130.0,"so2":4.4,"mosquito_risk":3,"arthritis_risk":5,"migraine_risk":7,"frizz_risk":1,"updated_at":"2026-05-01T17:10:59.953558+05:30"},{"city":"Cuttack","state":"Odisha","latitude":20.4625,"longitude":85.8828,"temp":32.5,"humidity":59,"rain":0.0,"pressure":999.2,"uv_index":8.85,"wind_gusts":35.3,"aqi":77,"pm10":48.2,"pm2_5":23.6,"no2":5.0,"co":273.0,"o3":130.0,"so2":4.4,"mosquito_risk":0,"arthritis_risk":5,"migraine_risk":7,"frizz_risk":1,"updated_at":"2026-05-01T17:10:59.953575+05:30"},{"city":"Rourkela","state":"Odisha","latitude":22.2604,"longitude":84.8536,"temp":34.3,"humidity":34,"rain":0.0,"pressure":979.4,"uv_index":8.9,"wind_gusts":38.9,"aqi":180,"pm10":87.8,"pm2_5":44.0,"no2":4.3,"co":202.0,"o3":208.0,"so2":32.6,"mosquito_risk":0,"arthritis_risk":5,"migraine_risk":7,"frizz_risk":1,"updated_at":"2026-05-01T17:10:59.953592+05:30"},{"city":"Raipur","state":"Chhattisgarh","latitude":21.2514,"longitude":81.6296,"temp":37.2,"humidity":21,"rain":0.0,"pressure":969.3,"uv_index":8.95,"wind_gusts":47.5,"aqi":143,"pm10":99.9,"pm2_5":31.5,"no2":5.4,"co":162.0,"o3":161.0,"so2":4.0,"mosquito_risk":0,"arthritis_risk":5,"migraine_risk":10,"frizz_risk":0,"updated_at":"2026-05-01T17:10:59.953608+05:30"},{"city":"Bhilai","state":"Chhattisgarh","latitude":21.1938,"longitude":81.3509,"temp":36.9,"humidity":21,"rain":0.0,"pressure":970.0,"uv_index":8.95,"wind_gusts":52.9,"aqi":108,"pm10":96.4,"pm2_5":27.6,"no2":5.0,"co":296.0,"o3":147.0,"so2":3.1,"mosquito_risk":0,"arthritis_risk":5,"migraine_risk":10,"frizz_risk":0,"updated_at":"2026-05-01T17:10:59.953625+05:30"},{"city":"Guwahati","state":"Assam","latitude":26.1158,"longitude":91.7086,"temp":24.1,"humidity":84,"rain":0.0,"pressure":998.6,"uv_index":7.7,"wind_gusts":26.6,"aqi":66,"pm10":21.2,"pm2_5":16.5,"no2":2.0,"co":366.0,"o3":120.0,"so2":1.9,"mosquito_risk":3,"arthritis_risk":5,"migraine_risk":7,"frizz_risk":1,"updated_at":"2026-05-01T17:10:59.953644+05:30"},{"city":"Agartala","state":"Tripura","latitude":23.8315,"longitude":91.2868,"temp":26.1,"humidity":76,"rain":0.0,"pressure":1002.5,"uv_index":5.1,"wind_gusts":40.7,"aqi":71,"pm10":38.4,"pm2_5":34.2,"no2":11.0,"co":214.0,"o3":128.0,"so2":3.4,"mosquito_risk":7,"arthritis_risk":5,"migraine_risk":0,"frizz_risk":1,"updated_at":"2026-05-01T17:10:59.953662+05:30"},{"city":"Shillong","state":"Meghalaya","latitude":25.5788,"longitude":91.8933,"temp":17.0,"humidity":83,"rain":0.0,"pressure":853.1,"uv_index":7.5,"wind_gusts":29.5,"aqi":57,"pm10":10.5,"pm2_5":8.8,"no2":2.9,"co":220.0,"o3":104.0,"so2":1.7,"mosquito_risk":3,"arthritis_risk":10,"migraine_risk":7,"frizz_risk":0,"updated_at":"2026-05-01T17:10:59.953679+05:30"},{"city":"Imphal","state":"Manipur","latitude":24.817,"longitude":93.9368,"temp":19.8,"humidity":94,"rain":0.1,"pressure":920.0,"uv_index":4.0,"wind_gusts":25.9,"aqi":76,"pm10":21.4,"pm2_5":17.3,"no2":10.0,"co":345.0,"o3":80.0,"so2":1.6,"mosquito_risk":6,"arthritis_risk":10,"migraine_risk":3,"frizz_risk":1,"updated_at":"2026-05-01T17:10:59.953697+05:30"},{"city":"Aizawl","state":"Mizoram","latitude":23.7271,"longitude":92.7176,"temp":17.2,"humidity":93,"rain":0.1,"pressure":889.0,"uv_index":4.95,"wind_gusts":50.4,"aqi":52,"pm10":11.6,"pm2_5":9.9,"no2":4.4,"co":183.0,"o3":81.0,"so2":1.0,"mosquito_risk":6,"arthritis_risk":10,"migraine_risk":3,"frizz_risk":1,"updated_at":"2026-05-01T17:10:59.953718+05:30"},{"city":"Kohima","state":"Nagaland","latitude":25.6701,"longitude":94.1077,"temp":17.8,"humidity":92,"rain":0.0,"pressure":851.9,"uv_index":4.45,"wind_gusts":23.0,"aqi":53,"pm10":19.2,"pm2_5":13.1,"no2":5.1,"co":249.0,"o3":82.0,"so2":1.4,"mosquito_risk":3,"arthritis_risk":10,"migraine_risk":3,"frizz_risk":1,"updated_at":"2026-05-01T17:10:59.953735+05:30"},{"city":"Gangtok","state":"Sikkim","latitude":27.3314,"longitude":88.6138,"temp":15.4,"humidity":84,"rain":0.0,"pressure":833.7,"uv_index":8.9,"wind_gusts":39.2,"aqi":84,"pm10":17.5,"pm2_5":9.6,"no2":3.9,"co":266.0,"o3":123.0,"so2":0.6,"mosquito_risk":3,"arthritis_risk":10,"migraine_risk":7,"frizz_risk":0,"updated_at":"2026-05-01T17:10:59.953751+05:30"},{"city":"Siliguri","state":"West Bengal","latitude":26.7271,"longitude":88.3953,"temp":24.2,"humidity":78,"rain":0.0,"pressure":989.8,"uv_index":6.6,"wind_gusts":30.6,"aqi":75,"pm10":23.9,"pm2_5":14.5,"no2":7.4,"co":501.0,"o3":122.0,"so2":1.5,"mosquito_risk":3,"arthritis_risk":5,"migraine_risk":7,"frizz_risk":1,"updated_at":"2026-05-01T17:11:03.656131+05:30"},{"city":"Durgapur","state":"West Bengal","latitude":23.5204,"longitude":87.3119,"temp":28.8,"humidity":66,"rain":0.0,"pressure":990.5,"uv_index":8.85,"wind_gusts":18.4,"aqi":167,"pm10":99.7,"pm2_5":64.5,"no2":18.4,"co":477.0,"o3":221.0,"so2":55.6,"mosquito_risk":7,"arthritis_risk":5,"migraine_risk":7,"frizz_risk":1,"updated_at":"2026-05-01T17:11:03.656187+05:30"},{"city":"Asansol","state":"West Bengal","latitude":23.6739,"longitude":86.9524,"temp":30.1,"humidity":56,"rain":0.0,"pressure":989.0,"uv_index":8.75,"wind_gusts":31.0,"aqi":176,"pm10":98.0,"pm2_5":55.4,"no2":20.2,"co":456.0,"o3":206.0,"so2":44.5,"mosquito_risk":0,"arthritis_risk":5,"migraine_risk":7,"frizz_risk":1,"updated_at":"2026-05-01T17:11:03.656215+05:30"},{"city":"Pondicherry","state":"Puducherry","latitude":11.9139,"longitude":79.8145,"temp":31.6,"humidity":72,"rain":0.0,"pressure":1003.9,"uv_index":8.7,"wind_gusts":42.1,"aqi":102,"pm10":32.7,"pm2_5":28.3,"no2":6.9,"co":183.0,"o3":171.0,"so2":18.2,"mosquito_risk":3,"arthritis_risk":5,"migraine_risk":4,"frizz_risk":1,"updated_at":"2026-05-01T17:11:03.656241+05:30"},{"city":"Port Blair","state":"Andaman and Nicobar Islands","latitude":11.6234,"longitude":92.7265,"temp":31.0,"humidity":63,"rain":0.0,"pressure":1005.1,"uv_index":9.1,"wind_gusts":28.8,"aqi":31,"pm10":7.0,"pm2_5":5.0,"no2":0.6,"co":154.0,"o3":62.0,"so2":3.6,"mosquito_risk":3,"arthritis_risk":5,"migraine_risk":4,"frizz_risk":1,"updated_at":"2026-05-01T17:11:03.656265+05:30"},{"city":"Haridwar","state":"Uttarakhand","latitude":29.9457,"longitude":78.1642,"temp":30.4,"humidity":48,"rain":0.0,"pressure":968.8,"uv_index":7.4,"wind_gusts":28.8,"aqi":145,"pm10":126.2,"pm2_5":33.2,"no2":1.2,"co":293.0,"o3":170.0,"so2":9.3,"mosquito_risk":0,"arthritis_risk":5,"migraine_risk":7,"frizz_risk":1,"updated_at":"2026-05-01T17:11:03.656290+05:30"},{"city":"Rishikesh","state":"Uttarakhand","latitude":30.0869,"longitude":78.2676,"temp":28.9,"humidity":52,"rain":0.0,"pressure":961.7,"uv_index":7.5,"wind_gusts":25.6,"aqi":144,"pm10":131.8,"pm2_5":33.6,"no2":0.5,"co":249.0,"o3":166.0,"so2":8.5,"mosquito_risk":4,"arthritis_risk":5,"migraine_risk":7,"frizz_risk":1,"updated_at":"2026-05-01T17:11:03.656315+05:30"},{"city":"Nainital","state":"Uttarakhand","latitude":29.3919,"longitude":79.4542,"temp":16.2,"humidity":65,"rain":0.1,"pressure":801.9,"uv_index":8.3,"wind_gusts":43.9,"aqi":131,"pm10":119.7,"pm2_5":30.3,"no2":0.8,"co":237.0,"o3":160.0,"so2":5.0,"mosquito_risk":6,"arthritis_risk":5,"migraine_risk":7,"frizz_risk":0,"updated_at":"2026-05-01T17:11:03.656340+05:30"},{"city":"Mussoorie","state":"Uttarakhand","latitude":30.4599,"longitude":78.0664,"temp":15.9,"humidity":74,"rain":0.0,"pressure":799.3,"uv_index":7.9,"wind_gusts":49.0,"aqi":147,"pm10":126.2,"pm2_5":38.8,"no2":1.0,"co":242.0,"o3":182.0,"so2":9.3,"mosquito_risk":3,"arthritis_risk":5,"migraine_risk":7,"frizz_risk":0,"updated_at":"2026-05-01T17:11:03.656364+05:30"},{"city":"Dharamshala","state":"Himachal Pradesh","latitude":32.219,"longitude":76.3234,"temp":23.4,"humidity":40,"rain":0.0,"pressure":865.5,"uv_index":8.2,"wind_gusts":46.1,"aqi":108,"pm10":11.3,"pm2_5":8.1,"no2":0.2,"co":211.0,"o3":149.0,"so2":1.0,"mosquito_risk":0,"arthritis_risk":5,"migraine_risk":7,"frizz_risk":0,"updated_at":"2026-05-01T17:11:03.656389+05:30"},{"city":"Dalhousie","state":"Himachal Pradesh","latitude":32.5387,"longitude":75.971,"temp":18.1,"humidity":52,"rain":0.0,"pressure":802.0,"uv_index":8.5,"wind_gusts":39.6,"aqi":137,"pm10":29.7,"pm2_5":14.4,"no2":0.4,"co":213.0,"o3":168.0,"so2":3.4,"mosquito_risk":0,"arthritis_risk":5,"migraine_risk":7,"frizz_risk":0,"updated_at":"2026-05-01T17:11:03.656415+05:30"},{"city":"Patiala","state":"Punjab","latitude":30.3398,"longitude":76.3869,"temp":34.7,"humidity":27,"rain":0.0,"pressure":972.2,"uv_index":7.5,"wind_gusts":38.5,"aqi":527,"pm10":543.9,"pm2_5":72.2,"no2":1.6,"co":251.0,"o3":178.0,"so2":10.4,"mosquito_risk":0,"arthritis_risk":5,"migraine_risk":7,"frizz_risk":0,"updated_at":"2026-05-01T17:11:03.656440+05:30"},{"city":"Bhatinda","state":"Punjab","latitude":30.211,"longitude":74.9455,"temp":36.5,"humidity":21,"rain":0.0,"pressure":977.3,"uv_index":8.1,"wind_gusts":31.3,"aqi":312,"pm10":137.4,"pm2_5":34.7,"no2":1.9,"co":227.0,"o3":168.0,"so2":11.6,"mosquito_risk":0,"arthritis_risk":5,"migraine_risk":10,"frizz_risk":0,"updated_at":"2026-05-01T17:11:03.656464+05:30"},{"city":"Rohtak","state":"Haryana","latitude":28.8955,"longitude":76.6066,"temp":36.0,"humidity":24,"rain":0.0,"pressure":975.4,"uv_index":7.6,"wind_gusts":32.0,"aqi":616,"pm10":472.2,"pm2_5":82.0,"no2":3.1,"co":278.0,"o3":222.0,"so2":14.5,"mosquito_risk":0,"arthritis_risk":5,"migraine_risk":10,"frizz_risk":0,"updated_at":"2026-05-01T17:11:03.656488+05:30"},{"city":"Panipat","state":"Haryana","latitude":29.3909,"longitude":76.9635,"temp":34.2,"humidity":34,"rain":0.0,"pressure":974.4,"uv_index":7.45,"wind_gusts":32.8,"aqi":1126,"pm10":631.4,"pm2_5":91.7,"no2":4.8,"co":252.0,"o3":224.0,"so2":24.5,"mosquito_risk":0,"arthritis_risk":5,"migraine_risk":7,"frizz_risk":0,"updated_at":"2026-05-01T17:11:03.656512+05:30"},{"city":"Mathura","state":"Uttar Pradesh","latitude":27.4924,"longitude":77.6737,"temp":36.4,"humidity":27,"rain":0.0,"pressure":979.7,"uv_index":7.85,"wind_gusts":28.1,"aqi":637,"pm10":448.9,"pm2_5":64.7,"no2":2.1,"co":228.0,"o3":160.0,"so2":6.3,"mosquito_risk":0,"arthritis_risk":5,"migraine_risk":10,"frizz_risk":0,"updated_at":"2026-05-01T17:11:03.656536+05:30"},{"city":"Vrindavan","state":"Uttar Pradesh","latitude":27.5823,"longitude":77.7027,"temp":36.5,"humidity":27,"rain":0.0,"pressure":980.1,"uv_index":7.8,"wind_gusts":28.4,"aqi":637,"pm10":448.9,"pm2_5":64.7,"no2":2.1,"co":227.0,"o3":160.0,"so2":6.3,"mosquito_risk":0,"arthritis_risk":5,"migraine_risk":10,"frizz_risk":0,"updated_at":"2026-05-01T17:11:03.656560+05:30"},{"city":"Ayodhya","state":"Uttar Pradesh","latitude":26.7922,"longitude":82.1998,"temp":30.6,"humidity":45,"rain":0.0,"pressure":990.5,"uv_index":8.15,"wind_gusts":28.4,"aqi":119,"pm10":87.3,"pm2_5":25.6,"no2":0.7,"co":277.0,"o3":159.0,"so2":5.6,"mosquito_risk":0,"arthritis_risk":5,"migraine_risk":7,"frizz_risk":1,"updated_at":"2026-05-01T17:11:03.656584+05:30"},{"city":"Ratlam","state":"Madhya Pradesh","latitude":23.3315,"longitude":75.0367,"temp":37.8,"humidity":19,"rain":0.0,"pressure":949.8,"uv_index":8.45,"wind_gusts":41.4,"aqi":58,"pm10":53.6,"pm2_5":15.8,"no2":0.6,"co":151.0,"o3":122.0,"so2":3.2,"mosquito_risk":0,"arthritis_risk":5,"migraine_risk":10,"frizz_risk":0,"updated_at":"2026-05-01T17:11:03.656609+05:30"},{"city":"Sagar","state":"Madhya Pradesh","latitude":23.8388,"longitude":78.7378,"temp":37.3,"humidity":16,"rain":0.0,"pressure":944.8,"uv_index":8.65,"wind_gusts":39.2,"aqi":82,"pm10":50.5,"pm2_5":16.2,"no2":0.4,"co":143.0,"o3":131.0,"so2":3.7,"mosquito_risk":0,"arthritis_risk":5,"migraine_risk":10,"frizz_risk":0,"updated_at":"2026-05-01T17:11:03.656633+05:30"},{"city":"Satna","state":"Madhya Pradesh","latitude":24.6005,"longitude":80.8322,"temp":35.0,"humidity":25,"rain":0.0,"pressure":966.0,"uv_index":8.65,"wind_gusts":48.2,"aqi":96,"pm10":115.7,"pm2_5":27.0,"no2":0.6,"co":150.0,"o3":134.0,"so2":3.1,"mosquito_risk":0,"arthritis_risk":5,"migraine_risk":7,"frizz_risk":0,"updated_at":"2026-05-01T17:11:03.656657+05:30"},{"city":"Akola","state":"Maharashtra","latitude":20.7002,"longitude":77.0082,"temp":39.5,"humidity":16,"rain":0.0,"pressure":969.4,"uv_index":8.9,"wind_gusts":40.0,"aqi":59,"pm10":43.5,"pm2_5":14.9,"no2":1.5,"co":151.0,"o3":121.0,"so2":9.1,"mosquito_risk":0,"arthritis_risk":5,"migraine_risk":10,"frizz_risk":0,"updated_at":"2026-05-01T17:11:03.656683+05:30"},{"city":"Amravati","state":"Maharashtra","latitude":20.9374,"longitude":77.7796,"temp":39.3,"humidity":17,"rain":0.0,"pressure":961.7,"uv_index":8.85,"wind_gusts":41.0,"aqi":73,"pm10":42.8,"pm2_5":14.8,"no2":1.9,"co":147.0,"o3":126.0,"so2":7.6,"mosquito_risk":0,"arthritis_risk":5,"migraine_risk":10,"frizz_risk":0,"updated_at":"2026-05-01T17:11:03.656709+05:30"},{"city":"Latur","state":"Maharashtra","latitude":18.4088,"longitude":76.5604,"temp":38.2,"humidity":14,"rain":0.0,"pressure":936.1,"uv_index":9.1,"wind_gusts":38.5,"aqi":59,"pm10":35.6,"pm2_5":12.0,"no2":0.3,"co":137.0,"o3":112.0,"so2":3.5,"mosquito_risk":0,"arthritis_risk":5,"migraine_risk":10,"frizz_risk":0,"updated_at":"2026-05-01T17:11:03.656733+05:30"},{"city":"Nanded","state":"Maharashtra","latitude":19.1383,"longitude":77.3091,"temp":39.4,"humidity":17,"rain":0.0,"pressure":963.4,"uv_index":9.0,"wind_gusts":32.8,"aqi":64,"pm10":42.0,"pm2_5":15.3,"no2":0.6,"co":152.0,"o3":122.0,"so2":1.5,"mosquito_risk":0,"arthritis_risk":5,"migraine_risk":10,"frizz_risk":0,"updated_at":"2026-05-01T17:11:03.656756+05:30"},{"city":"Gulbarga","state":"Karnataka","latitude":17.3297,"longitude":76.8343,"temp":39.3,"humidity":13,"rain":0.0,"pressure":954.1,"uv_index":9.1,"wind_gusts":44.6,"aqi":55,"pm10":39.5,"pm2_5":12.9,"no2":0.4,"co":151.0,"o3":117.0,"so2":1.9,"mosquito_risk":0,"arthritis_risk":5,"migraine_risk":10,"frizz_risk":0,"updated_at":"2026-05-01T17:11:03.656779+05:30"},{"city":"Bidar","state":"Karnataka","latitude":17.9104,"longitude":77.5199,"temp":37.8,"humidity":15,"rain":0.0,"pressure":931.7,"uv_index":9.15,"wind_gusts":40.3,"aqi":68,"pm10":39.6,"pm2_5":14.7,"no2":1.3,"co":158.0,"o3":128.0,"so2":4.4,"mosquito_risk":0,"arthritis_risk":5,"migraine_risk":10,"frizz_risk":0,"updated_at":"2026-05-01T17:11:03.656803+05:30"},{"city":"Hospet","state":"Karnataka","latitude":15.2689,"longitude":76.3909,"temp":37.5,"humidity":21,"rain":0.0,"pressure":951.8,"uv_index":9.25,"wind_gusts":43.6,"aqi":63,"pm10":31.7,"pm2_5":13.8,"no2":2.2,"co":193.0,"o3":129.0,"so2":1.2,"mosquito_risk":0,"arthritis_risk":5,"migraine_risk":10,"frizz_risk":0,"updated_at":"2026-05-01T17:11:03.656827+05:30"},{"city":"Tirupur","state":"Tamil Nadu","latitude":11.1085,"longitude":77.3411,"temp":31.1,"humidity":59,"rain":0.1,"pressure":972.8,"uv_index":9.2,"wind_gusts":46.1,"aqi":131,"pm10":36.1,"pm2_5":27.6,"no2":3.2,"co":268.0,"o3":175.0,"so2":3.1,"mosquito_risk":3,"arthritis_risk":5,"migraine_risk":7,"frizz_risk":1,"updated_at":"2026-05-01T17:11:03.656851+05:30"},{"city":"Alappuzha","state":"Kerala","latitude":9.4981,"longitude":76.3388,"temp":27.0,"humidity":90,"rain":0.0,"pressure":1007.3,"uv_index":8.95,"wind_gusts":34.6,"aqi":52,"pm10":14.0,"pm2_5":11.0,"no2":4.0,"co":167.0,"o3":109.0,"so2":3.6,"mosquito_risk":7,"arthritis_risk":5,"migraine_risk":4,"frizz_risk":1,"updated_at":"2026-05-01T17:11:03.656875+05:30"},{"city":"Munnar","state":"Kerala","latitude":10.0889,"longitude":77.0595,"temp":19.1,"humidity":97,"rain":0.3,"pressure":855.9,"uv_index":8.3,"wind_gusts":27.7,"aqi":47,"pm10":18.7,"pm2_5":13.8,"no2":2.3,"co":221.0,"o3":111.0,"so2":1.1,"mosquito_risk":6,"arthritis_risk":10,"migraine_risk":7,"frizz_risk":1,"updated_at":"2026-05-01T17:11:03.656902+05:30"},{"city":"Silchar","state":"Assam","latitude":24.8333,"longitude":92.7789,"temp":23.0,"humidity":94,"rain":0.1,"pressure":1002.1,"uv_index":0.8,"wind_gusts":25.6,"aqi":102,"pm10":22.6,"pm2_5":22.2,"no2":6.2,"co":243.0,"o3":87.0,"so2":4.2,"mosquito_risk":6,"arthritis_risk":5,"migraine_risk":0,"frizz_risk":1,"updated_at":"2026-05-01T17:11:03.656930+05:30"},{"city":"Dibrugarh","state":"Assam","latitude":27.4728,"longitude":94.912,"temp":22.6,"humidity":89,"rain":0.0,"pressure":993.7,"uv_index":5.65,"wind_gusts":22.3,"aqi":65,"pm10":21.6,"pm2_5":14.4,"no2":4.0,"co":279.0,"o3":106.0,"so2":1.5,"mosquito_risk":3,"arthritis_risk":5,"migraine_risk":3,"frizz_risk":1,"updated_at":"2026-05-01T17:11:03.656953+05:30"}]