[{"city":"Delhi","state":"Delhi","latitude":28.6139,"longitude":77.209,"temp":32.4,"humidity":28,"rain":0.0,"pressure":983.1,"uv_index":7.3,"wind_gusts":28.4,"aqi":153,"pm10":136.9,"pm2_5":36.9,"mosquito_risk":0,"arthritis_risk":5,"migraine_risk":7,"frizz_risk":0,"updated_at":"2026-04-15T10:57:18.799233+05:30"},{"city":"Mumbai","state":"Maharashtra","latitude":19.076,"longitude":72.8777,"temp":29.0,"humidity":77,"rain":0.0,"pressure":1008.7,"uv_index":8.0,"wind_gusts":18.0,"aqi":99,"pm10":83.6,"pm2_5":40.3,"mosquito_risk":7,"arthritis_risk":0,"migraine_risk":4,"frizz_risk":1,"updated_at":"2026-04-15T10:57:18.799270+05:30"},{"city":"Bangalore","state":"Karnataka","latitude":12.9716,"longitude":77.5946,"temp":30.7,"humidity":49,"rain":0.0,"pressure":913.7,"uv_index":9.65,"wind_gusts":28.1,"aqi":66,"pm10":25.7,"pm2_5":20.6,"mosquito_risk":0,"arthritis_risk":5,"migraine_risk":7,"frizz_risk":1,"updated_at":"2026-04-15T10:57:18.799286+05:30"},{"city":"Hyderabad","state":"Telangana","latitude":17.385,"longitude":78.4867,"temp":37.5,"humidity":25,"rain":0.0,"pressure":954.1,"uv_index":9.25,"wind_gusts":31.3,"aqi":90,"pm10":30.7,"pm2_5":24.3,"mosquito_risk":0,"arthritis_risk":5,"migraine_risk":10,"frizz_risk":0,"updated_at":"2026-04-15T10:57:18.799296+05:30"},{"city":"Chennai","state":"Tamil Nadu","latitude":13.0827,"longitude":80.2707,"temp":34.4,"humidity":56,"rain":0.0,"pressure":1007.6,"uv_index":9.35,"wind_gusts":32.8,"aqi":31,"pm10":13.1,"pm2_5":10.2,"mosquito_risk":0,"arthritis_risk":5,"migraine_risk":4,"frizz_risk":1,"updated_at":"2026-04-15T10:57:18.799305+05:30"},{"city":"Kolkata","state":"West Bengal","latitude":22.5726,"longitude":88.3639,"temp":33.6,"humidity":69,"rain":0.0,"pressure":1005.5,"uv_index":8.85,"wind_gusts":28.1,"aqi":95,"pm10":45.8,"pm2_5":35.4,"mosquito_risk":3,"arthritis_risk":5,"migraine_risk":4,"frizz_risk":1,"updated_at":"2026-04-15T10:57:18.799313+05:30"},{"city":"Pune","state":"Maharashtra","latitude":18.5204,"longitude":73.8567,"temp":36.1,"humidity":18,"rain":0.0,"pressure":949.7,"uv_index":8.6,"wind_gusts":42.5,"aqi":71,"pm10":29.4,"pm2_5":11.9,"mosquito_risk":0,"arthritis_risk":5,"migraine_risk":10,"frizz_risk":0,"updated_at":"2026-04-15T10:57:18.799325+05:30"},{"city":"Ahmedabad","state":"Gujarat","latitude":23.0225,"longitude":72.5714,"temp":34.3,"humidity":42,"rain":0.0,"pressure":1001.6,"uv_index":8.15,"wind_gusts":19.4,"aqi":65,"pm10":91.5,"pm2_5":28.9,"mosquito_risk":0,"arthritis_risk":5,"migraine_risk":4,"frizz_risk":1,"updated_at":"2026-04-15T10:57:18.799333+05:30"},{"city":"Jaipur","state":"Rajasthan","latitude":26.9124,"longitude":75.7873,"temp":35.6,"humidity":19,"rain":0.0,"pressure":959.8,"uv_index":7.95,"wind_gusts":34.9,"aqi":169,"pm10":501.1,"pm2_5":64.7,"mosquito_risk":0,"arthritis_risk":5,"migraine_risk":10,"frizz_risk":0,"updated_at":"2026-04-15T10:57:18.799341+05:30"},{"city":"Lucknow","state":"Uttar Pradesh","latitude":26.8467,"longitude":80.9462,"temp":34.9,"humidity":32,"rain":0.0,"pressure":992.7,"uv_index":7.8,"wind_gusts":29.2,"aqi":89,"pm10":239.3,"pm2_5":39.6,"mosquito_risk":0,"arthritis_risk":5,"migraine_risk":7,"frizz_risk":0,"updated_at":"2026-04-15T10:57:18.799348+05:30"},{"city":"Kanpur","state":"Uttar Pradesh","latitude":26.4499,"longitude":80.3319,"temp":33.1,"humidity":43,"rain":0.0,"pressure":991.0,"uv_index":7.8,"wind_gusts":24.8,"aqi":149,"pm10":244.0,"pm2_5":41.3,"mosquito_risk":0,"arthritis_risk":5,"migraine_risk":7,"frizz_risk":1,"updated_at":"2026-04-15T10:57:18.799355+05:30"},{"city":"Chandigarh","state":"Chandigarh","latitude":30.7333,"longitude":76.7794,"temp":31.0,"humidity":36,"rain":0.0,"pressure":968.8,"uv_index":7.25,"wind_gusts":30.2,"aqi":51,"pm10":9.7,"pm2_5":7.9,"mosquito_risk":0,"arthritis_risk":5,"migraine_risk":7,"frizz_risk":0,"updated_at":"2026-04-15T10:57:18.799362+05:30"},{"city":"Srinagar","state":"Jammu and Kashmir","latitude":34.0837,"longitude":74.7973,"temp":18.7,"humidity":49,"rain":0.0,"pressure":844.0,"uv_index":7.7,"wind_gusts":15.8,"aqi":76,"pm10":23.1,"pm2_5":12.6,"mosquito_risk":0,"arthritis_risk":5,"migraine_risk":7,"frizz_risk":0,"updated_at":"2026-04-15T10:57:18.799369+05:30"},{"city":"Jammu","state":"Jammu and Kashmir","latitude":32.7266,"longitude":74.857,"temp":30.5,"humidity":38,"rain":0.0,"pressure":972.2,"uv_index":7.95,"wind_gusts":32.0,"aqi":60,"pm10":19.5,"pm2_5":12.9,"mosquito_risk":0,"arthritis_risk":5,"migraine_risk":7,"frizz_risk":0,"updated_at":"2026-04-15T10:57:18.799376+05:30"},{"city":"Amritsar","state":"Punjab","latitude":31.634,"longitude":74.8723,"temp":30.2,"humidity":40,"rain":0.0,"pressure":980.9,"uv_index":7.85,"wind_gusts":27.7,"aqi":88,"pm10":15.7,"pm2_5":12.9,"mosquito_risk":0,"arthritis_risk":5,"migraine_risk":7,"frizz_risk":0,"updated_at":"2026-04-15T10:57:18.799382+05:30"},{"city":"Ludhiana","state":"Punjab","latitude":30.901,"longitude":75.8573,"temp":31.1,"humidity":36,"rain":0.0,"pressure":978.8,"uv_index":7.5,"wind_gusts":27.4,"aqi":69,"pm10":9.7,"pm2_5":9.4,"mosquito_risk":0,"arthritis_risk":5,"migraine_risk":7,"frizz_risk":0,"updated_at":"2026-04-15T10:57:18.799389+05:30"},{"city":"Jalandhar","state":"Punjab","latitude":31.326,"longitude":75.5762,"temp":30.3,"humidity":40,"rain":0.0,"pressure":979.9,"uv_index":7.65,"wind_gusts":26.3,"aqi":62,"pm10":16.0,"pm2_5":10.2,"mosquito_risk":0,"arthritis_risk":5,"migraine_risk":7,"frizz_risk":0,"updated_at":"2026-04-15T10:57:18.799399+05:30"},{"city":"Dehradun","state":"Uttarakhand","latitude":30.6284,"longitude":78.0322,"temp":22.2,"humidity":36,"rain":0.0,"pressure":831.6,"uv_index":7.65,"wind_gusts":31.3,"aqi":35,"pm10":12.0,"pm2_5":4.9,"mosquito_risk":0,"arthritis_risk":5,"migraine_risk":7,"frizz_risk":0,"updated_at":"2026-04-15T10:57:18.799406+05:30"},{"city":"Shimla","state":"Himachal Pradesh","latitude":31.1048,"longitude":77.1734,"temp":20.8,"humidity":35,"rain":0.0,"pressure":787.1,"uv_index":7.75,"wind_gusts":47.2,"aqi":38,"pm10":10.0,"pm2_5":3.5,"mosquito_risk":0,"arthritis_risk":5,"migraine_risk":7,"frizz_risk":0,"updated_at":"2026-04-15T10:57:18.799413+05:30"},{"city":"Manali","state":"Himachal Pradesh","latitude":32.2396,"longitude":77.1887,"temp":23.8,"humidity":20,"rain":0.0,"pressure":822.2,"uv_index":9.15,"wind_gusts":31.0,"aqi":95,"pm10":11.8,"pm2_5":5.2,"mosquito_risk":0,"arthritis_risk":5,"migraine_risk":7,"frizz_risk":1,"updated_at":"2026-04-15T10:57:18.799420+05:30"},{"city":"Gurgaon","state":"Haryana","latitude":28.4595,"longitude":77.0266,"temp":32.2,"humidity":32,"rain":0.0,"pressure":981.5,"uv_index":7.4,"wind_gusts":25.9,"aqi":420,"pm10":234.7,"pm2_5":47.3,"mosquito_risk":0,"arthritis_risk":5,"migraine_risk":7,"frizz_risk":0,"updated_at":"2026-04-15T10:57:18.799427+05:30"},{"city":"Noida","state":"Uttar Pradesh","latitude":28.5355,"longitude":77.391,"temp":32.9,"humidity":28,"rain":0.0,"pressure":984.5,"uv_index":7.35,"wind_gusts":29.2,"aqi":420,"pm10":234.7,"pm2_5":47.3,"mosquito_risk":0,"arthritis_risk":5,"migraine_risk":7,"frizz_risk":0,"updated_at":"2026-04-15T10:57:18.799433+05:30"},{"city":"Ghaziabad","state":"Uttar Pradesh","latitude":28.6692,"longitude":77.4538,"temp":32.1,"humidity":32,"rain":0.0,"pressure":982.6,"uv_index":7.3,"wind_gusts":27.4,"aqi":112,"pm10":72.9,"pm2_5":23.4,"mosquito_risk":0,"arthritis_risk":5,"migraine_risk":7,"frizz_risk":0,"updated_at":"2026-04-15T10:57:18.799439+05:30"},{"city":"Faridabad","state":"Haryana","latitude":28.4089,"longitude":77.3178,"temp":33.4,"humidity":28,"rain":0.0,"pressure":983.8,"uv_index":7.35,"wind_gusts":28.8,"aqi":420,"pm10":234.7,"pm2_5":47.3,"mosquito_risk":0,"arthritis_risk":5,"migraine_risk":7,"frizz_risk":0,"updated_at":"2026-04-15T10:57:18.799445+05:30"},{"city":"Meerut","state":"Uttar Pradesh","latitude":28.9845,"longitude":77.7064,"temp":32.1,"humidity":33,"rain":0.0,"pressure":981.4,"uv_index":7.2,"wind_gusts":29.5,"aqi":112,"pm10":72.9,"pm2_5":23.4,"mosquito_risk":0,"arthritis_risk":5,"migraine_risk":7,"frizz_risk":0,"updated_at":"2026-04-15T10:57:18.799452+05:30"},{"city":"Agra","state":"Uttar Pradesh","latitude":27.1767,"longitude":78.0081,"temp":34.7,"humidity":29,"rain":0.0,"pressure":987.5,"uv_index":7.65,"wind_gusts":25.9,"aqi":244,"pm10":250.5,"pm2_5":51.0,"mosquito_risk":0,"arthritis_risk":5,"migraine_risk":7,"frizz_risk":0,"updated_at":"2026-04-15T10:57:18.799458+05:30"},{"city":"Varanasi","state":"Uttar Pradesh","latitude":25.3176,"longitude":82.9739,"temp":36.8,"humidity":22,"rain":0.0,"pressure":996.5,"uv_index":8.4,"wind_gusts":24.1,"aqi":97,"pm10":106.9,"pm2_5":21.9,"mosquito_risk":0,"arthritis_risk":5,"migraine_risk":10,"frizz_risk":0,"updated_at":"2026-04-15T10:57:18.799467+05:30"},{"city":"Prayagraj","state":"Uttar Pradesh","latitude":25.4358,"longitude":81.8463,"temp":35.8,"humidity":27,"rain":0.0,"pressure":995.1,"uv_index":8.25,"wind_gusts":24.1,"aqi":108,"pm10":130.4,"pm2_5":27.1,"mosquito_risk":0,"arthritis_risk":5,"migraine_risk":10,"frizz_risk":0,"updated_at":"2026-04-15T10:57:18.799474+05:30"},{"city":"Gorakhpur","state":"Uttar Pradesh","latitude":26.7606,"longitude":83.3732,"temp":33.5,"humidity":33,"rain":0.0,"pressure":996.6,"uv_index":8.2,"wind_gusts":27.0,"aqi":85,"pm10":69.4,"pm2_5":29.0,"mosquito_risk":0,"arthritis_risk":5,"migraine_risk":7,"frizz_risk":0,"updated_at":"2026-04-15T10:57:18.799481+05:30"},{"city":"Bareilly","state":"Uttar Pradesh","latitude":28.367,"longitude":79.4304,"temp":32.2,"humidity":32,"rain":0.0,"pressure":986.4,"uv_index":7.55,"wind_gusts":27.7,"aqi":63,"pm10":24.0,"pm2_5":14.4,"mosquito_risk":0,"arthritis_risk":5,"migraine_risk":7,"frizz_risk":0,"updated_at":"2026-04-15T10:57:18.799487+05:30"},{"city":"Aligarh","state":"Uttar Pradesh","latitude":27.8974,"longitude":78.088,"temp":34.7,"humidity":25,"rain":0.0,"pressure":985.2,"uv_index":7.45,"wind_gusts":30.6,"aqi":164,"pm10":113.6,"pm2_5":26.4,"mosquito_risk":0,"arthritis_risk":5,"migraine_risk":7,"frizz_risk":0,"updated_at":"2026-04-15T10:57:18.799493+05:30"},{"city":"Moradabad","state":"Uttar Pradesh","latitude":28.8386,"longitude":78.7733,"temp":31.4,"humidity":35,"rain":0.0,"pressure":983.3,"uv_index":7.35,"wind_gusts":30.2,"aqi":74,"pm10":16.8,"pm2_5":15.5,"mosquito_risk":0,"arthritis_risk":5,"migraine_risk":7,"frizz_risk":0,"updated_at":"2026-04-15T10:57:18.799499+05:30"},{"city":"Saharanpur","state":"Uttar Pradesh","latitude":29.9637,"longitude":77.546,"temp":30.3,"humidity":38,"rain":0.0,"pressure":975.5,"uv_index":6.95,"wind_gusts":32.0,"aqi":75,"pm10":16.8,"pm2_5":14.3,"mosquito_risk":0,"arthritis_risk":5,"migraine_risk":7,"frizz_risk":0,"updated_at":"2026-04-15T10:57:18.799505+05:30"},{"city":"Jhansi","state":"Uttar Pradesh","latitude":25.4484,"longitude":78.5685,"temp":37.8,"humidity":19,"rain":0.0,"pressure":977.1,"uv_index":8.2,"wind_gusts":40.7,"aqi":65,"pm10":121.1,"pm2_5":23.9,"mosquito_risk":0,"arthritis_risk":5,"migraine_risk":10,"frizz_risk":0,"updated_at":"2026-04-15T10:57:22.016115+05:30"},{"city":"Surat","state":"Gujarat","latitude":21.1702,"longitude":72.8311,"temp":32.0,"humidity":62,"rain":0.0,"pressure":1006.7,"uv_index":7.8,"wind_gusts":31.0,"aqi":99,"pm10":106.9,"pm2_5":50.3,"mosquito_risk":3,"arthritis_risk":5,"migraine_risk":4,"frizz_risk":1,"updated_at":"2026-04-15T10:57:22.016144+05:30"},{"city":"Vadodara","state":"Gujarat","latitude":22.3072,"longitude":73.1812,"temp":34.4,"humidity":38,"rain":0.0,"pressure":1004.1,"uv_index":8.1,"wind_gusts":28.1,"aqi":73,"pm10":92.2,"pm2_5":30.6,"mosquito_risk":0,"arthritis_risk":5,"migraine_risk":4,"frizz_risk":1,"updated_at":"2026-04-15T10:57:22.016154+05:30"},{"city":"Rajkot","state":"Gujarat","latitude":22.3039,"longitude":70.8022,"temp":31.5,"humidity":46,"rain":0.0,"pressure":994.2,"uv_index":7.85,"wind_gusts":30.6,"aqi":66,"pm10":54.4,"pm2_5":19.9,"mosquito_risk":0,"arthritis_risk":5,"migraine_risk":7,"frizz_risk":1,"updated_at":"2026-04-15T10:57:22.016163+05:30"},{"city":"Thane","state":"Maharashtra","latitude":19.2183,"longitude":72.9781,"temp":32.7,"humidity":56,"rain":0.0,"pressure":1008.2,"uv_index":8.0,"wind_gusts":32.0,"aqi":99,"pm10":83.6,"pm2_5":40.3,"mosquito_risk":0,"arthritis_risk":0,"migraine_risk":4,"frizz_risk":1,"updated_at":"2026-04-15T10:57:22.016170+05:30"},{"city":"Nagpur","state":"Maharashtra","latitude":21.1458,"longitude":79.0882,"temp":35.3,"humidity":30,"rain":0.0,"pressure":973.5,"uv_index":8.85,"wind_gusts":34.2,"aqi":81,"pm10":22.6,"pm2_5":21.0,"mosquito_risk":0,"arthritis_risk":5,"migraine_risk":10,"frizz_risk":0,"updated_at":"2026-04-15T10:57:22.016178+05:30"},{"city":"Nashik","state":"Maharashtra","latitude":19.9975,"longitude":73.7898,"temp":33.5,"humidity":25,"rain":0.0,"pressure":946.9,"uv_index":8.3,"wind_gusts":37.4,"aqi":62,"pm10":45.8,"pm2_5":13.6,"mosquito_risk":0,"arthritis_risk":5,"migraine_risk":7,"frizz_risk":0,"updated_at":"2026-04-15T10:57:22.016185+05:30"},{"city":"Aurangabad","state":"Maharashtra","latitude":19.8762,"longitude":75.3433,"temp":36.1,"humidity":18,"rain":0.0,"pressure":945.3,"uv_index":8.95,"wind_gusts":36.4,"aqi":57,"pm10":26.5,"pm2_5":10.9,"mosquito_risk":0,"arthritis_risk":5,"migraine_risk":10,"frizz_risk":0,"updated_at":"2026-04-15T10:57:22.016192+05:30"},{"city":"Solapur","state":"Maharashtra","latitude":17.6599,"longitude":75.9064,"temp":36.8,"humidity":20,"rain":0.0,"pressure":958.1,"uv_index":9.05,"wind_gusts":28.8,"aqi":63,"pm10":33.2,"pm2_5":23.6,"mosquito_risk":0,"arthritis_risk":5,"migraine_risk":10,"frizz_risk":0,"updated_at":"2026-04-15T10:57:22.016198+05:30"},{"city":"Kolhapur","state":"Maharashtra","latitude":16.705,"longitude":74.2433,"temp":31.3,"humidity":51,"rain":0.0,"pressure":949.2,"uv_index":9.05,"wind_gusts":42.8,"aqi":90,"pm10":64.0,"pm2_5":26.5,"mosquito_risk":0,"arthritis_risk":5,"migraine_risk":7,"frizz_risk":1,"updated_at":"2026-04-15T10:57:22.016205+05:30"},{"city":"Goa","state":"Goa","latitude":15.2993,"longitude":74.124,"temp":32.3,"humidity":63,"rain":0.0,"pressure":998.9,"uv_index":9.0,"wind_gusts":31.0,"aqi":89,"pm10":58.4,"pm2_5":22.5,"mosquito_risk":3,"arthritis_risk":5,"migraine_risk":7,"frizz_risk":1,"updated_at":"2026-04-15T10:57:22.016212+05:30"},{"city":"Jodhpur","state":"Rajasthan","latitude":26.2389,"longitude":73.0243,"temp":35.7,"humidity":27,"rain":0.0,"pressure":982.7,"uv_index":8.15,"wind_gusts":26.3,"aqi":76,"pm10":115.7,"pm2_5":25.7,"mosquito_risk":0,"arthritis_risk":5,"migraine_risk":10,"frizz_risk":0,"updated_at":"2026-04-15T10:57:22.016218+05:30"},{"city":"Udaipur","state":"Rajasthan","latitude":24.5854,"longitude":73.7125,"temp":34.9,"humidity":25,"rain":0.0,"pressure":947.0,"uv_index":8.7,"wind_gusts":25.6,"aqi":61,"pm10":122.5,"pm2_5":23.6,"mosquito_risk":0,"arthritis_risk":5,"migraine_risk":7,"frizz_risk":0,"updated_at":"2026-04-15T10:57:22.016225+05:30"},{"city":"Kota","state":"Rajasthan","latitude":25.2138,"longitude":75.8648,"temp":35.9,"humidity":27,"rain":0.0,"pressure":978.1,"uv_index":8.2,"wind_gusts":26.6,"aqi":54,"pm10":75.0,"pm2_5":24.9,"mosquito_risk":0,"arthritis_risk":5,"migraine_risk":10,"frizz_risk":0,"updated_at":"2026-04-15T10:57:22.016231+05:30"},{"city":"Bikaner","state":"Rajasthan","latitude":28.0229,"longitude":73.3119,"temp":34.5,"humidity":26,"rain":0.0,"pressure":982.2,"uv_index":7.9,"wind_gusts":12.6,"aqi":71,"pm10":257.0,"pm2_5":31.0,"mosquito_risk":0,"arthritis_risk":5,"migraine_risk":7,"frizz_risk":0,"updated_at":"2026-04-15T10:57:22.016238+05:30"},{"city":"Ajmer","state":"Rajasthan","latitude":26.4499,"longitude":74.6399,"temp":35.6,"humidity":24,"rain":0.0,"pressure":954.7,"uv_index":8.15,"wind_gusts":26.3,"aqi":61,"pm10":278.5,"pm2_5":44.7,"mosquito_risk":0,"arthritis_risk":5,"migraine_risk":10,"frizz_risk":0,"updated_at":"2026-04-15T10:57:22.016244+05:30"},{"city":"Gwalior","state":"Madhya Pradesh","latitude":26.2183,"longitude":78.1828,"temp":36.2,"humidity":24,"rain":0.0,"pressure":982.4,"uv_index":7.95,"wind_gusts":36.0,"aqi":97,"pm10":194.6,"pm2_5":36.9,"mosquito_risk":0,"arthritis_risk":5,"migraine_risk":10,"frizz_risk":0,"updated_at":"2026-04-15T10:57:22.016251+05:30"},{"city":"Indore","state":"Madhya Pradesh","latitude":22.7196,"longitude":75.8577,"temp":34.1,"humidity":33,"rain":0.0,"pressure":948.8,"uv_index":8.55,"wind_gusts":31.7,"aqi":54,"pm10":57.3,"pm2_5":19.1,"mosquito_risk":0,"arthritis_risk":5,"migraine_risk":7,"frizz_risk":0,"updated_at":"2026-04-15T10:57:22.016257+05:30"},{"city":"Bhopal","state":"Madhya Pradesh","latitude":23.2599,"longitude":77.4126,"temp":35.9,"humidity":23,"rain":0.0,"pressure":954.2,"uv_index":8.55,"wind_gusts":32.4,"aqi":57,"pm10":58.8,"pm2_5":16.0,"mosquito_risk":0,"arthritis_risk":5,"migraine_risk":10,"frizz_risk":0,"updated_at":"2026-04-15T10:57:22.016263+05:30"},{"city":"Jabalpur","state":"Madhya Pradesh","latitude":23.1815,"longitude":79.9864,"temp":34.2,"humidity":33,"rain":0.0,"pressure":961.5,"uv_index":8.7,"wind_gusts":36.4,"aqi":68,"pm10":20.9,"pm2_5":12.6,"mosquito_risk":0,"arthritis_risk":5,"migraine_risk":7,"frizz_risk":0,"updated_at":"2026-04-15T10:57:22.016270+05:30"},{"city":"Ujjain","state":"Madhya Pradesh","latitude":23.1765,"longitude":75.7885,"temp":34.0,"humidity":37,"rain":0.0,"pressure":954.4,"uv_index":8.45,"wind_gusts":29.9,"aqi":57,"pm10":76.1,"pm2_5":23.9,"mosquito_risk":0,"arthritis_risk":5,"migraine_risk":7,"frizz_risk":1,"updated_at":"2026-04-15T10:57:22.016277+05:30"},{"city":"Visakhapatnam","state":"Andhra Pradesh","latitude":17.6868,"longitude":83.2185,"temp":32.8,"humidity":57,"rain":0.0,"pressure":1004.4,"uv_index":9.15,"wind_gusts":42.8,"aqi":68,"pm10":23.1,"pm2_5":16.1,"mosquito_risk":0,"arthritis_risk":5,"migraine_risk":4,"frizz_risk":1,"updated_at":"2026-04-15T10:57:22.016284+05:30"},{"city":"Vijayawada","state":"Andhra Pradesh","latitude":16.5062,"longitude":80.648,"temp":33.8,"humidity":60,"rain":0.0,"pressure":1003.1,"uv_index":9.2,"wind_gusts":31.7,"aqi":51,"pm10":15.3,"pm2_5":11.0,"mosquito_risk":0,"arthritis_risk":5,"migraine_risk":4,"frizz_risk":1,"updated_at":"2026-04-15T10:57:22.016290+05:30"},{"city":"Guntur","state":"Andhra Pradesh","latitude":16.3067,"longitude":80.4365,"temp":32.6,"humidity":63,"rain":0.0,"pressure":1004.4,"uv_index":9.2,"wind_gusts":31.7,"aqi":52,"pm10":14.2,"pm2_5":11.6,"mosquito_risk":3,"arthritis_risk":5,"migraine_risk":4,"frizz_risk":1,"updated_at":"2026-04-15T10:57:22.016297+05:30"},{"city":"Nellore","state":"Andhra Pradesh","latitude":14.4426,"longitude":79.9865,"temp":34.4,"humidity":55,"rain":0.0,"pressure":1006.1,"uv_index":9.3,"wind_gusts":34.2,"aqi":47,"pm10":17.9,"pm2_5":16.8,"mosquito_risk":0,"arthritis_risk":5,"migraine_risk":4,"frizz_risk":1,"updated_at":"2026-04-15T10:57:22.016305+05:30"},{"city":"Kurnool","state":"Andhra Pradesh","latitude":15.8281,"longitude":78.0373,"temp":37.4,"humidity":39,"rain":0.0,"pressure":977.1,"uv_index":9.2,"wind_gusts":25.2,"aqi":85,"pm10":28.3,"pm2_5":22.6,"mosquito_risk":0,"arthritis_risk":5,"migraine_risk":10,"frizz_risk":1,"updated_at":"2026-04-15T10:57:22.016312+05:30"},{"city":"Kakinada","state":"Andhra Pradesh","latitude":16.9891,"longitude":82.2475,"temp":34.3,"humidity":57,"rain":0.0,"pressure":1008.0,"uv_index":9.15,"wind_gusts":36.4,"aqi":54,"pm10":16.1,"pm2_5":10.1,"mosquito_risk":0,"arthritis_risk":0,"migraine_risk":4,"frizz_risk":1,"updated_at":"2026-04-15T10:57:22.016318+05:30"},{"city":"Tirupati","state":"Andhra Pradesh","latitude":13.6288,"longitude":79.4192,"temp":33.2,"humidity":55,"rain":0.0,"pressure":992.6,"uv_index":9.4,"wind_gusts":32.0,"aqi":69,"pm10":17.2,"pm2_5":16.1,"mosquito_risk":0,"arthritis_risk":5,"migraine_risk":7,"frizz_risk":1,"updated_at":"2026-04-15T10:57:22.016325+05:30"},{"city":"Warangal","state":"Telangana","latitude":17.9689,"longitude":79.5941,"temp":33.3,"humidity":58,"rain":0.0,"pressure":979.3,"uv_index":9.1,"wind_gusts":29.2,"aqi":72,"pm10":19.2,"pm2_5":16.1,"mosquito_risk":0,"arthritis_risk":5,"migraine_risk":7,"frizz_risk":1,"updated_at":"2026-04-15T10:57:22.016331+05:30"},{"city":"Nizamabad","state":"Telangana","latitude":18.6725,"longitude":78.0941,"temp":36.7,"humidity":27,"rain":0.0,"pressure":965.8,"uv_index":9.05,"wind_gusts":25.2,"aqi":79,"pm10":25.2,"pm2_5":17.2,"mosquito_risk":0,"arthritis_risk":5,"migraine_risk":10,"frizz_risk":0,"updated_at":"2026-04-15T10:57:22.016338+05:30"},{"city":"Mysore","state":"Karnataka","latitude":12.2958,"longitude":76.6396,"temp":31.4,"humidity":48,"rain":0.0,"pressure":930.2,"uv_index":9.55,"wind_gusts":46.1,"aqi":68,"pm10":18.4,"pm2_5":14.0,"mosquito_risk":0,"arthritis_risk":5,"migraine_risk":7,"frizz_risk":1,"updated_at":"2026-04-15T10:57:22.016344+05:30"},{"city":"Mangalore","state":"Karnataka","latitude":12.9141,"longitude":74.856,"temp":29.8,"humidity":79,"rain":0.0,"pressure":1007.5,"uv_index":9.15,"wind_gusts":23.8,"aqi":68,"pm10":32.5,"pm2_5":21.0,"mosquito_risk":7,"arthritis_risk":5,"migraine_risk":4,"frizz_risk":1,"updated_at":"2026-04-15T10:57:22.016350+05:30"},{"city":"Hubli-Dharwad","state":"Karnataka","latitude":15.3647,"longitude":75.124,"temp":29.9,"humidity":62,"rain":0.0,"pressure":942.5,"uv_index":9.2,"wind_gusts":43.6,"aqi":67,"pm10":29.8,"pm2_5":18.8,"mosquito_risk":7,"arthritis_risk":5,"migraine_risk":7,"frizz_risk":1,"updated_at":"2026-04-15T10:57:22.016358+05:30"},{"city":"Belgaum","state":"Karnataka","latitude":15.8497,"longitude":74.4977,"temp":29.6,"humidity":62,"rain":0.0,"pressure":927.7,"uv_index":9.25,"wind_gusts":38.2,"aqi":76,"pm10":54.5,"pm2_5":19.7,"mosquito_risk":7,"arthritis_risk":5,"migraine_risk":7,"frizz_risk":1,"updated_at":"2026-04-15T10:57:25.232210+05:30"},{"city":"Coimbatore","state":"Tamil Nadu","latitude":11.0168,"longitude":76.9558,"temp":32.8,"humidity":53,"rain":0.0,"pressure":963.1,"uv_index":9.45,"wind_gusts":48.2,"aqi":74,"pm10":27.0,"pm2_5":19.4,"mosquito_risk":0,"arthritis_risk":5,"migraine_risk":7,"frizz_risk":1,"updated_at":"2026-04-15T10:57:25.232237+05:30"},{"city":"Madurai","state":"Tamil Nadu","latitude":9.9252,"longitude":78.1198,"temp":34.1,"humidity":50,"rain":0.0,"pressure":993.7,"uv_index":9.35,"wind_gusts":39.6,"aqi":64,"pm10":15.5,"pm2_5":13.2,"mosquito_risk":0,"arthritis_risk":5,"migraine_risk":7,"frizz_risk":1,"updated_at":"2026-04-15T10:57:25.232246+05:30"},{"city":"Trichy","state":"Tamil Nadu","latitude":10.7905,"longitude":78.7047,"temp":34.1,"humidity":51,"rain":0.0,"pressure":1000.4,"uv_index":9.4,"wind_gusts":22.7,"aqi":53,"pm10":10.5,"pm2_5":8.6,"mosquito_risk":0,"arthritis_risk":5,"migraine_risk":4,"frizz_risk":1,"updated_at":"2026-04-15T10:57:25.232253+05:30"},{"city":"Salem","state":"Tamil Nadu","latitude":11.6643,"longitude":78.146,"temp":33.4,"humidity":51,"rain":0.0,"pressure":978.4,"uv_index":9.45,"wind_gusts":19.8,"aqi":61,"pm10":18.2,"pm2_5":15.1,"mosquito_risk":0,"arthritis_risk":5,"migraine_risk":7,"frizz_risk":1,"updated_at":"2026-04-15T10:57:25.232259+05:30"},{"city":"Tirunelveli","state":"Tamil Nadu","latitude":8.7139,"longitude":77.7567,"temp":35.7,"humidity":42,"rain":0.0,"pressure":1003.6,"uv_index":9.3,"wind_gusts":53.6,"aqi":69,"pm10":22.4,"pm2_5":16.0,"mosquito_risk":0,"arthritis_risk":5,"migraine_risk":7,"frizz_risk":1,"updated_at":"2026-04-15T10:57:25.232265+05:30"},{"city":"Vellore","state":"Tamil Nadu","latitude":12.9165,"longitude":79.1325,"temp":33.7,"humidity":51,"rain":0.0,"pressure":985.3,"uv_index":9.45,"wind_gusts":29.5,"aqi":97,"pm10":17.5,"pm2_5":15.7,"mosquito_risk":0,"arthritis_risk":5,"migraine_risk":7,"frizz_risk":1,"updated_at":"2026-04-15T10:57:25.232271+05:30"},{"city":"Erode","state":"Tamil Nadu","latitude":11.341,"longitude":77.7172,"temp":34.7,"humidity":51,"rain":0.0,"pressure":989.8,"uv_index":9.4,"wind_gusts":28.1,"aqi":57,"pm10":30.6,"pm2_5":24.5,"mosquito_risk":0,"arthritis_risk":5,"migraine_risk":7,"frizz_risk":1,"updated_at":"2026-04-15T10:57:25.232277+05:30"},{"city":"Kochi","state":"Kerala","latitude":9.9312,"longitude":76.2673,"temp":29.2,"humidity":81,"rain":0.0,"pressure":1009.1,"uv_index":9.2,"wind_gusts":30.2,"aqi":95,"pm10":34.9,"pm2_5":25.9,"mosquito_risk":7,"arthritis_risk":0,"migraine_risk":4,"frizz_risk":1,"updated_at":"2026-04-15T10:57:25.232283+05:30"},{"city":"Thiruvananthapuram","state":"Kerala","latitude":8.5241,"longitude":76.9366,"temp":29.0,"humidity":83,"rain":0.0,"pressure":1008.3,"uv_index":9.15,"wind_gusts":30.6,"aqi":70,"pm10":33.8,"pm2_5":23.8,"mosquito_risk":7,"arthritis_risk":0,"migraine_risk":4,"frizz_risk":1,"updated_at":"2026-04-15T10:57:25.232289+05:30"},{"city":"Kozhikode","state":"Kerala","latitude":11.2588,"longitude":75.7804,"temp":31.0,"humidity":74,"rain":0.0,"pressure":1008.3,"uv_index":9.15,"wind_gusts":29.9,"aqi":79,"pm10":32.0,"pm2_5":20.1,"mosquito_risk":3,"arthritis_risk":0,"migraine_risk":4,"frizz_risk":1,"updated_at":"2026-04-15T10:57:25.232295+05:30"},{"city":"Thrissur","state":"Kerala","latitude":10.5276,"longitude":76.2144,"temp":33.4,"humidity":61,"rain":0.0,"pressure":1007.5,"uv_index":9.2,"wind_gusts":35.3,"aqi":97,"pm10":32.4,"pm2_5":24.0,"mosquito_risk":3,"arthritis_risk":5,"migraine_risk":4,"frizz_risk":1,"updated_at":"2026-04-15T10:57:25.232301+05:30"},{"city":"Kannur","state":"Kerala","latitude":11.8745,"longitude":75.3704,"temp":32.2,"humidity":65,"rain":0.0,"pressure":1007.8,"uv_index":9.15,"wind_gusts":32.8,"aqi":75,"pm10":36.8,"pm2_5":22.4,"mosquito_risk":3,"arthritis_risk":5,"migraine_risk":4,"frizz_risk":1,"updated_at":"2026-04-15T10:57:25.232307+05:30"},{"city":"Patna","state":"Bihar","latitude":25.5941,"longitude":85.1376,"temp":33.0,"humidity":38,"rain":0.0,"pressure":999.8,"uv_index":8.55,"wind_gusts":22.0,"aqi":132,"pm10":72.2,"pm2_5":37.0,"mosquito_risk":0,"arthritis_risk":5,"migraine_risk":7,"frizz_risk":1,"updated_at":"2026-04-15T10:57:25.232313+05:30"},{"city":"Gaya","state":"Bihar","latitude":24.7914,"longitude":85.0002,"temp":35.9,"humidity":27,"rain":0.0,"pressure":992.8,"uv_index":8.6,"wind_gusts":20.2,"aqi":89,"pm10":79.6,"pm2_5":19.1,"mosquito_risk":0,"arthritis_risk":5,"migraine_risk":10,"frizz_risk":0,"updated_at":"2026-04-15T10:57:25.232319+05:30"},{"city":"Muzaffarpur","state":"Bihar","latitude":26.1209,"longitude":85.3647,"temp":31.6,"humidity":59,"rain":0.0,"pressure":999.9,"uv_index":8.55,"wind_gusts":21.2,"aqi":150,"pm10":85.2,"pm2_5":49.4,"mosquito_risk":0,"arthritis_risk":5,"migraine_risk":7,"frizz_risk":1,"updated_at":"2026-04-15T10:57:25.232325+05:30"},{"city":"Bhagalpur","state":"Bihar","latitude":25.2425,"longitude":87.0117,"temp":31.0,"humidity":67,"rain":0.0,"pressure":1000.8,"uv_index":8.55,"wind_gusts":17.3,"aqi":147,"pm10":101.0,"pm2_5":54.1,"mosquito_risk":3,"arthritis_risk":5,"migraine_risk":4,"frizz_risk":1,"updated_at":"2026-04-15T10:57:25.232331+05:30"},{"city":"Ranchi","state":"Jharkhand","latitude":23.3441,"longitude":85.3096,"temp":32.4,"humidity":22,"rain":0.0,"pressure":939.2,"uv_index":9.15,"wind_gusts":30.2,"aqi":75,"pm10":57.3,"pm2_5":13.4,"mosquito_risk":0,"arthritis_risk":5,"migraine_risk":7,"frizz_risk":0,"updated_at":"2026-04-15T10:57:25.232337+05:30"},{"city":"Jamshedpur","state":"Jharkhand","latitude":22.8046,"longitude":86.2029,"temp":34.4,"humidity":54,"rain":0.0,"pressure":990.8,"uv_index":8.95,"wind_gusts":21.2,"aqi":109,"pm10":91.7,"pm2_5":41.1,"mosquito_risk":0,"arthritis_risk":5,"migraine_risk":7,"frizz_risk":1,"updated_at":"2026-04-15T10:57:25.232342+05:30"},{"city":"Dhanbad","state":"Jharkhand","latitude":23.7957,"longitude":86.4304,"temp":36.4,"humidity":18,"rain":0.0,"pressure":979.8,"uv_index":8.9,"wind_gusts":25.2,"aqi":150,"pm10":100.6,"pm2_5":40.4,"mosquito_risk":0,"arthritis_risk":5,"migraine_risk":10,"frizz_risk":0,"updated_at":"2026-04-15T10:57:25.232348+05:30"},{"city":"Bokaro","state":"Jharkhand","latitude":23.6693,"longitude":86.1511,"temp":35.6,"humidity":22,"rain":0.0,"pressure":983.8,"uv_index":8.9,"wind_gusts":37.1,"aqi":134,"pm10":87.5,"pm2_5":29.0,"mosquito_risk":0,"arthritis_risk":5,"migraine_risk":10,"frizz_risk":0,"updated_at":"2026-04-15T10:57:25.232353+05:30"},{"city":"Bhubaneswar","state":"Odisha","latitude":20.2961,"longitude":85.8245,"temp":32.5,"humidity":69,"rain":0.0,"pressure":1002.9,"uv_index":9.1,"wind_gusts":32.4,"aqi":82,"pm10":34.6,"pm2_5":26.2,"mosquito_risk":3,"arthritis_risk":5,"migraine_risk":4,"frizz_risk":1,"updated_at":"2026-04-15T10:57:25.232359+05:30"},{"city":"Cuttack","state":"Odisha","latitude":20.4625,"longitude":85.8828,"temp":33.7,"humidity":65,"rain":0.0,"pressure":1004.6,"uv_index":9.15,"wind_gusts":27.4,"aqi":82,"pm10":34.6,"pm2_5":26.2,"mosquito_risk":3,"arthritis_risk":5,"migraine_risk":4,"frizz_risk":1,"updated_at":"2026-04-15T10:57:25.232364+05:30"},{"city":"Rourkela","state":"Odisha","latitude":22.2604,"longitude":84.8536,"temp":35.3,"humidity":52,"rain":0.0,"pressure":985.1,"uv_index":8.9,"wind_gusts":32.0,"aqi":90,"pm10":96.2,"pm2_5":46.7,"mosquito_risk":0,"arthritis_risk":5,"migraine_risk":10,"frizz_risk":1,"updated_at":"2026-04-15T10:57:25.232370+05:30"},{"city":"Raipur","state":"Chhattisgarh","latitude":21.2514,"longitude":81.6296,"temp":36.0,"humidity":41,"rain":0.0,"pressure":974.4,"uv_index":8.95,"wind_gusts":41.4,"aqi":140,"pm10":37.4,"pm2_5":33.8,"mosquito_risk":0,"arthritis_risk":5,"migraine_risk":10,"frizz_risk":1,"updated_at":"2026-04-15T10:57:25.232375+05:30"},{"city":"Bhilai","state":"Chhattisgarh","latitude":21.1938,"longitude":81.3509,"temp":35.4,"humidity":47,"rain":0.0,"pressure":974.8,"uv_index":8.95,"wind_gusts":41.8,"aqi":147,"pm10":33.3,"pm2_5":29.8,"mosquito_risk":0,"arthritis_risk":5,"migraine_risk":10,"frizz_risk":1,"updated_at":"2026-04-15T10:57:25.232381+05:30"},{"city":"Guwahati","state":"Assam","latitude":26.1158,"longitude":91.7086,"temp":27.1,"humidity":75,"rain":0.0,"pressure":1003.0,"uv_index":8.45,"wind_gusts":33.5,"aqi":130,"pm10":50.4,"pm2_5":32.4,"mosquito_risk":7,"arthritis_risk":5,"migraine_risk":4,"frizz_risk":1,"updated_at":"2026-04-15T10:57:25.232386+05:30"},{"city":"Agartala","state":"Tripura","latitude":23.8315,"longitude":91.2868,"temp":31.2,"humidity":66,"rain":0.0,"pressure":1006.8,"uv_index":8.7,"wind_gusts":43.6,"aqi":105,"pm10":53.3,"pm2_5":36.3,"mosquito_risk":3,"arthritis_risk":5,"migraine_risk":4,"frizz_risk":1,"updated_at":"2026-04-15T10:57:25.232392+05:30"},{"city":"Shillong","state":"Meghalaya","latitude":25.5788,"longitude":91.8933,"temp":19.8,"humidity":58,"rain":0.0,"pressure":858.2,"uv_index":8.1,"wind_gusts":58.0,"aqi":107,"pm10":58.0,"pm2_5":25.0,"mosquito_risk":0,"arthritis_risk":5,"migraine_risk":7,"frizz_risk":0,"updated_at":"2026-04-15T10:57:25.232397+05:30"},{"city":"Imphal","state":"Manipur","latitude":24.817,"longitude":93.9368,"temp":21.9,"humidity":81,"rain":0.0,"pressure":924.9,"uv_index":9.05,"wind_gusts":68.0,"aqi":132,"pm10":54.7,"pm2_5":33.2,"mosquito_risk":3,"arthritis_risk":5,"migraine_risk":7,"frizz_risk":1,"updated_at":"2026-04-15T10:57:25.232403+05:30"},{"city":"Aizawl","state":"Mizoram","latitude":23.7271,"longitude":92.7176,"temp":25.7,"humidity":59,"rain":0.0,"pressure":895.4,"uv_index":8.9,"wind_gusts":49.7,"aqi":120,"pm10":53.6,"pm2_5":30.2,"mosquito_risk":4,"arthritis_risk":5,"migraine_risk":7,"frizz_risk":1,"updated_at":"2026-04-15T10:57:25.232408+05:30"},{"city":"Kohima","state":"Nagaland","latitude":25.6701,"longitude":94.1077,"temp":20.4,"humidity":65,"rain":0.0,"pressure":857.1,"uv_index":8.95,"wind_gusts":68.8,"aqi":113,"pm10":44.4,"pm2_5":25.4,"mosquito_risk":3,"arthritis_risk":5,"migraine_risk":7,"frizz_risk":0,"updated_at":"2026-04-15T10:57:25.232414+05:30"},{"city":"Gangtok","state":"Sikkim","latitude":27.3314,"longitude":88.6138,"temp":18.4,"humidity":81,"rain":0.0,"pressure":838.4,"uv_index":8.25,"wind_gusts":19.4,"aqi":118,"pm10":76.6,"pm2_5":44.7,"mosquito_risk":3,"arthritis_risk":10,"migraine_risk":7,"frizz_risk":0,"updated_at":"2026-04-15T10:57:25.232420+05:30"},{"city":"Siliguri","state":"West Bengal","latitude":26.7271,"longitude":88.3953,"temp":23.1,"humidity":82,"rain":0.0,"pressure":995.0,"uv_index":8.3,"wind_gusts":29.2,"aqi":157,"pm10":108.0,"pm2_5":60.5,"mosquito_risk":3,"arthritis_risk":5,"migraine_risk":7,"frizz_risk":1,"updated_at":"2026-04-15T10:57:28.455045+05:30"},{"city":"Durgapur","state":"West Bengal","latitude":23.5204,"longitude":87.3119,"temp":35.2,"humidity":46,"rain":0.0,"pressure":994.6,"uv_index":8.85,"wind_gusts":23.0,"aqi":132,"pm10":98.5,"pm2_5":53.0,"mosquito_risk":0,"arthritis_risk":5,"migraine_risk":10,"frizz_risk":1,"updated_at":"2026-04-15T10:57:28.455078+05:30"},{"city":"Asansol","state":"West Bengal","latitude":23.6739,"longitude":86.9524,"temp":35.6,"humidity":36,"rain":0.0,"pressure":993.0,"uv_index":8.85,"wind_gusts":19.8,"aqi":121,"pm10":101.0,"pm2_5":45.2,"mosquito_risk":0,"arthritis_risk":5,"migraine_risk":10,"frizz_risk":1,"updated_at":"2026-04-15T10:57:28.455089+05:30"},{"city":"Pondicherry","state":"Puducherry","latitude":11.9139,"longitude":79.8145,"temp":34.0,"humidity":58,"rain":0.0,"pressure":1008.9,"uv_index":9.3,"wind_gusts":25.2,"aqi":31,"pm10":16.4,"pm2_5":13.4,"mosquito_risk":0,"arthritis_risk":0,"migraine_risk":4,"frizz_risk":1,"updated_at":"2026-04-15T10:57:28.455096+05:30"},{"city":"Port Blair","state":"Andaman and Nicobar Islands","latitude":11.6234,"longitude":92.7265,"temp":29.6,"humidity":68,"rain":0.0,"pressure":1008.5,"uv_index":9.2,"wind_gusts":20.2,"aqi":73,"pm10":29.2,"pm2_5":20.3,"mosquito_risk":7,"arthritis_risk":0,"migraine_risk":4,"frizz_risk":1,"updated_at":"2026-04-15T10:57:28.455103+05:30"},{"city":"Haridwar","state":"Uttarakhand","latitude":29.9457,"longitude":78.1642,"temp":31.4,"humidity":38,"rain":0.0,"pressure":973.9,"uv_index":7.05,"wind_gusts":31.3,"aqi":55,"pm10":7.4,"pm2_5":7.2,"mosquito_risk":0,"arthritis_risk":5,"migraine_risk":7,"frizz_risk":0,"updated_at":"2026-04-15T10:57:28.455110+05:30"},{"city":"Rishikesh","state":"Uttarakhand","latitude":30.0869,"longitude":78.2676,"temp":31.2,"humidity":38,"rain":0.0,"pressure":966.7,"uv_index":7.15,"wind_gusts":30.6,"aqi":39,"pm10":6.8,"pm2_5":5.7,"mosquito_risk":0,"arthritis_risk":5,"migraine_risk":7,"frizz_risk":0,"updated_at":"2026-04-15T10:57:28.455116+05:30"},{"city":"Nainital","state":"Uttarakhand","latitude":29.3919,"longitude":79.4542,"temp":25.7,"humidity":30,"rain":0.0,"pressure":808.9,"uv_index":8.05,"wind_gusts":45.7,"aqi":43,"pm10":18.2,"pm2_5":6.5,"mosquito_risk":4,"arthritis_risk":5,"migraine_risk":7,"frizz_risk":0,"updated_at":"2026-04-15T10:57:28.455123+05:30"},{"city":"Mussoorie","state":"Uttarakhand","latitude":30.4599,"longitude":78.0664,"temp":23.1,"humidity":38,"rain":0.0,"pressure":804.9,"uv_index":7.55,"wind_gusts":35.6,"aqi":53,"pm10":5.9,"pm2_5":5.4,"mosquito_risk":0,"arthritis_risk":5,"migraine_risk":7,"frizz_risk":0,"updated_at":"2026-04-15T10:57:28.455130+05:30"},{"city":"Dharamshala","state":"Himachal Pradesh","latitude":32.219,"longitude":76.3234,"temp":24.9,"humidity":39,"rain":0.0,"pressure":869.9,"uv_index":7.8,"wind_gusts":22.7,"aqi":49,"pm10":12.2,"pm2_5":3.9,"mosquito_risk":0,"arthritis_risk":5,"migraine_risk":7,"frizz_risk":0,"updated_at":"2026-04-15T10:57:28.455136+05:30"},{"city":"Dalhousie","state":"Himachal Pradesh","latitude":32.5387,"longitude":75.971,"temp":23.7,"humidity":31,"rain":0.0,"pressure":805.6,"uv_index":8.0,"wind_gusts":21.6,"aqi":52,"pm10":11.9,"pm2_5":6.2,"mosquito_risk":0,"arthritis_risk":5,"migraine_risk":7,"frizz_risk":0,"updated_at":"2026-04-15T10:57:28.455143+05:30"},{"city":"Patiala","state":"Punjab","latitude":30.3398,"longitude":76.3869,"temp":31.8,"humidity":32,"rain":0.0,"pressure":978.1,"uv_index":7.15,"wind_gusts":28.1,"aqi":165,"pm10":342.7,"pm2_5":38.8,"mosquito_risk":0,"arthritis_risk":5,"migraine_risk":7,"frizz_risk":0,"updated_at":"2026-04-15T10:57:28.455148+05:30"},{"city":"Bhatinda","state":"Punjab","latitude":30.211,"longitude":74.9455,"temp":34.0,"humidity":28,"rain":0.0,"pressure":983.7,"uv_index":7.85,"wind_gusts":32.8,"aqi":55,"pm10":16.0,"pm2_5":8.8,"mosquito_risk":0,"arthritis_risk":5,"migraine_risk":7,"frizz_risk":0,"updated_at":"2026-04-15T10:57:28.455155+05:30"},{"city":"Rohtak","state":"Haryana","latitude":28.8955,"longitude":76.6066,"temp":33.6,"humidity":26,"rain":0.0,"pressure":981.9,"uv_index":7.3,"wind_gusts":30.2,"aqi":291,"pm10":212.3,"pm2_5":41.4,"mosquito_risk":0,"arthritis_risk":5,"migraine_risk":7,"frizz_risk":0,"updated_at":"2026-04-15T10:57:28.455160+05:30"},{"city":"Panipat","state":"Haryana","latitude":29.3909,"longitude":76.9635,"temp":32.3,"humidity":32,"rain":0.0,"pressure":980.4,"uv_index":7.15,"wind_gusts":27.7,"aqi":672,"pm10":364.1,"pm2_5":49.7,"mosquito_risk":0,"arthritis_risk":5,"migraine_risk":7,"frizz_risk":0,"updated_at":"2026-04-15T10:57:28.455166+05:30"},{"city":"Mathura","state":"Uttar Pradesh","latitude":27.4924,"longitude":77.6737,"temp":34.2,"humidity":27,"rain":0.0,"pressure":986.8,"uv_index":7.6,"wind_gusts":26.3,"aqi":184,"pm10":92.9,"pm2_5":31.0,"mosquito_risk":0,"arthritis_risk":5,"migraine_risk":7,"frizz_risk":0,"updated_at":"2026-04-15T10:57:28.455172+05:30"},{"city":"Vrindavan","state":"Uttar Pradesh","latitude":27.5823,"longitude":77.7027,"temp":33.7,"humidity":29,"rain":0.0,"pressure":987.1,"uv_index":7.6,"wind_gusts":28.1,"aqi":184,"pm10":92.9,"pm2_5":31.0,"mosquito_risk":0,"arthritis_risk":5,"migraine_risk":7,"frizz_risk":0,"updated_at":"2026-04-15T10:57:28.455178+05:30"},{"city":"Ayodhya","state":"Uttar Pradesh","latitude":26.7922,"longitude":82.1998,"temp":35.5,"humidity":26,"rain":0.0,"pressure":994.5,"uv_index":7.95,"wind_gusts":33.5,"aqi":76,"pm10":188.6,"pm2_5":33.4,"mosquito_risk":0,"arthritis_risk":5,"migraine_risk":10,"frizz_risk":0,"updated_at":"2026-04-15T10:57:28.455183+05:30"},{"city":"Ratlam","state":"Madhya Pradesh","latitude":23.3315,"longitude":75.0367,"temp":31.7,"humidity":51,"rain":0.0,"pressure":955.0,"uv_index":8.4,"wind_gusts":24.8,"aqi":54,"pm10":85.0,"pm2_5":23.5,"mosquito_risk":0,"arthritis_risk":5,"migraine_risk":7,"frizz_risk":1,"updated_at":"2026-04-15T10:57:28.455189+05:30"},{"city":"Sagar","state":"Madhya Pradesh","latitude":23.8388,"longitude":78.7378,"temp":35.6,"humidity":26,"rain":0.0,"pressure":950.3,"uv_index":8.6,"wind_gusts":29.2,"aqi":55,"pm10":30.3,"pm2_5":11.0,"mosquito_risk":0,"arthritis_risk":5,"migraine_risk":10,"frizz_risk":0,"updated_at":"2026-04-15T10:57:28.455195+05:30"},{"city":"Satna","state":"Madhya Pradesh","latitude":24.6005,"longitude":80.8322,"temp":37.3,"humidity":18,"rain":0.0,"pressure":971.0,"uv_index":8.6,"wind_gusts":27.0,"aqi":57,"pm10":55.1,"pm2_5":14.4,"mosquito_risk":0,"arthritis_risk":5,"migraine_risk":10,"frizz_risk":0,"updated_at":"2026-04-15T10:57:28.455201+05:30"},{"city":"Akola","state":"Maharashtra","latitude":20.7002,"longitude":77.0082,"temp":36.3,"humidity":30,"rain":0.0,"pressure":975.5,"uv_index":8.75,"wind_gusts":34.6,"aqi":54,"pm10":28.6,"pm2_5":12.5,"mosquito_risk":0,"arthritis_risk":5,"migraine_risk":10,"frizz_risk":0,"updated_at":"2026-04-15T10:57:28.455208+05:30"},{"city":"Amravati","state":"Maharashtra","latitude":20.9374,"longitude":77.7796,"temp":35.9,"humidity":30,"rain":0.0,"pressure":967.8,"uv_index":8.8,"wind_gusts":31.3,"aqi":55,"pm10":22.5,"pm2_5":10.2,"mosquito_risk":0,"arthritis_risk":5,"migraine_risk":10,"frizz_risk":0,"updated_at":"2026-04-15T10:57:28.455214+05:30"},{"city":"Latur","state":"Maharashtra","latitude":18.4088,"longitude":76.5604,"temp":33.5,"humidity":32,"rain":0.0,"pressure":941.4,"uv_index":9.05,"wind_gusts":25.2,"aqi":61,"pm10":27.7,"pm2_5":15.3,"mosquito_risk":0,"arthritis_risk":5,"migraine_risk":7,"frizz_risk":0,"updated_at":"2026-04-15T10:57:28.455220+05:30"},{"city":"Nanded","state":"Maharashtra","latitude":19.1383,"longitude":77.3091,"temp":34.6,"humidity":34,"rain":0.0,"pressure":969.5,"uv_index":8.95,"wind_gusts":14.8,"aqi":60,"pm10":32.2,"pm2_5":14.3,"mosquito_risk":0,"arthritis_risk":5,"migraine_risk":7,"frizz_risk":1,"updated_at":"2026-04-15T10:57:28.455226+05:30"},{"city":"Gulbarga","state":"Karnataka","latitude":17.3297,"longitude":76.8343,"temp":38.2,"humidity":26,"rain":0.0,"pressure":959.1,"uv_index":9.1,"wind_gusts":24.1,"aqi":97,"pm10":34.1,"pm2_5":28.9,"mosquito_risk":0,"arthritis_risk":5,"migraine_risk":10,"frizz_risk":0,"updated_at":"2026-04-15T10:57:28.455232+05:30"},{"city":"Bidar","state":"Karnataka","latitude":17.9104,"longitude":77.5199,"temp":36.3,"humidity":25,"rain":0.0,"pressure":936.9,"uv_index":9.1,"wind_gusts":23.4,"aqi":95,"pm10":38.2,"pm2_5":32.1,"mosquito_risk":0,"arthritis_risk":5,"migraine_risk":10,"frizz_risk":0,"updated_at":"2026-04-15T10:57:28.455237+05:30"},{"city":"Hospet","state":"Karnataka","latitude":15.2689,"longitude":76.3909,"temp":30.8,"humidity":62,"rain":0.0,"pressure":956.9,"uv_index":9.25,"wind_gusts":28.4,"aqi":100,"pm10":23.6,"pm2_5":17.9,"mosquito_risk":3,"arthritis_risk":5,"migraine_risk":7,"frizz_risk":1,"updated_at":"2026-04-15T10:57:28.455243+05:30"},{"city":"Tirupur","state":"Tamil Nadu","latitude":11.1085,"longitude":77.3411,"temp":34.0,"humidity":48,"rain":0.0,"pressure":976.2,"uv_index":9.5,"wind_gusts":32.8,"aqi":70,"pm10":29.3,"pm2_5":22.9,"mosquito_risk":0,"arthritis_risk":5,"migraine_risk":7,"frizz_risk":1,"updated_at":"2026-04-15T10:57:28.455249+05:30"},{"city":"Alappuzha","state":"Kerala","latitude":9.4981,"longitude":76.3388,"temp":29.2,"humidity":81,"rain":0.0,"pressure":1009.2,"uv_index":9.2,"wind_gusts":29.5,"aqi":96,"pm10":37.5,"pm2_5":27.6,"mosquito_risk":7,"arthritis_risk":0,"migraine_risk":4,"frizz_risk":1,"updated_at":"2026-04-15T10:57:28.455254+05:30"},{"city":"Munnar","state":"Kerala","latitude":10.0889,"longitude":77.0595,"temp":28.5,"humidity":56,"rain":0.0,"pressure":860.0,"uv_index":9.75,"wind_gusts":35.3,"aqi":77,"pm10":23.6,"pm2_5":17.4,"mosquito_risk":4,"arthritis_risk":5,"migraine_risk":7,"frizz_risk":1,"updated_at":"2026-04-15T10:57:28.455260+05:30"},{"city":"Silchar","state":"Assam","latitude":24.8333,"longitude":92.7789,"temp":25.1,"humidity":84,"rain":0.0,"pressure":1007.6,"uv_index":8.7,"wind_gusts":32.0,"aqi":148,"pm10":49.9,"pm2_5":35.3,"mosquito_risk":7,"arthritis_risk":5,"migraine_risk":4,"frizz_risk":1,"updated_at":"2026-04-15T10:57:28.455266+05:30"},{"city":"Dibrugarh","state":"Assam","latitude":27.4728,"longitude":94.912,"temp":22.2,"humidity":83,"rain":0.0,"pressure":998.7,"uv_index":8.5,"wind_gusts":30.6,"aqi":96,"pm10":115.5,"pm2_5":52.9,"mosquito_risk":3,"arthritis_risk":5,"migraine_risk":7,"frizz_risk":1,"updated_at":"2026-04-15T10:57:28.455272+05:30"}]