[{"city":"Delhi","state":"Delhi","latitude":28.6139,"longitude":77.209,"temp":31.1,"humidity":43,"rain":0.0,"pressure":979.9,"uv_index":5.45,"wind_gusts":31.7,"aqi":177,"pm10":427.5,"pm2_5":76.1,"mosquito_risk":0,"arthritis_risk":5,"migraine_risk":3,"frizz_risk":1,"updated_at":"2026-03-29T18:32:39.589650+05:30"},{"city":"Mumbai","state":"Maharashtra","latitude":19.076,"longitude":72.8777,"temp":28.0,"humidity":82,"rain":0.0,"pressure":1006.2,"uv_index":8.0,"wind_gusts":20.5,"aqi":58,"pm10":29.4,"pm2_5":12.2,"mosquito_risk":7,"arthritis_risk":5,"migraine_risk":4,"frizz_risk":1,"updated_at":"2026-03-29T18:32:39.589696+05:30"},{"city":"Bangalore","state":"Karnataka","latitude":12.9716,"longitude":77.5946,"temp":29.2,"humidity":48,"rain":0.0,"pressure":910.2,"uv_index":9.55,"wind_gusts":33.5,"aqi":149,"pm10":49.4,"pm2_5":43.0,"mosquito_risk":4,"arthritis_risk":5,"migraine_risk":7,"frizz_risk":1,"updated_at":"2026-03-29T18:32:39.589712+05:30"},{"city":"Hyderabad","state":"Telangana","latitude":17.385,"longitude":78.4867,"temp":32.7,"humidity":38,"rain":0.0,"pressure":950.6,"uv_index":9.05,"wind_gusts":27.0,"aqi":150,"pm10":24.2,"pm2_5":22.4,"mosquito_risk":0,"arthritis_risk":5,"migraine_risk":7,"frizz_risk":1,"updated_at":"2026-03-29T18:32:39.589723+05:30"},{"city":"Chennai","state":"Tamil Nadu","latitude":13.0827,"longitude":80.2707,"temp":29.3,"humidity":74,"rain":0.0,"pressure":1005.1,"uv_index":9.2,"wind_gusts":37.4,"aqi":65,"pm10":18.0,"pm2_5":13.3,"mosquito_risk":7,"arthritis_risk":5,"migraine_risk":4,"frizz_risk":1,"updated_at":"2026-03-29T18:32:39.589731+05:30"},{"city":"Kolkata","state":"West Bengal","latitude":22.5726,"longitude":88.3639,"temp":27.5,"humidity":82,"rain":0.0,"pressure":1005.4,"uv_index":8.45,"wind_gusts":26.6,"aqi":119,"pm10":55.3,"pm2_5":48.2,"mosquito_risk":7,"arthritis_risk":5,"migraine_risk":4,"frizz_risk":1,"updated_at":"2026-03-29T18:32:39.589741+05:30"},{"city":"Pune","state":"Maharashtra","latitude":18.5204,"longitude":73.8567,"temp":31.0,"humidity":53,"rain":0.0,"pressure":946.5,"uv_index":8.55,"wind_gusts":40.3,"aqi":72,"pm10":29.2,"pm2_5":18.8,"mosquito_risk":0,"arthritis_risk":5,"migraine_risk":7,"frizz_risk":1,"updated_at":"2026-03-29T18:32:39.589754+05:30"},{"city":"Ahmedabad","state":"Gujarat","latitude":23.0225,"longitude":72.5714,"temp":32.5,"humidity":46,"rain":0.0,"pressure":1000.3,"uv_index":7.7,"wind_gusts":31.0,"aqi":40,"pm10":46.4,"pm2_5":15.1,"mosquito_risk":0,"arthritis_risk":5,"migraine_risk":4,"frizz_risk":1,"updated_at":"2026-03-29T18:32:39.589761+05:30"},{"city":"Jaipur","state":"Rajasthan","latitude":26.9124,"longitude":75.7873,"temp":33.6,"humidity":20,"rain":0.0,"pressure":956.9,"uv_index":7.35,"wind_gusts":36.7,"aqi":81,"pm10":232.4,"pm2_5":30.3,"mosquito_risk":0,"arthritis_risk":5,"migraine_risk":7,"frizz_risk":0,"updated_at":"2026-03-29T18:32:39.589770+05:30"},{"city":"Lucknow","state":"Uttar Pradesh","latitude":26.8467,"longitude":80.9462,"temp":32.0,"humidity":40,"rain":0.0,"pressure":991.1,"uv_index":7.15,"wind_gusts":16.6,"aqi":111,"pm10":64.5,"pm2_5":23.5,"mosquito_risk":0,"arthritis_risk":5,"migraine_risk":7,"frizz_risk":1,"updated_at":"2026-03-29T18:32:39.589778+05:30"},{"city":"Kanpur","state":"Uttar Pradesh","latitude":26.4499,"longitude":80.3319,"temp":31.5,"humidity":49,"rain":0.0,"pressure":989.5,"uv_index":7.25,"wind_gusts":17.3,"aqi":110,"pm10":102.0,"pm2_5":27.7,"mosquito_risk":0,"arthritis_risk":5,"migraine_risk":7,"frizz_risk":1,"updated_at":"2026-03-29T18:32:39.589785+05:30"},{"city":"Chandigarh","state":"Chandigarh","latitude":30.7333,"longitude":76.7794,"temp":25.8,"humidity":74,"rain":0.0,"pressure":966.9,"uv_index":6.0,"wind_gusts":28.1,"aqi":94,"pm10":123.9,"pm2_5":28.1,"mosquito_risk":7,"arthritis_risk":5,"migraine_risk":3,"frizz_risk":1,"updated_at":"2026-03-29T18:32:39.589792+05:30"},{"city":"Srinagar","state":"Jammu and Kashmir","latitude":34.0837,"longitude":74.7973,"temp":15.1,"humidity":66,"rain":0.0,"pressure":840.2,"uv_index":7.4,"wind_gusts":22.3,"aqi":83,"pm10":14.8,"pm2_5":12.3,"mosquito_risk":3,"arthritis_risk":5,"migraine_risk":7,"frizz_risk":0,"updated_at":"2026-03-29T18:32:39.589800+05:30"},{"city":"Jammu","state":"Jammu and Kashmir","latitude":32.7266,"longitude":74.857,"temp":26.0,"humidity":64,"rain":0.0,"pressure":971.3,"uv_index":6.6,"wind_gusts":28.1,"aqi":89,"pm10":67.5,"pm2_5":27.2,"mosquito_risk":7,"arthritis_risk":5,"migraine_risk":7,"frizz_risk":1,"updated_at":"2026-03-29T18:32:39.589808+05:30"},{"city":"Amritsar","state":"Punjab","latitude":31.634,"longitude":74.8723,"temp":25.4,"humidity":66,"rain":0.0,"pressure":978.9,"uv_index":7.3,"wind_gusts":37.1,"aqi":91,"pm10":82.4,"pm2_5":27.5,"mosquito_risk":7,"arthritis_risk":5,"migraine_risk":7,"frizz_risk":1,"updated_at":"2026-03-29T18:32:39.589815+05:30"},{"city":"Ludhiana","state":"Punjab","latitude":30.901,"longitude":75.8573,"temp":26.4,"humidity":63,"rain":0.0,"pressure":976.8,"uv_index":6.2,"wind_gusts":36.4,"aqi":107,"pm10":101.7,"pm2_5":33.4,"mosquito_risk":7,"arthritis_risk":5,"migraine_risk":7,"frizz_risk":1,"updated_at":"2026-03-29T18:32:39.589821+05:30"},{"city":"Jalandhar","state":"Punjab","latitude":31.326,"longitude":75.5762,"temp":26.3,"humidity":62,"rain":0.0,"pressure":977.9,"uv_index":7.1,"wind_gusts":33.1,"aqi":100,"pm10":78.7,"pm2_5":27.3,"mosquito_risk":7,"arthritis_risk":5,"migraine_risk":7,"frizz_risk":1,"updated_at":"2026-03-29T18:32:39.589830+05:30"},{"city":"Dehradun","state":"Uttarakhand","latitude":30.6284,"longitude":78.0322,"temp":18.2,"humidity":67,"rain":0.0,"pressure":829.6,"uv_index":6.0,"wind_gusts":19.4,"aqi":71,"pm10":50.9,"pm2_5":12.7,"mosquito_risk":3,"arthritis_risk":5,"migraine_risk":3,"frizz_risk":0,"updated_at":"2026-03-29T18:32:39.589837+05:30"},{"city":"Shimla","state":"Himachal Pradesh","latitude":31.1048,"longitude":77.1734,"temp":16.6,"humidity":69,"rain":0.0,"pressure":784.1,"uv_index":3.7,"wind_gusts":26.6,"aqi":82,"pm10":57.5,"pm2_5":14.1,"mosquito_risk":3,"arthritis_risk":5,"migraine_risk":3,"frizz_risk":0,"updated_at":"2026-03-29T18:32:39.589844+05:30"},{"city":"Manali","state":"Himachal Pradesh","latitude":32.2396,"longitude":77.1887,"temp":16.5,"humidity":73,"rain":0.0,"pressure":819.0,"uv_index":7.25,"wind_gusts":29.2,"aqi":76,"pm10":3.2,"pm2_5":2.2,"mosquito_risk":3,"arthritis_risk":5,"migraine_risk":7,"frizz_risk":0,"updated_at":"2026-03-29T18:32:39.589851+05:30"},{"city":"Gurgaon","state":"Haryana","latitude":28.4595,"longitude":77.0266,"temp":30.2,"humidity":47,"rain":0.0,"pressure":978.1,"uv_index":5.85,"wind_gusts":27.0,"aqi":557,"pm10":434.0,"pm2_5":66.1,"mosquito_risk":0,"arthritis_risk":5,"migraine_risk":3,"frizz_risk":1,"updated_at":"2026-03-29T18:32:39.589858+05:30"},{"city":"Noida","state":"Uttar Pradesh","latitude":28.5355,"longitude":77.391,"temp":30.8,"humidity":45,"rain":0.0,"pressure":981.4,"uv_index":5.9,"wind_gusts":27.4,"aqi":557,"pm10":434.0,"pm2_5":66.1,"mosquito_risk":0,"arthritis_risk":5,"migraine_risk":3,"frizz_risk":1,"updated_at":"2026-03-29T18:32:39.589865+05:30"},{"city":"Ghaziabad","state":"Uttar Pradesh","latitude":28.6692,"longitude":77.4538,"temp":29.9,"humidity":49,"rain":0.0,"pressure":979.9,"uv_index":5.8,"wind_gusts":25.6,"aqi":159,"pm10":371.6,"pm2_5":67.5,"mosquito_risk":4,"arthritis_risk":5,"migraine_risk":3,"frizz_risk":1,"updated_at":"2026-03-29T18:32:39.589872+05:30"},{"city":"Faridabad","state":"Haryana","latitude":28.4089,"longitude":77.3178,"temp":30.6,"humidity":44,"rain":0.0,"pressure":980.6,"uv_index":6.15,"wind_gusts":28.8,"aqi":557,"pm10":434.0,"pm2_5":66.1,"mosquito_risk":0,"arthritis_risk":5,"migraine_risk":7,"frizz_risk":1,"updated_at":"2026-03-29T18:32:39.589879+05:30"},{"city":"Meerut","state":"Uttar Pradesh","latitude":28.9845,"longitude":77.7064,"temp":28.4,"humidity":54,"rain":0.0,"pressure":979.2,"uv_index":6.0,"wind_gusts":24.1,"aqi":159,"pm10":371.6,"pm2_5":67.5,"mosquito_risk":4,"arthritis_risk":5,"migraine_risk":3,"frizz_risk":1,"updated_at":"2026-03-29T18:32:39.589886+05:30"},{"city":"Agra","state":"Uttar Pradesh","latitude":27.1767,"longitude":78.0081,"temp":33.3,"humidity":34,"rain":0.0,"pressure":984.3,"uv_index":7.15,"wind_gusts":33.1,"aqi":312,"pm10":182.1,"pm2_5":36.1,"mosquito_risk":0,"arthritis_risk":5,"migraine_risk":7,"frizz_risk":0,"updated_at":"2026-03-29T18:32:39.589894+05:30"},{"city":"Varanasi","state":"Uttar Pradesh","latitude":25.3176,"longitude":82.9739,"temp":30.8,"humidity":41,"rain":0.0,"pressure":995.4,"uv_index":7.95,"wind_gusts":18.4,"aqi":112,"pm10":53.1,"pm2_5":29.0,"mosquito_risk":0,"arthritis_risk":5,"migraine_risk":7,"frizz_risk":0,"updated_at":"2026-03-29T18:32:39.589903+05:30"},{"city":"Prayagraj","state":"Uttar Pradesh","latitude":25.4358,"longitude":81.8463,"temp":30.5,"humidity":48,"rain":0.0,"pressure":993.7,"uv_index":7.8,"wind_gusts":20.9,"aqi":119,"pm10":55.8,"pm2_5":26.8,"mosquito_risk":0,"arthritis_risk":5,"migraine_risk":7,"frizz_risk":1,"updated_at":"2026-03-29T18:32:39.589914+05:30"},{"city":"Gorakhpur","state":"Uttar Pradesh","latitude":26.7606,"longitude":83.3732,"temp":28.9,"humidity":48,"rain":0.0,"pressure":995.5,"uv_index":7.6,"wind_gusts":26.3,"aqi":134,"pm10":72.2,"pm2_5":34.7,"mosquito_risk":4,"arthritis_risk":5,"migraine_risk":7,"frizz_risk":1,"updated_at":"2026-03-29T18:32:39.589921+05:30"},{"city":"Bareilly","state":"Uttar Pradesh","latitude":28.367,"longitude":79.4304,"temp":29.6,"humidity":51,"rain":0.0,"pressure":984.7,"uv_index":7.0,"wind_gusts":15.8,"aqi":126,"pm10":60.8,"pm2_5":26.0,"mosquito_risk":4,"arthritis_risk":5,"migraine_risk":7,"frizz_risk":1,"updated_at":"2026-03-29T18:32:39.589927+05:30"},{"city":"Aligarh","state":"Uttar Pradesh","latitude":27.8974,"longitude":78.088,"temp":30.3,"humidity":48,"rain":0.0,"pressure":982.5,"uv_index":6.8,"wind_gusts":26.3,"aqi":181,"pm10":266.4,"pm2_5":48.8,"mosquito_risk":0,"arthritis_risk":5,"migraine_risk":7,"frizz_risk":1,"updated_at":"2026-03-29T18:32:39.589934+05:30"},{"city":"Moradabad","state":"Uttar Pradesh","latitude":28.8386,"longitude":78.7733,"temp":28.5,"humidity":55,"rain":0.0,"pressure":981.6,"uv_index":6.8,"wind_gusts":14.8,"aqi":150,"pm10":107.6,"pm2_5":52.2,"mosquito_risk":4,"arthritis_risk":5,"migraine_risk":7,"frizz_risk":1,"updated_at":"2026-03-29T18:32:39.589941+05:30"},{"city":"Saharanpur","state":"Uttar Pradesh","latitude":29.9637,"longitude":77.546,"temp":26.2,"humidity":62,"rain":0.0,"pressure":973.8,"uv_index":5.95,"wind_gusts":19.4,"aqi":106,"pm10":49.9,"pm2_5":20.5,"mosquito_risk":7,"arthritis_risk":5,"migraine_risk":3,"frizz_risk":1,"updated_at":"2026-03-29T18:32:39.589947+05:30"},{"city":"Jhansi","state":"Uttar Pradesh","latitude":25.4484,"longitude":78.5685,"temp":31.7,"humidity":40,"rain":0.0,"pressure":975.2,"uv_index":7.75,"wind_gusts":23.8,"aqi":86,"pm10":25.7,"pm2_5":11.5,"mosquito_risk":0,"arthritis_risk":5,"migraine_risk":7,"frizz_risk":1,"updated_at":"2026-03-29T18:32:42.841180+05:30"},{"city":"Surat","state":"Gujarat","latitude":21.1702,"longitude":72.8311,"temp":28.1,"humidity":77,"rain":0.0,"pressure":1005.0,"uv_index":7.75,"wind_gusts":26.3,"aqi":74,"pm10":30.0,"pm2_5":21.0,"mosquito_risk":7,"arthritis_risk":5,"migraine_risk":4,"frizz_risk":1,"updated_at":"2026-03-29T18:32:42.841212+05:30"},{"city":"Vadodara","state":"Gujarat","latitude":22.3072,"longitude":73.1812,"temp":33.3,"humidity":47,"rain":0.0,"pressure":1002.2,"uv_index":7.55,"wind_gusts":27.0,"aqi":58,"pm10":58.9,"pm2_5":21.9,"mosquito_risk":0,"arthritis_risk":5,"migraine_risk":4,"frizz_risk":1,"updated_at":"2026-03-29T18:32:42.841222+05:30"},{"city":"Rajkot","state":"Gujarat","latitude":22.3039,"longitude":70.8022,"temp":27.9,"humidity":72,"rain":0.0,"pressure":993.2,"uv_index":7.7,"wind_gusts":30.6,"aqi":48,"pm10":54.5,"pm2_5":20.7,"mosquito_risk":7,"arthritis_risk":5,"migraine_risk":7,"frizz_risk":1,"updated_at":"2026-03-29T18:32:42.841230+05:30"},{"city":"Thane","state":"Maharashtra","latitude":19.2183,"longitude":72.9781,"temp":28.2,"humidity":76,"rain":0.0,"pressure":1005.7,"uv_index":8.0,"wind_gusts":34.6,"aqi":58,"pm10":29.4,"pm2_5":12.2,"mosquito_risk":7,"arthritis_risk":5,"migraine_risk":4,"frizz_risk":1,"updated_at":"2026-03-29T18:32:42.841238+05:30"},{"city":"Nagpur","state":"Maharashtra","latitude":21.1458,"longitude":79.0882,"temp":34.2,"humidity":28,"rain":0.0,"pressure":969.5,"uv_index":8.55,"wind_gusts":27.0,"aqi":84,"pm10":30.9,"pm2_5":13.7,"mosquito_risk":0,"arthritis_risk":5,"migraine_risk":7,"frizz_risk":0,"updated_at":"2026-03-29T18:32:42.841246+05:30"},{"city":"Nashik","state":"Maharashtra","latitude":19.9975,"longitude":73.7898,"temp":29.6,"humidity":50,"rain":0.0,"pressure":943.8,"uv_index":8.25,"wind_gusts":31.7,"aqi":49,"pm10":17.1,"pm2_5":7.2,"mosquito_risk":4,"arthritis_risk":5,"migraine_risk":7,"frizz_risk":1,"updated_at":"2026-03-29T18:32:42.841253+05:30"},{"city":"Aurangabad","state":"Maharashtra","latitude":19.8762,"longitude":75.3433,"temp":32.7,"humidity":31,"rain":0.0,"pressure":941.8,"uv_index":8.75,"wind_gusts":32.0,"aqi":44,"pm10":17.2,"pm2_5":7.3,"mosquito_risk":0,"arthritis_risk":5,"migraine_risk":7,"frizz_risk":0,"updated_at":"2026-03-29T18:32:42.841261+05:30"},{"city":"Solapur","state":"Maharashtra","latitude":17.6599,"longitude":75.9064,"temp":35.2,"humidity":19,"rain":0.0,"pressure":954.2,"uv_index":8.9,"wind_gusts":23.0,"aqi":92,"pm10":20.2,"pm2_5":12.9,"mosquito_risk":0,"arthritis_risk":5,"migraine_risk":10,"frizz_risk":0,"updated_at":"2026-03-29T18:32:42.841269+05:30"},{"city":"Kolhapur","state":"Maharashtra","latitude":16.705,"longitude":74.2433,"temp":28.5,"humidity":53,"rain":0.0,"pressure":945.8,"uv_index":9.0,"wind_gusts":37.4,"aqi":69,"pm10":26.3,"pm2_5":19.1,"mosquito_risk":4,"arthritis_risk":5,"migraine_risk":7,"frizz_risk":1,"updated_at":"2026-03-29T18:32:42.841277+05:30"},{"city":"Goa","state":"Goa","latitude":15.2993,"longitude":74.124,"temp":29.1,"humidity":66,"rain":0.0,"pressure":995.4,"uv_index":8.95,"wind_gusts":37.1,"aqi":82,"pm10":29.4,"pm2_5":11.9,"mosquito_risk":7,"arthritis_risk":5,"migraine_risk":7,"frizz_risk":1,"updated_at":"2026-03-29T18:32:42.841284+05:30"},{"city":"Jodhpur","state":"Rajasthan","latitude":26.2389,"longitude":73.0243,"temp":33.3,"humidity":25,"rain":0.0,"pressure":979.7,"uv_index":7.35,"wind_gusts":46.1,"aqi":122,"pm10":241.2,"pm2_5":30.6,"mosquito_risk":0,"arthritis_risk":5,"migraine_risk":7,"frizz_risk":0,"updated_at":"2026-03-29T18:32:42.841292+05:30"},{"city":"Udaipur","state":"Rajasthan","latitude":24.5854,"longitude":73.7125,"temp":30.1,"humidity":33,"rain":0.0,"pressure":945.1,"uv_index":8.1,"wind_gusts":35.3,"aqi":45,"pm10":30.7,"pm2_5":9.6,"mosquito_risk":0,"arthritis_risk":5,"migraine_risk":7,"frizz_risk":0,"updated_at":"2026-03-29T18:32:42.841299+05:30"},{"city":"Kota","state":"Rajasthan","latitude":25.2138,"longitude":75.8648,"temp":35.8,"humidity":19,"rain":0.0,"pressure":975.0,"uv_index":7.6,"wind_gusts":34.9,"aqi":51,"pm10":22.0,"pm2_5":10.1,"mosquito_risk":0,"arthritis_risk":5,"migraine_risk":10,"frizz_risk":0,"updated_at":"2026-03-29T18:32:42.841306+05:30"},{"city":"Bikaner","state":"Rajasthan","latitude":28.0229,"longitude":73.3119,"temp":33.1,"humidity":24,"rain":0.0,"pressure":977.9,"uv_index":7.55,"wind_gusts":34.6,"aqi":100,"pm10":83.8,"pm2_5":22.4,"mosquito_risk":0,"arthritis_risk":5,"migraine_risk":7,"frizz_risk":0,"updated_at":"2026-03-29T18:32:42.841314+05:30"},{"city":"Ajmer","state":"Rajasthan","latitude":26.4499,"longitude":74.6399,"temp":31.4,"humidity":24,"rain":0.0,"pressure":952.1,"uv_index":7.65,"wind_gusts":45.0,"aqi":44,"pm10":26.4,"pm2_5":6.7,"mosquito_risk":0,"arthritis_risk":5,"migraine_risk":7,"frizz_risk":0,"updated_at":"2026-03-29T18:32:42.841322+05:30"},{"city":"Gwalior","state":"Madhya Pradesh","latitude":26.2183,"longitude":78.1828,"temp":33.4,"humidity":33,"rain":0.0,"pressure":980.1,"uv_index":7.45,"wind_gusts":25.2,"aqi":80,"pm10":29.7,"pm2_5":11.7,"mosquito_risk":0,"arthritis_risk":5,"migraine_risk":7,"frizz_risk":0,"updated_at":"2026-03-29T18:32:42.841329+05:30"},{"city":"Indore","state":"Madhya Pradesh","latitude":22.7196,"longitude":75.8577,"temp":31.5,"humidity":33,"rain":0.0,"pressure":946.2,"uv_index":8.25,"wind_gusts":33.5,"aqi":47,"pm10":23.3,"pm2_5":10.2,"mosquito_risk":0,"arthritis_risk":5,"migraine_risk":7,"frizz_risk":0,"updated_at":"2026-03-29T18:32:42.841336+05:30"},{"city":"Bhopal","state":"Madhya Pradesh","latitude":23.2599,"longitude":77.4126,"temp":32.1,"humidity":34,"rain":0.0,"pressure":951.5,"uv_index":8.2,"wind_gusts":35.6,"aqi":45,"pm10":25.4,"pm2_5":10.8,"mosquito_risk":0,"arthritis_risk":5,"migraine_risk":7,"frizz_risk":0,"updated_at":"2026-03-29T18:32:42.841343+05:30"},{"city":"Jabalpur","state":"Madhya Pradesh","latitude":23.1815,"longitude":79.9864,"temp":31.7,"humidity":37,"rain":0.0,"pressure":958.8,"uv_index":8.25,"wind_gusts":32.4,"aqi":58,"pm10":25.3,"pm2_5":12.3,"mosquito_risk":0,"arthritis_risk":5,"migraine_risk":7,"frizz_risk":0,"updated_at":"2026-03-29T18:32:42.841351+05:30"},{"city":"Ujjain","state":"Madhya Pradesh","latitude":23.1765,"longitude":75.7885,"temp":31.2,"humidity":36,"rain":0.0,"pressure":952.0,"uv_index":8.2,"wind_gusts":34.9,"aqi":44,"pm10":24.3,"pm2_5":10.5,"mosquito_risk":0,"arthritis_risk":5,"migraine_risk":7,"frizz_risk":0,"updated_at":"2026-03-29T18:32:42.841359+05:30"},{"city":"Visakhapatnam","state":"Andhra Pradesh","latitude":17.6868,"longitude":83.2185,"temp":28.4,"humidity":79,"rain":0.0,"pressure":1001.3,"uv_index":9.0,"wind_gusts":38.2,"aqi":69,"pm10":23.9,"pm2_5":17.3,"mosquito_risk":7,"arthritis_risk":5,"migraine_risk":4,"frizz_risk":1,"updated_at":"2026-03-29T18:32:42.841367+05:30"},{"city":"Vijayawada","state":"Andhra Pradesh","latitude":16.5062,"longitude":80.648,"temp":33.6,"humidity":51,"rain":0.0,"pressure":999.0,"uv_index":9.05,"wind_gusts":29.9,"aqi":144,"pm10":52.5,"pm2_5":45.1,"mosquito_risk":0,"arthritis_risk":5,"migraine_risk":7,"frizz_risk":1,"updated_at":"2026-03-29T18:32:42.841375+05:30"},{"city":"Guntur","state":"Andhra Pradesh","latitude":16.3067,"longitude":80.4365,"temp":31.2,"humidity":62,"rain":0.0,"pressure":1000.7,"uv_index":9.05,"wind_gusts":31.3,"aqi":152,"pm10":57.0,"pm2_5":49.5,"mosquito_risk":3,"arthritis_risk":5,"migraine_risk":4,"frizz_risk":1,"updated_at":"2026-03-29T18:32:42.841382+05:30"},{"city":"Nellore","state":"Andhra Pradesh","latitude":14.4426,"longitude":79.9865,"temp":30.2,"humidity":69,"rain":0.0,"pressure":1003.2,"uv_index":8.55,"wind_gusts":31.7,"aqi":128,"pm10":26.4,"pm2_5":20.9,"mosquito_risk":3,"arthritis_risk":5,"migraine_risk":4,"frizz_risk":1,"updated_at":"2026-03-29T18:32:42.841390+05:30"},{"city":"Kurnool","state":"Andhra Pradesh","latitude":15.8281,"longitude":78.0373,"temp":36.5,"humidity":23,"rain":0.0,"pressure":973.2,"uv_index":9.1,"wind_gusts":29.2,"aqi":165,"pm10":28.8,"pm2_5":25.8,"mosquito_risk":0,"arthritis_risk":5,"migraine_risk":10,"frizz_risk":0,"updated_at":"2026-03-29T18:32:42.841398+05:30"},{"city":"Kakinada","state":"Andhra Pradesh","latitude":16.9891,"longitude":82.2475,"temp":30.7,"humidity":61,"rain":0.0,"pressure":1004.4,"uv_index":9.0,"wind_gusts":30.2,"aqi":56,"pm10":20.8,"pm2_5":13.7,"mosquito_risk":3,"arthritis_risk":5,"migraine_risk":4,"frizz_risk":1,"updated_at":"2026-03-29T18:32:42.841429+05:30"},{"city":"Tirupati","state":"Andhra Pradesh","latitude":13.6288,"longitude":79.4192,"temp":32.0,"humidity":55,"rain":0.0,"pressure":989.2,"uv_index":9.1,"wind_gusts":33.8,"aqi":133,"pm10":44.9,"pm2_5":38.8,"mosquito_risk":0,"arthritis_risk":5,"migraine_risk":7,"frizz_risk":1,"updated_at":"2026-03-29T18:32:42.841438+05:30"},{"city":"Warangal","state":"Telangana","latitude":17.9689,"longitude":79.5941,"temp":34.4,"humidity":45,"rain":0.0,"pressure":975.4,"uv_index":8.9,"wind_gusts":28.4,"aqi":154,"pm10":30.9,"pm2_5":30.2,"mosquito_risk":0,"arthritis_risk":5,"migraine_risk":7,"frizz_risk":1,"updated_at":"2026-03-29T18:32:42.841446+05:30"},{"city":"Nizamabad","state":"Telangana","latitude":18.6725,"longitude":78.0941,"temp":34.3,"humidity":32,"rain":0.0,"pressure":961.7,"uv_index":8.8,"wind_gusts":28.8,"aqi":91,"pm10":24.8,"pm2_5":21.2,"mosquito_risk":0,"arthritis_risk":5,"migraine_risk":7,"frizz_risk":0,"updated_at":"2026-03-29T18:32:42.841453+05:30"},{"city":"Mysore","state":"Karnataka","latitude":12.2958,"longitude":76.6396,"temp":30.3,"humidity":43,"rain":0.0,"pressure":926.6,"uv_index":9.45,"wind_gusts":31.7,"aqi":153,"pm10":56.5,"pm2_5":48.7,"mosquito_risk":0,"arthritis_risk":5,"migraine_risk":7,"frizz_risk":1,"updated_at":"2026-03-29T18:32:42.841460+05:30"},{"city":"Mangalore","state":"Karnataka","latitude":12.9141,"longitude":74.856,"temp":29.6,"humidity":79,"rain":0.0,"pressure":1003.9,"uv_index":9.1,"wind_gusts":31.3,"aqi":132,"pm10":14.7,"pm2_5":12.2,"mosquito_risk":7,"arthritis_risk":5,"migraine_risk":4,"frizz_risk":1,"updated_at":"2026-03-29T18:32:42.841468+05:30"},{"city":"Hubli-Dharwad","state":"Karnataka","latitude":15.3647,"longitude":75.124,"temp":31.4,"humidity":38,"rain":0.0,"pressure":938.5,"uv_index":9.1,"wind_gusts":33.8,"aqi":114,"pm10":19.3,"pm2_5":16.1,"mosquito_risk":0,"arthritis_risk":5,"migraine_risk":7,"frizz_risk":0,"updated_at":"2026-03-29T18:32:42.841476+05:30"},{"city":"Belgaum","state":"Karnataka","latitude":15.8497,"longitude":74.4977,"temp":28.3,"humidity":50,"rain":0.0,"pressure":923.9,"uv_index":9.2,"wind_gusts":37.8,"aqi":86,"pm10":18.3,"pm2_5":11.3,"mosquito_risk":4,"arthritis_risk":5,"migraine_risk":7,"frizz_risk":1,"updated_at":"2026-03-29T18:32:46.092822+05:30"},{"city":"Coimbatore","state":"Tamil Nadu","latitude":11.0168,"longitude":76.9558,"temp":28.1,"humidity":70,"rain":0.0,"pressure":959.4,"uv_index":9.1,"wind_gusts":46.1,"aqi":147,"pm10":42.0,"pm2_5":36.6,"mosquito_risk":7,"arthritis_risk":5,"migraine_risk":7,"frizz_risk":1,"updated_at":"2026-03-29T18:32:46.092853+05:30"},{"city":"Madurai","state":"Tamil Nadu","latitude":9.9252,"longitude":78.1198,"temp":33.5,"humidity":44,"rain":0.0,"pressure":990.0,"uv_index":9.2,"wind_gusts":29.2,"aqi":114,"pm10":16.0,"pm2_5":14.4,"mosquito_risk":0,"arthritis_risk":5,"migraine_risk":7,"frizz_risk":1,"updated_at":"2026-03-29T18:32:46.092866+05:30"},{"city":"Trichy","state":"Tamil Nadu","latitude":10.7905,"longitude":78.7047,"temp":33.2,"humidity":48,"rain":0.0,"pressure":996.8,"uv_index":8.7,"wind_gusts":29.2,"aqi":93,"pm10":20.3,"pm2_5":18.6,"mosquito_risk":0,"arthritis_risk":5,"migraine_risk":7,"frizz_risk":1,"updated_at":"2026-03-29T18:32:46.092874+05:30"},{"city":"Salem","state":"Tamil Nadu","latitude":11.6643,"longitude":78.146,"temp":34.8,"humidity":30,"rain":0.0,"pressure":974.2,"uv_index":9.4,"wind_gusts":30.2,"aqi":167,"pm10":28.1,"pm2_5":24.0,"mosquito_risk":0,"arthritis_risk":5,"migraine_risk":7,"frizz_risk":0,"updated_at":"2026-03-29T18:32:46.092881+05:30"},{"city":"Tirunelveli","state":"Tamil Nadu","latitude":8.7139,"longitude":77.7567,"temp":32.0,"humidity":50,"rain":0.0,"pressure":1000.6,"uv_index":9.4,"wind_gusts":51.8,"aqi":119,"pm10":24.0,"pm2_5":22.4,"mosquito_risk":0,"arthritis_risk":5,"migraine_risk":4,"frizz_risk":1,"updated_at":"2026-03-29T18:32:46.092889+05:30"},{"city":"Vellore","state":"Tamil Nadu","latitude":12.9165,"longitude":79.1325,"temp":32.2,"humidity":42,"rain":0.0,"pressure":981.9,"uv_index":9.35,"wind_gusts":33.8,"aqi":150,"pm10":35.6,"pm2_5":32.6,"mosquito_risk":0,"arthritis_risk":5,"migraine_risk":7,"frizz_risk":1,"updated_at":"2026-03-29T18:32:46.092896+05:30"},{"city":"Erode","state":"Tamil Nadu","latitude":11.341,"longitude":77.7172,"temp":34.0,"humidity":45,"rain":0.0,"pressure":985.4,"uv_index":9.35,"wind_gusts":31.0,"aqi":163,"pm10":29.0,"pm2_5":24.7,"mosquito_risk":0,"arthritis_risk":5,"migraine_risk":7,"frizz_risk":1,"updated_at":"2026-03-29T18:32:46.092903+05:30"},{"city":"Kochi","state":"Kerala","latitude":9.9312,"longitude":76.2673,"temp":29.9,"humidity":75,"rain":0.0,"pressure":1006.1,"uv_index":9.2,"wind_gusts":29.2,"aqi":129,"pm10":31.5,"pm2_5":27.4,"mosquito_risk":7,"arthritis_risk":5,"migraine_risk":4,"frizz_risk":1,"updated_at":"2026-03-29T18:32:46.092910+05:30"},{"city":"Thiruvananthapuram","state":"Kerala","latitude":8.5241,"longitude":76.9366,"temp":29.4,"humidity":79,"rain":0.0,"pressure":1005.9,"uv_index":9.2,"wind_gusts":32.4,"aqi":110,"pm10":26.7,"pm2_5":19.8,"mosquito_risk":7,"arthritis_risk":5,"migraine_risk":4,"frizz_risk":1,"updated_at":"2026-03-29T18:32:46.092917+05:30"},{"city":"Kozhikode","state":"Kerala","latitude":11.2588,"longitude":75.7804,"temp":29.8,"humidity":79,"rain":0.0,"pressure":1005.2,"uv_index":9.1,"wind_gusts":32.4,"aqi":132,"pm10":34.8,"pm2_5":28.3,"mosquito_risk":7,"arthritis_risk":5,"migraine_risk":4,"frizz_risk":1,"updated_at":"2026-03-29T18:32:46.092924+05:30"},{"city":"Thrissur","state":"Kerala","latitude":10.5276,"longitude":76.2144,"temp":30.3,"humidity":72,"rain":0.0,"pressure":1004.6,"uv_index":9.15,"wind_gusts":34.9,"aqi":119,"pm10":31.3,"pm2_5":27.7,"mosquito_risk":3,"arthritis_risk":5,"migraine_risk":4,"frizz_risk":1,"updated_at":"2026-03-29T18:32:46.092931+05:30"},{"city":"Kannur","state":"Kerala","latitude":11.8745,"longitude":75.3704,"temp":30.6,"humidity":73,"rain":0.0,"pressure":1004.3,"uv_index":9.15,"wind_gusts":34.9,"aqi":151,"pm10":32.2,"pm2_5":27.0,"mosquito_risk":3,"arthritis_risk":5,"migraine_risk":4,"frizz_risk":1,"updated_at":"2026-03-29T18:32:46.092938+05:30"},{"city":"Patna","state":"Bihar","latitude":25.5941,"longitude":85.1376,"temp":28.9,"humidity":56,"rain":0.0,"pressure":999.3,"uv_index":8.05,"wind_gusts":23.8,"aqi":152,"pm10":80.1,"pm2_5":51.9,"mosquito_risk":4,"arthritis_risk":5,"migraine_risk":7,"frizz_risk":1,"updated_at":"2026-03-29T18:32:46.092946+05:30"},{"city":"Gaya","state":"Bihar","latitude":24.7914,"longitude":85.0002,"temp":27.9,"humidity":67,"rain":0.0,"pressure":992.3,"uv_index":8.15,"wind_gusts":19.1,"aqi":117,"pm10":55.9,"pm2_5":29.0,"mosquito_risk":7,"arthritis_risk":5,"migraine_risk":7,"frizz_risk":1,"updated_at":"2026-03-29T18:32:46.092952+05:30"},{"city":"Muzaffarpur","state":"Bihar","latitude":26.1209,"longitude":85.3647,"temp":27.2,"humidity":60,"rain":0.0,"pressure":999.4,"uv_index":8.05,"wind_gusts":28.1,"aqi":154,"pm10":87.5,"pm2_5":61.0,"mosquito_risk":4,"arthritis_risk":5,"migraine_risk":7,"frizz_risk":1,"updated_at":"2026-03-29T18:32:46.092959+05:30"},{"city":"Bhagalpur","state":"Bihar","latitude":25.2425,"longitude":87.0117,"temp":25.2,"humidity":80,"rain":0.0,"pressure":1000.8,"uv_index":8.1,"wind_gusts":19.8,"aqi":158,"pm10":68.7,"pm2_5":57.9,"mosquito_risk":7,"arthritis_risk":5,"migraine_risk":4,"frizz_risk":1,"updated_at":"2026-03-29T18:32:46.092966+05:30"},{"city":"Ranchi","state":"Jharkhand","latitude":23.3441,"longitude":85.3096,"temp":30.0,"humidity":30,"rain":0.0,"pressure":936.3,"uv_index":8.75,"wind_gusts":31.7,"aqi":110,"pm10":29.0,"pm2_5":17.2,"mosquito_risk":4,"arthritis_risk":5,"migraine_risk":7,"frizz_risk":0,"updated_at":"2026-03-29T18:32:46.092973+05:30"},{"city":"Jamshedpur","state":"Jharkhand","latitude":22.8046,"longitude":86.2029,"temp":30.3,"humidity":62,"rain":0.0,"pressure":988.8,"uv_index":8.6,"wind_gusts":32.4,"aqi":167,"pm10":69.4,"pm2_5":47.5,"mosquito_risk":3,"arthritis_risk":5,"migraine_risk":7,"frizz_risk":1,"updated_at":"2026-03-29T18:32:46.092980+05:30"},{"city":"Dhanbad","state":"Jharkhand","latitude":23.7957,"longitude":86.4304,"temp":28.1,"humidity":64,"rain":0.0,"pressure":978.5,"uv_index":8.5,"wind_gusts":24.5,"aqi":155,"pm10":82.4,"pm2_5":63.3,"mosquito_risk":7,"arthritis_risk":5,"migraine_risk":7,"frizz_risk":1,"updated_at":"2026-03-29T18:32:46.092986+05:30"},{"city":"Bokaro","state":"Jharkhand","latitude":23.6693,"longitude":86.1511,"temp":28.3,"humidity":60,"rain":0.0,"pressure":982.6,"uv_index":8.5,"wind_gusts":29.2,"aqi":155,"pm10":64.5,"pm2_5":47.1,"mosquito_risk":4,"arthritis_risk":5,"migraine_risk":7,"frizz_risk":1,"updated_at":"2026-03-29T18:32:46.092993+05:30"},{"city":"Bhubaneswar","state":"Odisha","latitude":20.2961,"longitude":85.8245,"temp":29.6,"humidity":69,"rain":0.0,"pressure":1000.4,"uv_index":8.8,"wind_gusts":31.3,"aqi":86,"pm10":25.2,"pm2_5":21.7,"mosquito_risk":7,"arthritis_risk":5,"migraine_risk":4,"frizz_risk":1,"updated_at":"2026-03-29T18:32:46.093001+05:30"},{"city":"Cuttack","state":"Odisha","latitude":20.4625,"longitude":85.8828,"temp":31.1,"humidity":71,"rain":0.0,"pressure":1002.2,"uv_index":8.85,"wind_gusts":24.1,"aqi":86,"pm10":25.2,"pm2_5":21.7,"mosquito_risk":3,"arthritis_risk":5,"migraine_risk":4,"frizz_risk":1,"updated_at":"2026-03-29T18:32:46.093008+05:30"},{"city":"Rourkela","state":"Odisha","latitude":22.2604,"longitude":84.8536,"temp":33.3,"humidity":39,"rain":0.0,"pressure":981.7,"uv_index":8.5,"wind_gusts":30.6,"aqi":171,"pm10":50.6,"pm2_5":39.1,"mosquito_risk":0,"arthritis_risk":5,"migraine_risk":7,"frizz_risk":1,"updated_at":"2026-03-29T18:32:46.093015+05:30"},{"city":"Raipur","state":"Chhattisgarh","latitude":21.2514,"longitude":81.6296,"temp":35.3,"humidity":19,"rain":0.0,"pressure":971.1,"uv_index":8.6,"wind_gusts":26.6,"aqi":123,"pm10":38.4,"pm2_5":35.4,"mosquito_risk":0,"arthritis_risk":5,"migraine_risk":10,"frizz_risk":0,"updated_at":"2026-03-29T18:32:46.093022+05:30"},{"city":"Bhilai","state":"Chhattisgarh","latitude":21.1938,"longitude":81.3509,"temp":34.3,"humidity":23,"rain":0.0,"pressure":971.5,"uv_index":8.6,"wind_gusts":29.9,"aqi":89,"pm10":24.3,"pm2_5":22.4,"mosquito_risk":0,"arthritis_risk":5,"migraine_risk":7,"frizz_risk":0,"updated_at":"2026-03-29T18:32:46.093029+05:30"},{"city":"Guwahati","state":"Assam","latitude":26.1158,"longitude":91.7086,"temp":24.5,"humidity":73,"rain":0.0,"pressure":1002.1,"uv_index":7.1,"wind_gusts":14.4,"aqi":105,"pm10":62.9,"pm2_5":49.4,"mosquito_risk":3,"arthritis_risk":5,"migraine_risk":4,"frizz_risk":1,"updated_at":"2026-03-29T18:32:46.093036+05:30"},{"city":"Agartala","state":"Tripura","latitude":23.8315,"longitude":91.2868,"temp":24.1,"humidity":83,"rain":0.0,"pressure":1006.7,"uv_index":8.2,"wind_gusts":34.2,"aqi":155,"pm10":56.7,"pm2_5":50.1,"mosquito_risk":3,"arthritis_risk":5,"migraine_risk":4,"frizz_risk":1,"updated_at":"2026-03-29T18:32:46.093043+05:30"},{"city":"Shillong","state":"Meghalaya","latitude":25.5788,"longitude":91.8933,"temp":13.4,"humidity":84,"rain":0.0,"pressure":854.7,"uv_index":5.4,"wind_gusts":43.9,"aqi":110,"pm10":46.1,"pm2_5":37.5,"mosquito_risk":3,"arthritis_risk":10,"migraine_risk":3,"frizz_risk":0,"updated_at":"2026-03-29T18:32:46.093051+05:30"},{"city":"Imphal","state":"Manipur","latitude":24.817,"longitude":93.9368,"temp":17.4,"humidity":86,"rain":0.0,"pressure":922.9,"uv_index":7.85,"wind_gusts":68.4,"aqi":124,"pm10":68.7,"pm2_5":53.1,"mosquito_risk":3,"arthritis_risk":10,"migraine_risk":7,"frizz_risk":0,"updated_at":"2026-03-29T18:32:46.093058+05:30"},{"city":"Aizawl","state":"Mizoram","latitude":23.7271,"longitude":92.7176,"temp":18.1,"humidity":87,"rain":0.0,"pressure":892.5,"uv_index":7.7,"wind_gusts":52.9,"aqi":147,"pm10":86.6,"pm2_5":72.6,"mosquito_risk":3,"arthritis_risk":10,"migraine_risk":7,"frizz_risk":0,"updated_at":"2026-03-29T18:32:46.093064+05:30"},{"city":"Kohima","state":"Nagaland","latitude":25.6701,"longitude":94.1077,"temp":13.5,"humidity":97,"rain":0.0,"pressure":853.7,"uv_index":7.25,"wind_gusts":86.4,"aqi":100,"pm10":74.3,"pm2_5":47.6,"mosquito_risk":3,"arthritis_risk":10,"migraine_risk":7,"frizz_risk":0,"updated_at":"2026-03-29T18:32:46.093071+05:30"},{"city":"Gangtok","state":"Sikkim","latitude":27.3314,"longitude":88.6138,"temp":14.5,"humidity":84,"rain":0.0,"pressure":835.7,"uv_index":8.2,"wind_gusts":18.7,"aqi":88,"pm10":44.2,"pm2_5":34.9,"mosquito_risk":3,"arthritis_risk":10,"migraine_risk":7,"frizz_risk":0,"updated_at":"2026-03-29T18:32:46.093078+05:30"},{"city":"Siliguri","state":"West Bengal","latitude":26.7271,"longitude":88.3953,"temp":19.4,"humidity":87,"rain":0.0,"pressure":994.1,"uv_index":6.55,"wind_gusts":12.6,"aqi":121,"pm10":79.6,"pm2_5":57.2,"mosquito_risk":3,"arthritis_risk":10,"migraine_risk":7,"frizz_risk":1,"updated_at":"2026-03-29T18:32:49.345965+05:30"},{"city":"Durgapur","state":"West Bengal","latitude":23.5204,"longitude":87.3119,"temp":27.2,"humidity":74,"rain":0.0,"pressure":994.0,"uv_index":8.45,"wind_gusts":22.3,"aqi":165,"pm10":98.5,"pm2_5":83.6,"mosquito_risk":7,"arthritis_risk":5,"migraine_risk":7,"frizz_risk":1,"updated_at":"2026-03-29T18:32:49.345997+05:30"},{"city":"Asansol","state":"West Bengal","latitude":23.6739,"longitude":86.9524,"temp":27.2,"humidity":75,"rain":0.0,"pressure":992.5,"uv_index":8.45,"wind_gusts":21.6,"aqi":159,"pm10":88.5,"pm2_5":70.3,"mosquito_risk":7,"arthritis_risk":5,"migraine_risk":7,"frizz_risk":1,"updated_at":"2026-03-29T18:32:49.346011+05:30"},{"city":"Pondicherry","state":"Puducherry","latitude":11.9139,"longitude":79.8145,"temp":29.2,"humidity":75,"rain":0.0,"pressure":1006.1,"uv_index":8.9,"wind_gusts":32.8,"aqi":53,"pm10":15.5,"pm2_5":10.8,"mosquito_risk":7,"arthritis_risk":5,"migraine_risk":4,"frizz_risk":1,"updated_at":"2026-03-29T18:32:49.346021+05:30"},{"city":"Port Blair","state":"Andaman and Nicobar Islands","latitude":11.6234,"longitude":92.7265,"temp":29.2,"humidity":72,"rain":0.0,"pressure":1006.4,"uv_index":8.7,"wind_gusts":18.4,"aqi":69,"pm10":29.8,"pm2_5":23.9,"mosquito_risk":7,"arthritis_risk":5,"migraine_risk":4,"frizz_risk":1,"updated_at":"2026-03-29T18:32:49.346030+05:30"},{"city":"Haridwar","state":"Uttarakhand","latitude":29.9457,"longitude":78.1642,"temp":27.7,"humidity":54,"rain":0.0,"pressure":972.7,"uv_index":5.2,"wind_gusts":34.6,"aqi":92,"pm10":44.9,"pm2_5":19.3,"mosquito_risk":4,"arthritis_risk":5,"migraine_risk":3,"frizz_risk":1,"updated_at":"2026-03-29T18:32:49.346039+05:30"},{"city":"Rishikesh","state":"Uttarakhand","latitude":30.0869,"longitude":78.2676,"temp":26.8,"humidity":63,"rain":0.0,"pressure":965.6,"uv_index":5.25,"wind_gusts":24.8,"aqi":76,"pm10":45.1,"pm2_5":14.3,"mosquito_risk":7,"arthritis_risk":5,"migraine_risk":3,"frizz_risk":1,"updated_at":"2026-03-29T18:32:49.346046+05:30"},{"city":"Nainital","state":"Uttarakhand","latitude":29.3919,"longitude":79.4542,"temp":20.5,"humidity":58,"rain":0.0,"pressure":805.7,"uv_index":7.45,"wind_gusts":62.6,"aqi":115,"pm10":45.4,"pm2_5":23.0,"mosquito_risk":0,"arthritis_risk":5,"migraine_risk":7,"frizz_risk":0,"updated_at":"2026-03-29T18:32:49.346052+05:30"},{"city":"Mussoorie","state":"Uttarakhand","latitude":30.4599,"longitude":78.0664,"temp":18.7,"humidity":77,"rain":0.0,"pressure":802.2,"uv_index":5.75,"wind_gusts":28.1,"aqi":93,"pm10":55.6,"pm2_5":20.2,"mosquito_risk":3,"arthritis_risk":5,"migraine_risk":3,"frizz_risk":0,"updated_at":"2026-03-29T18:32:49.346059+05:30"},{"city":"Dharamshala","state":"Himachal Pradesh","latitude":32.219,"longitude":76.3234,"temp":20.8,"humidity":76,"rain":0.0,"pressure":867.7,"uv_index":5.15,"wind_gusts":26.6,"aqi":52,"pm10":31.4,"pm2_5":8.2,"mosquito_risk":3,"arthritis_risk":5,"migraine_risk":3,"frizz_risk":1,"updated_at":"2026-03-29T18:32:49.346066+05:30"},{"city":"Dalhousie","state":"Himachal Pradesh","latitude":32.5387,"longitude":75.971,"temp":18.0,"humidity":68,"rain":0.0,"pressure":802.3,"uv_index":2.65,"wind_gusts":29.5,"aqi":84,"pm10":84.3,"pm2_5":23.2,"mosquito_risk":3,"arthritis_risk":5,"migraine_risk":3,"frizz_risk":0,"updated_at":"2026-03-29T18:32:49.346073+05:30"},{"city":"Patiala","state":"Punjab","latitude":30.3398,"longitude":76.3869,"temp":26.2,"humidity":63,"rain":0.0,"pressure":976.1,"uv_index":6.3,"wind_gusts":32.8,"aqi":174,"pm10":532.7,"pm2_5":65.0,"mosquito_risk":7,"arthritis_risk":5,"migraine_risk":7,"frizz_risk":1,"updated_at":"2026-03-29T18:32:49.346080+05:30"},{"city":"Bhatinda","state":"Punjab","latitude":30.211,"longitude":74.9455,"temp":28.8,"humidity":52,"rain":0.0,"pressure":980.7,"uv_index":7.3,"wind_gusts":41.4,"aqi":123,"pm10":493.6,"pm2_5":88.0,"mosquito_risk":4,"arthritis_risk":5,"migraine_risk":7,"frizz_risk":1,"updated_at":"2026-03-29T18:32:49.346086+05:30"},{"city":"Rohtak","state":"Haryana","latitude":28.8955,"longitude":76.6066,"temp":29.4,"humidity":52,"rain":0.0,"pressure":978.5,"uv_index":6.05,"wind_gusts":35.3,"aqi":202,"pm10":269.2,"pm2_5":59.3,"mosquito_risk":4,"arthritis_risk":5,"migraine_risk":7,"frizz_risk":1,"updated_at":"2026-03-29T18:32:49.346093+05:30"},{"city":"Panipat","state":"Haryana","latitude":29.3909,"longitude":76.9635,"temp":27.5,"humidity":55,"rain":0.0,"pressure":978.1,"uv_index":4.4,"wind_gusts":30.6,"aqi":409,"pm10":312.9,"pm2_5":67.3,"mosquito_risk":4,"arthritis_risk":5,"migraine_risk":3,"frizz_risk":1,"updated_at":"2026-03-29T18:32:49.346099+05:30"},{"city":"Mathura","state":"Uttar Pradesh","latitude":27.4924,"longitude":77.6737,"temp":32.7,"humidity":41,"rain":0.0,"pressure":983.2,"uv_index":7.0,"wind_gusts":26.6,"aqi":243,"pm10":133.2,"pm2_5":33.4,"mosquito_risk":0,"arthritis_risk":5,"migraine_risk":7,"frizz_risk":1,"updated_at":"2026-03-29T18:32:49.346106+05:30"},{"city":"Vrindavan","state":"Uttar Pradesh","latitude":27.5823,"longitude":77.7027,"temp":31.8,"humidity":42,"rain":0.0,"pressure":983.7,"uv_index":6.9,"wind_gusts":29.2,"aqi":243,"pm10":133.2,"pm2_5":33.4,"mosquito_risk":0,"arthritis_risk":5,"migraine_risk":7,"frizz_risk":1,"updated_at":"2026-03-29T18:32:49.346112+05:30"},{"city":"Ayodhya","state":"Uttar Pradesh","latitude":26.7922,"longitude":82.1998,"temp":29.7,"humidity":43,"rain":0.0,"pressure":993.3,"uv_index":7.15,"wind_gusts":20.9,"aqi":140,"pm10":75.0,"pm2_5":30.7,"mosquito_risk":4,"arthritis_risk":5,"migraine_risk":7,"frizz_risk":0,"updated_at":"2026-03-29T18:32:49.346118+05:30"},{"city":"Ratlam","state":"Madhya Pradesh","latitude":23.3315,"longitude":75.0367,"temp":30.5,"humidity":40,"rain":0.0,"pressure":952.9,"uv_index":8.15,"wind_gusts":36.0,"aqi":42,"pm10":32.5,"pm2_5":12.5,"mosquito_risk":0,"arthritis_risk":5,"migraine_risk":7,"frizz_risk":0,"updated_at":"2026-03-29T18:32:49.346125+05:30"},{"city":"Sagar","state":"Madhya Pradesh","latitude":23.8388,"longitude":78.7378,"temp":32.3,"humidity":33,"rain":0.0,"pressure":948.0,"uv_index":8.2,"wind_gusts":34.6,"aqi":48,"pm10":15.7,"pm2_5":6.7,"mosquito_risk":0,"arthritis_risk":5,"migraine_risk":7,"frizz_risk":0,"updated_at":"2026-03-29T18:32:49.346131+05:30"},{"city":"Satna","state":"Madhya Pradesh","latitude":24.6005,"longitude":80.8322,"temp":30.9,"humidity":42,"rain":0.0,"pressure":969.4,"uv_index":8.15,"wind_gusts":46.8,"aqi":96,"pm10":27.5,"pm2_5":12.0,"mosquito_risk":0,"arthritis_risk":5,"migraine_risk":7,"frizz_risk":1,"updated_at":"2026-03-29T18:32:49.346138+05:30"},{"city":"Akola","state":"Maharashtra","latitude":20.7002,"longitude":77.0082,"temp":34.4,"humidity":34,"rain":0.0,"pressure":972.2,"uv_index":8.5,"wind_gusts":30.2,"aqi":53,"pm10":35.3,"pm2_5":13.4,"mosquito_risk":0,"arthritis_risk":5,"migraine_risk":7,"frizz_risk":1,"updated_at":"2026-03-29T18:32:49.346145+05:30"},{"city":"Amravati","state":"Maharashtra","latitude":20.9374,"longitude":77.7796,"temp":33.6,"humidity":32,"rain":0.0,"pressure":964.2,"uv_index":8.5,"wind_gusts":31.3,"aqi":59,"pm10":39.6,"pm2_5":14.6,"mosquito_risk":0,"arthritis_risk":5,"migraine_risk":7,"frizz_risk":0,"updated_at":"2026-03-29T18:32:49.346152+05:30"},{"city":"Latur","state":"Maharashtra","latitude":18.4088,"longitude":76.5604,"temp":33.2,"humidity":24,"rain":0.0,"pressure":937.3,"uv_index":8.85,"wind_gusts":28.4,"aqi":66,"pm10":21.9,"pm2_5":13.7,"mosquito_risk":0,"arthritis_risk":5,"migraine_risk":7,"frizz_risk":0,"updated_at":"2026-03-29T18:32:49.346159+05:30"},{"city":"Nanded","state":"Maharashtra","latitude":19.1383,"longitude":77.3091,"temp":35.1,"humidity":22,"rain":0.0,"pressure":965.2,"uv_index":8.7,"wind_gusts":20.5,"aqi":77,"pm10":18.5,"pm2_5":11.8,"mosquito_risk":0,"arthritis_risk":5,"migraine_risk":10,"frizz_risk":0,"updated_at":"2026-03-29T18:32:49.346165+05:30"},{"city":"Gulbarga","state":"Karnataka","latitude":17.3297,"longitude":76.8343,"temp":36.2,"humidity":18,"rain":0.0,"pressure":955.5,"uv_index":8.9,"wind_gusts":32.0,"aqi":120,"pm10":21.9,"pm2_5":16.5,"mosquito_risk":0,"arthritis_risk":5,"migraine_risk":10,"frizz_risk":0,"updated_at":"2026-03-29T18:32:49.346172+05:30"},{"city":"Bidar","state":"Karnataka","latitude":17.9104,"longitude":77.5199,"temp":33.8,"humidity":23,"rain":0.0,"pressure":933.1,"uv_index":8.9,"wind_gusts":30.2,"aqi":93,"pm10":19.4,"pm2_5":16.7,"mosquito_risk":0,"arthritis_risk":5,"migraine_risk":7,"frizz_risk":0,"updated_at":"2026-03-29T18:32:49.346178+05:30"},{"city":"Hospet","state":"Karnataka","latitude":15.2689,"longitude":76.3909,"temp":34.8,"humidity":22,"rain":0.0,"pressure":953.3,"uv_index":9.1,"wind_gusts":17.6,"aqi":118,"pm10":19.4,"pm2_5":16.6,"mosquito_risk":0,"arthritis_risk":5,"migraine_risk":7,"frizz_risk":0,"updated_at":"2026-03-29T18:32:49.346184+05:30"},{"city":"Tirupur","state":"Tamil Nadu","latitude":11.1085,"longitude":77.3411,"temp":34.5,"humidity":35,"rain":0.0,"pressure":972.2,"uv_index":9.3,"wind_gusts":40.0,"aqi":173,"pm10":42.5,"pm2_5":36.0,"mosquito_risk":0,"arthritis_risk":5,"migraine_risk":7,"frizz_risk":1,"updated_at":"2026-03-29T18:32:49.346191+05:30"},{"city":"Alappuzha","state":"Kerala","latitude":9.4981,"longitude":76.3388,"temp":29.9,"humidity":78,"rain":0.0,"pressure":1006.1,"uv_index":9.05,"wind_gusts":28.4,"aqi":119,"pm10":31.7,"pm2_5":26.1,"mosquito_risk":7,"arthritis_risk":5,"migraine_risk":4,"frizz_risk":1,"updated_at":"2026-03-29T18:32:49.346197+05:30"},{"city":"Munnar","state":"Kerala","latitude":10.0889,"longitude":77.0595,"temp":23.3,"humidity":84,"rain":0.0,"pressure":855.7,"uv_index":8.8,"wind_gusts":34.6,"aqi":110,"pm10":28.6,"pm2_5":26.0,"mosquito_risk":3,"arthritis_risk":5,"migraine_risk":7,"frizz_risk":1,"updated_at":"2026-03-29T18:32:49.346204+05:30"},{"city":"Silchar","state":"Assam","latitude":24.8333,"longitude":92.7789,"temp":24.1,"humidity":76,"rain":0.0,"pressure":1005.6,"uv_index":8.2,"wind_gusts":34.9,"aqi":146,"pm10":92.4,"pm2_5":69.6,"mosquito_risk":3,"arthritis_risk":5,"migraine_risk":4,"frizz_risk":1,"updated_at":"2026-03-29T18:32:49.346211+05:30"},{"city":"Dibrugarh","state":"Assam","latitude":27.4728,"longitude":94.912,"temp":23.0,"humidity":75,"rain":0.0,"pressure":997.0,"uv_index":7.35,"wind_gusts":16.9,"aqi":83,"pm10":36.9,"pm2_5":31.9,"mosquito_risk":3,"arthritis_risk":5,"migraine_risk":7,"frizz_risk":1,"updated_at":"2026-03-29T18:32:49.346217+05:30"}]