[{"city":"Delhi","state":"Delhi","latitude":28.6139,"longitude":77.209,"temp":36.9,"humidity":35,"rain":0.0,"pressure":975.4,"uv_index":7.75,"wind_gusts":28.4,"aqi":171,"pm10":270.1,"pm2_5":75.9,"no2":17.6,"co":373.0,"o3":117.0,"so2":12.1,"mosquito_risk":0,"arthritis_risk":5,"migraine_risk":10,"frizz_risk":1,"updated_at":"2026-06-27T19:18:17.824575+05:30"},{"city":"Mumbai","state":"Maharashtra","latitude":19.076,"longitude":72.8777,"temp":29.4,"humidity":78,"rain":0.0,"pressure":1004.5,"uv_index":7.15,"wind_gusts":31.3,"aqi":61,"pm10":27.8,"pm2_5":15.5,"no2":9.5,"co":315.0,"o3":63.0,"so2":6.3,"mosquito_risk":7,"arthritis_risk":5,"migraine_risk":4,"frizz_risk":1,"updated_at":"2026-06-27T19:18:17.824616+05:30"},{"city":"Bangalore","state":"Karnataka","latitude":12.9716,"longitude":77.5946,"temp":22.8,"humidity":86,"rain":0.1,"pressure":909.6,"uv_index":9.1,"wind_gusts":37.1,"aqi":43,"pm10":11.8,"pm2_5":8.9,"no2":25.3,"co":504.0,"o3":46.0,"so2":4.1,"mosquito_risk":6,"arthritis_risk":5,"migraine_risk":7,"frizz_risk":1,"updated_at":"2026-06-27T19:18:17.824632+05:30"},{"city":"Hyderabad","state":"Telangana","latitude":17.385,"longitude":78.4867,"temp":27.4,"humidity":77,"rain":0.0,"pressure":949.6,"uv_index":7.65,"wind_gusts":35.6,"aqi":84,"pm10":31.1,"pm2_5":22.6,"no2":16.0,"co":630.0,"o3":95.0,"so2":5.3,"mosquito_risk":7,"arthritis_risk":5,"migraine_risk":7,"frizz_risk":1,"updated_at":"2026-06-27T19:18:17.824642+05:30"},{"city":"Chennai","state":"Tamil Nadu","latitude":13.0827,"longitude":80.2707,"temp":30.5,"humidity":72,"rain":0.0,"pressure":1002.9,"uv_index":8.15,"wind_gusts":41.4,"aqi":84,"pm10":32.1,"pm2_5":22.1,"no2":7.1,"co":294.0,"o3":115.0,"so2":6.7,"mosquito_risk":3,"arthritis_risk":5,"migraine_risk":4,"frizz_risk":1,"updated_at":"2026-06-27T19:18:17.824650+05:30"},{"city":"Kolkata","state":"West Bengal","latitude":22.5726,"longitude":88.3639,"temp":29.8,"humidity":79,"rain":0.0,"pressure":1001.3,"uv_index":8.9,"wind_gusts":26.6,"aqi":76,"pm10":22.2,"pm2_5":19.2,"no2":8.4,"co":402.0,"o3":78.0,"so2":6.4,"mosquito_risk":7,"arthritis_risk":5,"migraine_risk":4,"frizz_risk":1,"updated_at":"2026-06-27T19:18:17.824658+05:30"},{"city":"Pune","state":"Maharashtra","latitude":18.5204,"longitude":73.8567,"temp":25.9,"humidity":80,"rain":0.0,"pressure":944.9,"uv_index":8.25,"wind_gusts":41.0,"aqi":49,"pm10":15.3,"pm2_5":10.0,"no2":9.1,"co":163.0,"o3":75.0,"so2":6.3,"mosquito_risk":7,"arthritis_risk":5,"migraine_risk":7,"frizz_risk":1,"updated_at":"2026-06-27T19:18:17.824665+05:30"},{"city":"Ahmedabad","state":"Gujarat","latitude":23.0225,"longitude":72.5714,"temp":37.7,"humidity":35,"rain":0.0,"pressure":995.8,"uv_index":7.85,"wind_gusts":37.4,"aqi":75,"pm10":60.8,"pm2_5":23.0,"no2":6.7,"co":149.0,"o3":85.0,"so2":3.7,"mosquito_risk":0,"arthritis_risk":5,"migraine_risk":10,"frizz_risk":1,"updated_at":"2026-06-27T19:18:17.824672+05:30"},{"city":"Jaipur","state":"Rajasthan","latitude":26.9124,"longitude":75.7873,"temp":34.7,"humidity":44,"rain":0.0,"pressure":953.9,"uv_index":8.2,"wind_gusts":27.7,"aqi":131,"pm10":87.5,"pm2_5":35.2,"no2":12.5,"co":241.0,"o3":83.0,"so2":5.0,"mosquito_risk":0,"arthritis_risk":5,"migraine_risk":7,"frizz_risk":1,"updated_at":"2026-06-27T19:18:17.824679+05:30"},{"city":"Lucknow","state":"Uttar Pradesh","latitude":26.8467,"longitude":80.9462,"temp":37.3,"humidity":41,"rain":0.0,"pressure":986.0,"uv_index":8.3,"wind_gusts":27.7,"aqi":161,"pm10":111.3,"pm2_5":45.8,"no2":7.2,"co":228.0,"o3":141.0,"so2":7.1,"mosquito_risk":0,"arthritis_risk":5,"migraine_risk":10,"frizz_risk":1,"updated_at":"2026-06-27T19:18:17.824689+05:30"},{"city":"Kanpur","state":"Uttar Pradesh","latitude":26.4499,"longitude":80.3319,"temp":37.0,"humidity":41,"rain":0.0,"pressure":984.6,"uv_index":8.3,"wind_gusts":33.1,"aqi":136,"pm10":167.2,"pm2_5":49.5,"no2":7.0,"co":212.0,"o3":134.0,"so2":6.3,"mosquito_risk":0,"arthritis_risk":5,"migraine_risk":10,"frizz_risk":1,"updated_at":"2026-06-27T19:18:17.824696+05:30"},{"city":"Chandigarh","state":"Chandigarh","latitude":30.7333,"longitude":76.7794,"temp":34.1,"humidity":46,"rain":0.0,"pressure":961.2,"uv_index":7.8,"wind_gusts":28.8,"aqi":170,"pm10":85.4,"pm2_5":57.4,"no2":11.8,"co":534.0,"o3":162.0,"so2":11.8,"mosquito_risk":0,"arthritis_risk":5,"migraine_risk":7,"frizz_risk":1,"updated_at":"2026-06-27T19:18:17.824703+05:30"},{"city":"Srinagar","state":"Jammu and Kashmir","latitude":34.0837,"longitude":74.7973,"temp":29.2,"humidity":40,"rain":0.0,"pressure":839.3,"uv_index":9.1,"wind_gusts":28.4,"aqi":126,"pm10":23.7,"pm2_5":17.5,"no2":11.9,"co":587.0,"o3":116.0,"so2":2.4,"mosquito_risk":4,"arthritis_risk":5,"migraine_risk":7,"frizz_risk":0,"updated_at":"2026-06-27T19:18:17.824710+05:30"},{"city":"Jammu","state":"Jammu and Kashmir","latitude":32.7266,"longitude":74.857,"temp":35.5,"humidity":45,"rain":0.0,"pressure":964.9,"uv_index":8.65,"wind_gusts":27.4,"aqi":155,"pm10":70.1,"pm2_5":42.0,"no2":17.1,"co":409.0,"o3":146.0,"so2":4.9,"mosquito_risk":0,"arthritis_risk":5,"migraine_risk":10,"frizz_risk":1,"updated_at":"2026-06-27T19:18:17.824716+05:30"},{"city":"Amritsar","state":"Punjab","latitude":31.634,"longitude":74.8723,"temp":33.8,"humidity":62,"rain":0.0,"pressure":972.4,"uv_index":8.45,"wind_gusts":16.6,"aqi":182,"pm10":80.6,"pm2_5":56.5,"no2":14.9,"co":458.0,"o3":163.0,"so2":8.9,"mosquito_risk":3,"arthritis_risk":5,"migraine_risk":7,"frizz_risk":1,"updated_at":"2026-06-27T19:18:17.824722+05:30"},{"city":"Ludhiana","state":"Punjab","latitude":30.901,"longitude":75.8573,"temp":36.6,"humidity":40,"rain":0.0,"pressure":970.5,"uv_index":8.05,"wind_gusts":27.7,"aqi":157,"pm10":96.2,"pm2_5":56.8,"no2":12.5,"co":409.0,"o3":141.0,"so2":8.5,"mosquito_risk":0,"arthritis_risk":5,"migraine_risk":10,"frizz_risk":1,"updated_at":"2026-06-27T19:18:17.824729+05:30"},{"city":"Jalandhar","state":"Punjab","latitude":31.326,"longitude":75.5762,"temp":35.3,"humidity":47,"rain":0.0,"pressure":971.6,"uv_index":8.25,"wind_gusts":25.2,"aqi":163,"pm10":97.1,"pm2_5":60.5,"no2":11.7,"co":441.0,"o3":145.0,"so2":7.3,"mosquito_risk":0,"arthritis_risk":5,"migraine_risk":10,"frizz_risk":1,"updated_at":"2026-06-27T19:18:17.824735+05:30"},{"city":"Dehradun","state":"Uttarakhand","latitude":30.6284,"longitude":78.0322,"temp":20.2,"humidity":93,"rain":0.0,"pressure":826.9,"uv_index":8.1,"wind_gusts":34.6,"aqi":111,"pm10":49.2,"pm2_5":30.6,"no2":8.2,"co":238.0,"o3":128.0,"so2":3.2,"mosquito_risk":3,"arthritis_risk":5,"migraine_risk":7,"frizz_risk":1,"updated_at":"2026-06-27T19:18:17.824747+05:30"},{"city":"Shimla","state":"Himachal Pradesh","latitude":31.1048,"longitude":77.1734,"temp":18.4,"humidity":76,"rain":0.0,"pressure":782.1,"uv_index":7.35,"wind_gusts":33.5,"aqi":144,"pm10":65.2,"pm2_5":41.8,"no2":8.8,"co":351.0,"o3":147.0,"so2":10.3,"mosquito_risk":3,"arthritis_risk":5,"migraine_risk":7,"frizz_risk":0,"updated_at":"2026-06-27T19:18:17.824754+05:30"},{"city":"Manali","state":"Himachal Pradesh","latitude":32.2396,"longitude":77.1887,"temp":20.6,"humidity":90,"rain":0.0,"pressure":817.0,"uv_index":8.7,"wind_gusts":35.6,"aqi":59,"pm10":26.3,"pm2_5":24.9,"no2":54.5,"co":257.0,"o3":64.0,"so2":0.4,"mosquito_risk":3,"arthritis_risk":5,"migraine_risk":7,"frizz_risk":1,"updated_at":"2026-06-27T19:18:17.824766+05:30"},{"city":"Gurgaon","state":"Haryana","latitude":28.4595,"longitude":77.0266,"temp":35.4,"humidity":42,"rain":0.0,"pressure":974.0,"uv_index":7.8,"wind_gusts":27.7,"aqi":213,"pm10":325.0,"pm2_5":76.8,"no2":18.5,"co":480.0,"o3":110.0,"so2":9.1,"mosquito_risk":0,"arthritis_risk":5,"migraine_risk":10,"frizz_risk":1,"updated_at":"2026-06-27T19:18:17.824772+05:30"},{"city":"Noida","state":"Uttar Pradesh","latitude":28.5355,"longitude":77.391,"temp":33.8,"humidity":62,"rain":0.0,"pressure":976.6,"uv_index":7.8,"wind_gusts":23.4,"aqi":213,"pm10":325.0,"pm2_5":76.8,"no2":18.5,"co":781.0,"o3":110.0,"so2":9.1,"mosquito_risk":3,"arthritis_risk":5,"migraine_risk":7,"frizz_risk":1,"updated_at":"2026-06-27T19:18:17.824778+05:30"},{"city":"Ghaziabad","state":"Uttar Pradesh","latitude":28.6692,"longitude":77.4538,"temp":34.4,"humidity":57,"rain":0.0,"pressure":975.0,"uv_index":7.75,"wind_gusts":20.2,"aqi":201,"pm10":201.6,"pm2_5":76.8,"no2":12.9,"co":355.0,"o3":171.0,"so2":19.8,"mosquito_risk":0,"arthritis_risk":5,"migraine_risk":7,"frizz_risk":1,"updated_at":"2026-06-27T19:18:17.824784+05:30"},{"city":"Faridabad","state":"Haryana","latitude":28.4089,"longitude":77.3178,"temp":35.8,"humidity":40,"rain":0.0,"pressure":976.1,"uv_index":7.8,"wind_gusts":31.0,"aqi":213,"pm10":325.0,"pm2_5":76.8,"no2":18.5,"co":363.0,"o3":110.0,"so2":9.1,"mosquito_risk":0,"arthritis_risk":5,"migraine_risk":10,"frizz_risk":1,"updated_at":"2026-06-27T19:18:17.824792+05:30"},{"city":"Meerut","state":"Uttar Pradesh","latitude":28.9845,"longitude":77.7064,"temp":36.3,"humidity":41,"rain":0.0,"pressure":973.8,"uv_index":7.7,"wind_gusts":27.7,"aqi":201,"pm10":201.6,"pm2_5":76.8,"no2":12.9,"co":288.0,"o3":171.0,"so2":19.8,"mosquito_risk":0,"arthritis_risk":5,"migraine_risk":10,"frizz_risk":1,"updated_at":"2026-06-27T19:18:17.824799+05:30"},{"city":"Agra","state":"Uttar Pradesh","latitude":27.1767,"longitude":78.0081,"temp":37.5,"humidity":36,"rain":0.0,"pressure":980.3,"uv_index":8.1,"wind_gusts":31.7,"aqi":136,"pm10":132.7,"pm2_5":45.2,"no2":12.8,"co":193.0,"o3":112.0,"so2":5.1,"mosquito_risk":0,"arthritis_risk":5,"migraine_risk":10,"frizz_risk":1,"updated_at":"2026-06-27T19:18:17.824805+05:30"},{"city":"Varanasi","state":"Uttar Pradesh","latitude":25.3176,"longitude":82.9739,"temp":36.2,"humidity":51,"rain":0.0,"pressure":990.6,"uv_index":8.8,"wind_gusts":31.0,"aqi":162,"pm10":47.1,"pm2_5":43.5,"no2":15.6,"co":490.0,"o3":134.0,"so2":10.3,"mosquito_risk":0,"arthritis_risk":5,"migraine_risk":10,"frizz_risk":1,"updated_at":"2026-06-27T19:18:17.824811+05:30"},{"city":"Prayagraj","state":"Uttar Pradesh","latitude":25.4358,"longitude":81.8463,"temp":37.1,"humidity":44,"rain":0.0,"pressure":988.9,"uv_index":8.7,"wind_gusts":37.1,"aqi":139,"pm10":65.7,"pm2_5":39.7,"no2":14.5,"co":286.0,"o3":122.0,"so2":9.1,"mosquito_risk":0,"arthritis_risk":5,"migraine_risk":10,"frizz_risk":1,"updated_at":"2026-06-27T19:18:17.824817+05:30"},{"city":"Gorakhpur","state":"Uttar Pradesh","latitude":26.7606,"longitude":83.3732,"temp":34.0,"humidity":70,"rain":0.0,"pressure":990.1,"uv_index":8.65,"wind_gusts":30.2,"aqi":181,"pm10":68.5,"pm2_5":50.5,"no2":18.3,"co":382.0,"o3":120.0,"so2":9.5,"mosquito_risk":3,"arthritis_risk":5,"migraine_risk":7,"frizz_risk":1,"updated_at":"2026-06-27T19:18:17.824824+05:30"},{"city":"Bareilly","state":"Uttar Pradesh","latitude":28.367,"longitude":79.4304,"temp":36.3,"humidity":39,"rain":0.0,"pressure":979.1,"uv_index":8.1,"wind_gusts":25.9,"aqi":183,"pm10":95.0,"pm2_5":47.8,"no2":6.9,"co":315.0,"o3":161.0,"so2":9.1,"mosquito_risk":0,"arthritis_risk":5,"migraine_risk":10,"frizz_risk":1,"updated_at":"2026-06-27T19:18:17.824852+05:30"},{"city":"Aligarh","state":"Uttar Pradesh","latitude":27.8974,"longitude":78.088,"temp":36.0,"humidity":43,"rain":0.0,"pressure":978.0,"uv_index":7.95,"wind_gusts":31.7,"aqi":188,"pm10":301.7,"pm2_5":83.4,"no2":11.7,"co":241.0,"o3":151.0,"so2":11.4,"mosquito_risk":0,"arthritis_risk":5,"migraine_risk":10,"frizz_risk":1,"updated_at":"2026-06-27T19:18:17.824859+05:30"},{"city":"Moradabad","state":"Uttar Pradesh","latitude":28.8386,"longitude":78.7733,"temp":35.9,"humidity":41,"rain":0.0,"pressure":976.1,"uv_index":7.9,"wind_gusts":32.8,"aqi":194,"pm10":118.3,"pm2_5":57.3,"no2":11.5,"co":396.0,"o3":143.0,"so2":11.5,"mosquito_risk":0,"arthritis_risk":5,"migraine_risk":10,"frizz_risk":1,"updated_at":"2026-06-27T19:18:17.824865+05:30"},{"city":"Saharanpur","state":"Uttar Pradesh","latitude":29.9637,"longitude":77.546,"temp":34.2,"humidity":49,"rain":0.0,"pressure":967.9,"uv_index":7.45,"wind_gusts":28.4,"aqi":173,"pm10":134.6,"pm2_5":57.9,"no2":11.6,"co":335.0,"o3":141.0,"so2":12.8,"mosquito_risk":0,"arthritis_risk":5,"migraine_risk":7,"frizz_risk":1,"updated_at":"2026-06-27T19:18:17.824871+05:30"},{"city":"Jhansi","state":"Uttar Pradesh","latitude":25.4484,"longitude":78.5685,"temp":35.6,"humidity":45,"rain":0.0,"pressure":971.9,"uv_index":8.45,"wind_gusts":25.2,"aqi":88,"pm10":58.7,"pm2_5":30.0,"no2":6.7,"co":162.0,"o3":92.0,"so2":5.0,"mosquito_risk":0,"arthritis_risk":5,"migraine_risk":10,"frizz_risk":1,"updated_at":"2026-06-27T19:18:21.175177+05:30"},{"city":"Surat","state":"Gujarat","latitude":21.1702,"longitude":72.8311,"temp":30.9,"humidity":69,"rain":0.0,"pressure":1001.8,"uv_index":7.6,"wind_gusts":39.2,"aqi":86,"pm10":43.5,"pm2_5":24.2,"no2":19.2,"co":201.0,"o3":38.0,"so2":39.4,"mosquito_risk":3,"arthritis_risk":5,"migraine_risk":4,"frizz_risk":1,"updated_at":"2026-06-27T19:18:21.175209+05:30"},{"city":"Vadodara","state":"Gujarat","latitude":22.3072,"longitude":73.1812,"temp":37.1,"humidity":35,"rain":0.0,"pressure":998.2,"uv_index":7.85,"wind_gusts":37.8,"aqi":80,"pm10":66.6,"pm2_5":28.5,"no2":6.1,"co":144.0,"o3":95.0,"so2":4.7,"mosquito_risk":0,"arthritis_risk":5,"migraine_risk":10,"frizz_risk":1,"updated_at":"2026-06-27T19:18:21.175221+05:30"},{"city":"Rajkot","state":"Gujarat","latitude":22.3039,"longitude":70.8022,"temp":33.4,"humidity":51,"rain":0.0,"pressure":988.8,"uv_index":7.55,"wind_gusts":43.2,"aqi":67,"pm10":67.5,"pm2_5":24.3,"no2":2.6,"co":108.0,"o3":94.0,"so2":4.5,"mosquito_risk":0,"arthritis_risk":5,"migraine_risk":7,"frizz_risk":1,"updated_at":"2026-06-27T19:18:21.175230+05:30"},{"city":"Thane","state":"Maharashtra","latitude":19.2183,"longitude":72.9781,"temp":29.3,"humidity":78,"rain":0.0,"pressure":1004.0,"uv_index":7.4,"wind_gusts":28.8,"aqi":61,"pm10":27.8,"pm2_5":15.5,"no2":9.5,"co":192.0,"o3":63.0,"so2":6.3,"mosquito_risk":7,"arthritis_risk":5,"migraine_risk":4,"frizz_risk":1,"updated_at":"2026-06-27T19:18:21.175238+05:30"},{"city":"Nagpur","state":"Maharashtra","latitude":21.1458,"longitude":79.0882,"temp":27.8,"humidity":87,"rain":0.0,"pressure":969.2,"uv_index":8.75,"wind_gusts":37.1,"aqi":118,"pm10":30.0,"pm2_5":27.9,"no2":13.1,"co":282.0,"o3":123.0,"so2":22.4,"mosquito_risk":7,"arthritis_risk":5,"migraine_risk":7,"frizz_risk":1,"updated_at":"2026-06-27T19:18:21.175246+05:30"},{"city":"Nashik","state":"Maharashtra","latitude":19.9975,"longitude":73.7898,"temp":28.1,"humidity":66,"rain":0.0,"pressure":941.8,"uv_index":7.7,"wind_gusts":29.2,"aqi":59,"pm10":21.4,"pm2_5":12.2,"no2":3.5,"co":156.0,"o3":76.0,"so2":1.6,"mosquito_risk":7,"arthritis_risk":5,"migraine_risk":7,"frizz_risk":1,"updated_at":"2026-06-27T19:18:21.175254+05:30"},{"city":"Aurangabad","state":"Maharashtra","latitude":19.8762,"longitude":75.3433,"temp":27.5,"humidity":78,"rain":0.0,"pressure":940.3,"uv_index":8.25,"wind_gusts":29.2,"aqi":69,"pm10":62.4,"pm2_5":28.6,"no2":3.7,"co":185.0,"o3":91.0,"so2":2.5,"mosquito_risk":7,"arthritis_risk":5,"migraine_risk":7,"frizz_risk":1,"updated_at":"2026-06-27T19:18:21.175262+05:30"},{"city":"Solapur","state":"Maharashtra","latitude":17.6599,"longitude":75.9064,"temp":25.9,"humidity":86,"rain":0.1,"pressure":954.0,"uv_index":3.5,"wind_gusts":38.9,"aqi":51,"pm10":44.0,"pm2_5":20.7,"no2":3.7,"co":138.0,"o3":94.0,"so2":3.0,"mosquito_risk":10,"arthritis_risk":5,"migraine_risk":3,"frizz_risk":1,"updated_at":"2026-06-27T19:18:21.175271+05:30"},{"city":"Kolhapur","state":"Maharashtra","latitude":16.705,"longitude":74.2433,"temp":24.2,"humidity":89,"rain":0.0,"pressure":945.1,"uv_index":7.4,"wind_gusts":35.6,"aqi":32,"pm10":8.6,"pm2_5":7.0,"no2":7.9,"co":136.0,"o3":48.0,"so2":2.1,"mosquito_risk":3,"arthritis_risk":5,"migraine_risk":7,"frizz_risk":1,"updated_at":"2026-06-27T19:18:21.175279+05:30"},{"city":"Goa","state":"Goa","latitude":15.2993,"longitude":74.124,"temp":26.0,"humidity":97,"rain":0.3,"pressure":995.8,"uv_index":5.75,"wind_gusts":29.9,"aqi":51,"pm10":11.3,"pm2_5":7.5,"no2":3.8,"co":205.0,"o3":49.0,"so2":0.9,"mosquito_risk":10,"arthritis_risk":5,"migraine_risk":3,"frizz_risk":1,"updated_at":"2026-06-27T19:18:21.175287+05:30"},{"city":"Jodhpur","state":"Rajasthan","latitude":26.2389,"longitude":73.0243,"temp":35.3,"humidity":44,"rain":0.0,"pressure":976.4,"uv_index":8.4,"wind_gusts":37.1,"aqi":101,"pm10":154.1,"pm2_5":41.1,"no2":4.5,"co":151.0,"o3":81.0,"so2":2.3,"mosquito_risk":0,"arthritis_risk":5,"migraine_risk":10,"frizz_risk":1,"updated_at":"2026-06-27T19:18:21.175294+05:30"},{"city":"Udaipur","state":"Rajasthan","latitude":24.5854,"longitude":73.7125,"temp":28.7,"humidity":72,"rain":0.0,"pressure":942.2,"uv_index":8.55,"wind_gusts":34.9,"aqi":66,"pm10":37.8,"pm2_5":19.4,"no2":4.4,"co":202.0,"o3":70.0,"so2":1.6,"mosquito_risk":7,"arthritis_risk":5,"migraine_risk":7,"frizz_risk":1,"updated_at":"2026-06-27T19:18:21.175302+05:30"},{"city":"Kota","state":"Rajasthan","latitude":25.2138,"longitude":75.8648,"temp":32.8,"humidity":61,"rain":0.0,"pressure":973.1,"uv_index":8.3,"wind_gusts":49.0,"aqi":85,"pm10":58.3,"pm2_5":27.9,"no2":4.2,"co":167.0,"o3":96.0,"so2":3.8,"mosquito_risk":3,"arthritis_risk":5,"migraine_risk":7,"frizz_risk":1,"updated_at":"2026-06-27T19:18:21.175309+05:30"},{"city":"Bikaner","state":"Rajasthan","latitude":28.0229,"longitude":73.3119,"temp":38.7,"humidity":30,"rain":0.0,"pressure":974.1,"uv_index":8.45,"wind_gusts":33.1,"aqi":95,"pm10":75.9,"pm2_5":29.3,"no2":1.7,"co":163.0,"o3":83.0,"so2":2.7,"mosquito_risk":0,"arthritis_risk":5,"migraine_risk":10,"frizz_risk":1,"updated_at":"2026-06-27T19:18:21.175316+05:30"},{"city":"Ajmer","state":"Rajasthan","latitude":26.4499,"longitude":74.6399,"temp":33.1,"humidity":52,"rain":0.0,"pressure":949.0,"uv_index":8.35,"wind_gusts":38.2,"aqi":86,"pm10":88.7,"pm2_5":37.1,"no2":4.4,"co":162.0,"o3":84.0,"so2":2.2,"mosquito_risk":0,"arthritis_risk":5,"migraine_risk":7,"frizz_risk":1,"updated_at":"2026-06-27T19:18:21.175324+05:30"},{"city":"Gwalior","state":"Madhya Pradesh","latitude":26.2183,"longitude":78.1828,"temp":35.4,"humidity":46,"rain":0.0,"pressure":976.4,"uv_index":8.25,"wind_gusts":36.4,"aqi":85,"pm10":59.8,"pm2_5":27.8,"no2":5.0,"co":163.0,"o3":103.0,"so2":2.5,"mosquito_risk":0,"arthritis_risk":5,"migraine_risk":10,"frizz_risk":1,"updated_at":"2026-06-27T19:18:21.175331+05:30"},{"city":"Indore","state":"Madhya Pradesh","latitude":22.7196,"longitude":75.8577,"temp":26.4,"humidity":90,"rain":0.0,"pressure":944.8,"uv_index":8.2,"wind_gusts":31.7,"aqi":88,"pm10":39.1,"pm2_5":27.6,"no2":8.8,"co":457.0,"o3":89.0,"so2":4.2,"mosquito_risk":7,"arthritis_risk":5,"migraine_risk":7,"frizz_risk":1,"updated_at":"2026-06-27T19:18:21.175339+05:30"},{"city":"Bhopal","state":"Madhya Pradesh","latitude":23.2599,"longitude":77.4126,"temp":27.8,"humidity":88,"rain":0.0,"pressure":949.5,"uv_index":8.65,"wind_gusts":23.0,"aqi":84,"pm10":36.1,"pm2_5":25.5,"no2":9.4,"co":370.0,"o3":84.0,"so2":3.3,"mosquito_risk":7,"arthritis_risk":5,"migraine_risk":7,"frizz_risk":1,"updated_at":"2026-06-27T19:18:21.175347+05:30"},{"city":"Jabalpur","state":"Madhya Pradesh","latitude":23.1815,"longitude":79.9864,"temp":27.6,"humidity":89,"rain":0.0,"pressure":957.1,"uv_index":8.85,"wind_gusts":39.6,"aqi":95,"pm10":20.3,"pm2_5":18.5,"no2":4.0,"co":250.0,"o3":122.0,"so2":2.7,"mosquito_risk":7,"arthritis_risk":5,"migraine_risk":7,"frizz_risk":1,"updated_at":"2026-06-27T19:18:21.175354+05:30"},{"city":"Ujjain","state":"Madhya Pradesh","latitude":23.1765,"longitude":75.7885,"temp":24.7,"humidity":96,"rain":0.3,"pressure":949.8,"uv_index":8.5,"wind_gusts":32.8,"aqi":85,"pm10":34.7,"pm2_5":24.6,"no2":5.4,"co":297.0,"o3":83.0,"so2":2.9,"mosquito_risk":6,"arthritis_risk":5,"migraine_risk":7,"frizz_risk":1,"updated_at":"2026-06-27T19:18:21.175362+05:30"},{"city":"Visakhapatnam","state":"Andhra Pradesh","latitude":17.6868,"longitude":83.2185,"temp":29.0,"humidity":84,"rain":0.0,"pressure":998.6,"uv_index":8.4,"wind_gusts":31.3,"aqi":96,"pm10":37.3,"pm2_5":27.7,"no2":18.3,"co":358.0,"o3":97.0,"so2":34.9,"mosquito_risk":7,"arthritis_risk":5,"migraine_risk":7,"frizz_risk":1,"updated_at":"2026-06-27T19:18:21.175369+05:30"},{"city":"Vijayawada","state":"Andhra Pradesh","latitude":16.5062,"longitude":80.648,"temp":31.0,"humidity":68,"rain":0.0,"pressure":998.0,"uv_index":8.45,"wind_gusts":40.0,"aqi":77,"pm10":38.9,"pm2_5":31.1,"no2":13.4,"co":268.0,"o3":89.0,"so2":6.2,"mosquito_risk":3,"arthritis_risk":5,"migraine_risk":7,"frizz_risk":1,"updated_at":"2026-06-27T19:18:21.175377+05:30"},{"city":"Guntur","state":"Andhra Pradesh","latitude":16.3067,"longitude":80.4365,"temp":31.1,"humidity":65,"rain":0.0,"pressure":999.1,"uv_index":7.7,"wind_gusts":34.9,"aqi":77,"pm10":38.5,"pm2_5":28.6,"no2":14.2,"co":258.0,"o3":91.0,"so2":6.1,"mosquito_risk":3,"arthritis_risk":5,"migraine_risk":7,"frizz_risk":1,"updated_at":"2026-06-27T19:18:21.175384+05:30"},{"city":"Nellore","state":"Andhra Pradesh","latitude":14.4426,"longitude":79.9865,"temp":31.5,"humidity":67,"rain":0.0,"pressure":1001.4,"uv_index":8.6,"wind_gusts":48.2,"aqi":66,"pm10":26.7,"pm2_5":19.4,"no2":3.4,"co":174.0,"o3":122.0,"so2":3.9,"mosquito_risk":3,"arthritis_risk":5,"migraine_risk":4,"frizz_risk":1,"updated_at":"2026-06-27T19:18:21.175392+05:30"},{"city":"Kurnool","state":"Andhra Pradesh","latitude":15.8281,"longitude":78.0373,"temp":30.9,"humidity":61,"rain":0.0,"pressure":972.7,"uv_index":7.7,"wind_gusts":49.0,"aqi":59,"pm10":51.3,"pm2_5":25.8,"no2":5.2,"co":182.0,"o3":107.0,"so2":7.8,"mosquito_risk":3,"arthritis_risk":5,"migraine_risk":7,"frizz_risk":1,"updated_at":"2026-06-27T19:18:21.175401+05:30"},{"city":"Kakinada","state":"Andhra Pradesh","latitude":16.9891,"longitude":82.2475,"temp":27.5,"humidity":95,"rain":0.1,"pressure":1002.5,"uv_index":6.6,"wind_gusts":41.8,"aqi":90,"pm10":35.7,"pm2_5":24.3,"no2":2.5,"co":298.0,"o3":113.0,"so2":4.3,"mosquito_risk":10,"arthritis_risk":5,"migraine_risk":4,"frizz_risk":1,"updated_at":"2026-06-27T19:18:21.175408+05:30"},{"city":"Tirupati","state":"Andhra Pradesh","latitude":13.6288,"longitude":79.4192,"temp":30.9,"humidity":62,"rain":0.0,"pressure":986.8,"uv_index":8.7,"wind_gusts":30.2,"aqi":59,"pm10":23.9,"pm2_5":16.4,"no2":16.7,"co":204.0,"o3":63.0,"so2":2.6,"mosquito_risk":3,"arthritis_risk":5,"migraine_risk":7,"frizz_risk":1,"updated_at":"2026-06-27T19:18:21.175416+05:30"},{"city":"Warangal","state":"Telangana","latitude":17.9689,"longitude":79.5941,"temp":28.0,"humidity":83,"rain":0.0,"pressure":974.6,"uv_index":8.15,"wind_gusts":36.0,"aqi":89,"pm10":45.2,"pm2_5":30.6,"no2":5.2,"co":254.0,"o3":105.0,"so2":3.9,"mosquito_risk":7,"arthritis_risk":5,"migraine_risk":7,"frizz_risk":1,"updated_at":"2026-06-27T19:18:21.175423+05:30"},{"city":"Nizamabad","state":"Telangana","latitude":18.6725,"longitude":78.0941,"temp":27.6,"humidity":80,"rain":0.0,"pressure":961.1,"uv_index":8.1,"wind_gusts":36.7,"aqi":100,"pm10":48.5,"pm2_5":32.6,"no2":8.6,"co":241.0,"o3":80.0,"so2":3.4,"mosquito_risk":7,"arthritis_risk":5,"migraine_risk":7,"frizz_risk":1,"updated_at":"2026-06-27T19:18:21.175430+05:30"},{"city":"Mysore","state":"Karnataka","latitude":12.2958,"longitude":76.6396,"temp":23.2,"humidity":93,"rain":0.1,"pressure":926.4,"uv_index":8.7,"wind_gusts":42.1,"aqi":35,"pm10":9.7,"pm2_5":7.4,"no2":10.4,"co":169.0,"o3":59.0,"so2":1.8,"mosquito_risk":6,"arthritis_risk":5,"migraine_risk":7,"frizz_risk":1,"updated_at":"2026-06-27T19:18:21.175438+05:30"},{"city":"Mangalore","state":"Karnataka","latitude":12.9141,"longitude":74.856,"temp":26.9,"humidity":88,"rain":0.0,"pressure":1005.3,"uv_index":8.7,"wind_gusts":37.1,"aqi":44,"pm10":10.4,"pm2_5":6.0,"no2":4.6,"co":141.0,"o3":45.0,"so2":1.4,"mosquito_risk":7,"arthritis_risk":5,"migraine_risk":4,"frizz_risk":1,"updated_at":"2026-06-27T19:18:21.175445+05:30"},{"city":"Hubli-Dharwad","state":"Karnataka","latitude":15.3647,"longitude":75.124,"temp":24.8,"humidity":81,"rain":0.0,"pressure":938.3,"uv_index":7.85,"wind_gusts":43.2,"aqi":29,"pm10":6.9,"pm2_5":4.8,"no2":6.0,"co":161.0,"o3":50.0,"so2":1.0,"mosquito_risk":3,"arthritis_risk":5,"migraine_risk":7,"frizz_risk":1,"updated_at":"2026-06-27T19:18:21.175452+05:30"},{"city":"Belgaum","state":"Karnataka","latitude":15.8497,"longitude":74.4977,"temp":22.6,"humidity":92,"rain":0.0,"pressure":923.1,"uv_index":8.45,"wind_gusts":42.8,"aqi":27,"pm10":4.0,"pm2_5":3.2,"no2":5.7,"co":122.0,"o3":49.0,"so2":1.6,"mosquito_risk":3,"arthritis_risk":5,"migraine_risk":7,"frizz_risk":1,"updated_at":"2026-06-27T19:18:24.561720+05:30"},{"city":"Coimbatore","state":"Tamil Nadu","latitude":11.0168,"longitude":76.9558,"temp":25.9,"humidity":82,"rain":0.0,"pressure":959.3,"uv_index":8.8,"wind_gusts":46.8,"aqi":36,"pm10":6.5,"pm2_5":5.0,"no2":6.7,"co":169.0,"o3":57.0,"so2":2.1,"mosquito_risk":7,"arthritis_risk":5,"migraine_risk":7,"frizz_risk":1,"updated_at":"2026-06-27T19:18:24.561753+05:30"},{"city":"Madurai","state":"Tamil Nadu","latitude":9.9252,"longitude":78.1198,"temp":29.3,"humidity":71,"rain":0.1,"pressure":990.6,"uv_index":8.7,"wind_gusts":47.9,"aqi":69,"pm10":33.6,"pm2_5":17.1,"no2":8.4,"co":295.0,"o3":98.0,"so2":3.0,"mosquito_risk":10,"arthritis_risk":5,"migraine_risk":7,"frizz_risk":1,"updated_at":"2026-06-27T19:18:24.561764+05:30"},{"city":"Trichy","state":"Tamil Nadu","latitude":10.7905,"longitude":78.7047,"temp":32.7,"humidity":50,"rain":0.0,"pressure":996.1,"uv_index":7.9,"wind_gusts":38.9,"aqi":49,"pm10":29.5,"pm2_5":16.2,"no2":5.1,"co":167.0,"o3":91.0,"so2":2.6,"mosquito_risk":0,"arthritis_risk":5,"migraine_risk":7,"frizz_risk":1,"updated_at":"2026-06-27T19:18:24.561772+05:30"},{"city":"Salem","state":"Tamil Nadu","latitude":11.6643,"longitude":78.146,"temp":26.3,"humidity":87,"rain":0.2,"pressure":975.1,"uv_index":8.45,"wind_gusts":31.7,"aqi":57,"pm10":23.7,"pm2_5":14.8,"no2":12.0,"co":185.0,"o3":83.0,"so2":5.1,"mosquito_risk":10,"arthritis_risk":5,"migraine_risk":7,"frizz_risk":1,"updated_at":"2026-06-27T19:18:24.561781+05:30"},{"city":"Tirunelveli","state":"Tamil Nadu","latitude":8.7139,"longitude":77.7567,"temp":32.4,"humidity":51,"rain":0.0,"pressure":1000.6,"uv_index":8.65,"wind_gusts":37.1,"aqi":38,"pm10":12.3,"pm2_5":8.6,"no2":4.4,"co":134.0,"o3":75.0,"so2":1.7,"mosquito_risk":0,"arthritis_risk":5,"migraine_risk":4,"frizz_risk":1,"updated_at":"2026-06-27T19:18:24.561788+05:30"},{"city":"Vellore","state":"Tamil Nadu","latitude":12.9165,"longitude":79.1325,"temp":32.2,"humidity":47,"rain":0.0,"pressure":980.1,"uv_index":8.95,"wind_gusts":41.8,"aqi":60,"pm10":32.5,"pm2_5":20.3,"no2":15.1,"co":198.0,"o3":72.0,"so2":3.6,"mosquito_risk":0,"arthritis_risk":5,"migraine_risk":7,"frizz_risk":1,"updated_at":"2026-06-27T19:18:24.561796+05:30"},{"city":"Erode","state":"Tamil Nadu","latitude":11.341,"longitude":77.7172,"temp":27.5,"humidity":83,"rain":0.2,"pressure":986.4,"uv_index":8.05,"wind_gusts":34.9,"aqi":53,"pm10":15.2,"pm2_5":9.9,"no2":7.5,"co":172.0,"o3":86.0,"so2":2.4,"mosquito_risk":10,"arthritis_risk":5,"migraine_risk":7,"frizz_risk":1,"updated_at":"2026-06-27T19:18:24.561803+05:30"},{"city":"Kochi","state":"Kerala","latitude":9.9312,"longitude":76.2673,"temp":27.1,"humidity":90,"rain":0.1,"pressure":1007.9,"uv_index":8.55,"wind_gusts":36.0,"aqi":58,"pm10":14.5,"pm2_5":9.7,"no2":9.9,"co":141.0,"o3":47.0,"so2":2.9,"mosquito_risk":10,"arthritis_risk":5,"migraine_risk":4,"frizz_risk":1,"updated_at":"2026-06-27T19:18:24.561811+05:30"},{"city":"Thiruvananthapuram","state":"Kerala","latitude":8.5241,"longitude":76.9366,"temp":26.1,"humidity":88,"rain":0.0,"pressure":1007.6,"uv_index":8.35,"wind_gusts":39.6,"aqi":42,"pm10":13.3,"pm2_5":7.2,"no2":2.4,"co":131.0,"o3":57.0,"so2":0.9,"mosquito_risk":7,"arthritis_risk":5,"migraine_risk":4,"frizz_risk":1,"updated_at":"2026-06-27T19:18:24.561818+05:30"},{"city":"Kozhikode","state":"Kerala","latitude":11.2588,"longitude":75.7804,"temp":25.8,"humidity":97,"rain":0.1,"pressure":1007.1,"uv_index":8.6,"wind_gusts":37.8,"aqi":31,"pm10":12.7,"pm2_5":6.3,"no2":1.0,"co":146.0,"o3":57.0,"so2":0.7,"mosquito_risk":10,"arthritis_risk":5,"migraine_risk":4,"frizz_risk":1,"updated_at":"2026-06-27T19:18:24.561846+05:30"},{"city":"Thrissur","state":"Kerala","latitude":10.5276,"longitude":76.2144,"temp":26.2,"humidity":92,"rain":0.0,"pressure":1006.2,"uv_index":8.55,"wind_gusts":33.8,"aqi":61,"pm10":12.9,"pm2_5":9.6,"no2":5.8,"co":180.0,"o3":48.0,"so2":1.7,"mosquito_risk":7,"arthritis_risk":5,"migraine_risk":4,"frizz_risk":1,"updated_at":"2026-06-27T19:18:24.561857+05:30"},{"city":"Kannur","state":"Kerala","latitude":11.8745,"longitude":75.3704,"temp":26.0,"humidity":96,"rain":0.2,"pressure":1006.2,"uv_index":8.65,"wind_gusts":36.0,"aqi":44,"pm10":10.2,"pm2_5":6.1,"no2":5.6,"co":140.0,"o3":44.0,"so2":1.0,"mosquito_risk":10,"arthritis_risk":5,"migraine_risk":4,"frizz_risk":1,"updated_at":"2026-06-27T19:18:24.561865+05:30"},{"city":"Patna","state":"Bihar","latitude":25.5941,"longitude":85.1376,"temp":33.8,"humidity":67,"rain":0.0,"pressure":993.8,"uv_index":8.6,"wind_gusts":32.8,"aqi":181,"pm10":66.8,"pm2_5":56.9,"no2":18.5,"co":350.0,"o3":136.0,"so2":11.2,"mosquito_risk":3,"arthritis_risk":5,"migraine_risk":7,"frizz_risk":1,"updated_at":"2026-06-27T19:18:24.561872+05:30"},{"city":"Gaya","state":"Bihar","latitude":24.7914,"longitude":85.0002,"temp":33.9,"humidity":62,"rain":0.0,"pressure":987.8,"uv_index":8.75,"wind_gusts":31.7,"aqi":154,"pm10":52.2,"pm2_5":47.8,"no2":12.7,"co":271.0,"o3":142.0,"so2":12.1,"mosquito_risk":3,"arthritis_risk":5,"migraine_risk":7,"frizz_risk":1,"updated_at":"2026-06-27T19:18:24.561879+05:30"},{"city":"Muzaffarpur","state":"Bihar","latitude":26.1209,"longitude":85.3647,"temp":32.3,"humidity":74,"rain":0.0,"pressure":993.8,"uv_index":8.6,"wind_gusts":35.3,"aqi":196,"pm10":76.1,"pm2_5":63.3,"no2":19.2,"co":440.0,"o3":135.0,"so2":12.4,"mosquito_risk":3,"arthritis_risk":5,"migraine_risk":7,"frizz_risk":1,"updated_at":"2026-06-27T19:18:24.561886+05:30"},{"city":"Bhagalpur","state":"Bihar","latitude":25.2425,"longitude":87.0117,"temp":34.0,"humidity":59,"rain":0.0,"pressure":995.0,"uv_index":7.7,"wind_gusts":26.6,"aqi":174,"pm10":59.8,"pm2_5":51.8,"no2":9.4,"co":286.0,"o3":155.0,"so2":15.7,"mosquito_risk":0,"arthritis_risk":5,"migraine_risk":7,"frizz_risk":1,"updated_at":"2026-06-27T19:18:24.561893+05:30"},{"city":"Ranchi","state":"Jharkhand","latitude":23.3441,"longitude":85.3096,"temp":26.8,"humidity":87,"rain":0.0,"pressure":933.9,"uv_index":9.0,"wind_gusts":21.6,"aqi":142,"pm10":42.0,"pm2_5":39.9,"no2":8.5,"co":287.0,"o3":126.0,"so2":7.3,"mosquito_risk":7,"arthritis_risk":5,"migraine_risk":7,"frizz_risk":1,"updated_at":"2026-06-27T19:18:24.561900+05:30"},{"city":"Jamshedpur","state":"Jharkhand","latitude":22.8046,"longitude":86.2029,"temp":29.8,"humidity":81,"rain":0.0,"pressure":986.0,"uv_index":9.05,"wind_gusts":30.2,"aqi":179,"pm10":51.7,"pm2_5":48.5,"no2":9.9,"co":766.0,"o3":148.0,"so2":17.8,"mosquito_risk":7,"arthritis_risk":5,"migraine_risk":7,"frizz_risk":1,"updated_at":"2026-06-27T19:18:24.561907+05:30"},{"city":"Dhanbad","state":"Jharkhand","latitude":23.7957,"longitude":86.4304,"temp":31.1,"humidity":70,"rain":0.0,"pressure":975.1,"uv_index":8.9,"wind_gusts":22.7,"aqi":202,"pm10":77.1,"pm2_5":74.3,"no2":30.0,"co":1365.0,"o3":175.0,"so2":86.5,"mosquito_risk":3,"arthritis_risk":5,"migraine_risk":7,"frizz_risk":1,"updated_at":"2026-06-27T19:18:24.561915+05:30"},{"city":"Bokaro","state":"Jharkhand","latitude":23.6693,"longitude":86.1511,"temp":31.2,"humidity":72,"rain":0.0,"pressure":978.9,"uv_index":9.1,"wind_gusts":23.8,"aqi":190,"pm10":63.8,"pm2_5":61.0,"no2":25.4,"co":830.0,"o3":154.0,"so2":70.5,"mosquito_risk":3,"arthritis_risk":5,"migraine_risk":7,"frizz_risk":1,"updated_at":"2026-06-27T19:18:24.561922+05:30"},{"city":"Bhubaneswar","state":"Odisha","latitude":20.2961,"longitude":85.8245,"temp":29.2,"humidity":88,"rain":0.0,"pressure":997.7,"uv_index":9.0,"wind_gusts":36.4,"aqi":91,"pm10":26.0,"pm2_5":22.9,"no2":7.0,"co":238.0,"o3":115.0,"so2":7.5,"mosquito_risk":7,"arthritis_risk":5,"migraine_risk":7,"frizz_risk":1,"updated_at":"2026-06-27T19:18:24.561929+05:30"},{"city":"Cuttack","state":"Odisha","latitude":20.4625,"longitude":85.8828,"temp":29.6,"humidity":85,"rain":0.0,"pressure":999.5,"uv_index":8.9,"wind_gusts":30.6,"aqi":91,"pm10":26.0,"pm2_5":22.9,"no2":7.0,"co":258.0,"o3":115.0,"so2":7.5,"mosquito_risk":7,"arthritis_risk":5,"migraine_risk":7,"frizz_risk":1,"updated_at":"2026-06-27T19:18:24.561936+05:30"},{"city":"Rourkela","state":"Odisha","latitude":22.2604,"longitude":84.8536,"temp":30.8,"humidity":75,"rain":0.0,"pressure":980.0,"uv_index":8.95,"wind_gusts":34.6,"aqi":154,"pm10":34.5,"pm2_5":31.5,"no2":6.3,"co":476.0,"o3":145.0,"so2":9.4,"mosquito_risk":3,"arthritis_risk":5,"migraine_risk":7,"frizz_risk":1,"updated_at":"2026-06-27T19:18:24.561943+05:30"},{"city":"Raipur","state":"Chhattisgarh","latitude":21.2514,"longitude":81.6296,"temp":29.4,"humidity":86,"rain":0.0,"pressure":969.9,"uv_index":8.9,"wind_gusts":40.7,"aqi":148,"pm10":39.3,"pm2_5":37.7,"no2":14.4,"co":234.0,"o3":137.0,"so2":34.0,"mosquito_risk":7,"arthritis_risk":5,"migraine_risk":7,"frizz_risk":1,"updated_at":"2026-06-27T19:18:24.561949+05:30"},{"city":"Bhilai","state":"Chhattisgarh","latitude":21.1938,"longitude":81.3509,"temp":30.0,"humidity":74,"rain":0.0,"pressure":970.3,"uv_index":8.9,"wind_gusts":54.4,"aqi":128,"pm10":37.1,"pm2_5":36.0,"no2":16.9,"co":254.0,"o3":126.0,"so2":41.0,"mosquito_risk":7,"arthritis_risk":5,"migraine_risk":7,"frizz_risk":1,"updated_at":"2026-06-27T19:18:24.561956+05:30"},{"city":"Guwahati","state":"Assam","latitude":26.1158,"longitude":91.7086,"temp":29.7,"humidity":85,"rain":0.0,"pressure":996.1,"uv_index":8.7,"wind_gusts":37.4,"aqi":80,"pm10":27.1,"pm2_5":24.3,"no2":6.2,"co":331.0,"o3":85.0,"so2":2.8,"mosquito_risk":7,"arthritis_risk":5,"migraine_risk":7,"frizz_risk":1,"updated_at":"2026-06-27T19:18:24.561962+05:30"},{"city":"Agartala","state":"Tripura","latitude":23.8315,"longitude":91.2868,"temp":29.1,"humidity":80,"rain":0.0,"pressure":1002.3,"uv_index":8.05,"wind_gusts":29.5,"aqi":60,"pm10":16.8,"pm2_5":15.1,"no2":8.3,"co":172.0,"o3":61.0,"so2":1.7,"mosquito_risk":7,"arthritis_risk":5,"migraine_risk":4,"frizz_risk":1,"updated_at":"2026-06-27T19:18:24.561969+05:30"},{"city":"Shillong","state":"Meghalaya","latitude":25.5788,"longitude":91.8933,"temp":20.8,"humidity":92,"rain":0.0,"pressure":855.3,"uv_index":6.65,"wind_gusts":25.6,"aqi":54,"pm10":17.6,"pm2_5":15.5,"no2":7.4,"co":228.0,"o3":77.0,"so2":1.8,"mosquito_risk":3,"arthritis_risk":5,"migraine_risk":7,"frizz_risk":1,"updated_at":"2026-06-27T19:18:24.561976+05:30"},{"city":"Imphal","state":"Manipur","latitude":24.817,"longitude":93.9368,"temp":25.4,"humidity":81,"rain":0.0,"pressure":920.1,"uv_index":8.05,"wind_gusts":30.6,"aqi":60,"pm10":15.5,"pm2_5":13.7,"no2":9.1,"co":281.0,"o3":57.0,"so2":2.3,"mosquito_risk":7,"arthritis_risk":5,"migraine_risk":7,"frizz_risk":1,"updated_at":"2026-06-27T19:18:24.561983+05:30"},{"city":"Aizawl","state":"Mizoram","latitude":23.7271,"longitude":92.7176,"temp":22.2,"humidity":87,"rain":0.0,"pressure":890.4,"uv_index":9.05,"wind_gusts":24.1,"aqi":43,"pm10":10.3,"pm2_5":9.2,"no2":4.8,"co":144.0,"o3":51.0,"so2":0.9,"mosquito_risk":3,"arthritis_risk":5,"migraine_risk":7,"frizz_risk":1,"updated_at":"2026-06-27T19:18:24.561990+05:30"},{"city":"Kohima","state":"Nagaland","latitude":25.6701,"longitude":94.1077,"temp":21.3,"humidity":95,"rain":0.1,"pressure":853.3,"uv_index":8.5,"wind_gusts":24.8,"aqi":51,"pm10":12.8,"pm2_5":11.4,"no2":7.8,"co":253.0,"o3":60.0,"so2":1.3,"mosquito_risk":6,"arthritis_risk":5,"migraine_risk":7,"frizz_risk":1,"updated_at":"2026-06-27T19:18:24.561997+05:30"},{"city":"Gangtok","state":"Sikkim","latitude":27.3314,"longitude":88.6138,"temp":19.6,"humidity":95,"rain":0.4,"pressure":835.2,"uv_index":8.95,"wind_gusts":39.2,"aqi":110,"pm10":7.5,"pm2_5":7.0,"no2":6.5,"co":380.0,"o3":127.0,"so2":2.9,"mosquito_risk":6,"arthritis_risk":10,"migraine_risk":7,"frizz_risk":1,"updated_at":"2026-06-27T19:18:24.562005+05:30"},{"city":"Siliguri","state":"West Bengal","latitude":26.7271,"longitude":88.3953,"temp":27.8,"humidity":88,"rain":0.0,"pressure":987.5,"uv_index":8.65,"wind_gusts":25.9,"aqi":120,"pm10":36.3,"pm2_5":32.5,"no2":11.1,"co":623.0,"o3":125.0,"so2":6.5,"mosquito_risk":7,"arthritis_risk":5,"migraine_risk":7,"frizz_risk":1,"updated_at":"2026-06-27T19:18:28.131434+05:30"},{"city":"Durgapur","state":"West Bengal","latitude":23.5204,"longitude":87.3119,"temp":31.0,"humidity":75,"rain":0.0,"pressure":989.9,"uv_index":9.0,"wind_gusts":25.9,"aqi":149,"pm10":60.1,"pm2_5":56.0,"no2":25.4,"co":339.0,"o3":111.0,"so2":43.5,"mosquito_risk":3,"arthritis_risk":5,"migraine_risk":7,"frizz_risk":1,"updated_at":"2026-06-27T19:18:28.131466+05:30"},{"city":"Asansol","state":"West Bengal","latitude":23.6739,"longitude":86.9524,"temp":31.2,"humidity":75,"rain":0.0,"pressure":988.5,"uv_index":9.05,"wind_gusts":32.0,"aqi":166,"pm10":67.1,"pm2_5":64.0,"no2":24.8,"co":432.0,"o3":140.0,"so2":45.9,"mosquito_risk":3,"arthritis_risk":5,"migraine_risk":7,"frizz_risk":1,"updated_at":"2026-06-27T19:18:28.131477+05:30"},{"city":"Pondicherry","state":"Puducherry","latitude":11.9139,"longitude":79.8145,"temp":29.5,"humidity":83,"rain":0.0,"pressure":1004.1,"uv_index":8.35,"wind_gusts":45.0,"aqi":75,"pm10":32.9,"pm2_5":23.6,"no2":9.2,"co":258.0,"o3":107.0,"so2":3.9,"mosquito_risk":7,"arthritis_risk":5,"migraine_risk":4,"frizz_risk":1,"updated_at":"2026-06-27T19:18:28.131486+05:30"},{"city":"Port Blair","state":"Andaman and Nicobar Islands","latitude":11.6234,"longitude":92.7265,"temp":24.8,"humidity":97,"rain":0.0,"pressure":1007.7,"uv_index":8.65,"wind_gusts":40.0,"aqi":19,"pm10":4.4,"pm2_5":2.7,"no2":0.5,"co":103.0,"o3":40.0,"so2":0.2,"mosquito_risk":3,"arthritis_risk":5,"migraine_risk":4,"frizz_risk":1,"updated_at":"2026-06-27T19:18:28.131494+05:30"},{"city":"Haridwar","state":"Uttarakhand","latitude":29.9457,"longitude":78.1642,"temp":33.4,"humidity":52,"rain":0.0,"pressure":966.1,"uv_index":7.6,"wind_gusts":27.7,"aqi":153,"pm10":92.7,"pm2_5":51.1,"no2":5.5,"co":377.0,"o3":168.0,"so2":12.7,"mosquito_risk":0,"arthritis_risk":5,"migraine_risk":7,"frizz_risk":1,"updated_at":"2026-06-27T19:18:28.131503+05:30"},{"city":"Rishikesh","state":"Uttarakhand","latitude":30.0869,"longitude":78.2676,"temp":32.2,"humidity":59,"rain":0.0,"pressure":959.1,"uv_index":7.7,"wind_gusts":27.4,"aqi":132,"pm10":82.9,"pm2_5":44.1,"no2":4.9,"co":316.0,"o3":159.0,"so2":9.3,"mosquito_risk":0,"arthritis_risk":5,"migraine_risk":7,"frizz_risk":1,"updated_at":"2026-06-27T19:18:28.131511+05:30"},{"city":"Nainital","state":"Uttarakhand","latitude":29.3919,"longitude":79.4542,"temp":19.6,"humidity":78,"rain":0.0,"pressure":803.2,"uv_index":6.85,"wind_gusts":28.8,"aqi":154,"pm10":88.2,"pm2_5":37.0,"no2":3.6,"co":289.0,"o3":157.0,"so2":8.1,"mosquito_risk":3,"arthritis_risk":5,"migraine_risk":7,"frizz_risk":0,"updated_at":"2026-06-27T19:18:28.131518+05:30"},{"city":"Mussoorie","state":"Uttarakhand","latitude":30.4599,"longitude":78.0664,"temp":18.3,"humidity":99,"rain":0.0,"pressure":800.0,"uv_index":8.15,"wind_gusts":40.7,"aqi":139,"pm10":80.1,"pm2_5":46.4,"no2":7.6,"co":286.0,"o3":160.0,"so2":10.1,"mosquito_risk":3,"arthritis_risk":10,"migraine_risk":7,"frizz_risk":1,"updated_at":"2026-06-27T19:18:28.131526+05:30"},{"city":"Dharamshala","state":"Himachal Pradesh","latitude":32.219,"longitude":76.3234,"temp":23.9,"humidity":83,"rain":0.0,"pressure":865.2,"uv_index":8.5,"wind_gusts":33.1,"aqi":104,"pm10":30.6,"pm2_5":18.8,"no2":4.8,"co":342.0,"o3":123.0,"so2":1.5,"mosquito_risk":3,"arthritis_risk":5,"migraine_risk":7,"frizz_risk":1,"updated_at":"2026-06-27T19:18:28.131533+05:30"},{"city":"Dalhousie","state":"Himachal Pradesh","latitude":32.5387,"longitude":75.971,"temp":20.0,"humidity":82,"rain":0.0,"pressure":802.2,"uv_index":8.2,"wind_gusts":33.1,"aqi":145,"pm10":69.6,"pm2_5":38.5,"no2":7.3,"co":418.0,"o3":156.0,"so2":4.2,"mosquito_risk":3,"arthritis_risk":5,"migraine_risk":7,"frizz_risk":1,"updated_at":"2026-06-27T19:18:28.131541+05:30"},{"city":"Patiala","state":"Punjab","latitude":30.3398,"longitude":76.3869,"temp":35.6,"humidity":43,"rain":0.0,"pressure":970.3,"uv_index":7.7,"wind_gusts":27.0,"aqi":162,"pm10":278.5,"pm2_5":80.1,"no2":11.7,"co":296.0,"o3":133.0,"so2":8.0,"mosquito_risk":0,"arthritis_risk":5,"migraine_risk":10,"frizz_risk":1,"updated_at":"2026-06-27T19:18:28.131548+05:30"},{"city":"Bhatinda","state":"Punjab","latitude":30.211,"longitude":74.9455,"temp":36.0,"humidity":46,"rain":0.0,"pressure":975.5,"uv_index":8.3,"wind_gusts":25.9,"aqi":154,"pm10":79.2,"pm2_5":54.0,"no2":17.7,"co":334.0,"o3":126.0,"so2":10.8,"mosquito_risk":0,"arthritis_risk":5,"migraine_risk":10,"frizz_risk":1,"updated_at":"2026-06-27T19:18:28.131555+05:30"},{"city":"Rohtak","state":"Haryana","latitude":28.8955,"longitude":76.6066,"temp":34.4,"humidity":51,"rain":0.0,"pressure":974.1,"uv_index":7.75,"wind_gusts":24.8,"aqi":175,"pm10":252.4,"pm2_5":65.4,"no2":19.8,"co":359.0,"o3":93.0,"so2":5.2,"mosquito_risk":0,"arthritis_risk":5,"migraine_risk":7,"frizz_risk":1,"updated_at":"2026-06-27T19:18:28.131562+05:30"},{"city":"Panipat","state":"Haryana","latitude":29.3909,"longitude":76.9635,"temp":34.4,"humidity":54,"rain":0.0,"pressure":972.6,"uv_index":7.65,"wind_gusts":23.0,"aqi":429,"pm10":610.9,"pm2_5":107.3,"no2":14.3,"co":289.0,"o3":107.0,"so2":10.0,"mosquito_risk":0,"arthritis_risk":5,"migraine_risk":7,"frizz_risk":1,"updated_at":"2026-06-27T19:18:28.131569+05:30"},{"city":"Mathura","state":"Uttar Pradesh","latitude":27.4924,"longitude":77.6737,"temp":36.1,"humidity":43,"rain":0.0,"pressure":979.3,"uv_index":8.05,"wind_gusts":34.6,"aqi":151,"pm10":235.2,"pm2_5":63.3,"no2":23.0,"co":250.0,"o3":99.0,"so2":4.2,"mosquito_risk":0,"arthritis_risk":5,"migraine_risk":10,"frizz_risk":1,"updated_at":"2026-06-27T19:18:28.131576+05:30"},{"city":"Vrindavan","state":"Uttar Pradesh","latitude":27.5823,"longitude":77.7027,"temp":34.9,"humidity":49,"rain":0.0,"pressure":979.5,"uv_index":8.0,"wind_gusts":34.6,"aqi":151,"pm10":235.2,"pm2_5":63.3,"no2":23.0,"co":262.0,"o3":99.0,"so2":4.2,"mosquito_risk":0,"arthritis_risk":5,"migraine_risk":7,"frizz_risk":1,"updated_at":"2026-06-27T19:18:28.131583+05:30"},{"city":"Ayodhya","state":"Uttar Pradesh","latitude":26.7922,"longitude":82.1998,"temp":34.4,"humidity":62,"rain":0.0,"pressure":988.0,"uv_index":8.4,"wind_gusts":29.2,"aqi":137,"pm10":86.8,"pm2_5":54.9,"no2":15.4,"co":321.0,"o3":129.0,"so2":8.8,"mosquito_risk":3,"arthritis_risk":5,"migraine_risk":7,"frizz_risk":1,"updated_at":"2026-06-27T19:18:28.131590+05:30"},{"city":"Ratlam","state":"Madhya Pradesh","latitude":23.3315,"longitude":75.0367,"temp":26.5,"humidity":91,"rain":0.1,"pressure":951.1,"uv_index":8.2,"wind_gusts":31.3,"aqi":80,"pm10":34.8,"pm2_5":23.6,"no2":4.0,"co":192.0,"o3":80.0,"so2":2.3,"mosquito_risk":10,"arthritis_risk":5,"migraine_risk":7,"frizz_risk":1,"updated_at":"2026-06-27T19:18:28.131598+05:30"},{"city":"Sagar","state":"Madhya Pradesh","latitude":23.8388,"longitude":78.7378,"temp":28.8,"humidity":79,"rain":0.0,"pressure":945.8,"uv_index":8.65,"wind_gusts":27.4,"aqi":66,"pm10":31.4,"pm2_5":22.6,"no2":5.2,"co":184.0,"o3":95.0,"so2":2.5,"mosquito_risk":7,"arthritis_risk":5,"migraine_risk":7,"frizz_risk":1,"updated_at":"2026-06-27T19:18:28.131606+05:30"},{"city":"Satna","state":"Madhya Pradesh","latitude":24.6005,"longitude":80.8322,"temp":33.3,"humidity":60,"rain":0.0,"pressure":966.0,"uv_index":8.8,"wind_gusts":31.3,"aqi":85,"pm10":55.3,"pm2_5":26.8,"no2":5.8,"co":222.0,"o3":106.0,"so2":2.7,"mosquito_risk":0,"arthritis_risk":5,"migraine_risk":7,"frizz_risk":1,"updated_at":"2026-06-27T19:18:28.131613+05:30"},{"city":"Akola","state":"Maharashtra","latitude":20.7002,"longitude":77.0082,"temp":27.4,"humidity":92,"rain":0.1,"pressure":971.3,"uv_index":8.0,"wind_gusts":38.9,"aqi":85,"pm10":34.9,"pm2_5":22.6,"no2":6.2,"co":208.0,"o3":92.0,"so2":5.6,"mosquito_risk":10,"arthritis_risk":5,"migraine_risk":7,"frizz_risk":1,"updated_at":"2026-06-27T19:18:28.131621+05:30"},{"city":"Amravati","state":"Maharashtra","latitude":20.9374,"longitude":77.7796,"temp":28.8,"humidity":76,"rain":0.0,"pressure":963.7,"uv_index":8.55,"wind_gusts":34.2,"aqi":81,"pm10":31.9,"pm2_5":22.1,"no2":7.3,"co":224.0,"o3":94.0,"so2":6.4,"mosquito_risk":7,"arthritis_risk":5,"migraine_risk":7,"frizz_risk":1,"updated_at":"2026-06-27T19:18:28.131630+05:30"},{"city":"Latur","state":"Maharashtra","latitude":18.4088,"longitude":76.5604,"temp":28.0,"humidity":71,"rain":0.0,"pressure":936.3,"uv_index":7.7,"wind_gusts":31.7,"aqi":84,"pm10":56.2,"pm2_5":29.3,"no2":9.1,"co":165.0,"o3":89.0,"so2":5.0,"mosquito_risk":7,"arthritis_risk":5,"migraine_risk":7,"frizz_risk":1,"updated_at":"2026-06-27T19:18:28.131638+05:30"},{"city":"Nanded","state":"Maharashtra","latitude":19.1383,"longitude":77.3091,"temp":28.1,"humidity":76,"rain":0.0,"pressure":965.0,"uv_index":6.35,"wind_gusts":36.4,"aqi":98,"pm10":58.9,"pm2_5":32.4,"no2":8.3,"co":275.0,"o3":85.0,"so2":4.0,"mosquito_risk":7,"arthritis_risk":5,"migraine_risk":7,"frizz_risk":1,"updated_at":"2026-06-27T19:18:28.131645+05:30"},{"city":"Gulbarga","state":"Karnataka","latitude":17.3297,"longitude":76.8343,"temp":27.0,"humidity":72,"rain":0.0,"pressure":955.1,"uv_index":5.7,"wind_gusts":31.7,"aqi":53,"pm10":31.2,"pm2_5":19.0,"no2":9.2,"co":191.0,"o3":86.0,"so2":3.6,"mosquito_risk":7,"arthritis_risk":5,"migraine_risk":3,"frizz_risk":1,"updated_at":"2026-06-27T19:18:28.131653+05:30"},{"city":"Bidar","state":"Karnataka","latitude":17.9104,"longitude":77.5199,"temp":27.2,"humidity":73,"rain":0.0,"pressure":932.1,"uv_index":2.45,"wind_gusts":36.0,"aqi":88,"pm10":45.5,"pm2_5":28.6,"no2":12.1,"co":208.0,"o3":87.0,"so2":4.4,"mosquito_risk":7,"arthritis_risk":5,"migraine_risk":3,"frizz_risk":1,"updated_at":"2026-06-27T19:18:28.131660+05:30"},{"city":"Hospet","state":"Karnataka","latitude":15.2689,"longitude":76.3909,"temp":24.5,"humidity":92,"rain":0.1,"pressure":952.8,"uv_index":7.85,"wind_gusts":47.9,"aqi":34,"pm10":7.3,"pm2_5":5.2,"no2":6.5,"co":170.0,"o3":60.0,"so2":1.5,"mosquito_risk":6,"arthritis_risk":5,"migraine_risk":7,"frizz_risk":1,"updated_at":"2026-06-27T19:18:28.131667+05:30"},{"city":"Tirupur","state":"Tamil Nadu","latitude":11.1085,"longitude":77.3411,"temp":27.3,"humidity":77,"rain":0.1,"pressure":972.6,"uv_index":8.6,"wind_gusts":50.0,"aqi":55,"pm10":14.6,"pm2_5":9.7,"no2":8.0,"co":155.0,"o3":80.0,"so2":3.0,"mosquito_risk":10,"arthritis_risk":5,"migraine_risk":7,"frizz_risk":1,"updated_at":"2026-06-27T19:18:28.131674+05:30"},{"city":"Alappuzha","state":"Kerala","latitude":9.4981,"longitude":76.3388,"temp":27.2,"humidity":92,"rain":0.0,"pressure":1008.0,"uv_index":8.5,"wind_gusts":37.4,"aqi":52,"pm10":15.9,"pm2_5":9.3,"no2":7.4,"co":91.0,"o3":54.0,"so2":2.1,"mosquito_risk":7,"arthritis_risk":0,"migraine_risk":4,"frizz_risk":1,"updated_at":"2026-06-27T19:18:28.131681+05:30"},{"city":"Munnar","state":"Kerala","latitude":10.0889,"longitude":77.0595,"temp":17.5,"humidity":100,"rain":0.0,"pressure":855.7,"uv_index":9.05,"wind_gusts":34.2,"aqi":29,"pm10":5.7,"pm2_5":4.2,"no2":5.6,"co":110.0,"o3":52.0,"so2":1.1,"mosquito_risk":3,"arthritis_risk":10,"migraine_risk":7,"frizz_risk":1,"updated_at":"2026-06-27T19:18:28.131689+05:30"},{"city":"Silchar","state":"Assam","latitude":24.8333,"longitude":92.7789,"temp":28.0,"humidity":95,"rain":0.1,"pressure":1000.9,"uv_index":8.75,"wind_gusts":24.5,"aqi":81,"pm10":22.3,"pm2_5":19.8,"no2":6.6,"co":281.0,"o3":71.0,"so2":3.3,"mosquito_risk":10,"arthritis_risk":5,"migraine_risk":4,"frizz_risk":1,"updated_at":"2026-06-27T19:18:28.131696+05:30"},{"city":"Dibrugarh","state":"Assam","latitude":27.4728,"longitude":94.912,"temp":25.7,"humidity":97,"rain":0.3,"pressure":990.8,"uv_index":8.4,"wind_gusts":34.6,"aqi":74,"pm10":28.5,"pm2_5":25.8,"no2":7.5,"co":294.0,"o3":91.0,"so2":2.0,"mosquito_risk":10,"arthritis_risk":5,"migraine_risk":7,"frizz_risk":1,"updated_at":"2026-06-27T19:18:28.131703+05:30"}]