[{"city":"Delhi","state":"Delhi","latitude":28.6139,"longitude":77.209,"temp":31.0,"humidity":69,"rain":0.0,"pressure":976.9,"uv_index":7.7,"wind_gusts":29.2,"aqi":152,"pm10":48.4,"pm2_5":26.0,"no2":7.7,"co":545.0,"o3":189.0,"so2":21.0,"mosquito_risk":3,"arthritis_risk":5,"migraine_risk":7,"frizz_risk":1,"updated_at":"2026-07-02T13:48:47.873915+05:30"},{"city":"Mumbai","state":"Maharashtra","latitude":19.076,"longitude":72.8777,"temp":26.7,"humidity":91,"rain":0.6,"pressure":1004.9,"uv_index":1.05,"wind_gusts":40.3,"aqi":40,"pm10":23.7,"pm2_5":12.0,"no2":8.8,"co":202.0,"o3":53.0,"so2":6.8,"mosquito_risk":10,"arthritis_risk":5,"migraine_risk":0,"frizz_risk":1,"updated_at":"2026-07-02T13:48:47.873961+05:30"},{"city":"Bangalore","state":"Karnataka","latitude":12.9716,"longitude":77.5946,"temp":28.4,"humidity":52,"rain":0.1,"pressure":910.3,"uv_index":4.75,"wind_gusts":59.4,"aqi":18,"pm10":3.8,"pm2_5":2.8,"no2":4.0,"co":227.0,"o3":62.0,"so2":2.5,"mosquito_risk":7,"arthritis_risk":5,"migraine_risk":3,"frizz_risk":1,"updated_at":"2026-07-02T13:48:47.873976+05:30"},{"city":"Hyderabad","state":"Telangana","latitude":17.385,"longitude":78.4867,"temp":28.8,"humidity":61,"rain":0.0,"pressure":949.0,"uv_index":6.6,"wind_gusts":54.0,"aqi":21,"pm10":11.4,"pm2_5":6.5,"no2":2.1,"co":176.0,"o3":76.0,"so2":2.8,"mosquito_risk":7,"arthritis_risk":5,"migraine_risk":7,"frizz_risk":1,"updated_at":"2026-07-02T13:48:47.873986+05:30"},{"city":"Chennai","state":"Tamil Nadu","latitude":13.0827,"longitude":80.2707,"temp":37.0,"humidity":42,"rain":0.0,"pressure":1002.2,"uv_index":6.5,"wind_gusts":53.6,"aqi":36,"pm10":10.9,"pm2_5":8.4,"no2":6.3,"co":157.0,"o3":89.0,"so2":9.2,"mosquito_risk":0,"arthritis_risk":5,"migraine_risk":7,"frizz_risk":1,"updated_at":"2026-07-02T13:48:47.873995+05:30"},{"city":"Kolkata","state":"West Bengal","latitude":22.5726,"longitude":88.3639,"temp":30.8,"humidity":76,"rain":0.0,"pressure":996.6,"uv_index":7.9,"wind_gusts":30.6,"aqi":66,"pm10":8.2,"pm2_5":8.0,"no2":2.7,"co":283.0,"o3":105.0,"so2":7.5,"mosquito_risk":3,"arthritis_risk":5,"migraine_risk":7,"frizz_risk":1,"updated_at":"2026-07-02T13:48:47.874003+05:30"},{"city":"Pune","state":"Maharashtra","latitude":18.5204,"longitude":73.8567,"temp":25.1,"humidity":82,"rain":0.1,"pressure":944.7,"uv_index":0.95,"wind_gusts":43.6,"aqi":18,"pm10":3.7,"pm2_5":2.9,"no2":7.1,"co":174.0,"o3":45.0,"so2":4.6,"mosquito_risk":10,"arthritis_risk":5,"migraine_risk":3,"frizz_risk":1,"updated_at":"2026-07-02T13:48:47.874011+05:30"},{"city":"Ahmedabad","state":"Gujarat","latitude":23.0225,"longitude":72.5714,"temp":37.6,"humidity":42,"rain":0.0,"pressure":994.9,"uv_index":6.75,"wind_gusts":49.0,"aqi":56,"pm10":39.2,"pm2_5":17.6,"no2":1.7,"co":165.0,"o3":92.0,"so2":3.7,"mosquito_risk":0,"arthritis_risk":5,"migraine_risk":10,"frizz_risk":1,"updated_at":"2026-07-02T13:48:47.874019+05:30"},{"city":"Jaipur","state":"Rajasthan","latitude":26.9124,"longitude":75.7873,"temp":30.9,"humidity":67,"rain":0.0,"pressure":954.4,"uv_index":8.2,"wind_gusts":28.8,"aqi":114,"pm10":157.4,"pm2_5":47.0,"no2":1.8,"co":249.0,"o3":118.0,"so2":4.6,"mosquito_risk":3,"arthritis_risk":5,"migraine_risk":7,"frizz_risk":1,"updated_at":"2026-07-02T13:48:47.874026+05:30"},{"city":"Lucknow","state":"Uttar Pradesh","latitude":26.8467,"longitude":80.9462,"temp":33.4,"humidity":65,"rain":0.0,"pressure":986.3,"uv_index":7.0,"wind_gusts":22.0,"aqi":95,"pm10":26.4,"pm2_5":22.8,"no2":2.2,"co":336.0,"o3":155.0,"so2":6.5,"mosquito_risk":3,"arthritis_risk":5,"migraine_risk":7,"frizz_risk":1,"updated_at":"2026-07-02T13:48:47.874038+05:30"},{"city":"Kanpur","state":"Uttar Pradesh","latitude":26.4499,"longitude":80.3319,"temp":33.3,"humidity":66,"rain":0.0,"pressure":984.3,"uv_index":7.3,"wind_gusts":25.2,"aqi":97,"pm10":42.1,"pm2_5":23.2,"no2":2.2,"co":232.0,"o3":161.0,"so2":7.6,"mosquito_risk":3,"arthritis_risk":5,"migraine_risk":7,"frizz_risk":1,"updated_at":"2026-07-02T13:48:47.874046+05:30"},{"city":"Chandigarh","state":"Chandigarh","latitude":30.7333,"longitude":76.7794,"temp":31.4,"humidity":69,"rain":0.2,"pressure":963.3,"uv_index":6.8,"wind_gusts":28.8,"aqi":99,"pm10":24.6,"pm2_5":20.1,"no2":2.3,"co":316.0,"o3":175.0,"so2":7.9,"mosquito_risk":6,"arthritis_risk":5,"migraine_risk":7,"frizz_risk":1,"updated_at":"2026-07-02T13:48:47.874053+05:30"},{"city":"Srinagar","state":"Jammu and Kashmir","latitude":34.0837,"longitude":74.7973,"temp":24.8,"humidity":64,"rain":0.0,"pressure":840.5,"uv_index":9.1,"wind_gusts":23.4,"aqi":83,"pm10":26.3,"pm2_5":17.7,"no2":1.4,"co":306.0,"o3":155.0,"so2":2.8,"mosquito_risk":3,"arthritis_risk":5,"migraine_risk":7,"frizz_risk":1,"updated_at":"2026-07-02T13:48:47.874060+05:30"},{"city":"Jammu","state":"Jammu and Kashmir","latitude":32.7266,"longitude":74.857,"temp":34.1,"humidity":51,"rain":0.0,"pressure":966.6,"uv_index":8.55,"wind_gusts":27.0,"aqi":102,"pm10":115.7,"pm2_5":43.5,"no2":1.7,"co":255.0,"o3":168.0,"so2":3.7,"mosquito_risk":0,"arthritis_risk":5,"migraine_risk":7,"frizz_risk":1,"updated_at":"2026-07-02T13:48:47.874067+05:30"},{"city":"Amritsar","state":"Punjab","latitude":31.634,"longitude":74.8723,"temp":33.8,"humidity":59,"rain":0.0,"pressure":974.2,"uv_index":8.45,"wind_gusts":28.4,"aqi":180,"pm10":242.1,"pm2_5":72.6,"no2":1.5,"co":250.0,"o3":145.0,"so2":4.0,"mosquito_risk":0,"arthritis_risk":5,"migraine_risk":7,"frizz_risk":1,"updated_at":"2026-07-02T13:48:47.874074+05:30"},{"city":"Ludhiana","state":"Punjab","latitude":30.901,"longitude":75.8573,"temp":32.7,"humidity":64,"rain":0.0,"pressure":972.3,"uv_index":2.25,"wind_gusts":28.4,"aqi":147,"pm10":84.5,"pm2_5":38.3,"no2":2.3,"co":266.0,"o3":164.0,"so2":9.0,"mosquito_risk":3,"arthritis_risk":5,"migraine_risk":3,"frizz_risk":1,"updated_at":"2026-07-02T13:48:47.874081+05:30"},{"city":"Jalandhar","state":"Punjab","latitude":31.326,"longitude":75.5762,"temp":33.5,"humidity":60,"rain":0.0,"pressure":973.3,"uv_index":2.2,"wind_gusts":31.3,"aqi":157,"pm10":130.9,"pm2_5":49.6,"no2":1.9,"co":271.0,"o3":161.0,"so2":7.4,"mosquito_risk":0,"arthritis_risk":5,"migraine_risk":3,"frizz_risk":1,"updated_at":"2026-07-02T13:48:47.874088+05:30"},{"city":"Dehradun","state":"Uttarakhand","latitude":30.6284,"longitude":78.0322,"temp":21.6,"humidity":94,"rain":0.1,"pressure":828.7,"uv_index":4.95,"wind_gusts":25.2,"aqi":50,"pm10":7.4,"pm2_5":6.0,"no2":1.8,"co":215.0,"o3":138.0,"so2":1.5,"mosquito_risk":6,"arthritis_risk":5,"migraine_risk":3,"frizz_risk":1,"updated_at":"2026-07-02T13:48:47.874097+05:30"},{"city":"Shimla","state":"Himachal Pradesh","latitude":31.1048,"longitude":77.1734,"temp":19.8,"humidity":81,"rain":0.1,"pressure":783.9,"uv_index":4.9,"wind_gusts":28.8,"aqi":57,"pm10":7.1,"pm2_5":4.8,"no2":1.0,"co":219.0,"o3":138.0,"so2":1.4,"mosquito_risk":6,"arthritis_risk":10,"migraine_risk":3,"frizz_risk":1,"updated_at":"2026-07-02T13:48:47.874104+05:30"},{"city":"Manali","state":"Himachal Pradesh","latitude":32.2396,"longitude":77.1887,"temp":25.8,"humidity":58,"rain":0.0,"pressure":818.4,"uv_index":3.4,"wind_gusts":31.0,"aqi":54,"pm10":17.3,"pm2_5":16.6,"no2":9.6,"co":211.0,"o3":153.0,"so2":0.8,"mosquito_risk":4,"arthritis_risk":5,"migraine_risk":3,"frizz_risk":1,"updated_at":"2026-07-02T13:48:47.874112+05:30"},{"city":"Gurgaon","state":"Haryana","latitude":28.4595,"longitude":77.0266,"temp":30.3,"humidity":71,"rain":0.0,"pressure":975.4,"uv_index":7.8,"wind_gusts":26.3,"aqi":157,"pm10":120.1,"pm2_5":51.6,"no2":8.8,"co":392.0,"o3":225.0,"so2":31.4,"mosquito_risk":3,"arthritis_risk":5,"migraine_risk":7,"frizz_risk":1,"updated_at":"2026-07-02T13:48:47.874120+05:30"},{"city":"Noida","state":"Uttar Pradesh","latitude":28.5355,"longitude":77.391,"temp":32.5,"humidity":63,"rain":0.0,"pressure":978.3,"uv_index":7.45,"wind_gusts":24.8,"aqi":157,"pm10":120.1,"pm2_5":51.6,"no2":8.8,"co":414.0,"o3":225.0,"so2":31.4,"mosquito_risk":3,"arthritis_risk":5,"migraine_risk":7,"frizz_risk":1,"updated_at":"2026-07-02T13:48:47.874126+05:30"},{"city":"Ghaziabad","state":"Uttar Pradesh","latitude":28.6692,"longitude":77.4538,"temp":32.5,"humidity":62,"rain":0.0,"pressure":976.5,"uv_index":7.15,"wind_gusts":25.6,"aqi":112,"pm10":9.1,"pm2_5":8.9,"no2":3.8,"co":330.0,"o3":150.0,"so2":9.0,"mosquito_risk":3,"arthritis_risk":5,"migraine_risk":7,"frizz_risk":1,"updated_at":"2026-07-02T13:48:47.874133+05:30"},{"city":"Faridabad","state":"Haryana","latitude":28.4089,"longitude":77.3178,"temp":31.3,"humidity":67,"rain":0.0,"pressure":977.8,"uv_index":7.4,"wind_gusts":29.2,"aqi":157,"pm10":120.1,"pm2_5":51.6,"no2":8.8,"co":410.0,"o3":225.0,"so2":31.4,"mosquito_risk":3,"arthritis_risk":5,"migraine_risk":7,"frizz_risk":1,"updated_at":"2026-07-02T13:48:47.874139+05:30"},{"city":"Meerut","state":"Uttar Pradesh","latitude":28.9845,"longitude":77.7064,"temp":31.9,"humidity":63,"rain":0.0,"pressure":975.3,"uv_index":7.4,"wind_gusts":32.8,"aqi":112,"pm10":9.1,"pm2_5":8.9,"no2":3.8,"co":343.0,"o3":150.0,"so2":9.0,"mosquito_risk":3,"arthritis_risk":5,"migraine_risk":7,"frizz_risk":1,"updated_at":"2026-07-02T13:48:47.874146+05:30"},{"city":"Agra","state":"Uttar Pradesh","latitude":27.1767,"longitude":78.0081,"temp":32.2,"humidity":64,"rain":0.0,"pressure":981.1,"uv_index":7.4,"wind_gusts":27.0,"aqi":111,"pm10":111.8,"pm2_5":42.5,"no2":2.7,"co":280.0,"o3":169.0,"so2":8.9,"mosquito_risk":3,"arthritis_risk":5,"migraine_risk":7,"frizz_risk":1,"updated_at":"2026-07-02T13:48:47.874154+05:30"},{"city":"Varanasi","state":"Uttar Pradesh","latitude":25.3176,"longitude":82.9739,"temp":32.1,"humidity":69,"rain":0.1,"pressure":989.3,"uv_index":5.5,"wind_gusts":25.6,"aqi":87,"pm10":26.4,"pm2_5":26.3,"no2":3.2,"co":411.0,"o3":154.0,"so2":9.3,"mosquito_risk":6,"arthritis_risk":5,"migraine_risk":3,"frizz_risk":1,"updated_at":"2026-07-02T13:48:47.874161+05:30"},{"city":"Prayagraj","state":"Uttar Pradesh","latitude":25.4358,"longitude":81.8463,"temp":33.9,"humidity":62,"rain":0.0,"pressure":987.8,"uv_index":6.95,"wind_gusts":22.3,"aqi":87,"pm10":33.9,"pm2_5":33.4,"no2":3.1,"co":320.0,"o3":168.0,"so2":8.8,"mosquito_risk":3,"arthritis_risk":5,"migraine_risk":7,"frizz_risk":1,"updated_at":"2026-07-02T13:48:47.874167+05:30"},{"city":"Gorakhpur","state":"Uttar Pradesh","latitude":26.7606,"longitude":83.3732,"temp":34.5,"humidity":61,"rain":0.0,"pressure":989.5,"uv_index":7.6,"wind_gusts":30.6,"aqi":149,"pm10":23.0,"pm2_5":22.9,"no2":1.9,"co":320.0,"o3":136.0,"so2":3.0,"mosquito_risk":3,"arthritis_risk":5,"migraine_risk":7,"frizz_risk":1,"updated_at":"2026-07-02T13:48:47.874175+05:30"},{"city":"Bareilly","state":"Uttar Pradesh","latitude":28.367,"longitude":79.4304,"temp":30.6,"humidity":74,"rain":0.0,"pressure":980.4,"uv_index":7.3,"wind_gusts":29.2,"aqi":84,"pm10":24.9,"pm2_5":22.3,"no2":3.3,"co":278.0,"o3":159.0,"so2":11.3,"mosquito_risk":3,"arthritis_risk":5,"migraine_risk":7,"frizz_risk":1,"updated_at":"2026-07-02T13:48:47.874183+05:30"},{"city":"Aligarh","state":"Uttar Pradesh","latitude":27.8974,"longitude":78.088,"temp":32.6,"humidity":61,"rain":0.0,"pressure":978.9,"uv_index":6.3,"wind_gusts":29.5,"aqi":105,"pm10":52.3,"pm2_5":24.8,"no2":3.2,"co":299.0,"o3":167.0,"so2":12.5,"mosquito_risk":3,"arthritis_risk":5,"migraine_risk":7,"frizz_risk":1,"updated_at":"2026-07-02T13:48:47.874189+05:30"},{"city":"Moradabad","state":"Uttar Pradesh","latitude":28.8386,"longitude":78.7733,"temp":30.0,"humidity":78,"rain":0.0,"pressure":977.8,"uv_index":6.75,"wind_gusts":33.1,"aqi":96,"pm10":22.8,"pm2_5":19.8,"no2":3.5,"co":301.0,"o3":159.0,"so2":10.6,"mosquito_risk":7,"arthritis_risk":5,"migraine_risk":7,"frizz_risk":1,"updated_at":"2026-07-02T13:48:47.874195+05:30"},{"city":"Saharanpur","state":"Uttar Pradesh","latitude":29.9637,"longitude":77.546,"temp":31.0,"humidity":70,"rain":0.0,"pressure":969.8,"uv_index":2.6,"wind_gusts":29.9,"aqi":122,"pm10":22.7,"pm2_5":15.8,"no2":2.1,"co":339.0,"o3":138.0,"so2":2.1,"mosquito_risk":3,"arthritis_risk":5,"migraine_risk":3,"frizz_risk":1,"updated_at":"2026-07-02T13:48:47.874202+05:30"},{"city":"Jhansi","state":"Uttar Pradesh","latitude":25.4484,"longitude":78.5685,"temp":30.0,"humidity":79,"rain":0.2,"pressure":971.8,"uv_index":8.15,"wind_gusts":23.0,"aqi":98,"pm10":106.4,"pm2_5":37.5,"no2":1.3,"co":165.0,"o3":117.0,"so2":6.4,"mosquito_risk":10,"arthritis_risk":5,"migraine_risk":7,"frizz_risk":1,"updated_at":"2026-07-02T13:48:51.121619+05:30"},{"city":"Surat","state":"Gujarat","latitude":21.1702,"longitude":72.8311,"temp":27.1,"humidity":92,"rain":0.1,"pressure":1001.2,"uv_index":0.5,"wind_gusts":36.4,"aqi":59,"pm10":23.5,"pm2_5":18.5,"no2":22.8,"co":337.0,"o3":37.0,"so2":49.0,"mosquito_risk":10,"arthritis_risk":5,"migraine_risk":0,"frizz_risk":1,"updated_at":"2026-07-02T13:48:51.121653+05:30"},{"city":"Vadodara","state":"Gujarat","latitude":22.3072,"longitude":73.1812,"temp":34.2,"humidity":56,"rain":0.0,"pressure":997.7,"uv_index":7.1,"wind_gusts":36.7,"aqi":52,"pm10":31.5,"pm2_5":16.8,"no2":3.0,"co":182.0,"o3":85.0,"so2":3.9,"mosquito_risk":0,"arthritis_risk":5,"migraine_risk":7,"frizz_risk":1,"updated_at":"2026-07-02T13:48:51.121665+05:30"},{"city":"Rajkot","state":"Gujarat","latitude":22.3039,"longitude":70.8022,"temp":29.9,"humidity":73,"rain":0.1,"pressure":987.8,"uv_index":4.45,"wind_gusts":47.5,"aqi":62,"pm10":35.9,"pm2_5":15.1,"no2":1.8,"co":106.0,"o3":76.0,"so2":4.1,"mosquito_risk":10,"arthritis_risk":5,"migraine_risk":3,"frizz_risk":1,"updated_at":"2026-07-02T13:48:51.121676+05:30"},{"city":"Thane","state":"Maharashtra","latitude":19.2183,"longitude":72.9781,"temp":25.9,"humidity":97,"rain":0.7,"pressure":1003.8,"uv_index":0.95,"wind_gusts":35.6,"aqi":40,"pm10":23.7,"pm2_5":12.0,"no2":8.8,"co":242.0,"o3":53.0,"so2":6.8,"mosquito_risk":10,"arthritis_risk":5,"migraine_risk":0,"frizz_risk":1,"updated_at":"2026-07-02T13:48:51.121685+05:30"},{"city":"Nagpur","state":"Maharashtra","latitude":21.1458,"longitude":79.0882,"temp":26.2,"humidity":92,"rain":0.6,"pressure":967.2,"uv_index":0.95,"wind_gusts":26.6,"aqi":67,"pm10":10.5,"pm2_5":9.8,"no2":10.5,"co":231.0,"o3":78.0,"so2":13.3,"mosquito_risk":10,"arthritis_risk":5,"migraine_risk":3,"frizz_risk":1,"updated_at":"2026-07-02T13:48:51.121695+05:30"},{"city":"Nashik","state":"Maharashtra","latitude":19.9975,"longitude":73.7898,"temp":25.9,"humidity":81,"rain":0.1,"pressure":940.5,"uv_index":2.8,"wind_gusts":45.4,"aqi":20,"pm10":2.6,"pm2_5":2.1,"no2":7.2,"co":136.0,"o3":47.0,"so2":4.9,"mosquito_risk":10,"arthritis_risk":5,"migraine_risk":3,"frizz_risk":1,"updated_at":"2026-07-02T13:48:51.121704+05:30"},{"city":"Aurangabad","state":"Maharashtra","latitude":19.8762,"longitude":75.3433,"temp":28.4,"humidity":67,"rain":0.3,"pressure":939.6,"uv_index":4.2,"wind_gusts":35.6,"aqi":20,"pm10":5.0,"pm2_5":4.6,"no2":3.9,"co":122.0,"o3":63.0,"so2":6.1,"mosquito_risk":10,"arthritis_risk":5,"migraine_risk":3,"frizz_risk":1,"updated_at":"2026-07-02T13:48:51.121733+05:30"},{"city":"Solapur","state":"Maharashtra","latitude":17.6599,"longitude":75.9064,"temp":29.8,"humidity":58,"rain":0.0,"pressure":954.0,"uv_index":6.05,"wind_gusts":55.8,"aqi":23,"pm10":3.9,"pm2_5":2.5,"no2":1.7,"co":112.0,"o3":61.0,"so2":1.6,"mosquito_risk":4,"arthritis_risk":5,"migraine_risk":7,"frizz_risk":1,"updated_at":"2026-07-02T13:48:51.121744+05:30"},{"city":"Kolhapur","state":"Maharashtra","latitude":16.705,"longitude":74.2433,"temp":25.3,"humidity":82,"rain":0.0,"pressure":945.6,"uv_index":1.85,"wind_gusts":46.8,"aqi":19,"pm10":4.3,"pm2_5":3.5,"no2":3.6,"co":136.0,"o3":54.0,"so2":1.9,"mosquito_risk":7,"arthritis_risk":5,"migraine_risk":3,"frizz_risk":1,"updated_at":"2026-07-02T13:48:51.121753+05:30"},{"city":"Goa","state":"Goa","latitude":15.2993,"longitude":74.124,"temp":26.0,"humidity":96,"rain":0.0,"pressure":997.6,"uv_index":4.85,"wind_gusts":28.1,"aqi":40,"pm10":16.2,"pm2_5":9.1,"no2":1.3,"co":136.0,"o3":57.0,"so2":0.7,"mosquito_risk":7,"arthritis_risk":5,"migraine_risk":3,"frizz_risk":1,"updated_at":"2026-07-02T13:48:51.121762+05:30"},{"city":"Jodhpur","state":"Rajasthan","latitude":26.2389,"longitude":73.0243,"temp":39.2,"humidity":34,"rain":0.0,"pressure":976.0,"uv_index":8.45,"wind_gusts":29.5,"aqi":124,"pm10":174.2,"pm2_5":43.5,"no2":0.6,"co":113.0,"o3":87.0,"so2":2.2,"mosquito_risk":0,"arthritis_risk":5,"migraine_risk":10,"frizz_risk":1,"updated_at":"2026-07-02T13:48:51.121771+05:30"},{"city":"Udaipur","state":"Rajasthan","latitude":24.5854,"longitude":73.7125,"temp":32.0,"humidity":52,"rain":0.0,"pressure":941.1,"uv_index":7.95,"wind_gusts":31.7,"aqi":59,"pm10":43.9,"pm2_5":21.7,"no2":0.7,"co":126.0,"o3":91.0,"so2":2.6,"mosquito_risk":0,"arthritis_risk":5,"migraine_risk":7,"frizz_risk":1,"updated_at":"2026-07-02T13:48:51.121779+05:30"},{"city":"Kota","state":"Rajasthan","latitude":25.2138,"longitude":75.8648,"temp":30.6,"humidity":70,"rain":0.2,"pressure":972.8,"uv_index":7.6,"wind_gusts":32.8,"aqi":77,"pm10":43.5,"pm2_5":25.1,"no2":1.7,"co":178.0,"o3":110.0,"so2":6.6,"mosquito_risk":6,"arthritis_risk":5,"migraine_risk":7,"frizz_risk":1,"updated_at":"2026-07-02T13:48:51.121788+05:30"},{"city":"Bikaner","state":"Rajasthan","latitude":28.0229,"longitude":73.3119,"temp":41.3,"humidity":30,"rain":0.0,"pressure":974.1,"uv_index":8.45,"wind_gusts":29.9,"aqi":136,"pm10":244.0,"pm2_5":63.6,"no2":0.3,"co":116.0,"o3":82.0,"so2":2.2,"mosquito_risk":0,"arthritis_risk":5,"migraine_risk":10,"frizz_risk":1,"updated_at":"2026-07-02T13:48:51.121797+05:30"},{"city":"Ajmer","state":"Rajasthan","latitude":26.4499,"longitude":74.6399,"temp":35.0,"humidity":46,"rain":0.0,"pressure":949.2,"uv_index":8.2,"wind_gusts":50.0,"aqi":89,"pm10":109.7,"pm2_5":39.0,"no2":0.9,"co":123.0,"o3":92.0,"so2":2.6,"mosquito_risk":0,"arthritis_risk":5,"migraine_risk":7,"frizz_risk":1,"updated_at":"2026-07-02T13:48:51.121806+05:30"},{"city":"Gwalior","state":"Madhya Pradesh","latitude":26.2183,"longitude":78.1828,"temp":29.1,"humidity":83,"rain":0.1,"pressure":976.8,"uv_index":8.15,"wind_gusts":23.4,"aqi":103,"pm10":94.5,"pm2_5":36.3,"no2":1.0,"co":156.0,"o3":122.0,"so2":2.9,"mosquito_risk":10,"arthritis_risk":5,"migraine_risk":7,"frizz_risk":1,"updated_at":"2026-07-02T13:48:51.121814+05:30"},{"city":"Indore","state":"Madhya Pradesh","latitude":22.7196,"longitude":75.8577,"temp":30.4,"humidity":66,"rain":0.0,"pressure":942.1,"uv_index":5.35,"wind_gusts":30.6,"aqi":67,"pm10":37.6,"pm2_5":23.2,"no2":1.7,"co":274.0,"o3":102.0,"so2":3.9,"mosquito_risk":3,"arthritis_risk":5,"migraine_risk":3,"frizz_risk":1,"updated_at":"2026-07-02T13:48:51.121823+05:30"},{"city":"Bhopal","state":"Madhya Pradesh","latitude":23.2599,"longitude":77.4126,"temp":26.6,"humidity":88,"rain":0.3,"pressure":947.4,"uv_index":6.2,"wind_gusts":35.6,"aqi":77,"pm10":33.4,"pm2_5":21.9,"no2":2.2,"co":230.0,"o3":101.0,"so2":5.2,"mosquito_risk":10,"arthritis_risk":5,"migraine_risk":7,"frizz_risk":1,"updated_at":"2026-07-02T13:48:51.121832+05:30"},{"city":"Jabalpur","state":"Madhya Pradesh","latitude":23.1815,"longitude":79.9864,"temp":27.8,"humidity":84,"rain":0.1,"pressure":954.7,"uv_index":4.3,"wind_gusts":28.8,"aqi":68,"pm10":50.8,"pm2_5":22.4,"no2":1.4,"co":190.0,"o3":107.0,"so2":2.3,"mosquito_risk":10,"arthritis_risk":5,"migraine_risk":3,"frizz_risk":1,"updated_at":"2026-07-02T13:48:51.121841+05:30"},{"city":"Ujjain","state":"Madhya Pradesh","latitude":23.1765,"longitude":75.7885,"temp":30.2,"humidity":66,"rain":0.0,"pressure":947.4,"uv_index":8.15,"wind_gusts":28.4,"aqi":63,"pm10":35.3,"pm2_5":21.4,"no2":1.3,"co":168.0,"o3":97.0,"so2":4.6,"mosquito_risk":3,"arthritis_risk":5,"migraine_risk":7,"frizz_risk":1,"updated_at":"2026-07-02T13:48:51.121850+05:30"},{"city":"Visakhapatnam","state":"Andhra Pradesh","latitude":17.6868,"longitude":83.2185,"temp":31.0,"humidity":71,"rain":0.0,"pressure":995.0,"uv_index":2.65,"wind_gusts":39.2,"aqi":60,"pm10":11.8,"pm2_5":11.2,"no2":13.5,"co":271.0,"o3":80.0,"so2":34.0,"mosquito_risk":3,"arthritis_risk":5,"migraine_risk":3,"frizz_risk":1,"updated_at":"2026-07-02T13:48:51.121858+05:30"},{"city":"Vijayawada","state":"Andhra Pradesh","latitude":16.5062,"longitude":80.648,"temp":35.1,"humidity":46,"rain":0.0,"pressure":996.5,"uv_index":6.5,"wind_gusts":63.0,"aqi":38,"pm10":9.9,"pm2_5":7.3,"no2":3.1,"co":127.0,"o3":72.0,"so2":6.0,"mosquito_risk":0,"arthritis_risk":5,"migraine_risk":10,"frizz_risk":1,"updated_at":"2026-07-02T13:48:51.121867+05:30"},{"city":"Guntur","state":"Andhra Pradesh","latitude":16.3067,"longitude":80.4365,"temp":34.2,"humidity":48,"rain":0.0,"pressure":997.9,"uv_index":6.2,"wind_gusts":63.4,"aqi":32,"pm10":9.5,"pm2_5":6.6,"no2":2.8,"co":114.0,"o3":69.0,"so2":5.6,"mosquito_risk":0,"arthritis_risk":5,"migraine_risk":7,"frizz_risk":1,"updated_at":"2026-07-02T13:48:51.121875+05:30"},{"city":"Nellore","state":"Andhra Pradesh","latitude":14.4426,"longitude":79.9865,"temp":36.0,"humidity":42,"rain":0.0,"pressure":1000.6,"uv_index":8.4,"wind_gusts":52.2,"aqi":23,"pm10":10.9,"pm2_5":6.3,"no2":2.3,"co":106.0,"o3":78.0,"so2":4.9,"mosquito_risk":0,"arthritis_risk":5,"migraine_risk":7,"frizz_risk":1,"updated_at":"2026-07-02T13:48:51.121884+05:30"},{"city":"Kurnool","state":"Andhra Pradesh","latitude":15.8281,"longitude":78.0373,"temp":33.7,"humidity":49,"rain":0.0,"pressure":972.9,"uv_index":7.1,"wind_gusts":64.1,"aqi":25,"pm10":9.1,"pm2_5":5.2,"no2":0.9,"co":108.0,"o3":78.0,"so2":1.4,"mosquito_risk":0,"arthritis_risk":5,"migraine_risk":7,"frizz_risk":1,"updated_at":"2026-07-02T13:48:51.121894+05:30"},{"city":"Kakinada","state":"Andhra Pradesh","latitude":16.9891,"longitude":82.2475,"temp":31.5,"humidity":64,"rain":0.0,"pressure":1000.0,"uv_index":7.85,"wind_gusts":61.9,"aqi":42,"pm10":8.0,"pm2_5":7.5,"no2":4.5,"co":175.0,"o3":74.0,"so2":5.0,"mosquito_risk":3,"arthritis_risk":5,"migraine_risk":4,"frizz_risk":1,"updated_at":"2026-07-02T13:48:51.121903+05:30"},{"city":"Tirupati","state":"Andhra Pradesh","latitude":13.6288,"longitude":79.4192,"temp":37.5,"humidity":35,"rain":0.0,"pressure":986.3,"uv_index":7.55,"wind_gusts":48.2,"aqi":22,"pm10":5.8,"pm2_5":3.2,"no2":1.3,"co":109.0,"o3":66.0,"so2":1.0,"mosquito_risk":0,"arthritis_risk":5,"migraine_risk":10,"frizz_risk":1,"updated_at":"2026-07-02T13:48:51.121911+05:30"},{"city":"Warangal","state":"Telangana","latitude":17.9689,"longitude":79.5941,"temp":30.4,"humidity":61,"rain":0.0,"pressure":973.6,"uv_index":3.55,"wind_gusts":51.8,"aqi":30,"pm10":9.7,"pm2_5":7.2,"no2":4.4,"co":133.0,"o3":52.0,"so2":2.6,"mosquito_risk":3,"arthritis_risk":5,"migraine_risk":3,"frizz_risk":1,"updated_at":"2026-07-02T13:48:51.121920+05:30"},{"city":"Nizamabad","state":"Telangana","latitude":18.6725,"longitude":78.0941,"temp":29.7,"humidity":62,"rain":0.0,"pressure":960.2,"uv_index":1.25,"wind_gusts":39.2,"aqi":27,"pm10":9.3,"pm2_5":7.2,"no2":5.0,"co":127.0,"o3":57.0,"so2":6.1,"mosquito_risk":7,"arthritis_risk":5,"migraine_risk":3,"frizz_risk":1,"updated_at":"2026-07-02T13:48:51.121928+05:30"},{"city":"Mysore","state":"Karnataka","latitude":12.2958,"longitude":76.6396,"temp":27.5,"humidity":62,"rain":0.1,"pressure":927.8,"uv_index":8.35,"wind_gusts":57.2,"aqi":20,"pm10":1.8,"pm2_5":1.6,"no2":3.0,"co":116.0,"o3":58.0,"so2":1.4,"mosquito_risk":10,"arthritis_risk":5,"migraine_risk":7,"frizz_risk":1,"updated_at":"2026-07-02T13:48:51.121937+05:30"},{"city":"Mangalore","state":"Karnataka","latitude":12.9141,"longitude":74.856,"temp":26.8,"humidity":85,"rain":0.1,"pressure":1007.5,"uv_index":5.1,"wind_gusts":39.6,"aqi":24,"pm10":15.0,"pm2_5":7.4,"no2":1.3,"co":105.0,"o3":59.0,"so2":1.3,"mosquito_risk":10,"arthritis_risk":5,"migraine_risk":0,"frizz_risk":1,"updated_at":"2026-07-02T13:48:51.121945+05:30"},{"city":"Hubli-Dharwad","state":"Karnataka","latitude":15.3647,"longitude":75.124,"temp":24.8,"humidity":83,"rain":0.2,"pressure":939.3,"uv_index":7.1,"wind_gusts":54.0,"aqi":23,"pm10":1.6,"pm2_5":1.2,"no2":1.5,"co":109.0,"o3":56.0,"so2":0.8,"mosquito_risk":6,"arthritis_risk":5,"migraine_risk":7,"frizz_risk":1,"updated_at":"2026-07-02T13:48:51.121953+05:30"},{"city":"Belgaum","state":"Karnataka","latitude":15.8497,"longitude":74.4977,"temp":24.0,"humidity":82,"rain":0.1,"pressure":924.1,"uv_index":6.95,"wind_gusts":46.8,"aqi":20,"pm10":2.3,"pm2_5":1.6,"no2":2.9,"co":107.0,"o3":51.0,"so2":1.4,"mosquito_risk":6,"arthritis_risk":5,"migraine_risk":7,"frizz_risk":1,"updated_at":"2026-07-02T13:48:54.396757+05:30"},{"city":"Coimbatore","state":"Tamil Nadu","latitude":11.0168,"longitude":76.9558,"temp":30.7,"humidity":53,"rain":0.0,"pressure":960.6,"uv_index":8.45,"wind_gusts":61.6,"aqi":22,"pm10":3.0,"pm2_5":2.3,"no2":1.4,"co":124.0,"o3":63.0,"so2":1.5,"mosquito_risk":0,"arthritis_risk":5,"migraine_risk":7,"frizz_risk":1,"updated_at":"2026-07-02T13:48:54.396793+05:30"},{"city":"Madurai","state":"Tamil Nadu","latitude":9.9252,"longitude":78.1198,"temp":38.3,"humidity":31,"rain":0.1,"pressure":989.4,"uv_index":8.65,"wind_gusts":37.1,"aqi":49,"pm10":11.9,"pm2_5":7.3,"no2":1.6,"co":127.0,"o3":94.0,"so2":1.9,"mosquito_risk":3,"arthritis_risk":5,"migraine_risk":10,"frizz_risk":1,"updated_at":"2026-07-02T13:48:54.396806+05:30"},{"city":"Trichy","state":"Tamil Nadu","latitude":10.7905,"longitude":78.7047,"temp":36.5,"humidity":37,"rain":0.0,"pressure":996.4,"uv_index":8.8,"wind_gusts":69.1,"aqi":26,"pm10":6.2,"pm2_5":4.0,"no2":1.2,"co":107.0,"o3":77.0,"so2":1.6,"mosquito_risk":0,"arthritis_risk":5,"migraine_risk":10,"frizz_risk":1,"updated_at":"2026-07-02T13:48:54.396816+05:30"},{"city":"Salem","state":"Tamil Nadu","latitude":11.6643,"longitude":78.146,"temp":32.4,"humidity":50,"rain":0.0,"pressure":975.1,"uv_index":8.65,"wind_gusts":33.5,"aqi":42,"pm10":7.2,"pm2_5":6.3,"no2":2.5,"co":212.0,"o3":98.0,"so2":5.7,"mosquito_risk":0,"arthritis_risk":5,"migraine_risk":7,"frizz_risk":1,"updated_at":"2026-07-02T13:48:54.396825+05:30"},{"city":"Tirunelveli","state":"Tamil Nadu","latitude":8.7139,"longitude":77.7567,"temp":37.4,"humidity":36,"rain":0.0,"pressure":1000.5,"uv_index":8.65,"wind_gusts":49.7,"aqi":31,"pm10":9.5,"pm2_5":6.0,"no2":1.3,"co":108.0,"o3":75.0,"so2":1.4,"mosquito_risk":0,"arthritis_risk":5,"migraine_risk":7,"frizz_risk":1,"updated_at":"2026-07-02T13:48:54.396836+05:30"},{"city":"Vellore","state":"Tamil Nadu","latitude":12.9165,"longitude":79.1325,"temp":35.6,"humidity":40,"rain":0.0,"pressure":980.1,"uv_index":7.65,"wind_gusts":50.8,"aqi":22,"pm10":5.4,"pm2_5":3.9,"no2":2.6,"co":161.0,"o3":73.0,"so2":2.5,"mosquito_risk":0,"arthritis_risk":5,"migraine_risk":10,"frizz_risk":1,"updated_at":"2026-07-02T13:48:54.396845+05:30"},{"city":"Erode","state":"Tamil Nadu","latitude":11.341,"longitude":77.7172,"temp":37.0,"humidity":33,"rain":0.0,"pressure":986.3,"uv_index":8.65,"wind_gusts":38.9,"aqi":34,"pm10":5.7,"pm2_5":4.3,"no2":1.7,"co":168.0,"o3":84.0,"so2":1.8,"mosquito_risk":0,"arthritis_risk":5,"migraine_risk":10,"frizz_risk":1,"updated_at":"2026-07-02T13:48:54.396854+05:30"},{"city":"Kochi","state":"Kerala","latitude":9.9312,"longitude":76.2673,"temp":28.8,"humidity":78,"rain":0.0,"pressure":1009.1,"uv_index":8.5,"wind_gusts":42.8,"aqi":53,"pm10":11.6,"pm2_5":7.0,"no2":1.8,"co":110.0,"o3":60.0,"so2":1.8,"mosquito_risk":7,"arthritis_risk":0,"migraine_risk":4,"frizz_risk":1,"updated_at":"2026-07-02T13:48:54.396863+05:30"},{"city":"Thiruvananthapuram","state":"Kerala","latitude":8.5241,"longitude":76.9366,"temp":28.4,"humidity":79,"rain":0.0,"pressure":1008.3,"uv_index":8.4,"wind_gusts":47.2,"aqi":47,"pm10":15.5,"pm2_5":8.7,"no2":1.0,"co":99.0,"o3":67.0,"so2":1.2,"mosquito_risk":7,"arthritis_risk":0,"migraine_risk":4,"frizz_risk":1,"updated_at":"2026-07-02T13:48:54.396872+05:30"},{"city":"Kozhikode","state":"Kerala","latitude":11.2588,"longitude":75.7804,"temp":26.4,"humidity":89,"rain":0.1,"pressure":1009.0,"uv_index":8.35,"wind_gusts":40.3,"aqi":25,"pm10":8.8,"pm2_5":4.6,"no2":0.6,"co":128.0,"o3":55.0,"so2":0.5,"mosquito_risk":10,"arthritis_risk":0,"migraine_risk":4,"frizz_risk":1,"updated_at":"2026-07-02T13:48:54.396881+05:30"},{"city":"Thrissur","state":"Kerala","latitude":10.5276,"longitude":76.2144,"temp":28.7,"humidity":76,"rain":0.2,"pressure":1007.6,"uv_index":8.55,"wind_gusts":42.1,"aqi":50,"pm10":9.1,"pm2_5":5.9,"no2":0.9,"co":109.0,"o3":56.0,"so2":1.0,"mosquito_risk":10,"arthritis_risk":5,"migraine_risk":4,"frizz_risk":1,"updated_at":"2026-07-02T13:48:54.396891+05:30"},{"city":"Kannur","state":"Kerala","latitude":11.8745,"longitude":75.3704,"temp":25.9,"humidity":93,"rain":0.1,"pressure":1008.3,"uv_index":8.55,"wind_gusts":40.0,"aqi":24,"pm10":11.2,"pm2_5":5.9,"no2":1.8,"co":101.0,"o3":55.0,"so2":0.9,"mosquito_risk":10,"arthritis_risk":0,"migraine_risk":4,"frizz_risk":1,"updated_at":"2026-07-02T13:48:54.396900+05:30"},{"city":"Patna","state":"Bihar","latitude":25.5941,"longitude":85.1376,"temp":32.9,"humidity":65,"rain":0.0,"pressure":992.5,"uv_index":6.25,"wind_gusts":32.0,"aqi":123,"pm10":35.2,"pm2_5":34.6,"no2":3.4,"co":278.0,"o3":157.0,"so2":11.7,"mosquito_risk":3,"arthritis_risk":5,"migraine_risk":7,"frizz_risk":1,"updated_at":"2026-07-02T13:48:54.396908+05:30"},{"city":"Gaya","state":"Bihar","latitude":24.7914,"longitude":85.0002,"temp":30.6,"humidity":77,"rain":0.1,"pressure":985.7,"uv_index":6.45,"wind_gusts":31.0,"aqi":101,"pm10":29.5,"pm2_5":28.8,"no2":2.2,"co":349.0,"o3":143.0,"so2":11.5,"mosquito_risk":6,"arthritis_risk":5,"migraine_risk":7,"frizz_risk":1,"updated_at":"2026-07-02T13:48:54.396917+05:30"},{"city":"Muzaffarpur","state":"Bihar","latitude":26.1209,"longitude":85.3647,"temp":32.6,"humidity":69,"rain":0.0,"pressure":992.8,"uv_index":6.55,"wind_gusts":34.6,"aqi":119,"pm10":34.6,"pm2_5":34.1,"no2":3.0,"co":267.0,"o3":154.0,"so2":8.5,"mosquito_risk":3,"arthritis_risk":5,"migraine_risk":7,"frizz_risk":1,"updated_at":"2026-07-02T13:48:54.396925+05:30"},{"city":"Bhagalpur","state":"Bihar","latitude":25.2425,"longitude":87.0117,"temp":33.2,"humidity":64,"rain":0.1,"pressure":993.1,"uv_index":6.0,"wind_gusts":32.0,"aqi":104,"pm10":21.2,"pm2_5":20.3,"no2":4.0,"co":232.0,"o3":121.0,"so2":8.5,"mosquito_risk":6,"arthritis_risk":5,"migraine_risk":3,"frizz_risk":1,"updated_at":"2026-07-02T13:48:54.396934+05:30"},{"city":"Ranchi","state":"Jharkhand","latitude":23.3441,"longitude":85.3096,"temp":25.9,"humidity":87,"rain":0.1,"pressure":930.5,"uv_index":6.8,"wind_gusts":32.0,"aqi":83,"pm10":26.5,"pm2_5":26.3,"no2":7.5,"co":835.0,"o3":134.0,"so2":27.9,"mosquito_risk":10,"arthritis_risk":5,"migraine_risk":7,"frizz_risk":1,"updated_at":"2026-07-02T13:48:54.396943+05:30"},{"city":"Jamshedpur","state":"Jharkhand","latitude":22.8046,"longitude":86.2029,"temp":31.0,"humidity":73,"rain":0.0,"pressure":982.0,"uv_index":7.1,"wind_gusts":29.2,"aqi":105,"pm10":12.7,"pm2_5":12.5,"no2":2.3,"co":291.0,"o3":107.0,"so2":4.0,"mosquito_risk":3,"arthritis_risk":5,"migraine_risk":7,"frizz_risk":1,"updated_at":"2026-07-02T13:48:54.396951+05:30"},{"city":"Dhanbad","state":"Jharkhand","latitude":23.7957,"longitude":86.4304,"temp":31.4,"humidity":68,"rain":0.1,"pressure":971.5,"uv_index":7.8,"wind_gusts":34.9,"aqi":147,"pm10":23.0,"pm2_5":22.7,"no2":14.9,"co":272.0,"o3":112.0,"so2":49.9,"mosquito_risk":6,"arthritis_risk":5,"migraine_risk":7,"frizz_risk":1,"updated_at":"2026-07-02T13:48:54.396960+05:30"},{"city":"Bokaro","state":"Jharkhand","latitude":23.6693,"longitude":86.1511,"temp":29.9,"humidity":75,"rain":0.0,"pressure":975.3,"uv_index":7.0,"wind_gusts":34.6,"aqi":145,"pm10":25.9,"pm2_5":25.6,"no2":15.6,"co":307.0,"o3":115.0,"so2":55.0,"mosquito_risk":7,"arthritis_risk":5,"migraine_risk":7,"frizz_risk":1,"updated_at":"2026-07-02T13:48:54.396968+05:30"},{"city":"Bhubaneswar","state":"Odisha","latitude":20.2961,"longitude":85.8245,"temp":28.1,"humidity":87,"rain":0.4,"pressure":993.4,"uv_index":8.55,"wind_gusts":28.1,"aqi":61,"pm10":9.1,"pm2_5":9.0,"no2":3.7,"co":238.0,"o3":118.0,"so2":7.0,"mosquito_risk":10,"arthritis_risk":5,"migraine_risk":7,"frizz_risk":1,"updated_at":"2026-07-02T13:48:54.396977+05:30"},{"city":"Cuttack","state":"Odisha","latitude":20.4625,"longitude":85.8828,"temp":28.4,"humidity":88,"rain":0.3,"pressure":995.2,"uv_index":7.7,"wind_gusts":30.2,"aqi":61,"pm10":9.1,"pm2_5":9.0,"no2":3.7,"co":233.0,"o3":118.0,"so2":7.0,"mosquito_risk":10,"arthritis_risk":5,"migraine_risk":7,"frizz_risk":1,"updated_at":"2026-07-02T13:48:54.396985+05:30"},{"city":"Rourkela","state":"Odisha","latitude":22.2604,"longitude":84.8536,"temp":31.0,"humidity":70,"rain":0.2,"pressure":975.9,"uv_index":6.95,"wind_gusts":30.2,"aqi":112,"pm10":38.5,"pm2_5":37.7,"no2":2.4,"co":597.0,"o3":159.0,"so2":15.2,"mosquito_risk":6,"arthritis_risk":5,"migraine_risk":7,"frizz_risk":1,"updated_at":"2026-07-02T13:48:54.396994+05:30"},{"city":"Raipur","state":"Chhattisgarh","latitude":21.2514,"longitude":81.6296,"temp":32.0,"humidity":60,"rain":0.0,"pressure":966.3,"uv_index":4.55,"wind_gusts":33.5,"aqi":83,"pm10":24.7,"pm2_5":20.2,"no2":15.3,"co":182.0,"o3":103.0,"so2":41.0,"mosquito_risk":0,"arthritis_risk":5,"migraine_risk":3,"frizz_risk":1,"updated_at":"2026-07-02T13:48:54.397003+05:30"},{"city":"Bhilai","state":"Chhattisgarh","latitude":21.1938,"longitude":81.3509,"temp":31.4,"humidity":63,"rain":0.0,"pressure":967.1,"uv_index":4.7,"wind_gusts":31.3,"aqi":73,"pm10":20.4,"pm2_5":16.2,"no2":16.1,"co":190.0,"o3":95.0,"so2":40.9,"mosquito_risk":3,"arthritis_risk":5,"migraine_risk":3,"frizz_risk":1,"updated_at":"2026-07-02T13:48:54.397011+05:30"},{"city":"Guwahati","state":"Assam","latitude":26.1158,"longitude":91.7086,"temp":32.9,"humidity":70,"rain":0.0,"pressure":993.7,"uv_index":7.8,"wind_gusts":22.7,"aqi":37,"pm10":4.8,"pm2_5":4.8,"no2":1.5,"co":216.0,"o3":99.0,"so2":1.3,"mosquito_risk":3,"arthritis_risk":5,"migraine_risk":7,"frizz_risk":1,"updated_at":"2026-07-02T13:48:54.397019+05:30"},{"city":"Agartala","state":"Tripura","latitude":23.8315,"longitude":91.2868,"temp":32.9,"humidity":67,"rain":0.0,"pressure":998.0,"uv_index":7.9,"wind_gusts":27.7,"aqi":60,"pm10":9.5,"pm2_5":8.8,"no2":2.2,"co":174.0,"o3":127.0,"so2":1.7,"mosquito_risk":3,"arthritis_risk":5,"migraine_risk":7,"frizz_risk":1,"updated_at":"2026-07-02T13:48:54.397028+05:30"},{"city":"Shillong","state":"Meghalaya","latitude":25.5788,"longitude":91.8933,"temp":24.2,"humidity":85,"rain":0.1,"pressure":853.9,"uv_index":8.55,"wind_gusts":24.5,"aqi":35,"pm10":5.8,"pm2_5":5.6,"no2":1.2,"co":163.0,"o3":86.0,"so2":1.6,"mosquito_risk":6,"arthritis_risk":5,"migraine_risk":7,"frizz_risk":1,"updated_at":"2026-07-02T13:48:54.397036+05:30"},{"city":"Imphal","state":"Manipur","latitude":24.817,"longitude":93.9368,"temp":29.8,"humidity":64,"rain":0.0,"pressure":917.9,"uv_index":8.85,"wind_gusts":19.1,"aqi":50,"pm10":4.9,"pm2_5":4.7,"no2":1.4,"co":180.0,"o3":78.0,"so2":1.0,"mosquito_risk":7,"arthritis_risk":5,"migraine_risk":7,"frizz_risk":1,"updated_at":"2026-07-02T13:48:54.397044+05:30"},{"city":"Aizawl","state":"Mizoram","latitude":23.7271,"longitude":92.7176,"temp":24.9,"humidity":80,"rain":0.3,"pressure":887.3,"uv_index":8.9,"wind_gusts":22.3,"aqi":46,"pm10":5.4,"pm2_5":5.0,"no2":0.8,"co":131.0,"o3":80.0,"so2":0.6,"mosquito_risk":6,"arthritis_risk":5,"migraine_risk":7,"frizz_risk":1,"updated_at":"2026-07-02T13:48:54.397053+05:30"},{"city":"Kohima","state":"Nagaland","latitude":25.6701,"longitude":94.1077,"temp":25.1,"humidity":83,"rain":0.0,"pressure":852.0,"uv_index":8.1,"wind_gusts":24.8,"aqi":35,"pm10":5.3,"pm2_5":5.1,"no2":1.2,"co":161.0,"o3":76.0,"so2":0.5,"mosquito_risk":7,"arthritis_risk":5,"migraine_risk":7,"frizz_risk":1,"updated_at":"2026-07-02T13:48:54.397061+05:30"},{"city":"Gangtok","state":"Sikkim","latitude":27.3314,"longitude":88.6138,"temp":22.5,"humidity":80,"rain":0.1,"pressure":835.5,"uv_index":8.9,"wind_gusts":31.0,"aqi":56,"pm10":2.7,"pm2_5":2.7,"no2":2.5,"co":208.0,"o3":102.0,"so2":0.7,"mosquito_risk":6,"arthritis_risk":5,"migraine_risk":7,"frizz_risk":1,"updated_at":"2026-07-02T13:48:54.397069+05:30"},{"city":"Siliguri","state":"West Bengal","latitude":26.7271,"longitude":88.3953,"temp":30.1,"humidity":79,"rain":0.1,"pressure":986.2,"uv_index":8.3,"wind_gusts":27.4,"aqi":90,"pm10":12.4,"pm2_5":12.3,"no2":1.9,"co":252.0,"o3":122.0,"so2":1.8,"mosquito_risk":6,"arthritis_risk":5,"migraine_risk":7,"frizz_risk":1,"updated_at":"2026-07-02T13:48:57.698777+05:30"},{"city":"Durgapur","state":"West Bengal","latitude":23.5204,"longitude":87.3119,"temp":32.1,"humidity":71,"rain":0.5,"pressure":986.1,"uv_index":7.3,"wind_gusts":32.0,"aqi":139,"pm10":18.6,"pm2_5":18.3,"no2":11.0,"co":263.0,"o3":109.0,"so2":26.7,"mosquito_risk":6,"arthritis_risk":5,"migraine_risk":7,"frizz_risk":1,"updated_at":"2026-07-02T13:48:57.698811+05:30"},{"city":"Asansol","state":"West Bengal","latitude":23.6739,"longitude":86.9524,"temp":32.5,"humidity":65,"rain":0.1,"pressure":984.7,"uv_index":7.05,"wind_gusts":34.9,"aqi":129,"pm10":21.9,"pm2_5":21.7,"no2":11.6,"co":259.0,"o3":118.0,"so2":30.5,"mosquito_risk":6,"arthritis_risk":5,"migraine_risk":7,"frizz_risk":1,"updated_at":"2026-07-02T13:48:57.698824+05:30"},{"city":"Pondicherry","state":"Puducherry","latitude":11.9139,"longitude":79.8145,"temp":34.7,"humidity":47,"rain":0.0,"pressure":1004.4,"uv_index":8.45,"wind_gusts":28.4,"aqi":55,"pm10":20.7,"pm2_5":16.6,"no2":4.1,"co":204.0,"o3":120.0,"so2":9.9,"mosquito_risk":0,"arthritis_risk":5,"migraine_risk":4,"frizz_risk":1,"updated_at":"2026-07-02T13:48:57.698834+05:30"},{"city":"Port Blair","state":"Andaman and Nicobar Islands","latitude":11.6234,"longitude":92.7265,"temp":29.7,"humidity":77,"rain":0.0,"pressure":1004.1,"uv_index":3.4,"wind_gusts":48.6,"aqi":33,"pm10":17.7,"pm2_5":9.8,"no2":0.2,"co":96.0,"o3":63.0,"so2":0.5,"mosquito_risk":7,"arthritis_risk":5,"migraine_risk":0,"frizz_risk":1,"updated_at":"2026-07-02T13:48:57.698845+05:30"},{"city":"Haridwar","state":"Uttarakhand","latitude":29.9457,"longitude":78.1642,"temp":31.9,"humidity":66,"rain":0.0,"pressure":968.4,"uv_index":5.3,"wind_gusts":27.4,"aqi":90,"pm10":22.6,"pm2_5":15.1,"no2":2.1,"co":309.0,"o3":138.0,"so2":2.5,"mosquito_risk":3,"arthritis_risk":5,"migraine_risk":3,"frizz_risk":1,"updated_at":"2026-07-02T13:48:57.698854+05:30"},{"city":"Rishikesh","state":"Uttarakhand","latitude":30.0869,"longitude":78.2676,"temp":31.1,"humidity":68,"rain":0.1,"pressure":961.2,"uv_index":4.95,"wind_gusts":22.7,"aqi":58,"pm10":15.7,"pm2_5":10.4,"no2":1.3,"co":238.0,"o3":124.0,"so2":1.2,"mosquito_risk":6,"arthritis_risk":5,"migraine_risk":3,"frizz_risk":1,"updated_at":"2026-07-02T13:48:57.698863+05:30"},{"city":"Nainital","state":"Uttarakhand","latitude":29.3919,"longitude":79.4542,"temp":19.2,"humidity":92,"rain":0.1,"pressure":803.7,"uv_index":7.05,"wind_gusts":24.1,"aqi":70,"pm10":24.0,"pm2_5":20.8,"no2":1.9,"co":284.0,"o3":131.0,"so2":2.4,"mosquito_risk":6,"arthritis_risk":10,"migraine_risk":7,"frizz_risk":1,"updated_at":"2026-07-02T13:48:57.698872+05:30"},{"city":"Mussoorie","state":"Uttarakhand","latitude":30.4599,"longitude":78.0664,"temp":22.5,"humidity":76,"rain":0.0,"pressure":802.5,"uv_index":4.45,"wind_gusts":25.6,"aqi":68,"pm10":14.3,"pm2_5":9.8,"no2":2.4,"co":238.0,"o3":143.0,"so2":2.7,"mosquito_risk":3,"arthritis_risk":5,"migraine_risk":3,"frizz_risk":1,"updated_at":"2026-07-02T13:48:57.698881+05:30"},{"city":"Dharamshala","state":"Himachal Pradesh","latitude":32.219,"longitude":76.3234,"temp":26.3,"humidity":62,"rain":0.0,"pressure":866.9,"uv_index":7.25,"wind_gusts":29.9,"aqi":48,"pm10":9.6,"pm2_5":4.8,"no2":1.0,"co":196.0,"o3":132.0,"so2":1.3,"mosquito_risk":7,"arthritis_risk":5,"migraine_risk":7,"frizz_risk":1,"updated_at":"2026-07-02T13:48:57.698891+05:30"},{"city":"Dalhousie","state":"Himachal Pradesh","latitude":32.5387,"longitude":75.971,"temp":22.5,"humidity":74,"rain":0.0,"pressure":804.1,"uv_index":3.4,"wind_gusts":23.8,"aqi":85,"pm10":30.2,"pm2_5":14.2,"no2":1.5,"co":213.0,"o3":163.0,"so2":2.9,"mosquito_risk":3,"arthritis_risk":5,"migraine_risk":3,"frizz_risk":1,"updated_at":"2026-07-02T13:48:57.698900+05:30"},{"city":"Patiala","state":"Punjab","latitude":30.3398,"longitude":76.3869,"temp":31.6,"humidity":69,"rain":0.0,"pressure":972.0,"uv_index":7.2,"wind_gusts":29.2,"aqi":133,"pm10":52.6,"pm2_5":31.2,"no2":2.3,"co":232.0,"o3":168.0,"so2":9.6,"mosquito_risk":3,"arthritis_risk":5,"migraine_risk":7,"frizz_risk":1,"updated_at":"2026-07-02T13:48:57.698908+05:30"},{"city":"Bhatinda","state":"Punjab","latitude":30.211,"longitude":74.9455,"temp":36.2,"humidity":47,"rain":0.0,"pressure":976.5,"uv_index":7.65,"wind_gusts":46.4,"aqi":601,"pm10":364.1,"pm2_5":82.7,"no2":2.3,"co":225.0,"o3":151.0,"so2":10.6,"mosquito_risk":0,"arthritis_risk":5,"migraine_risk":10,"frizz_risk":1,"updated_at":"2026-07-02T13:48:57.698917+05:30"},{"city":"Rohtak","state":"Haryana","latitude":28.8955,"longitude":76.6066,"temp":33.3,"humidity":60,"rain":0.0,"pressure":975.1,"uv_index":7.55,"wind_gusts":31.3,"aqi":178,"pm10":97.1,"pm2_5":42.0,"no2":5.6,"co":245.0,"o3":180.0,"so2":16.6,"mosquito_risk":0,"arthritis_risk":5,"migraine_risk":7,"frizz_risk":1,"updated_at":"2026-07-02T13:48:57.698926+05:30"},{"city":"Panipat","state":"Haryana","latitude":29.3909,"longitude":76.9635,"temp":32.4,"humidity":62,"rain":0.0,"pressure":974.1,"uv_index":6.75,"wind_gusts":24.8,"aqi":155,"pm10":67.3,"pm2_5":32.6,"no2":4.6,"co":312.0,"o3":170.0,"so2":17.9,"mosquito_risk":3,"arthritis_risk":5,"migraine_risk":7,"frizz_risk":1,"updated_at":"2026-07-02T13:48:57.698934+05:30"},{"city":"Mathura","state":"Uttar Pradesh","latitude":27.4924,"longitude":77.6737,"temp":33.5,"humidity":59,"rain":0.1,"pressure":980.0,"uv_index":7.85,"wind_gusts":24.5,"aqi":118,"pm10":115.9,"pm2_5":46.2,"no2":2.7,"co":297.0,"o3":165.0,"so2":7.6,"mosquito_risk":3,"arthritis_risk":5,"migraine_risk":7,"frizz_risk":1,"updated_at":"2026-07-02T13:48:57.698943+05:30"},{"city":"Vrindavan","state":"Uttar Pradesh","latitude":27.5823,"longitude":77.7027,"temp":33.7,"humidity":59,"rain":0.1,"pressure":980.4,"uv_index":7.8,"wind_gusts":21.2,"aqi":118,"pm10":115.9,"pm2_5":46.2,"no2":2.7,"co":297.0,"o3":165.0,"so2":7.6,"mosquito_risk":3,"arthritis_risk":5,"migraine_risk":7,"frizz_risk":1,"updated_at":"2026-07-02T13:48:57.698952+05:30"},{"city":"Ayodhya","state":"Uttar Pradesh","latitude":26.7922,"longitude":82.1998,"temp":33.3,"humidity":66,"rain":0.0,"pressure":987.7,"uv_index":6.85,"wind_gusts":26.6,"aqi":133,"pm10":31.3,"pm2_5":30.9,"no2":2.1,"co":345.0,"o3":150.0,"so2":5.8,"mosquito_risk":3,"arthritis_risk":5,"migraine_risk":7,"frizz_risk":1,"updated_at":"2026-07-02T13:48:57.698960+05:30"},{"city":"Ratlam","state":"Madhya Pradesh","latitude":23.3315,"longitude":75.0367,"temp":28.7,"humidity":76,"rain":0.2,"pressure":948.3,"uv_index":6.7,"wind_gusts":31.7,"aqi":62,"pm10":37.8,"pm2_5":22.3,"no2":1.2,"co":138.0,"o3":94.0,"so2":4.3,"mosquito_risk":10,"arthritis_risk":5,"migraine_risk":7,"frizz_risk":1,"updated_at":"2026-07-02T13:48:57.698969+05:30"},{"city":"Sagar","state":"Madhya Pradesh","latitude":23.8388,"longitude":78.7378,"temp":30.5,"humidity":68,"rain":0.0,"pressure":944.1,"uv_index":1.45,"wind_gusts":29.5,"aqi":75,"pm10":71.7,"pm2_5":29.6,"no2":1.9,"co":165.0,"o3":105.0,"so2":4.2,"mosquito_risk":3,"arthritis_risk":5,"migraine_risk":3,"frizz_risk":1,"updated_at":"2026-07-02T13:48:57.698978+05:30"},{"city":"Satna","state":"Madhya Pradesh","latitude":24.6005,"longitude":80.8322,"temp":30.9,"humidity":71,"rain":0.1,"pressure":963.9,"uv_index":8.2,"wind_gusts":30.6,"aqi":82,"pm10":38.2,"pm2_5":16.9,"no2":1.7,"co":186.0,"o3":117.0,"so2":1.7,"mosquito_risk":6,"arthritis_risk":5,"migraine_risk":7,"frizz_risk":1,"updated_at":"2026-07-02T13:48:57.698986+05:30"},{"city":"Akola","state":"Maharashtra","latitude":20.7002,"longitude":77.0082,"temp":26.8,"humidity":90,"rain":0.2,"pressure":969.8,"uv_index":5.35,"wind_gusts":33.1,"aqi":33,"pm10":5.4,"pm2_5":4.5,"no2":4.1,"co":123.0,"o3":66.0,"so2":5.7,"mosquito_risk":10,"arthritis_risk":5,"migraine_risk":3,"frizz_risk":1,"updated_at":"2026-07-02T13:48:57.698996+05:30"},{"city":"Amravati","state":"Maharashtra","latitude":20.9374,"longitude":77.7796,"temp":26.6,"humidity":88,"rain":0.1,"pressure":962.0,"uv_index":3.7,"wind_gusts":37.8,"aqi":39,"pm10":5.5,"pm2_5":4.6,"no2":4.9,"co":155.0,"o3":65.0,"so2":6.7,"mosquito_risk":10,"arthritis_risk":5,"migraine_risk":3,"frizz_risk":1,"updated_at":"2026-07-02T13:48:57.699005+05:30"},{"city":"Latur","state":"Maharashtra","latitude":18.4088,"longitude":76.5604,"temp":28.7,"humidity":59,"rain":0.0,"pressure":936.2,"uv_index":1.15,"wind_gusts":49.0,"aqi":23,"pm10":7.9,"pm2_5":3.9,"no2":0.8,"co":130.0,"o3":65.0,"so2":1.2,"mosquito_risk":4,"arthritis_risk":5,"migraine_risk":3,"frizz_risk":1,"updated_at":"2026-07-02T13:48:57.699014+05:30"},{"city":"Nanded","state":"Maharashtra","latitude":19.1383,"longitude":77.3091,"temp":30.9,"humidity":60,"rain":0.1,"pressure":963.8,"uv_index":2.0,"wind_gusts":41.8,"aqi":23,"pm10":6.2,"pm2_5":4.7,"no2":3.8,"co":124.0,"o3":55.0,"so2":2.4,"mosquito_risk":3,"arthritis_risk":5,"migraine_risk":3,"frizz_risk":1,"updated_at":"2026-07-02T13:48:57.699023+05:30"},{"city":"Gulbarga","state":"Karnataka","latitude":17.3297,"longitude":76.8343,"temp":30.1,"humidity":58,"rain":0.0,"pressure":955.0,"uv_index":4.7,"wind_gusts":57.6,"aqi":23,"pm10":9.7,"pm2_5":5.0,"no2":1.3,"co":117.0,"o3":71.0,"so2":1.8,"mosquito_risk":0,"arthritis_risk":5,"migraine_risk":3,"frizz_risk":1,"updated_at":"2026-07-02T13:48:57.699030+05:30"},{"city":"Bidar","state":"Karnataka","latitude":17.9104,"longitude":77.5199,"temp":30.1,"humidity":58,"rain":0.0,"pressure":932.0,"uv_index":1.85,"wind_gusts":50.4,"aqi":21,"pm10":11.9,"pm2_5":6.6,"no2":1.2,"co":132.0,"o3":73.0,"so2":1.4,"mosquito_risk":0,"arthritis_risk":5,"migraine_risk":3,"frizz_risk":1,"updated_at":"2026-07-02T13:48:57.699038+05:30"},{"city":"Hospet","state":"Karnataka","latitude":15.2689,"longitude":76.3909,"temp":30.4,"humidity":55,"rain":0.0,"pressure":953.6,"uv_index":5.45,"wind_gusts":60.5,"aqi":22,"pm10":5.4,"pm2_5":3.1,"no2":2.0,"co":107.0,"o3":59.0,"so2":1.5,"mosquito_risk":0,"arthritis_risk":5,"migraine_risk":3,"frizz_risk":1,"updated_at":"2026-07-02T13:48:57.699045+05:30"},{"city":"Tirupur","state":"Tamil Nadu","latitude":11.1085,"longitude":77.3411,"temp":33.4,"humidity":46,"rain":0.0,"pressure":973.3,"uv_index":8.65,"wind_gusts":61.6,"aqi":37,"pm10":5.1,"pm2_5":4.0,"no2":1.7,"co":130.0,"o3":80.0,"so2":2.1,"mosquito_risk":0,"arthritis_risk":5,"migraine_risk":7,"frizz_risk":1,"updated_at":"2026-07-02T13:48:57.699067+05:30"},{"city":"Alappuzha","state":"Kerala","latitude":9.4981,"longitude":76.3388,"temp":28.7,"humidity":76,"rain":0.0,"pressure":1009.1,"uv_index":8.4,"wind_gusts":44.3,"aqi":50,"pm10":14.8,"pm2_5":9.0,"no2":2.2,"co":88.0,"o3":68.0,"so2":2.2,"mosquito_risk":7,"arthritis_risk":0,"migraine_risk":4,"frizz_risk":1,"updated_at":"2026-07-02T13:48:57.699076+05:30"},{"city":"Munnar","state":"Kerala","latitude":10.0889,"longitude":77.0595,"temp":18.2,"humidity":93,"rain":0.3,"pressure":856.6,"uv_index":7.85,"wind_gusts":49.3,"aqi":21,"pm10":6.2,"pm2_5":3.7,"no2":0.8,"co":97.0,"o3":59.0,"so2":0.9,"mosquito_risk":6,"arthritis_risk":10,"migraine_risk":7,"frizz_risk":1,"updated_at":"2026-07-02T13:48:57.699084+05:30"},{"city":"Silchar","state":"Assam","latitude":24.8333,"longitude":92.7789,"temp":34.1,"humidity":60,"rain":0.0,"pressure":996.4,"uv_index":8.7,"wind_gusts":18.0,"aqi":75,"pm10":12.3,"pm2_5":12.0,"no2":1.3,"co":178.0,"o3":120.0,"so2":3.5,"mosquito_risk":0,"arthritis_risk":5,"migraine_risk":7,"frizz_risk":1,"updated_at":"2026-07-02T13:48:57.699091+05:30"},{"city":"Dibrugarh","state":"Assam","latitude":27.4728,"longitude":94.912,"temp":34.0,"humidity":64,"rain":0.0,"pressure":986.9,"uv_index":8.85,"wind_gusts":19.8,"aqi":56,"pm10":8.2,"pm2_5":8.1,"no2":0.9,"co":194.0,"o3":110.0,"so2":1.3,"mosquito_risk":3,"arthritis_risk":5,"migraine_risk":7,"frizz_risk":1,"updated_at":"2026-07-02T13:48:57.699098+05:30"}]