[{"city":"Delhi","state":"Delhi","latitude":28.6139,"longitude":77.209,"temp":42.2,"humidity":14,"rain":0.0,"pressure":975.6,"uv_index":7.45,"wind_gusts":47.2,"aqi":481,"pm10":390.2,"pm2_5":47.1,"mosquito_risk":0,"arthritis_risk":5,"migraine_risk":10,"frizz_risk":0,"updated_at":"2026-04-27T14:51:22.900293+05:30"},{"city":"Mumbai","state":"Maharashtra","latitude":19.076,"longitude":72.8777,"temp":33.0,"humidity":62,"rain":0.0,"pressure":1005.0,"uv_index":8.05,"wind_gusts":39.6,"aqi":92,"pm10":54.0,"pm2_5":29.5,"mosquito_risk":3,"arthritis_risk":5,"migraine_risk":4,"frizz_risk":1,"updated_at":"2026-04-27T14:51:22.900338+05:30"},{"city":"Bangalore","state":"Karnataka","latitude":12.9716,"longitude":77.5946,"temp":37.6,"humidity":18,"rain":0.0,"pressure":909.9,"uv_index":9.55,"wind_gusts":37.4,"aqi":118,"pm10":47.8,"pm2_5":26.6,"mosquito_risk":0,"arthritis_risk":5,"migraine_risk":10,"frizz_risk":0,"updated_at":"2026-04-27T14:51:22.900354+05:30"},{"city":"Hyderabad","state":"Telangana","latitude":17.385,"longitude":78.4867,"temp":40.2,"humidity":17,"rain":0.0,"pressure":949.5,"uv_index":9.25,"wind_gusts":33.8,"aqi":99,"pm10":41.8,"pm2_5":32.7,"mosquito_risk":0,"arthritis_risk":5,"migraine_risk":10,"frizz_risk":0,"updated_at":"2026-04-27T14:51:22.900366+05:30"},{"city":"Chennai","state":"Tamil Nadu","latitude":13.0827,"longitude":80.2707,"temp":34.2,"humidity":51,"rain":0.0,"pressure":1002.9,"uv_index":9.25,"wind_gusts":55.1,"aqi":54,"pm10":22.0,"pm2_5":15.8,"mosquito_risk":0,"arthritis_risk":5,"migraine_risk":4,"frizz_risk":1,"updated_at":"2026-04-27T14:51:22.900375+05:30"},{"city":"Kolkata","state":"West Bengal","latitude":22.5726,"longitude":88.3639,"temp":34.2,"humidity":58,"rain":0.0,"pressure":998.6,"uv_index":8.85,"wind_gusts":58.7,"aqi":61,"pm10":25.1,"pm2_5":19.7,"mosquito_risk":0,"arthritis_risk":5,"migraine_risk":7,"frizz_risk":1,"updated_at":"2026-04-27T14:51:22.900384+05:30"},{"city":"Pune","state":"Maharashtra","latitude":18.5204,"longitude":73.8567,"temp":40.1,"humidity":14,"rain":0.0,"pressure":945.3,"uv_index":8.55,"wind_gusts":41.4,"aqi":70,"pm10":34.5,"pm2_5":19.3,"mosquito_risk":0,"arthritis_risk":5,"migraine_risk":10,"frizz_risk":0,"updated_at":"2026-04-27T14:51:22.900396+05:30"},{"city":"Ahmedabad","state":"Gujarat","latitude":23.0225,"longitude":72.5714,"temp":43.2,"humidity":11,"rain":0.0,"pressure":996.5,"uv_index":8.2,"wind_gusts":48.6,"aqi":50,"pm10":27.1,"pm2_5":10.3,"mosquito_risk":0,"arthritis_risk":5,"migraine_risk":10,"frizz_risk":0,"updated_at":"2026-04-27T14:51:22.900403+05:30"},{"city":"Jaipur","state":"Rajasthan","latitude":26.9124,"longitude":75.7873,"temp":42.8,"humidity":12,"rain":0.0,"pressure":954.2,"uv_index":8.05,"wind_gusts":37.8,"aqi":119,"pm10":281.3,"pm2_5":34.1,"mosquito_risk":0,"arthritis_risk":5,"migraine_risk":10,"frizz_risk":0,"updated_at":"2026-04-27T14:51:22.900411+05:30"},{"city":"Lucknow","state":"Uttar Pradesh","latitude":26.8467,"longitude":80.9462,"temp":42.2,"humidity":17,"rain":0.0,"pressure":984.9,"uv_index":7.9,"wind_gusts":46.4,"aqi":149,"pm10":183.0,"pm2_5":36.0,"mosquito_risk":0,"arthritis_risk":5,"migraine_risk":10,"frizz_risk":0,"updated_at":"2026-04-27T14:51:22.900419+05:30"},{"city":"Kanpur","state":"Uttar Pradesh","latitude":26.4499,"longitude":80.3319,"temp":43.5,"humidity":13,"rain":0.0,"pressure":983.4,"uv_index":7.95,"wind_gusts":49.0,"aqi":274,"pm10":476.8,"pm2_5":56.8,"mosquito_risk":0,"arthritis_risk":5,"migraine_risk":10,"frizz_risk":0,"updated_at":"2026-04-27T14:51:22.900427+05:30"},{"city":"Chandigarh","state":"Chandigarh","latitude":30.7333,"longitude":76.7794,"temp":38.5,"humidity":12,"rain":0.0,"pressure":962.3,"uv_index":7.45,"wind_gusts":46.1,"aqi":99,"pm10":10.4,"pm2_5":6.8,"mosquito_risk":0,"arthritis_risk":5,"migraine_risk":10,"frizz_risk":0,"updated_at":"2026-04-27T14:51:22.900434+05:30"},{"city":"Srinagar","state":"Jammu and Kashmir","latitude":34.0837,"longitude":74.7973,"temp":24.8,"humidity":38,"rain":0.0,"pressure":840.7,"uv_index":8.4,"wind_gusts":18.7,"aqi":54,"pm10":13.4,"pm2_5":5.9,"mosquito_risk":0,"arthritis_risk":5,"migraine_risk":7,"frizz_risk":0,"updated_at":"2026-04-27T14:51:22.900442+05:30"},{"city":"Jammu","state":"Jammu and Kashmir","latitude":32.7266,"longitude":74.857,"temp":36.6,"humidity":20,"rain":0.0,"pressure":966.7,"uv_index":8.25,"wind_gusts":33.5,"aqi":75,"pm10":5.8,"pm2_5":4.1,"mosquito_risk":0,"arthritis_risk":5,"migraine_risk":10,"frizz_risk":0,"updated_at":"2026-04-27T14:51:22.900449+05:30"},{"city":"Amritsar","state":"Punjab","latitude":31.634,"longitude":74.8723,"temp":39.7,"humidity":16,"rain":0.0,"pressure":974.2,"uv_index":8.05,"wind_gusts":43.9,"aqi":77,"pm10":36.0,"pm2_5":15.2,"mosquito_risk":0,"arthritis_risk":5,"migraine_risk":10,"frizz_risk":0,"updated_at":"2026-04-27T14:51:22.900455+05:30"},{"city":"Ludhiana","state":"Punjab","latitude":30.901,"longitude":75.8573,"temp":39.5,"humidity":15,"rain":0.0,"pressure":972.1,"uv_index":7.7,"wind_gusts":40.0,"aqi":68,"pm10":30.3,"pm2_5":10.0,"mosquito_risk":0,"arthritis_risk":5,"migraine_risk":10,"frizz_risk":0,"updated_at":"2026-04-27T14:51:22.900462+05:30"},{"city":"Jalandhar","state":"Punjab","latitude":31.326,"longitude":75.5762,"temp":38.9,"humidity":16,"rain":0.0,"pressure":973.0,"uv_index":7.5,"wind_gusts":33.5,"aqi":74,"pm10":53.3,"pm2_5":14.3,"mosquito_risk":0,"arthritis_risk":5,"migraine_risk":10,"frizz_risk":0,"updated_at":"2026-04-27T14:51:22.900471+05:30"},{"city":"Dehradun","state":"Uttarakhand","latitude":30.6284,"longitude":78.0322,"temp":26.6,"humidity":28,"rain":0.0,"pressure":829.4,"uv_index":7.9,"wind_gusts":44.6,"aqi":85,"pm10":9.4,"pm2_5":4.9,"mosquito_risk":4,"arthritis_risk":5,"migraine_risk":7,"frizz_risk":0,"updated_at":"2026-04-27T14:51:22.900477+05:30"},{"city":"Shimla","state":"Himachal Pradesh","latitude":31.1048,"longitude":77.1734,"temp":24.4,"humidity":18,"rain":0.0,"pressure":785.2,"uv_index":7.8,"wind_gusts":45.7,"aqi":90,"pm10":9.1,"pm2_5":4.3,"mosquito_risk":0,"arthritis_risk":5,"migraine_risk":7,"frizz_risk":1,"updated_at":"2026-04-27T14:51:22.900484+05:30"},{"city":"Manali","state":"Himachal Pradesh","latitude":32.2396,"longitude":77.1887,"temp":22.6,"humidity":29,"rain":0.0,"pressure":816.7,"uv_index":9.95,"wind_gusts":38.9,"aqi":120,"pm10":14.0,"pm2_5":6.3,"mosquito_risk":0,"arthritis_risk":5,"migraine_risk":7,"frizz_risk":0,"updated_at":"2026-04-27T14:51:22.900490+05:30"},{"city":"Gurgaon","state":"Haryana","latitude":28.4595,"longitude":77.0266,"temp":41.0,"humidity":16,"rain":0.0,"pressure":974.6,"uv_index":7.55,"wind_gusts":47.9,"aqi":1016,"pm10":1743.4,"pm2_5":159.3,"mosquito_risk":0,"arthritis_risk":5,"migraine_risk":10,"frizz_risk":0,"updated_at":"2026-04-27T14:51:22.900496+05:30"},{"city":"Noida","state":"Uttar Pradesh","latitude":28.5355,"longitude":77.391,"temp":42.2,"humidity":14,"rain":0.0,"pressure":976.8,"uv_index":7.45,"wind_gusts":41.4,"aqi":1016,"pm10":1743.4,"pm2_5":159.3,"mosquito_risk":0,"arthritis_risk":5,"migraine_risk":10,"frizz_risk":0,"updated_at":"2026-04-27T14:51:22.900503+05:30"},{"city":"Ghaziabad","state":"Uttar Pradesh","latitude":28.6692,"longitude":77.4538,"temp":42.5,"humidity":13,"rain":0.0,"pressure":975.1,"uv_index":7.4,"wind_gusts":47.2,"aqi":425,"pm10":297.1,"pm2_5":38.3,"mosquito_risk":0,"arthritis_risk":5,"migraine_risk":10,"frizz_risk":0,"updated_at":"2026-04-27T14:51:22.900509+05:30"},{"city":"Faridabad","state":"Haryana","latitude":28.4089,"longitude":77.3178,"temp":41.6,"humidity":14,"rain":0.0,"pressure":976.4,"uv_index":7.5,"wind_gusts":50.8,"aqi":1016,"pm10":1743.4,"pm2_5":159.3,"mosquito_risk":0,"arthritis_risk":5,"migraine_risk":10,"frizz_risk":0,"updated_at":"2026-04-27T14:51:22.900516+05:30"},{"city":"Meerut","state":"Uttar Pradesh","latitude":28.9845,"longitude":77.7064,"temp":40.6,"humidity":14,"rain":0.0,"pressure":973.9,"uv_index":7.35,"wind_gusts":38.2,"aqi":425,"pm10":297.1,"pm2_5":38.3,"mosquito_risk":0,"arthritis_risk":5,"migraine_risk":10,"frizz_risk":0,"updated_at":"2026-04-27T14:51:22.900524+05:30"},{"city":"Agra","state":"Uttar Pradesh","latitude":27.1767,"longitude":78.0081,"temp":42.8,"humidity":14,"rain":0.0,"pressure":980.5,"uv_index":7.8,"wind_gusts":45.4,"aqi":470,"pm10":784.2,"pm2_5":78.9,"mosquito_risk":0,"arthritis_risk":5,"migraine_risk":10,"frizz_risk":0,"updated_at":"2026-04-27T14:51:22.900531+05:30"},{"city":"Varanasi","state":"Uttar Pradesh","latitude":25.3176,"longitude":82.9739,"temp":42.8,"humidity":15,"rain":0.0,"pressure":988.6,"uv_index":8.5,"wind_gusts":51.5,"aqi":147,"pm10":88.2,"pm2_5":28.5,"mosquito_risk":0,"arthritis_risk":5,"migraine_risk":10,"frizz_risk":0,"updated_at":"2026-04-27T14:51:22.900539+05:30"},{"city":"Prayagraj","state":"Uttar Pradesh","latitude":25.4358,"longitude":81.8463,"temp":42.9,"humidity":16,"rain":0.0,"pressure":987.6,"uv_index":8.4,"wind_gusts":44.3,"aqi":130,"pm10":117.8,"pm2_5":31.5,"mosquito_risk":0,"arthritis_risk":5,"migraine_risk":10,"frizz_risk":0,"updated_at":"2026-04-27T14:51:22.900546+05:30"},{"city":"Gorakhpur","state":"Uttar Pradesh","latitude":26.7606,"longitude":83.3732,"temp":36.7,"humidity":34,"rain":0.0,"pressure":989.6,"uv_index":8.35,"wind_gusts":38.9,"aqi":133,"pm10":112.2,"pm2_5":54.0,"mosquito_risk":0,"arthritis_risk":5,"migraine_risk":10,"frizz_risk":1,"updated_at":"2026-04-27T14:51:22.900552+05:30"},{"city":"Bareilly","state":"Uttar Pradesh","latitude":28.367,"longitude":79.4304,"temp":40.1,"humidity":18,"rain":0.0,"pressure":978.8,"uv_index":7.7,"wind_gusts":46.4,"aqi":118,"pm10":30.5,"pm2_5":17.9,"mosquito_risk":0,"arthritis_risk":5,"migraine_risk":10,"frizz_risk":0,"updated_at":"2026-04-27T14:51:22.900558+05:30"},{"city":"Aligarh","state":"Uttar Pradesh","latitude":27.8974,"longitude":78.088,"temp":42.8,"humidity":13,"rain":0.0,"pressure":977.8,"uv_index":7.6,"wind_gusts":50.0,"aqi":695,"pm10":877.3,"pm2_5":89.2,"mosquito_risk":0,"arthritis_risk":5,"migraine_risk":10,"frizz_risk":0,"updated_at":"2026-04-27T14:51:22.900564+05:30"},{"city":"Moradabad","state":"Uttar Pradesh","latitude":28.8386,"longitude":78.7733,"temp":39.4,"humidity":17,"rain":0.0,"pressure":976.2,"uv_index":7.55,"wind_gusts":49.3,"aqi":137,"pm10":34.9,"pm2_5":18.9,"mosquito_risk":0,"arthritis_risk":5,"migraine_risk":10,"frizz_risk":0,"updated_at":"2026-04-27T14:51:22.900571+05:30"},{"city":"Saharanpur","state":"Uttar Pradesh","latitude":29.9637,"longitude":77.546,"temp":39.0,"humidity":14,"rain":0.0,"pressure":968.4,"uv_index":7.1,"wind_gusts":47.2,"aqi":109,"pm10":39.2,"pm2_5":10.3,"mosquito_risk":0,"arthritis_risk":5,"migraine_risk":10,"frizz_risk":0,"updated_at":"2026-04-27T14:51:22.900579+05:30"},{"city":"Jhansi","state":"Uttar Pradesh","latitude":25.4484,"longitude":78.5685,"temp":43.8,"humidity":11,"rain":0.0,"pressure":971.0,"uv_index":8.3,"wind_gusts":49.3,"aqi":73,"pm10":122.5,"pm2_5":23.9,"mosquito_risk":0,"arthritis_risk":5,"migraine_risk":10,"frizz_risk":0,"updated_at":"2026-04-27T14:51:26.137158+05:30"},{"city":"Surat","state":"Gujarat","latitude":21.1702,"longitude":72.8311,"temp":38.2,"humidity":34,"rain":0.0,"pressure":1002.1,"uv_index":7.8,"wind_gusts":37.8,"aqi":108,"pm10":50.8,"pm2_5":35.6,"mosquito_risk":0,"arthritis_risk":5,"migraine_risk":7,"frizz_risk":1,"updated_at":"2026-04-27T14:51:26.137191+05:30"},{"city":"Vadodara","state":"Gujarat","latitude":22.3072,"longitude":73.1812,"temp":43.5,"humidity":12,"rain":0.0,"pressure":998.6,"uv_index":8.15,"wind_gusts":48.6,"aqi":77,"pm10":34.5,"pm2_5":15.5,"mosquito_risk":0,"arthritis_risk":5,"migraine_risk":10,"frizz_risk":0,"updated_at":"2026-04-27T14:51:26.137201+05:30"},{"city":"Rajkot","state":"Gujarat","latitude":22.3039,"longitude":70.8022,"temp":41.8,"humidity":13,"rain":0.0,"pressure":989.7,"uv_index":7.9,"wind_gusts":52.2,"aqi":50,"pm10":36.0,"pm2_5":12.9,"mosquito_risk":0,"arthritis_risk":5,"migraine_risk":10,"frizz_risk":0,"updated_at":"2026-04-27T14:51:26.137209+05:30"},{"city":"Thane","state":"Maharashtra","latitude":19.2183,"longitude":72.9781,"temp":36.8,"humidity":45,"rain":0.0,"pressure":1003.7,"uv_index":8.05,"wind_gusts":37.1,"aqi":92,"pm10":54.0,"pm2_5":29.5,"mosquito_risk":0,"arthritis_risk":5,"migraine_risk":7,"frizz_risk":1,"updated_at":"2026-04-27T14:51:26.137216+05:30"},{"city":"Nagpur","state":"Maharashtra","latitude":21.1458,"longitude":79.0882,"temp":44.0,"humidity":11,"rain":0.0,"pressure":967.5,"uv_index":8.7,"wind_gusts":40.7,"aqi":153,"pm10":48.9,"pm2_5":24.9,"mosquito_risk":0,"arthritis_risk":5,"migraine_risk":10,"frizz_risk":0,"updated_at":"2026-04-27T14:51:26.137223+05:30"},{"city":"Nashik","state":"Maharashtra","latitude":19.9975,"longitude":73.7898,"temp":38.8,"humidity":18,"rain":0.0,"pressure":943.1,"uv_index":8.3,"wind_gusts":38.2,"aqi":83,"pm10":36.9,"pm2_5":21.9,"mosquito_risk":0,"arthritis_risk":5,"migraine_risk":10,"frizz_risk":0,"updated_at":"2026-04-27T14:51:26.137230+05:30"},{"city":"Aurangabad","state":"Maharashtra","latitude":19.8762,"longitude":75.3433,"temp":40.6,"humidity":12,"rain":0.0,"pressure":941.2,"uv_index":9.0,"wind_gusts":33.8,"aqi":88,"pm10":25.9,"pm2_5":16.1,"mosquito_risk":0,"arthritis_risk":5,"migraine_risk":10,"frizz_risk":0,"updated_at":"2026-04-27T14:51:26.137237+05:30"},{"city":"Solapur","state":"Maharashtra","latitude":17.6599,"longitude":75.9064,"temp":42.2,"humidity":13,"rain":0.0,"pressure":952.7,"uv_index":9.05,"wind_gusts":29.5,"aqi":108,"pm10":29.2,"pm2_5":20.4,"mosquito_risk":0,"arthritis_risk":5,"migraine_risk":10,"frizz_risk":0,"updated_at":"2026-04-27T14:51:26.137243+05:30"},{"city":"Kolhapur","state":"Maharashtra","latitude":16.705,"longitude":74.2433,"temp":34.2,"humidity":39,"rain":0.0,"pressure":945.8,"uv_index":9.0,"wind_gusts":46.4,"aqi":80,"pm10":32.1,"pm2_5":21.0,"mosquito_risk":0,"arthritis_risk":5,"migraine_risk":7,"frizz_risk":1,"updated_at":"2026-04-27T14:51:26.137250+05:30"},{"city":"Goa","state":"Goa","latitude":15.2993,"longitude":74.124,"temp":35.6,"humidity":51,"rain":0.0,"pressure":994.4,"uv_index":8.95,"wind_gusts":37.4,"aqi":75,"pm10":33.4,"pm2_5":15.5,"mosquito_risk":0,"arthritis_risk":5,"migraine_risk":10,"frizz_risk":1,"updated_at":"2026-04-27T14:51:26.137256+05:30"},{"city":"Jodhpur","state":"Rajasthan","latitude":26.2389,"longitude":73.0243,"temp":42.8,"humidity":11,"rain":0.0,"pressure":976.7,"uv_index":8.3,"wind_gusts":43.9,"aqi":101,"pm10":175.6,"pm2_5":22.9,"mosquito_risk":0,"arthritis_risk":5,"migraine_risk":10,"frizz_risk":0,"updated_at":"2026-04-27T14:51:26.137262+05:30"},{"city":"Udaipur","state":"Rajasthan","latitude":24.5854,"longitude":73.7125,"temp":39.2,"humidity":12,"rain":0.0,"pressure":943.0,"uv_index":8.75,"wind_gusts":45.0,"aqi":44,"pm10":25.8,"pm2_5":7.7,"mosquito_risk":0,"arthritis_risk":5,"migraine_risk":10,"frizz_risk":0,"updated_at":"2026-04-27T14:51:26.137268+05:30"},{"city":"Kota","state":"Rajasthan","latitude":25.2138,"longitude":75.8648,"temp":43.3,"humidity":13,"rain":0.0,"pressure":972.6,"uv_index":8.3,"wind_gusts":33.1,"aqi":69,"pm10":44.4,"pm2_5":15.9,"mosquito_risk":0,"arthritis_risk":5,"migraine_risk":10,"frizz_risk":0,"updated_at":"2026-04-27T14:51:26.137275+05:30"},{"city":"Bikaner","state":"Rajasthan","latitude":28.0229,"longitude":73.3119,"temp":43.7,"humidity":12,"rain":0.0,"pressure":974.3,"uv_index":8.1,"wind_gusts":58.3,"aqi":64,"pm10":59.8,"pm2_5":15.3,"mosquito_risk":0,"arthritis_risk":5,"migraine_risk":10,"frizz_risk":0,"updated_at":"2026-04-27T14:51:26.137281+05:30"},{"city":"Ajmer","state":"Rajasthan","latitude":26.4499,"longitude":74.6399,"temp":40.8,"humidity":13,"rain":0.0,"pressure":949.9,"uv_index":8.25,"wind_gusts":49.0,"aqi":54,"pm10":79.6,"pm2_5":15.0,"mosquito_risk":0,"arthritis_risk":5,"migraine_risk":10,"frizz_risk":0,"updated_at":"2026-04-27T14:51:26.137287+05:30"},{"city":"Gwalior","state":"Madhya Pradesh","latitude":26.2183,"longitude":78.1828,"temp":43.5,"humidity":12,"rain":0.0,"pressure":976.1,"uv_index":8.05,"wind_gusts":49.7,"aqi":94,"pm10":222.1,"pm2_5":39.3,"mosquito_risk":0,"arthritis_risk":5,"migraine_risk":10,"frizz_risk":0,"updated_at":"2026-04-27T14:51:26.137294+05:30"},{"city":"Indore","state":"Madhya Pradesh","latitude":22.7196,"longitude":75.8577,"temp":41.2,"humidity":9,"rain":0.0,"pressure":944.6,"uv_index":8.6,"wind_gusts":51.5,"aqi":70,"pm10":22.2,"pm2_5":9.7,"mosquito_risk":0,"arthritis_risk":5,"migraine_risk":10,"frizz_risk":0,"updated_at":"2026-04-27T14:51:26.137300+05:30"},{"city":"Bhopal","state":"Madhya Pradesh","latitude":23.2599,"longitude":77.4126,"temp":42.8,"humidity":9,"rain":0.0,"pressure":948.9,"uv_index":8.6,"wind_gusts":44.3,"aqi":70,"pm10":16.9,"pm2_5":9.0,"mosquito_risk":0,"arthritis_risk":5,"migraine_risk":10,"frizz_risk":0,"updated_at":"2026-04-27T14:51:26.137306+05:30"},{"city":"Jabalpur","state":"Madhya Pradesh","latitude":23.1815,"longitude":79.9864,"temp":41.0,"humidity":14,"rain":0.0,"pressure":956.4,"uv_index":8.65,"wind_gusts":49.7,"aqi":81,"pm10":42.8,"pm2_5":13.6,"mosquito_risk":0,"arthritis_risk":5,"migraine_risk":10,"frizz_risk":0,"updated_at":"2026-04-27T14:51:26.137312+05:30"},{"city":"Ujjain","state":"Madhya Pradesh","latitude":23.1765,"longitude":75.7885,"temp":41.3,"humidity":9,"rain":0.0,"pressure":949.9,"uv_index":8.55,"wind_gusts":49.0,"aqi":65,"pm10":23.9,"pm2_5":8.8,"mosquito_risk":0,"arthritis_risk":5,"migraine_risk":10,"frizz_risk":0,"updated_at":"2026-04-27T14:51:26.137319+05:30"},{"city":"Visakhapatnam","state":"Andhra Pradesh","latitude":17.6868,"longitude":83.2185,"temp":33.5,"humidity":59,"rain":0.0,"pressure":998.9,"uv_index":9.2,"wind_gusts":54.0,"aqi":56,"pm10":27.2,"pm2_5":19.9,"mosquito_risk":0,"arthritis_risk":5,"migraine_risk":7,"frizz_risk":1,"updated_at":"2026-04-27T14:51:26.137325+05:30"},{"city":"Vijayawada","state":"Andhra Pradesh","latitude":16.5062,"longitude":80.648,"temp":39.9,"humidity":31,"rain":0.0,"pressure":997.4,"uv_index":9.2,"wind_gusts":36.4,"aqi":57,"pm10":27.3,"pm2_5":20.7,"mosquito_risk":0,"arthritis_risk":5,"migraine_risk":10,"frizz_risk":1,"updated_at":"2026-04-27T14:51:26.137332+05:30"},{"city":"Guntur","state":"Andhra Pradesh","latitude":16.3067,"longitude":80.4365,"temp":39.2,"humidity":38,"rain":0.0,"pressure":998.5,"uv_index":9.15,"wind_gusts":38.2,"aqi":58,"pm10":29.3,"pm2_5":22.2,"mosquito_risk":0,"arthritis_risk":5,"migraine_risk":10,"frizz_risk":1,"updated_at":"2026-04-27T14:51:26.137338+05:30"},{"city":"Nellore","state":"Andhra Pradesh","latitude":14.4426,"longitude":79.9865,"temp":36.9,"humidity":51,"rain":0.0,"pressure":1000.4,"uv_index":9.3,"wind_gusts":47.9,"aqi":58,"pm10":32.0,"pm2_5":23.6,"mosquito_risk":0,"arthritis_risk":5,"migraine_risk":7,"frizz_risk":1,"updated_at":"2026-04-27T14:51:26.137346+05:30"},{"city":"Kurnool","state":"Andhra Pradesh","latitude":15.8281,"longitude":78.0373,"temp":42.8,"humidity":17,"rain":0.0,"pressure":971.9,"uv_index":9.2,"wind_gusts":34.9,"aqi":102,"pm10":39.0,"pm2_5":29.7,"mosquito_risk":0,"arthritis_risk":5,"migraine_risk":10,"frizz_risk":0,"updated_at":"2026-04-27T14:51:26.137353+05:30"},{"city":"Kakinada","state":"Andhra Pradesh","latitude":16.9891,"longitude":82.2475,"temp":38.4,"humidity":36,"rain":0.0,"pressure":1002.4,"uv_index":9.05,"wind_gusts":40.7,"aqi":52,"pm10":25.0,"pm2_5":15.5,"mosquito_risk":0,"arthritis_risk":5,"migraine_risk":7,"frizz_risk":1,"updated_at":"2026-04-27T14:51:26.137360+05:30"},{"city":"Tirupati","state":"Andhra Pradesh","latitude":13.6288,"longitude":79.4192,"temp":41.2,"humidity":18,"rain":0.0,"pressure":985.9,"uv_index":9.25,"wind_gusts":50.0,"aqi":66,"pm10":32.4,"pm2_5":26.7,"mosquito_risk":0,"arthritis_risk":5,"migraine_risk":10,"frizz_risk":0,"updated_at":"2026-04-27T14:51:26.137366+05:30"},{"city":"Warangal","state":"Telangana","latitude":17.9689,"longitude":79.5941,"temp":41.7,"humidity":18,"rain":0.0,"pressure":973.8,"uv_index":8.8,"wind_gusts":37.8,"aqi":73,"pm10":36.7,"pm2_5":28.3,"mosquito_risk":0,"arthritis_risk":5,"migraine_risk":10,"frizz_risk":0,"updated_at":"2026-04-27T14:51:26.137372+05:30"},{"city":"Nizamabad","state":"Telangana","latitude":18.6725,"longitude":78.0941,"temp":41.1,"humidity":14,"rain":0.0,"pressure":960.4,"uv_index":9.1,"wind_gusts":33.8,"aqi":128,"pm10":42.1,"pm2_5":26.7,"mosquito_risk":0,"arthritis_risk":5,"migraine_risk":10,"frizz_risk":0,"updated_at":"2026-04-27T14:51:26.137378+05:30"},{"city":"Mysore","state":"Karnataka","latitude":12.2958,"longitude":76.6396,"temp":36.1,"humidity":24,"rain":0.0,"pressure":926.1,"uv_index":9.45,"wind_gusts":41.8,"aqi":104,"pm10":44.1,"pm2_5":26.3,"mosquito_risk":0,"arthritis_risk":5,"migraine_risk":10,"frizz_risk":0,"updated_at":"2026-04-27T14:51:26.137385+05:30"},{"city":"Mangalore","state":"Karnataka","latitude":12.9141,"longitude":74.856,"temp":33.0,"humidity":62,"rain":0.0,"pressure":1003.3,"uv_index":8.2,"wind_gusts":38.9,"aqi":74,"pm10":29.2,"pm2_5":21.4,"mosquito_risk":3,"arthritis_risk":5,"migraine_risk":4,"frizz_risk":1,"updated_at":"2026-04-27T14:51:26.137391+05:30"},{"city":"Hubli-Dharwad","state":"Karnataka","latitude":15.3647,"longitude":75.124,"temp":35.5,"humidity":35,"rain":0.0,"pressure":938.4,"uv_index":9.2,"wind_gusts":48.2,"aqi":83,"pm10":41.1,"pm2_5":33.5,"mosquito_risk":0,"arthritis_risk":5,"migraine_risk":10,"frizz_risk":1,"updated_at":"2026-04-27T14:51:26.137398+05:30"},{"city":"Belgaum","state":"Karnataka","latitude":15.8497,"longitude":74.4977,"temp":33.2,"humidity":41,"rain":0.0,"pressure":924.1,"uv_index":9.2,"wind_gusts":52.9,"aqi":91,"pm10":40.2,"pm2_5":29.5,"mosquito_risk":0,"arthritis_risk":5,"migraine_risk":7,"frizz_risk":1,"updated_at":"2026-04-27T14:51:29.370401+05:30"},{"city":"Coimbatore","state":"Tamil Nadu","latitude":11.0168,"longitude":76.9558,"temp":38.2,"humidity":20,"rain":0.0,"pressure":958.1,"uv_index":9.35,"wind_gusts":46.8,"aqi":90,"pm10":32.1,"pm2_5":20.4,"mosquito_risk":0,"arthritis_risk":5,"migraine_risk":10,"frizz_risk":0,"updated_at":"2026-04-27T14:51:29.370434+05:30"},{"city":"Madurai","state":"Tamil Nadu","latitude":9.9252,"longitude":78.1198,"temp":40.5,"humidity":22,"rain":0.0,"pressure":988.3,"uv_index":8.85,"wind_gusts":52.6,"aqi":49,"pm10":17.5,"pm2_5":14.1,"mosquito_risk":0,"arthritis_risk":5,"migraine_risk":10,"frizz_risk":0,"updated_at":"2026-04-27T14:51:29.370445+05:30"},{"city":"Trichy","state":"Tamil Nadu","latitude":10.7905,"longitude":78.7047,"temp":38.4,"humidity":25,"rain":0.0,"pressure":995.3,"uv_index":9.1,"wind_gusts":48.6,"aqi":56,"pm10":17.5,"pm2_5":14.3,"mosquito_risk":0,"arthritis_risk":5,"migraine_risk":10,"frizz_risk":0,"updated_at":"2026-04-27T14:51:29.370453+05:30"},{"city":"Salem","state":"Tamil Nadu","latitude":11.6643,"longitude":78.146,"temp":39.9,"humidity":21,"rain":0.0,"pressure":972.9,"uv_index":9.2,"wind_gusts":34.6,"aqi":63,"pm10":25.3,"pm2_5":18.7,"mosquito_risk":0,"arthritis_risk":5,"migraine_risk":10,"frizz_risk":0,"updated_at":"2026-04-27T14:51:29.370460+05:30"},{"city":"Tirunelveli","state":"Tamil Nadu","latitude":8.7139,"longitude":77.7567,"temp":38.0,"humidity":30,"rain":0.0,"pressure":998.7,"uv_index":8.95,"wind_gusts":52.2,"aqi":56,"pm10":11.7,"pm2_5":10.9,"mosquito_risk":0,"arthritis_risk":5,"migraine_risk":10,"frizz_risk":1,"updated_at":"2026-04-27T14:51:29.370467+05:30"},{"city":"Vellore","state":"Tamil Nadu","latitude":12.9165,"longitude":79.1325,"temp":40.5,"humidity":18,"rain":0.0,"pressure":979.9,"uv_index":9.3,"wind_gusts":43.6,"aqi":86,"pm10":28.9,"pm2_5":23.3,"mosquito_risk":0,"arthritis_risk":5,"migraine_risk":10,"frizz_risk":0,"updated_at":"2026-04-27T14:51:29.370474+05:30"},{"city":"Erode","state":"Tamil Nadu","latitude":11.341,"longitude":77.7172,"temp":40.8,"humidity":18,"rain":0.0,"pressure":984.1,"uv_index":9.3,"wind_gusts":50.8,"aqi":63,"pm10":25.1,"pm2_5":18.6,"mosquito_risk":0,"arthritis_risk":5,"migraine_risk":10,"frizz_risk":0,"updated_at":"2026-04-27T14:51:29.370482+05:30"},{"city":"Kochi","state":"Kerala","latitude":9.9312,"longitude":76.2673,"temp":32.2,"humidity":66,"rain":0.0,"pressure":1005.2,"uv_index":9.0,"wind_gusts":37.1,"aqi":86,"pm10":20.1,"pm2_5":17.2,"mosquito_risk":3,"arthritis_risk":5,"migraine_risk":4,"frizz_risk":1,"updated_at":"2026-04-27T14:51:29.370489+05:30"},{"city":"Thiruvananthapuram","state":"Kerala","latitude":8.5241,"longitude":76.9366,"temp":30.4,"humidity":71,"rain":0.2,"pressure":1005.0,"uv_index":8.4,"wind_gusts":38.5,"aqi":51,"pm10":16.6,"pm2_5":13.6,"mosquito_risk":6,"arthritis_risk":5,"migraine_risk":4,"frizz_risk":1,"updated_at":"2026-04-27T14:51:29.370496+05:30"},{"city":"Kozhikode","state":"Kerala","latitude":11.2588,"longitude":75.7804,"temp":31.6,"humidity":72,"rain":0.0,"pressure":1004.5,"uv_index":8.5,"wind_gusts":41.4,"aqi":58,"pm10":16.2,"pm2_5":12.6,"mosquito_risk":3,"arthritis_risk":5,"migraine_risk":4,"frizz_risk":1,"updated_at":"2026-04-27T14:51:29.370503+05:30"},{"city":"Thrissur","state":"Kerala","latitude":10.5276,"longitude":76.2144,"temp":33.0,"humidity":62,"rain":0.0,"pressure":1003.3,"uv_index":8.9,"wind_gusts":39.6,"aqi":80,"pm10":21.7,"pm2_5":16.9,"mosquito_risk":3,"arthritis_risk":5,"migraine_risk":4,"frizz_risk":1,"updated_at":"2026-04-27T14:51:29.370509+05:30"},{"city":"Kannur","state":"Kerala","latitude":11.8745,"longitude":75.3704,"temp":32.5,"humidity":64,"rain":0.0,"pressure":1003.8,"uv_index":9.0,"wind_gusts":45.0,"aqi":68,"pm10":23.8,"pm2_5":17.8,"mosquito_risk":3,"arthritis_risk":5,"migraine_risk":4,"frizz_risk":1,"updated_at":"2026-04-27T14:51:29.370517+05:30"},{"city":"Patna","state":"Bihar","latitude":25.5941,"longitude":85.1376,"temp":35.2,"humidity":42,"rain":0.0,"pressure":993.0,"uv_index":8.6,"wind_gusts":35.6,"aqi":134,"pm10":108.0,"pm2_5":53.6,"mosquito_risk":0,"arthritis_risk":5,"migraine_risk":10,"frizz_risk":1,"updated_at":"2026-04-27T14:51:29.370523+05:30"},{"city":"Gaya","state":"Bihar","latitude":24.7914,"longitude":85.0002,"temp":39.0,"humidity":26,"rain":0.0,"pressure":986.1,"uv_index":8.65,"wind_gusts":42.1,"aqi":131,"pm10":129.9,"pm2_5":49.6,"mosquito_risk":0,"arthritis_risk":5,"migraine_risk":10,"frizz_risk":0,"updated_at":"2026-04-27T14:51:29.370530+05:30"},{"city":"Muzaffarpur","state":"Bihar","latitude":26.1209,"longitude":85.3647,"temp":32.0,"humidity":52,"rain":0.0,"pressure":993.8,"uv_index":8.6,"wind_gusts":39.2,"aqi":138,"pm10":117.3,"pm2_5":56.7,"mosquito_risk":0,"arthritis_risk":5,"migraine_risk":7,"frizz_risk":1,"updated_at":"2026-04-27T14:51:29.370537+05:30"},{"city":"Bhagalpur","state":"Bihar","latitude":25.2425,"longitude":87.0117,"temp":32.2,"humidity":53,"rain":0.0,"pressure":994.4,"uv_index":7.9,"wind_gusts":43.2,"aqi":112,"pm10":56.6,"pm2_5":31.5,"mosquito_risk":0,"arthritis_risk":5,"migraine_risk":7,"frizz_risk":1,"updated_at":"2026-04-27T14:51:29.370543+05:30"},{"city":"Ranchi","state":"Jharkhand","latitude":23.3441,"longitude":85.3096,"temp":38.5,"humidity":15,"rain":0.0,"pressure":932.6,"uv_index":9.15,"wind_gusts":50.0,"aqi":105,"pm10":91.0,"pm2_5":24.6,"mosquito_risk":0,"arthritis_risk":5,"migraine_risk":10,"frizz_risk":0,"updated_at":"2026-04-27T14:51:29.370550+05:30"},{"city":"Jamshedpur","state":"Jharkhand","latitude":22.8046,"longitude":86.2029,"temp":40.2,"humidity":20,"rain":0.0,"pressure":983.5,"uv_index":9.0,"wind_gusts":44.3,"aqi":158,"pm10":163.4,"pm2_5":38.1,"mosquito_risk":0,"arthritis_risk":5,"migraine_risk":10,"frizz_risk":0,"updated_at":"2026-04-27T14:51:29.370557+05:30"},{"city":"Dhanbad","state":"Jharkhand","latitude":23.7957,"longitude":86.4304,"temp":38.7,"humidity":28,"rain":0.0,"pressure":972.1,"uv_index":8.95,"wind_gusts":44.6,"aqi":137,"pm10":171.4,"pm2_5":42.4,"mosquito_risk":0,"arthritis_risk":5,"migraine_risk":10,"frizz_risk":1,"updated_at":"2026-04-27T14:51:29.370564+05:30"},{"city":"Bokaro","state":"Jharkhand","latitude":23.6693,"longitude":86.1511,"temp":42.3,"humidity":13,"rain":0.0,"pressure":975.2,"uv_index":8.95,"wind_gusts":46.8,"aqi":141,"pm10":137.8,"pm2_5":33.5,"mosquito_risk":0,"arthritis_risk":5,"migraine_risk":10,"frizz_risk":0,"updated_at":"2026-04-27T14:51:29.370570+05:30"},{"city":"Bhubaneswar","state":"Odisha","latitude":20.2961,"longitude":85.8245,"temp":34.7,"humidity":55,"rain":0.0,"pressure":996.7,"uv_index":9.05,"wind_gusts":54.0,"aqi":54,"pm10":22.8,"pm2_5":17.7,"mosquito_risk":0,"arthritis_risk":5,"migraine_risk":7,"frizz_risk":1,"updated_at":"2026-04-27T14:51:29.370576+05:30"},{"city":"Cuttack","state":"Odisha","latitude":20.4625,"longitude":85.8828,"temp":36.0,"humidity":51,"rain":0.0,"pressure":998.1,"uv_index":9.0,"wind_gusts":49.0,"aqi":54,"pm10":22.8,"pm2_5":17.7,"mosquito_risk":0,"arthritis_risk":5,"migraine_risk":10,"frizz_risk":1,"updated_at":"2026-04-27T14:51:29.370583+05:30"},{"city":"Rourkela","state":"Odisha","latitude":22.2604,"longitude":84.8536,"temp":42.1,"humidity":15,"rain":0.0,"pressure":978.1,"uv_index":8.9,"wind_gusts":51.1,"aqi":167,"pm10":75.9,"pm2_5":24.6,"mosquito_risk":0,"arthritis_risk":5,"migraine_risk":10,"frizz_risk":0,"updated_at":"2026-04-27T14:51:29.370588+05:30"},{"city":"Raipur","state":"Chhattisgarh","latitude":21.2514,"longitude":81.6296,"temp":40.5,"humidity":18,"rain":0.0,"pressure":969.6,"uv_index":8.55,"wind_gusts":59.8,"aqi":136,"pm10":44.5,"pm2_5":24.4,"mosquito_risk":0,"arthritis_risk":5,"migraine_risk":10,"frizz_risk":0,"updated_at":"2026-04-27T14:51:29.370595+05:30"},{"city":"Bhilai","state":"Chhattisgarh","latitude":21.1938,"longitude":81.3509,"temp":40.3,"humidity":17,"rain":0.0,"pressure":970.2,"uv_index":9.0,"wind_gusts":56.2,"aqi":121,"pm10":44.2,"pm2_5":22.5,"mosquito_risk":0,"arthritis_risk":5,"migraine_risk":10,"frizz_risk":0,"updated_at":"2026-04-27T14:51:29.370601+05:30"},{"city":"Guwahati","state":"Assam","latitude":26.1158,"longitude":91.7086,"temp":22.2,"humidity":89,"rain":0.1,"pressure":996.9,"uv_index":3.15,"wind_gusts":23.4,"aqi":104,"pm10":17.6,"pm2_5":14.2,"mosquito_risk":6,"arthritis_risk":5,"migraine_risk":3,"frizz_risk":1,"updated_at":"2026-04-27T14:51:29.370607+05:30"},{"city":"Agartala","state":"Tripura","latitude":23.8315,"longitude":91.2868,"temp":29.2,"humidity":71,"rain":0.0,"pressure":997.9,"uv_index":6.95,"wind_gusts":71.6,"aqi":93,"pm10":41.9,"pm2_5":25.7,"mosquito_risk":7,"arthritis_risk":5,"migraine_risk":7,"frizz_risk":1,"updated_at":"2026-04-27T14:51:29.370613+05:30"},{"city":"Shillong","state":"Meghalaya","latitude":25.5788,"longitude":91.8933,"temp":18.2,"humidity":87,"rain":0.1,"pressure":851.4,"uv_index":2.9,"wind_gusts":48.2,"aqi":100,"pm10":11.0,"pm2_5":9.2,"mosquito_risk":6,"arthritis_risk":10,"migraine_risk":3,"frizz_risk":0,"updated_at":"2026-04-27T14:51:29.370619+05:30"},{"city":"Imphal","state":"Manipur","latitude":24.817,"longitude":93.9368,"temp":22.9,"humidity":75,"rain":0.0,"pressure":918.6,"uv_index":8.55,"wind_gusts":28.8,"aqi":158,"pm10":62.6,"pm2_5":37.7,"mosquito_risk":3,"arthritis_risk":5,"migraine_risk":7,"frizz_risk":1,"updated_at":"2026-04-27T14:51:29.370625+05:30"},{"city":"Aizawl","state":"Mizoram","latitude":23.7271,"longitude":92.7176,"temp":25.3,"humidity":54,"rain":0.0,"pressure":888.0,"uv_index":8.95,"wind_gusts":60.5,"aqi":94,"pm10":50.1,"pm2_5":27.3,"mosquito_risk":4,"arthritis_risk":5,"migraine_risk":7,"frizz_risk":0,"updated_at":"2026-04-27T14:51:29.370632+05:30"},{"city":"Kohima","state":"Nagaland","latitude":25.6701,"longitude":94.1077,"temp":21.4,"humidity":65,"rain":0.0,"pressure":851.2,"uv_index":3.2,"wind_gusts":39.2,"aqi":139,"pm10":42.7,"pm2_5":26.5,"mosquito_risk":3,"arthritis_risk":5,"migraine_risk":3,"frizz_risk":0,"updated_at":"2026-04-27T14:51:29.370638+05:30"},{"city":"Gangtok","state":"Sikkim","latitude":27.3314,"longitude":88.6138,"temp":18.4,"humidity":77,"rain":0.1,"pressure":833.0,"uv_index":8.9,"wind_gusts":42.5,"aqi":94,"pm10":38.8,"pm2_5":26.2,"mosquito_risk":6,"arthritis_risk":5,"migraine_risk":7,"frizz_risk":0,"updated_at":"2026-04-27T14:51:29.370644+05:30"},{"city":"Siliguri","state":"West Bengal","latitude":26.7271,"longitude":88.3953,"temp":26.1,"humidity":66,"rain":0.0,"pressure":988.1,"uv_index":8.4,"wind_gusts":34.6,"aqi":127,"pm10":51.1,"pm2_5":31.9,"mosquito_risk":7,"arthritis_risk":5,"migraine_risk":7,"frizz_risk":1,"updated_at":"2026-04-27T14:51:32.623664+05:30"},{"city":"Durgapur","state":"West Bengal","latitude":23.5204,"longitude":87.3119,"temp":35.9,"humidity":53,"rain":0.0,"pressure":986.9,"uv_index":8.85,"wind_gusts":42.8,"aqi":123,"pm10":147.1,"pm2_5":76.1,"mosquito_risk":0,"arthritis_risk":5,"migraine_risk":10,"frizz_risk":1,"updated_at":"2026-04-27T14:51:32.623697+05:30"},{"city":"Asansol","state":"West Bengal","latitude":23.6739,"longitude":86.9524,"temp":37.4,"humidity":39,"rain":0.0,"pressure":985.5,"uv_index":8.9,"wind_gusts":43.9,"aqi":116,"pm10":183.9,"pm2_5":58.0,"mosquito_risk":0,"arthritis_risk":5,"migraine_risk":10,"frizz_risk":1,"updated_at":"2026-04-27T14:51:32.623708+05:30"},{"city":"Pondicherry","state":"Puducherry","latitude":11.9139,"longitude":79.8145,"temp":32.7,"humidity":63,"rain":0.0,"pressure":1004.8,"uv_index":9.2,"wind_gusts":52.6,"aqi":52,"pm10":22.1,"pm2_5":15.8,"mosquito_risk":3,"arthritis_risk":5,"migraine_risk":4,"frizz_risk":1,"updated_at":"2026-04-27T14:51:32.623717+05:30"},{"city":"Port Blair","state":"Andaman and Nicobar Islands","latitude":11.6234,"longitude":92.7265,"temp":32.2,"humidity":62,"rain":0.0,"pressure":1004.6,"uv_index":9.1,"wind_gusts":33.1,"aqi":54,"pm10":18.5,"pm2_5":14.1,"mosquito_risk":3,"arthritis_risk":5,"migraine_risk":4,"frizz_risk":1,"updated_at":"2026-04-27T14:51:32.623725+05:30"},{"city":"Haridwar","state":"Uttarakhand","latitude":29.9457,"longitude":78.1642,"temp":37.2,"humidity":21,"rain":0.0,"pressure":966.9,"uv_index":7.25,"wind_gusts":28.8,"aqi":109,"pm10":8.8,"pm2_5":7.4,"mosquito_risk":0,"arthritis_risk":5,"migraine_risk":10,"frizz_risk":0,"updated_at":"2026-04-27T14:51:32.623732+05:30"},{"city":"Rishikesh","state":"Uttarakhand","latitude":30.0869,"longitude":78.2676,"temp":36.1,"humidity":22,"rain":0.0,"pressure":959.9,"uv_index":7.35,"wind_gusts":27.4,"aqi":102,"pm10":7.5,"pm2_5":5.9,"mosquito_risk":0,"arthritis_risk":5,"migraine_risk":10,"frizz_risk":0,"updated_at":"2026-04-27T14:51:32.623739+05:30"},{"city":"Nainital","state":"Uttarakhand","latitude":29.3919,"longitude":79.4542,"temp":24.3,"humidity":37,"rain":0.0,"pressure":804.5,"uv_index":8.2,"wind_gusts":37.8,"aqi":117,"pm10":24.6,"pm2_5":16.4,"mosquito_risk":0,"arthritis_risk":5,"migraine_risk":7,"frizz_risk":0,"updated_at":"2026-04-27T14:51:32.623746+05:30"},{"city":"Mussoorie","state":"Uttarakhand","latitude":30.4599,"longitude":78.0664,"temp":24.0,"humidity":32,"rain":0.0,"pressure":802.5,"uv_index":7.75,"wind_gusts":51.8,"aqi":105,"pm10":8.6,"pm2_5":7.5,"mosquito_risk":0,"arthritis_risk":5,"migraine_risk":7,"frizz_risk":0,"updated_at":"2026-04-27T14:51:32.623753+05:30"},{"city":"Dharamshala","state":"Himachal Pradesh","latitude":32.219,"longitude":76.3234,"temp":29.1,"humidity":23,"rain":0.0,"pressure":867.3,"uv_index":8.1,"wind_gusts":52.2,"aqi":95,"pm10":8.6,"pm2_5":3.2,"mosquito_risk":4,"arthritis_risk":5,"migraine_risk":7,"frizz_risk":0,"updated_at":"2026-04-27T14:51:32.623760+05:30"},{"city":"Dalhousie","state":"Himachal Pradesh","latitude":32.5387,"longitude":75.971,"temp":24.8,"humidity":22,"rain":0.0,"pressure":805.0,"uv_index":8.3,"wind_gusts":42.1,"aqi":91,"pm10":7.0,"pm2_5":3.2,"mosquito_risk":0,"arthritis_risk":5,"migraine_risk":7,"frizz_risk":0,"updated_at":"2026-04-27T14:51:32.623767+05:30"},{"city":"Patiala","state":"Punjab","latitude":30.3398,"longitude":76.3869,"temp":40.9,"humidity":12,"rain":0.0,"pressure":971.1,"uv_index":7.35,"wind_gusts":47.9,"aqi":329,"pm10":627.7,"pm2_5":55.1,"mosquito_risk":0,"arthritis_risk":5,"migraine_risk":10,"frizz_risk":0,"updated_at":"2026-04-27T14:51:32.623774+05:30"},{"city":"Bhatinda","state":"Punjab","latitude":30.211,"longitude":74.9455,"temp":42.5,"humidity":13,"rain":0.0,"pressure":976.8,"uv_index":8.0,"wind_gusts":46.4,"aqi":77,"pm10":67.5,"pm2_5":18.7,"mosquito_risk":0,"arthritis_risk":5,"migraine_risk":10,"frizz_risk":0,"updated_at":"2026-04-27T14:51:32.623780+05:30"},{"city":"Rohtak","state":"Haryana","latitude":28.8955,"longitude":76.6066,"temp":41.8,"humidity":14,"rain":0.0,"pressure":974.8,"uv_index":7.5,"wind_gusts":42.8,"aqi":597,"pm10":612.8,"pm2_5":60.8,"mosquito_risk":0,"arthritis_risk":5,"migraine_risk":10,"frizz_risk":0,"updated_at":"2026-04-27T14:51:32.623804+05:30"},{"city":"Panipat","state":"Haryana","latitude":29.3909,"longitude":76.9635,"temp":42.5,"humidity":10,"rain":0.0,"pressure":972.7,"uv_index":7.3,"wind_gusts":49.7,"aqi":1103,"pm10":1337.4,"pm2_5":112.9,"mosquito_risk":0,"arthritis_risk":5,"migraine_risk":10,"frizz_risk":0,"updated_at":"2026-04-27T14:51:32.623812+05:30"},{"city":"Mathura","state":"Uttar Pradesh","latitude":27.4924,"longitude":77.6737,"temp":42.0,"humidity":15,"rain":0.0,"pressure":979.6,"uv_index":7.75,"wind_gusts":38.2,"aqi":640,"pm10":782.3,"pm2_5":75.2,"mosquito_risk":0,"arthritis_risk":5,"migraine_risk":10,"frizz_risk":0,"updated_at":"2026-04-27T14:51:32.623817+05:30"},{"city":"Vrindavan","state":"Uttar Pradesh","latitude":27.5823,"longitude":77.7027,"temp":42.2,"humidity":15,"rain":0.0,"pressure":980.0,"uv_index":7.65,"wind_gusts":41.4,"aqi":640,"pm10":782.3,"pm2_5":75.2,"mosquito_risk":0,"arthritis_risk":5,"migraine_risk":10,"frizz_risk":0,"updated_at":"2026-04-27T14:51:32.623824+05:30"},{"city":"Ayodhya","state":"Uttar Pradesh","latitude":26.7922,"longitude":82.1998,"temp":39.6,"humidity":25,"rain":0.0,"pressure":987.2,"uv_index":8.1,"wind_gusts":36.4,"aqi":133,"pm10":145.3,"pm2_5":44.8,"mosquito_risk":0,"arthritis_risk":5,"migraine_risk":10,"frizz_risk":0,"updated_at":"2026-04-27T14:51:32.623830+05:30"},{"city":"Ratlam","state":"Madhya Pradesh","latitude":23.3315,"longitude":75.0367,"temp":40.7,"humidity":11,"rain":0.0,"pressure":951.2,"uv_index":8.45,"wind_gusts":48.6,"aqi":56,"pm10":21.8,"pm2_5":8.1,"mosquito_risk":0,"arthritis_risk":5,"migraine_risk":10,"frizz_risk":0,"updated_at":"2026-04-27T14:51:32.623837+05:30"},{"city":"Sagar","state":"Madhya Pradesh","latitude":23.8388,"longitude":78.7378,"temp":40.5,"humidity":14,"rain":0.0,"pressure":946.1,"uv_index":8.6,"wind_gusts":44.3,"aqi":68,"pm10":39.9,"pm2_5":11.2,"mosquito_risk":0,"arthritis_risk":5,"migraine_risk":10,"frizz_risk":0,"updated_at":"2026-04-27T14:51:32.623842+05:30"},{"city":"Satna","state":"Madhya Pradesh","latitude":24.6005,"longitude":80.8322,"temp":41.8,"humidity":13,"rain":0.0,"pressure":965.0,"uv_index":8.65,"wind_gusts":54.4,"aqi":67,"pm10":43.2,"pm2_5":13.7,"mosquito_risk":0,"arthritis_risk":5,"migraine_risk":10,"frizz_risk":0,"updated_at":"2026-04-27T14:51:32.623849+05:30"},{"city":"Akola","state":"Maharashtra","latitude":20.7002,"longitude":77.0082,"temp":43.0,"humidity":12,"rain":0.0,"pressure":970.0,"uv_index":8.85,"wind_gusts":34.2,"aqi":85,"pm10":21.8,"pm2_5":13.1,"mosquito_risk":0,"arthritis_risk":5,"migraine_risk":10,"frizz_risk":0,"updated_at":"2026-04-27T14:51:32.623856+05:30"},{"city":"Amravati","state":"Maharashtra","latitude":20.9374,"longitude":77.7796,"temp":43.0,"humidity":10,"rain":0.0,"pressure":962.4,"uv_index":8.9,"wind_gusts":34.6,"aqi":87,"pm10":23.9,"pm2_5":13.1,"mosquito_risk":0,"arthritis_risk":5,"migraine_risk":10,"frizz_risk":0,"updated_at":"2026-04-27T14:51:32.623863+05:30"},{"city":"Latur","state":"Maharashtra","latitude":18.4088,"longitude":76.5604,"temp":40.8,"humidity":13,"rain":0.0,"pressure":936.7,"uv_index":9.05,"wind_gusts":40.3,"aqi":101,"pm10":29.5,"pm2_5":17.8,"mosquito_risk":0,"arthritis_risk":5,"migraine_risk":10,"frizz_risk":0,"updated_at":"2026-04-27T14:51:32.623869+05:30"},{"city":"Nanded","state":"Maharashtra","latitude":19.1383,"longitude":77.3091,"temp":42.8,"humidity":12,"rain":0.0,"pressure":963.8,"uv_index":9.0,"wind_gusts":40.7,"aqi":106,"pm10":37.3,"pm2_5":18.6,"mosquito_risk":0,"arthritis_risk":5,"migraine_risk":10,"frizz_risk":0,"updated_at":"2026-04-27T14:51:32.623875+05:30"},{"city":"Gulbarga","state":"Karnataka","latitude":17.3297,"longitude":76.8343,"temp":42.1,"humidity":13,"rain":0.0,"pressure":954.1,"uv_index":9.05,"wind_gusts":31.3,"aqi":106,"pm10":43.1,"pm2_5":33.1,"mosquito_risk":0,"arthritis_risk":5,"migraine_risk":10,"frizz_risk":0,"updated_at":"2026-04-27T14:51:32.623881+05:30"},{"city":"Bidar","state":"Karnataka","latitude":17.9104,"longitude":77.5199,"temp":40.0,"humidity":15,"rain":0.0,"pressure":932.6,"uv_index":9.05,"wind_gusts":30.6,"aqi":125,"pm10":40.2,"pm2_5":29.7,"mosquito_risk":0,"arthritis_risk":5,"migraine_risk":10,"frizz_risk":0,"updated_at":"2026-04-27T14:51:32.623887+05:30"},{"city":"Hospet","state":"Karnataka","latitude":15.2689,"longitude":76.3909,"temp":37.5,"humidity":28,"rain":0.0,"pressure":952.6,"uv_index":9.25,"wind_gusts":36.4,"aqi":97,"pm10":46.1,"pm2_5":37.0,"mosquito_risk":0,"arthritis_risk":5,"migraine_risk":10,"frizz_risk":0,"updated_at":"2026-04-27T14:51:32.623893+05:30"},{"city":"Tirupur","state":"Tamil Nadu","latitude":11.1085,"longitude":77.3411,"temp":39.7,"humidity":19,"rain":0.0,"pressure":970.8,"uv_index":9.35,"wind_gusts":37.1,"aqi":76,"pm10":26.5,"pm2_5":18.7,"mosquito_risk":0,"arthritis_risk":5,"migraine_risk":10,"frizz_risk":0,"updated_at":"2026-04-27T14:51:32.623899+05:30"},{"city":"Alappuzha","state":"Kerala","latitude":9.4981,"longitude":76.3388,"temp":31.0,"humidity":73,"rain":0.0,"pressure":1005.3,"uv_index":7.95,"wind_gusts":37.4,"aqi":76,"pm10":20.0,"pm2_5":16.8,"mosquito_risk":3,"arthritis_risk":5,"migraine_risk":4,"frizz_risk":1,"updated_at":"2026-04-27T14:51:32.623906+05:30"},{"city":"Munnar","state":"Kerala","latitude":10.0889,"longitude":77.0595,"temp":24.0,"humidity":65,"rain":0.1,"pressure":856.5,"uv_index":9.6,"wind_gusts":27.0,"aqi":71,"pm10":21.0,"pm2_5":15.4,"mosquito_risk":6,"arthritis_risk":5,"migraine_risk":7,"frizz_risk":1,"updated_at":"2026-04-27T14:51:32.623913+05:30"},{"city":"Silchar","state":"Assam","latitude":24.8333,"longitude":92.7789,"temp":26.1,"humidity":76,"rain":0.2,"pressure":999.5,"uv_index":8.75,"wind_gusts":32.8,"aqi":156,"pm10":59.4,"pm2_5":41.6,"mosquito_risk":10,"arthritis_risk":5,"migraine_risk":7,"frizz_risk":1,"updated_at":"2026-04-27T14:51:32.623919+05:30"},{"city":"Dibrugarh","state":"Assam","latitude":27.4728,"longitude":94.912,"temp":24.4,"humidity":80,"rain":0.1,"pressure":991.9,"uv_index":1.6,"wind_gusts":28.8,"aqi":94,"pm10":69.8,"pm2_5":43.1,"mosquito_risk":6,"arthritis_risk":5,"migraine_risk":3,"frizz_risk":1,"updated_at":"2026-04-27T14:51:32.623926+05:30"}]