[{"city":"Delhi","state":"Delhi","latitude":28.6139,"longitude":77.209,"temp":27.5,"humidity":47,"rain":0.0,"pressure":984.6,"uv_index":7.15,"wind_gusts":31.0,"aqi":565,"pm10":413.5,"pm2_5":81.0,"mosquito_risk":4,"arthritis_risk":5,"migraine_risk":7,"frizz_risk":0,"updated_at":"2026-04-11T20:08:39.986957+05:30"},{"city":"Mumbai","state":"Maharashtra","latitude":19.076,"longitude":72.8777,"temp":29.1,"humidity":71,"rain":0.0,"pressure":1009.0,"uv_index":7.95,"wind_gusts":23.4,"aqi":179,"pm10":37.7,"pm2_5":31.0,"mosquito_risk":7,"arthritis_risk":0,"migraine_risk":4,"frizz_risk":1,"updated_at":"2026-04-11T20:08:39.987001+05:30"},{"city":"Bangalore","state":"Karnataka","latitude":12.9716,"longitude":77.5946,"temp":30.7,"humidity":34,"rain":0.0,"pressure":912.9,"uv_index":9.65,"wind_gusts":27.4,"aqi":127,"pm10":41.3,"pm2_5":33.5,"mosquito_risk":0,"arthritis_risk":5,"migraine_risk":7,"frizz_risk":0,"updated_at":"2026-04-11T20:08:39.987017+05:30"},{"city":"Hyderabad","state":"Telangana","latitude":17.385,"longitude":78.4867,"temp":34.4,"humidity":30,"rain":0.0,"pressure":954.1,"uv_index":9.2,"wind_gusts":18.7,"aqi":174,"pm10":47.1,"pm2_5":37.7,"mosquito_risk":0,"arthritis_risk":5,"migraine_risk":7,"frizz_risk":0,"updated_at":"2026-04-11T20:08:39.987027+05:30"},{"city":"Chennai","state":"Tamil Nadu","latitude":13.0827,"longitude":80.2707,"temp":29.5,"humidity":81,"rain":0.0,"pressure":1008.5,"uv_index":9.05,"wind_gusts":35.6,"aqi":56,"pm10":18.5,"pm2_5":12.9,"mosquito_risk":7,"arthritis_risk":0,"migraine_risk":4,"frizz_risk":1,"updated_at":"2026-04-11T20:08:39.987036+05:30"},{"city":"Kolkata","state":"West Bengal","latitude":22.5726,"longitude":88.3639,"temp":27.4,"humidity":69,"rain":0.0,"pressure":1007.0,"uv_index":8.75,"wind_gusts":18.0,"aqi":142,"pm10":85.0,"pm2_5":71.2,"mosquito_risk":7,"arthritis_risk":5,"migraine_risk":4,"frizz_risk":1,"updated_at":"2026-04-11T20:08:39.987045+05:30"},{"city":"Pune","state":"Maharashtra","latitude":18.5204,"longitude":73.8567,"temp":30.2,"humidity":46,"rain":0.0,"pressure":949.8,"uv_index":8.55,"wind_gusts":38.9,"aqi":168,"pm10":46.0,"pm2_5":39.3,"mosquito_risk":0,"arthritis_risk":5,"migraine_risk":7,"frizz_risk":1,"updated_at":"2026-04-11T20:08:39.987057+05:30"},{"city":"Ahmedabad","state":"Gujarat","latitude":23.0225,"longitude":72.5714,"temp":34.3,"humidity":25,"rain":0.0,"pressure":1002.4,"uv_index":8.05,"wind_gusts":22.3,"aqi":156,"pm10":47.1,"pm2_5":32.4,"mosquito_risk":0,"arthritis_risk":5,"migraine_risk":4,"frizz_risk":0,"updated_at":"2026-04-11T20:08:39.987064+05:30"},{"city":"Jaipur","state":"Rajasthan","latitude":26.9124,"longitude":75.7873,"temp":30.3,"humidity":25,"rain":0.0,"pressure":961.0,"uv_index":7.85,"wind_gusts":40.7,"aqi":123,"pm10":203.5,"pm2_5":36.7,"mosquito_risk":0,"arthritis_risk":5,"migraine_risk":7,"frizz_risk":0,"updated_at":"2026-04-11T20:08:39.987073+05:30"},{"city":"Lucknow","state":"Uttar Pradesh","latitude":26.8467,"longitude":80.9462,"temp":29.5,"humidity":34,"rain":0.0,"pressure":994.6,"uv_index":7.65,"wind_gusts":42.1,"aqi":281,"pm10":309.2,"pm2_5":57.3,"mosquito_risk":4,"arthritis_risk":5,"migraine_risk":7,"frizz_risk":0,"updated_at":"2026-04-11T20:08:39.987080+05:30"},{"city":"Kanpur","state":"Uttar Pradesh","latitude":26.4499,"longitude":80.3319,"temp":27.5,"humidity":50,"rain":0.0,"pressure":993.2,"uv_index":7.65,"wind_gusts":36.4,"aqi":627,"pm10":555.1,"pm2_5":81.3,"mosquito_risk":4,"arthritis_risk":5,"migraine_risk":7,"frizz_risk":1,"updated_at":"2026-04-11T20:08:39.987087+05:30"},{"city":"Chandigarh","state":"Chandigarh","latitude":30.7333,"longitude":76.7794,"temp":23.6,"humidity":53,"rain":0.0,"pressure":971.3,"uv_index":7.15,"wind_gusts":29.9,"aqi":122,"pm10":85.4,"pm2_5":32.7,"mosquito_risk":0,"arthritis_risk":5,"migraine_risk":7,"frizz_risk":0,"updated_at":"2026-04-11T20:08:39.987094+05:30"},{"city":"Srinagar","state":"Jammu and Kashmir","latitude":34.0837,"longitude":74.7973,"temp":10.7,"humidity":76,"rain":0.0,"pressure":841.2,"uv_index":7.4,"wind_gusts":14.0,"aqi":103,"pm10":41.4,"pm2_5":21.5,"mosquito_risk":3,"arthritis_risk":5,"migraine_risk":7,"frizz_risk":0,"updated_at":"2026-04-11T20:08:39.987101+05:30"},{"city":"Jammu","state":"Jammu and Kashmir","latitude":32.7266,"longitude":74.857,"temp":23.0,"humidity":58,"rain":0.0,"pressure":975.8,"uv_index":6.8,"wind_gusts":16.6,"aqi":106,"pm10":64.7,"pm2_5":30.7,"mosquito_risk":0,"arthritis_risk":5,"migraine_risk":7,"frizz_risk":0,"updated_at":"2026-04-11T20:08:39.987108+05:30"},{"city":"Amritsar","state":"Punjab","latitude":31.634,"longitude":74.8723,"temp":23.7,"humidity":57,"rain":0.0,"pressure":984.0,"uv_index":7.7,"wind_gusts":18.7,"aqi":111,"pm10":95.7,"pm2_5":36.6,"mosquito_risk":0,"arthritis_risk":5,"migraine_risk":7,"frizz_risk":0,"updated_at":"2026-04-11T20:08:39.987115+05:30"},{"city":"Ludhiana","state":"Punjab","latitude":30.901,"longitude":75.8573,"temp":25.6,"humidity":44,"rain":0.0,"pressure":981.8,"uv_index":7.35,"wind_gusts":28.8,"aqi":113,"pm10":95.2,"pm2_5":41.0,"mosquito_risk":4,"arthritis_risk":5,"migraine_risk":7,"frizz_risk":0,"updated_at":"2026-04-11T20:08:39.987121+05:30"},{"city":"Jalandhar","state":"Punjab","latitude":31.326,"longitude":75.5762,"temp":24.3,"humidity":51,"rain":0.0,"pressure":983.1,"uv_index":7.5,"wind_gusts":23.4,"aqi":111,"pm10":101.5,"pm2_5":36.6,"mosquito_risk":0,"arthritis_risk":5,"migraine_risk":7,"frizz_risk":0,"updated_at":"2026-04-11T20:08:39.987130+05:30"},{"city":"Dehradun","state":"Uttarakhand","latitude":30.6284,"longitude":78.0322,"temp":14.8,"humidity":64,"rain":0.0,"pressure":830.7,"uv_index":7.55,"wind_gusts":42.5,"aqi":105,"pm10":76.4,"pm2_5":17.3,"mosquito_risk":3,"arthritis_risk":5,"migraine_risk":7,"frizz_risk":0,"updated_at":"2026-04-11T20:08:39.987137+05:30"},{"city":"Shimla","state":"Himachal Pradesh","latitude":31.1048,"longitude":77.1734,"temp":12.0,"humidity":69,"rain":0.0,"pressure":784.7,"uv_index":7.5,"wind_gusts":46.4,"aqi":104,"pm10":80.3,"pm2_5":22.0,"mosquito_risk":3,"arthritis_risk":5,"migraine_risk":7,"frizz_risk":0,"updated_at":"2026-04-11T20:08:39.987143+05:30"},{"city":"Manali","state":"Himachal Pradesh","latitude":32.2396,"longitude":77.1887,"temp":13.2,"humidity":79,"rain":0.0,"pressure":820.0,"uv_index":8.5,"wind_gusts":29.5,"aqi":145,"pm10":32.4,"pm2_5":9.1,"mosquito_risk":3,"arthritis_risk":5,"migraine_risk":7,"frizz_risk":0,"updated_at":"2026-04-11T20:08:39.987150+05:30"},{"city":"Gurgaon","state":"Haryana","latitude":28.4595,"longitude":77.0266,"temp":27.0,"humidity":50,"rain":0.0,"pressure":983.0,"uv_index":7.3,"wind_gusts":26.3,"aqi":1497,"pm10":644.5,"pm2_5":99.9,"mosquito_risk":4,"arthritis_risk":5,"migraine_risk":7,"frizz_risk":0,"updated_at":"2026-04-11T20:08:39.987156+05:30"},{"city":"Noida","state":"Uttar Pradesh","latitude":28.5355,"longitude":77.391,"temp":27.2,"humidity":48,"rain":0.0,"pressure":986.1,"uv_index":7.2,"wind_gusts":31.3,"aqi":1497,"pm10":644.5,"pm2_5":99.9,"mosquito_risk":4,"arthritis_risk":5,"migraine_risk":7,"frizz_risk":0,"updated_at":"2026-04-11T20:08:39.987162+05:30"},{"city":"Ghaziabad","state":"Uttar Pradesh","latitude":28.6692,"longitude":77.4538,"temp":26.6,"humidity":52,"rain":0.0,"pressure":984.3,"uv_index":7.15,"wind_gusts":29.9,"aqi":440,"pm10":365.1,"pm2_5":73.6,"mosquito_risk":4,"arthritis_risk":5,"migraine_risk":7,"frizz_risk":0,"updated_at":"2026-04-11T20:08:39.987168+05:30"},{"city":"Faridabad","state":"Haryana","latitude":28.4089,"longitude":77.3178,"temp":26.7,"humidity":49,"rain":0.0,"pressure":985.3,"uv_index":7.25,"wind_gusts":31.0,"aqi":1497,"pm10":644.5,"pm2_5":99.9,"mosquito_risk":4,"arthritis_risk":5,"migraine_risk":7,"frizz_risk":0,"updated_at":"2026-04-11T20:08:39.987175+05:30"},{"city":"Meerut","state":"Uttar Pradesh","latitude":28.9845,"longitude":77.7064,"temp":25.4,"humidity":54,"rain":0.0,"pressure":983.1,"uv_index":7.05,"wind_gusts":34.2,"aqi":440,"pm10":365.1,"pm2_5":73.6,"mosquito_risk":4,"arthritis_risk":5,"migraine_risk":7,"frizz_risk":0,"updated_at":"2026-04-11T20:08:39.987181+05:30"},{"city":"Agra","state":"Uttar Pradesh","latitude":27.1767,"longitude":78.0081,"temp":29.1,"humidity":42,"rain":0.0,"pressure":989.0,"uv_index":7.55,"wind_gusts":28.8,"aqi":929,"pm10":625.8,"pm2_5":87.5,"mosquito_risk":4,"arthritis_risk":5,"migraine_risk":7,"frizz_risk":0,"updated_at":"2026-04-11T20:08:39.987188+05:30"},{"city":"Varanasi","state":"Uttar Pradesh","latitude":25.3176,"longitude":82.9739,"temp":29.0,"humidity":38,"rain":0.0,"pressure":998.5,"uv_index":8.25,"wind_gusts":37.8,"aqi":131,"pm10":83.4,"pm2_5":36.8,"mosquito_risk":4,"arthritis_risk":5,"migraine_risk":7,"frizz_risk":0,"updated_at":"2026-04-11T20:08:39.987197+05:30"},{"city":"Prayagraj","state":"Uttar Pradesh","latitude":25.4358,"longitude":81.8463,"temp":28.9,"humidity":35,"rain":0.0,"pressure":997.6,"uv_index":8.15,"wind_gusts":39.2,"aqi":133,"pm10":143.0,"pm2_5":43.4,"mosquito_risk":4,"arthritis_risk":5,"migraine_risk":7,"frizz_risk":0,"updated_at":"2026-04-11T20:08:39.987204+05:30"},{"city":"Gorakhpur","state":"Uttar Pradesh","latitude":26.7606,"longitude":83.3732,"temp":28.6,"humidity":32,"rain":0.0,"pressure":997.4,"uv_index":8.1,"wind_gusts":29.2,"aqi":146,"pm10":60.5,"pm2_5":27.8,"mosquito_risk":4,"arthritis_risk":5,"migraine_risk":7,"frizz_risk":0,"updated_at":"2026-04-11T20:08:39.987211+05:30"},{"city":"Bareilly","state":"Uttar Pradesh","latitude":28.367,"longitude":79.4304,"temp":25.5,"humidity":51,"rain":0.0,"pressure":988.0,"uv_index":7.45,"wind_gusts":46.4,"aqi":111,"pm10":65.7,"pm2_5":26.3,"mosquito_risk":4,"arthritis_risk":5,"migraine_risk":7,"frizz_risk":0,"updated_at":"2026-04-11T20:08:39.987218+05:30"},{"city":"Aligarh","state":"Uttar Pradesh","latitude":27.8974,"longitude":78.088,"temp":25.9,"humidity":45,"rain":0.0,"pressure":987.0,"uv_index":7.35,"wind_gusts":37.1,"aqi":999,"pm10":763.7,"pm2_5":110.6,"mosquito_risk":4,"arthritis_risk":5,"migraine_risk":7,"frizz_risk":0,"updated_at":"2026-04-11T20:08:39.987227+05:30"},{"city":"Moradabad","state":"Uttar Pradesh","latitude":28.8386,"longitude":78.7733,"temp":25.5,"humidity":54,"rain":0.0,"pressure":984.9,"uv_index":7.3,"wind_gusts":41.4,"aqi":103,"pm10":137.4,"pm2_5":41.3,"mosquito_risk":4,"arthritis_risk":5,"migraine_risk":7,"frizz_risk":0,"updated_at":"2026-04-11T20:08:39.987235+05:30"},{"city":"Saharanpur","state":"Uttar Pradesh","latitude":29.9637,"longitude":77.546,"temp":24.5,"humidity":50,"rain":0.0,"pressure":977.7,"uv_index":6.85,"wind_gusts":35.3,"aqi":108,"pm10":97.3,"pm2_5":34.7,"mosquito_risk":0,"arthritis_risk":5,"migraine_risk":7,"frizz_risk":0,"updated_at":"2026-04-11T20:08:39.987242+05:30"},{"city":"Jhansi","state":"Uttar Pradesh","latitude":25.4484,"longitude":78.5685,"temp":30.4,"humidity":32,"rain":0.0,"pressure":979.7,"uv_index":8.1,"wind_gusts":25.6,"aqi":119,"pm10":31.4,"pm2_5":14.0,"mosquito_risk":0,"arthritis_risk":5,"migraine_risk":7,"frizz_risk":0,"updated_at":"2026-04-11T20:08:43.333523+05:30"},{"city":"Surat","state":"Gujarat","latitude":21.1702,"longitude":72.8311,"temp":31.2,"humidity":42,"rain":0.0,"pressure":1007.0,"uv_index":7.8,"wind_gusts":27.7,"aqi":158,"pm10":68.7,"pm2_5":63.6,"mosquito_risk":0,"arthritis_risk":5,"migraine_risk":4,"frizz_risk":1,"updated_at":"2026-04-11T20:08:43.333554+05:30"},{"city":"Vadodara","state":"Gujarat","latitude":22.3072,"longitude":73.1812,"temp":33.0,"humidity":30,"rain":0.0,"pressure":1004.3,"uv_index":8.05,"wind_gusts":18.4,"aqi":181,"pm10":43.1,"pm2_5":35.4,"mosquito_risk":0,"arthritis_risk":5,"migraine_risk":4,"frizz_risk":0,"updated_at":"2026-04-11T20:08:43.333563+05:30"},{"city":"Rajkot","state":"Gujarat","latitude":22.3039,"longitude":70.8022,"temp":32.4,"humidity":24,"rain":0.0,"pressure":995.6,"uv_index":7.75,"wind_gusts":31.3,"aqi":125,"pm10":57.6,"pm2_5":25.4,"mosquito_risk":0,"arthritis_risk":5,"migraine_risk":7,"frizz_risk":0,"updated_at":"2026-04-11T20:08:43.333571+05:30"},{"city":"Thane","state":"Maharashtra","latitude":19.2183,"longitude":72.9781,"temp":28.8,"humidity":65,"rain":0.0,"pressure":1008.4,"uv_index":7.95,"wind_gusts":37.1,"aqi":179,"pm10":37.7,"pm2_5":31.0,"mosquito_risk":7,"arthritis_risk":0,"migraine_risk":4,"frizz_risk":1,"updated_at":"2026-04-11T20:08:43.333579+05:30"},{"city":"Nagpur","state":"Maharashtra","latitude":21.1458,"longitude":79.0882,"temp":30.0,"humidity":44,"rain":0.0,"pressure":974.2,"uv_index":8.75,"wind_gusts":22.7,"aqi":157,"pm10":27.4,"pm2_5":21.3,"mosquito_risk":4,"arthritis_risk":5,"migraine_risk":7,"frizz_risk":1,"updated_at":"2026-04-11T20:08:43.333586+05:30"},{"city":"Nashik","state":"Maharashtra","latitude":19.9975,"longitude":73.7898,"temp":29.9,"humidity":40,"rain":0.0,"pressure":947.2,"uv_index":8.25,"wind_gusts":36.7,"aqi":179,"pm10":34.7,"pm2_5":29.8,"mosquito_risk":4,"arthritis_risk":5,"migraine_risk":7,"frizz_risk":0,"updated_at":"2026-04-11T20:08:43.333593+05:30"},{"city":"Aurangabad","state":"Maharashtra","latitude":19.8762,"longitude":75.3433,"temp":32.2,"humidity":27,"rain":0.0,"pressure":945.2,"uv_index":8.9,"wind_gusts":33.1,"aqi":143,"pm10":26.7,"pm2_5":18.6,"mosquito_risk":0,"arthritis_risk":5,"migraine_risk":7,"frizz_risk":0,"updated_at":"2026-04-11T20:08:43.333600+05:30"},{"city":"Solapur","state":"Maharashtra","latitude":17.6599,"longitude":75.9064,"temp":35.7,"humidity":26,"rain":0.0,"pressure":957.2,"uv_index":9.0,"wind_gusts":18.7,"aqi":163,"pm10":42.0,"pm2_5":28.7,"mosquito_risk":0,"arthritis_risk":5,"migraine_risk":10,"frizz_risk":0,"updated_at":"2026-04-11T20:08:43.333607+05:30"},{"city":"Kolhapur","state":"Maharashtra","latitude":16.705,"longitude":74.2433,"temp":27.2,"humidity":55,"rain":0.0,"pressure":949.0,"uv_index":8.5,"wind_gusts":42.5,"aqi":153,"pm10":37.3,"pm2_5":30.5,"mosquito_risk":4,"arthritis_risk":5,"migraine_risk":7,"frizz_risk":1,"updated_at":"2026-04-11T20:08:43.333614+05:30"},{"city":"Goa","state":"Goa","latitude":15.2993,"longitude":74.124,"temp":28.5,"humidity":78,"rain":0.0,"pressure":999.4,"uv_index":9.05,"wind_gusts":34.9,"aqi":108,"pm10":69.2,"pm2_5":31.0,"mosquito_risk":7,"arthritis_risk":5,"migraine_risk":7,"frizz_risk":1,"updated_at":"2026-04-11T20:08:43.333621+05:30"},{"city":"Jodhpur","state":"Rajasthan","latitude":26.2389,"longitude":73.0243,"temp":31.5,"humidity":31,"rain":0.0,"pressure":983.7,"uv_index":8.05,"wind_gusts":33.1,"aqi":105,"pm10":237.5,"pm2_5":44.2,"mosquito_risk":0,"arthritis_risk":5,"migraine_risk":7,"frizz_risk":0,"updated_at":"2026-04-11T20:08:43.333628+05:30"},{"city":"Udaipur","state":"Rajasthan","latitude":24.5854,"longitude":73.7125,"temp":29.8,"humidity":31,"rain":0.0,"pressure":948.3,"uv_index":8.6,"wind_gusts":36.4,"aqi":120,"pm10":24.0,"pm2_5":13.7,"mosquito_risk":4,"arthritis_risk":5,"migraine_risk":7,"frizz_risk":0,"updated_at":"2026-04-11T20:08:43.333635+05:30"},{"city":"Kota","state":"Rajasthan","latitude":25.2138,"longitude":75.8648,"temp":30.1,"humidity":41,"rain":0.0,"pressure":979.5,"uv_index":8.1,"wind_gusts":21.6,"aqi":136,"pm10":31.5,"pm2_5":21.7,"mosquito_risk":0,"arthritis_risk":5,"migraine_risk":7,"frizz_risk":0,"updated_at":"2026-04-11T20:08:43.333642+05:30"},{"city":"Bikaner","state":"Rajasthan","latitude":28.0229,"longitude":73.3119,"temp":31.4,"humidity":28,"rain":0.0,"pressure":983.4,"uv_index":7.9,"wind_gusts":32.8,"aqi":122,"pm10":84.1,"pm2_5":23.7,"mosquito_risk":0,"arthritis_risk":5,"migraine_risk":7,"frizz_risk":0,"updated_at":"2026-04-11T20:08:43.333649+05:30"},{"city":"Ajmer","state":"Rajasthan","latitude":26.4499,"longitude":74.6399,"temp":27.4,"humidity":40,"rain":0.0,"pressure":955.8,"uv_index":8.0,"wind_gusts":40.3,"aqi":118,"pm10":54.5,"pm2_5":19.7,"mosquito_risk":4,"arthritis_risk":5,"migraine_risk":7,"frizz_risk":0,"updated_at":"2026-04-11T20:08:43.333656+05:30"},{"city":"Gwalior","state":"Madhya Pradesh","latitude":26.2183,"longitude":78.1828,"temp":29.7,"humidity":41,"rain":0.0,"pressure":984.6,"uv_index":7.8,"wind_gusts":30.6,"aqi":127,"pm10":33.8,"pm2_5":17.6,"mosquito_risk":4,"arthritis_risk":5,"migraine_risk":7,"frizz_risk":0,"updated_at":"2026-04-11T20:08:43.333662+05:30"},{"city":"Indore","state":"Madhya Pradesh","latitude":22.7196,"longitude":75.8577,"temp":28.1,"humidity":37,"rain":0.0,"pressure":949.6,"uv_index":8.5,"wind_gusts":21.6,"aqi":154,"pm10":41.2,"pm2_5":30.7,"mosquito_risk":4,"arthritis_risk":5,"migraine_risk":7,"frizz_risk":0,"updated_at":"2026-04-11T20:08:43.333669+05:30"},{"city":"Bhopal","state":"Madhya Pradesh","latitude":23.2599,"longitude":77.4126,"temp":30.3,"humidity":25,"rain":0.0,"pressure":955.3,"uv_index":8.5,"wind_gusts":24.5,"aqi":124,"pm10":30.0,"pm2_5":15.1,"mosquito_risk":0,"arthritis_risk":5,"migraine_risk":7,"frizz_risk":0,"updated_at":"2026-04-11T20:08:43.333675+05:30"},{"city":"Jabalpur","state":"Madhya Pradesh","latitude":23.1815,"longitude":79.9864,"temp":30.2,"humidity":32,"rain":0.0,"pressure":963.0,"uv_index":8.6,"wind_gusts":18.4,"aqi":128,"pm10":62.9,"pm2_5":29.3,"mosquito_risk":0,"arthritis_risk":5,"migraine_risk":7,"frizz_risk":0,"updated_at":"2026-04-11T20:08:43.333682+05:30"},{"city":"Ujjain","state":"Madhya Pradesh","latitude":23.1765,"longitude":75.7885,"temp":28.7,"humidity":36,"rain":0.0,"pressure":955.4,"uv_index":8.4,"wind_gusts":20.5,"aqi":138,"pm10":49.4,"pm2_5":37.8,"mosquito_risk":4,"arthritis_risk":5,"migraine_risk":7,"frizz_risk":0,"updated_at":"2026-04-11T20:08:43.333689+05:30"},{"city":"Visakhapatnam","state":"Andhra Pradesh","latitude":17.6868,"longitude":83.2185,"temp":28.4,"humidity":85,"rain":0.0,"pressure":1005.2,"uv_index":9.15,"wind_gusts":39.6,"aqi":78,"pm10":27.4,"pm2_5":21.0,"mosquito_risk":7,"arthritis_risk":5,"migraine_risk":4,"frizz_risk":1,"updated_at":"2026-04-11T20:08:43.333696+05:30"},{"city":"Vijayawada","state":"Andhra Pradesh","latitude":16.5062,"longitude":80.648,"temp":31.9,"humidity":57,"rain":0.0,"pressure":1003.1,"uv_index":9.2,"wind_gusts":25.6,"aqi":93,"pm10":28.4,"pm2_5":24.4,"mosquito_risk":0,"arthritis_risk":5,"migraine_risk":4,"frizz_risk":1,"updated_at":"2026-04-11T20:08:43.333702+05:30"},{"city":"Guntur","state":"Andhra Pradesh","latitude":16.3067,"longitude":80.4365,"temp":29.6,"humidity":69,"rain":0.0,"pressure":1004.7,"uv_index":9.25,"wind_gusts":33.5,"aqi":114,"pm10":37.1,"pm2_5":31.5,"mosquito_risk":7,"arthritis_risk":5,"migraine_risk":4,"frizz_risk":1,"updated_at":"2026-04-11T20:08:43.333709+05:30"},{"city":"Nellore","state":"Andhra Pradesh","latitude":14.4426,"longitude":79.9865,"temp":28.8,"humidity":81,"rain":0.0,"pressure":1007.0,"uv_index":9.3,"wind_gusts":40.7,"aqi":79,"pm10":17.1,"pm2_5":12.5,"mosquito_risk":7,"arthritis_risk":5,"migraine_risk":4,"frizz_risk":1,"updated_at":"2026-04-11T20:08:43.333716+05:30"},{"city":"Kurnool","state":"Andhra Pradesh","latitude":15.8281,"longitude":78.0373,"temp":36.1,"humidity":34,"rain":0.0,"pressure":976.4,"uv_index":9.2,"wind_gusts":27.0,"aqi":130,"pm10":32.8,"pm2_5":25.2,"mosquito_risk":0,"arthritis_risk":5,"migraine_risk":10,"frizz_risk":1,"updated_at":"2026-04-11T20:08:43.333724+05:30"},{"city":"Kakinada","state":"Andhra Pradesh","latitude":16.9891,"longitude":82.2475,"temp":29.2,"humidity":77,"rain":0.0,"pressure":1008.4,"uv_index":9.2,"wind_gusts":33.8,"aqi":60,"pm10":21.7,"pm2_5":14.4,"mosquito_risk":7,"arthritis_risk":0,"migraine_risk":4,"frizz_risk":1,"updated_at":"2026-04-11T20:08:43.333731+05:30"},{"city":"Tirupati","state":"Andhra Pradesh","latitude":13.6288,"longitude":79.4192,"temp":30.8,"humidity":61,"rain":0.0,"pressure":992.9,"uv_index":9.4,"wind_gusts":32.0,"aqi":95,"pm10":28.4,"pm2_5":24.3,"mosquito_risk":3,"arthritis_risk":5,"migraine_risk":7,"frizz_risk":1,"updated_at":"2026-04-11T20:08:43.333738+05:30"},{"city":"Warangal","state":"Telangana","latitude":17.9689,"longitude":79.5941,"temp":33.6,"humidity":37,"rain":0.0,"pressure":979.2,"uv_index":9.05,"wind_gusts":25.2,"aqi":160,"pm10":45.1,"pm2_5":35.6,"mosquito_risk":0,"arthritis_risk":5,"migraine_risk":7,"frizz_risk":1,"updated_at":"2026-04-11T20:08:43.333744+05:30"},{"city":"Nizamabad","state":"Telangana","latitude":18.6725,"longitude":78.0941,"temp":32.4,"humidity":42,"rain":0.0,"pressure":965.6,"uv_index":9.0,"wind_gusts":24.8,"aqi":172,"pm10":50.5,"pm2_5":37.8,"mosquito_risk":0,"arthritis_risk":5,"migraine_risk":7,"frizz_risk":1,"updated_at":"2026-04-11T20:08:43.333751+05:30"},{"city":"Mysore","state":"Karnataka","latitude":12.2958,"longitude":76.6396,"temp":28.5,"humidity":61,"rain":0.0,"pressure":929.5,"uv_index":9.35,"wind_gusts":38.9,"aqi":126,"pm10":46.8,"pm2_5":36.2,"mosquito_risk":7,"arthritis_risk":5,"migraine_risk":7,"frizz_risk":1,"updated_at":"2026-04-11T20:08:43.333757+05:30"},{"city":"Mangalore","state":"Karnataka","latitude":12.9141,"longitude":74.856,"temp":29.6,"humidity":80,"rain":0.0,"pressure":1007.7,"uv_index":8.6,"wind_gusts":25.9,"aqi":88,"pm10":71.7,"pm2_5":29.7,"mosquito_risk":7,"arthritis_risk":5,"migraine_risk":4,"frizz_risk":1,"updated_at":"2026-04-11T20:08:43.333764+05:30"},{"city":"Hubli-Dharwad","state":"Karnataka","latitude":15.3647,"longitude":75.124,"temp":27.1,"humidity":72,"rain":0.0,"pressure":941.7,"uv_index":9.25,"wind_gusts":42.5,"aqi":173,"pm10":40.6,"pm2_5":28.5,"mosquito_risk":7,"arthritis_risk":5,"migraine_risk":7,"frizz_risk":1,"updated_at":"2026-04-11T20:08:43.333771+05:30"},{"city":"Belgaum","state":"Karnataka","latitude":15.8497,"longitude":74.4977,"temp":25.4,"humidity":80,"rain":0.0,"pressure":926.8,"uv_index":9.3,"wind_gusts":43.9,"aqi":164,"pm10":42.7,"pm2_5":28.6,"mosquito_risk":7,"arthritis_risk":5,"migraine_risk":7,"frizz_risk":1,"updated_at":"2026-04-11T20:08:46.684579+05:30"},{"city":"Coimbatore","state":"Tamil Nadu","latitude":11.0168,"longitude":76.9558,"temp":28.1,"humidity":74,"rain":0.0,"pressure":962.6,"uv_index":8.2,"wind_gusts":46.1,"aqi":118,"pm10":38.0,"pm2_5":30.0,"mosquito_risk":7,"arthritis_risk":5,"migraine_risk":7,"frizz_risk":1,"updated_at":"2026-04-11T20:08:46.684609+05:30"},{"city":"Madurai","state":"Tamil Nadu","latitude":9.9252,"longitude":78.1198,"temp":31.2,"humidity":60,"rain":0.0,"pressure":994.1,"uv_index":8.45,"wind_gusts":40.0,"aqi":96,"pm10":28.8,"pm2_5":24.3,"mosquito_risk":0,"arthritis_risk":5,"migraine_risk":7,"frizz_risk":1,"updated_at":"2026-04-11T20:08:46.684619+05:30"},{"city":"Trichy","state":"Tamil Nadu","latitude":10.7905,"longitude":78.7047,"temp":31.6,"humidity":61,"rain":0.0,"pressure":1000.3,"uv_index":9.4,"wind_gusts":27.7,"aqi":91,"pm10":24.9,"pm2_5":21.5,"mosquito_risk":3,"arthritis_risk":5,"migraine_risk":4,"frizz_risk":1,"updated_at":"2026-04-11T20:08:46.684627+05:30"},{"city":"Salem","state":"Tamil Nadu","latitude":11.6643,"longitude":78.146,"temp":33.0,"humidity":41,"rain":0.0,"pressure":977.5,"uv_index":9.1,"wind_gusts":21.6,"aqi":117,"pm10":29.7,"pm2_5":24.2,"mosquito_risk":0,"arthritis_risk":5,"migraine_risk":7,"frizz_risk":1,"updated_at":"2026-04-11T20:08:46.684635+05:30"},{"city":"Tirunelveli","state":"Tamil Nadu","latitude":8.7139,"longitude":77.7567,"temp":31.0,"humidity":61,"rain":0.0,"pressure":1003.9,"uv_index":9.25,"wind_gusts":46.1,"aqi":106,"pm10":23.9,"pm2_5":20.4,"mosquito_risk":3,"arthritis_risk":5,"migraine_risk":4,"frizz_risk":1,"updated_at":"2026-04-11T20:08:46.684642+05:30"},{"city":"Vellore","state":"Tamil Nadu","latitude":12.9165,"longitude":79.1325,"temp":31.2,"humidity":50,"rain":0.0,"pressure":985.4,"uv_index":9.45,"wind_gusts":35.3,"aqi":102,"pm10":32.0,"pm2_5":28.2,"mosquito_risk":0,"arthritis_risk":5,"migraine_risk":7,"frizz_risk":1,"updated_at":"2026-04-11T20:08:46.684649+05:30"},{"city":"Erode","state":"Tamil Nadu","latitude":11.341,"longitude":77.7172,"temp":34.3,"humidity":40,"rain":0.0,"pressure":988.8,"uv_index":8.95,"wind_gusts":31.0,"aqi":120,"pm10":29.3,"pm2_5":23.9,"mosquito_risk":0,"arthritis_risk":5,"migraine_risk":7,"frizz_risk":1,"updated_at":"2026-04-11T20:08:46.684656+05:30"},{"city":"Kochi","state":"Kerala","latitude":9.9312,"longitude":76.2673,"temp":29.7,"humidity":81,"rain":0.0,"pressure":1009.3,"uv_index":8.8,"wind_gusts":29.9,"aqi":69,"pm10":33.2,"pm2_5":20.8,"mosquito_risk":7,"arthritis_risk":0,"migraine_risk":4,"frizz_risk":1,"updated_at":"2026-04-11T20:08:46.684663+05:30"},{"city":"Thiruvananthapuram","state":"Kerala","latitude":8.5241,"longitude":76.9366,"temp":29.2,"humidity":81,"rain":0.0,"pressure":1009.0,"uv_index":7.6,"wind_gusts":36.4,"aqi":78,"pm10":31.7,"pm2_5":17.2,"mosquito_risk":7,"arthritis_risk":0,"migraine_risk":4,"frizz_risk":1,"updated_at":"2026-04-11T20:08:46.684670+05:30"},{"city":"Kozhikode","state":"Kerala","latitude":11.2588,"longitude":75.7804,"temp":29.9,"humidity":80,"rain":0.0,"pressure":1008.4,"uv_index":8.75,"wind_gusts":28.8,"aqi":60,"pm10":37.1,"pm2_5":15.2,"mosquito_risk":7,"arthritis_risk":0,"migraine_risk":4,"frizz_risk":1,"updated_at":"2026-04-11T20:08:46.684677+05:30"},{"city":"Thrissur","state":"Kerala","latitude":10.5276,"longitude":76.2144,"temp":29.4,"humidity":80,"rain":0.0,"pressure":1007.7,"uv_index":8.8,"wind_gusts":31.7,"aqi":67,"pm10":29.2,"pm2_5":17.6,"mosquito_risk":7,"arthritis_risk":5,"migraine_risk":4,"frizz_risk":1,"updated_at":"2026-04-11T20:08:46.684684+05:30"},{"city":"Kannur","state":"Kerala","latitude":11.8745,"longitude":75.3704,"temp":29.8,"humidity":79,"rain":0.0,"pressure":1007.8,"uv_index":8.65,"wind_gusts":31.3,"aqi":65,"pm10":65.4,"pm2_5":31.5,"mosquito_risk":7,"arthritis_risk":5,"migraine_risk":4,"frizz_risk":1,"updated_at":"2026-04-11T20:08:46.684692+05:30"},{"city":"Patna","state":"Bihar","latitude":25.5941,"longitude":85.1376,"temp":29.5,"humidity":38,"rain":0.0,"pressure":1000.0,"uv_index":8.45,"wind_gusts":28.4,"aqi":144,"pm10":106.4,"pm2_5":51.8,"mosquito_risk":4,"arthritis_risk":5,"migraine_risk":4,"frizz_risk":0,"updated_at":"2026-04-11T20:08:46.684700+05:30"},{"city":"Gaya","state":"Bihar","latitude":24.7914,"longitude":85.0002,"temp":27.8,"humidity":36,"rain":0.0,"pressure":994.3,"uv_index":8.5,"wind_gusts":33.5,"aqi":126,"pm10":83.8,"pm2_5":36.9,"mosquito_risk":4,"arthritis_risk":5,"migraine_risk":7,"frizz_risk":0,"updated_at":"2026-04-11T20:08:46.684706+05:30"},{"city":"Muzaffarpur","state":"Bihar","latitude":26.1209,"longitude":85.3647,"temp":26.7,"humidity":45,"rain":0.0,"pressure":1000.3,"uv_index":8.4,"wind_gusts":16.2,"aqi":139,"pm10":115.5,"pm2_5":56.8,"mosquito_risk":4,"arthritis_risk":5,"migraine_risk":4,"frizz_risk":0,"updated_at":"2026-04-11T20:08:46.684712+05:30"},{"city":"Bhagalpur","state":"Bihar","latitude":25.2425,"longitude":87.0117,"temp":26.0,"humidity":59,"rain":0.0,"pressure":1001.5,"uv_index":8.45,"wind_gusts":20.5,"aqi":161,"pm10":313.9,"pm2_5":73.8,"mosquito_risk":4,"arthritis_risk":5,"migraine_risk":4,"frizz_risk":1,"updated_at":"2026-04-11T20:08:46.684719+05:30"},{"city":"Ranchi","state":"Jharkhand","latitude":23.3441,"longitude":85.3096,"temp":25.5,"humidity":30,"rain":0.0,"pressure":939.4,"uv_index":9.05,"wind_gusts":31.7,"aqi":120,"pm10":81.0,"pm2_5":27.1,"mosquito_risk":4,"arthritis_risk":5,"migraine_risk":7,"frizz_risk":0,"updated_at":"2026-04-11T20:08:46.684726+05:30"},{"city":"Jamshedpur","state":"Jharkhand","latitude":22.8046,"longitude":86.2029,"temp":27.2,"humidity":55,"rain":0.0,"pressure":991.8,"uv_index":8.85,"wind_gusts":14.8,"aqi":152,"pm10":158.8,"pm2_5":41.8,"mosquito_risk":4,"arthritis_risk":5,"migraine_risk":7,"frizz_risk":1,"updated_at":"2026-04-11T20:08:46.684733+05:30"},{"city":"Dhanbad","state":"Jharkhand","latitude":23.7957,"longitude":86.4304,"temp":29.3,"humidity":32,"rain":0.0,"pressure":980.5,"uv_index":8.8,"wind_gusts":24.5,"aqi":144,"pm10":160.7,"pm2_5":62.9,"mosquito_risk":4,"arthritis_risk":5,"migraine_risk":7,"frizz_risk":0,"updated_at":"2026-04-11T20:08:46.684740+05:30"},{"city":"Bokaro","state":"Jharkhand","latitude":23.6693,"longitude":86.1511,"temp":26.5,"humidity":38,"rain":0.0,"pressure":984.7,"uv_index":8.8,"wind_gusts":25.6,"aqi":139,"pm10":139.2,"pm2_5":53.9,"mosquito_risk":4,"arthritis_risk":5,"migraine_risk":7,"frizz_risk":0,"updated_at":"2026-04-11T20:08:46.684746+05:30"},{"city":"Bhubaneswar","state":"Odisha","latitude":20.2961,"longitude":85.8245,"temp":28.0,"humidity":84,"rain":0.0,"pressure":1004.3,"uv_index":9.0,"wind_gusts":26.3,"aqi":167,"pm10":57.7,"pm2_5":49.9,"mosquito_risk":7,"arthritis_risk":5,"migraine_risk":4,"frizz_risk":1,"updated_at":"2026-04-11T20:08:46.684753+05:30"},{"city":"Cuttack","state":"Odisha","latitude":20.4625,"longitude":85.8828,"temp":29.9,"humidity":70,"rain":0.0,"pressure":1005.8,"uv_index":9.05,"wind_gusts":20.2,"aqi":167,"pm10":57.7,"pm2_5":49.9,"mosquito_risk":7,"arthritis_risk":5,"migraine_risk":4,"frizz_risk":1,"updated_at":"2026-04-11T20:08:46.684760+05:30"},{"city":"Rourkela","state":"Odisha","latitude":22.2604,"longitude":84.8536,"temp":26.4,"humidity":58,"rain":0.0,"pressure":986.1,"uv_index":8.75,"wind_gusts":16.2,"aqi":142,"pm10":152.3,"pm2_5":45.8,"mosquito_risk":4,"arthritis_risk":5,"migraine_risk":7,"frizz_risk":1,"updated_at":"2026-04-11T20:08:46.684766+05:30"},{"city":"Raipur","state":"Chhattisgarh","latitude":21.2514,"longitude":81.6296,"temp":32.3,"humidity":30,"rain":0.0,"pressure":975.6,"uv_index":8.85,"wind_gusts":21.6,"aqi":158,"pm10":53.6,"pm2_5":34.7,"mosquito_risk":0,"arthritis_risk":5,"migraine_risk":7,"frizz_risk":0,"updated_at":"2026-04-11T20:08:46.684772+05:30"},{"city":"Bhilai","state":"Chhattisgarh","latitude":21.1938,"longitude":81.3509,"temp":31.3,"humidity":35,"rain":0.0,"pressure":975.8,"uv_index":8.85,"wind_gusts":19.8,"aqi":144,"pm10":60.5,"pm2_5":40.5,"mosquito_risk":0,"arthritis_risk":5,"migraine_risk":7,"frizz_risk":0,"updated_at":"2026-04-11T20:08:46.684779+05:30"},{"city":"Guwahati","state":"Assam","latitude":26.1158,"longitude":91.7086,"temp":25.9,"humidity":71,"rain":0.0,"pressure":1003.1,"uv_index":8.35,"wind_gusts":20.2,"aqi":131,"pm10":55.8,"pm2_5":43.1,"mosquito_risk":7,"arthritis_risk":5,"migraine_risk":4,"frizz_risk":1,"updated_at":"2026-04-11T20:08:46.684785+05:30"},{"city":"Agartala","state":"Tripura","latitude":23.8315,"longitude":91.2868,"temp":25.7,"humidity":69,"rain":0.0,"pressure":1007.2,"uv_index":8.6,"wind_gusts":21.6,"aqi":171,"pm10":45.1,"pm2_5":37.6,"mosquito_risk":7,"arthritis_risk":5,"migraine_risk":4,"frizz_risk":1,"updated_at":"2026-04-11T20:08:46.684791+05:30"},{"city":"Shillong","state":"Meghalaya","latitude":25.5788,"longitude":91.8933,"temp":12.7,"humidity":77,"rain":0.0,"pressure":855.9,"uv_index":8.75,"wind_gusts":52.2,"aqi":152,"pm10":54.2,"pm2_5":38.8,"mosquito_risk":3,"arthritis_risk":5,"migraine_risk":7,"frizz_risk":0,"updated_at":"2026-04-11T20:08:46.684798+05:30"},{"city":"Imphal","state":"Manipur","latitude":24.817,"longitude":93.9368,"temp":16.7,"humidity":76,"rain":0.0,"pressure":924.2,"uv_index":8.95,"wind_gusts":52.2,"aqi":127,"pm10":45.9,"pm2_5":31.5,"mosquito_risk":3,"arthritis_risk":5,"migraine_risk":7,"frizz_risk":0,"updated_at":"2026-04-11T20:08:46.684804+05:30"},{"city":"Aizawl","state":"Mizoram","latitude":23.7271,"longitude":92.7176,"temp":18.3,"humidity":73,"rain":0.0,"pressure":893.6,"uv_index":8.8,"wind_gusts":41.8,"aqi":126,"pm10":51.3,"pm2_5":35.3,"mosquito_risk":3,"arthritis_risk":5,"migraine_risk":7,"frizz_risk":0,"updated_at":"2026-04-11T20:08:46.684810+05:30"},{"city":"Kohima","state":"Nagaland","latitude":25.6701,"longitude":94.1077,"temp":14.0,"humidity":80,"rain":0.0,"pressure":854.9,"uv_index":7.6,"wind_gusts":65.9,"aqi":121,"pm10":42.1,"pm2_5":29.4,"mosquito_risk":3,"arthritis_risk":5,"migraine_risk":7,"frizz_risk":0,"updated_at":"2026-04-11T20:08:46.684817+05:30"},{"city":"Gangtok","state":"Sikkim","latitude":27.3314,"longitude":88.6138,"temp":13.1,"humidity":92,"rain":0.0,"pressure":836.9,"uv_index":8.55,"wind_gusts":18.4,"aqi":110,"pm10":37.4,"pm2_5":32.7,"mosquito_risk":3,"arthritis_risk":10,"migraine_risk":7,"frizz_risk":0,"updated_at":"2026-04-11T20:08:46.684823+05:30"},{"city":"Siliguri","state":"West Bengal","latitude":26.7271,"longitude":88.3953,"temp":20.5,"humidity":67,"rain":0.0,"pressure":995.2,"uv_index":8.2,"wind_gusts":18.0,"aqi":126,"pm10":60.1,"pm2_5":44.4,"mosquito_risk":3,"arthritis_risk":5,"migraine_risk":7,"frizz_risk":0,"updated_at":"2026-04-11T20:08:50.034962+05:30"},{"city":"Durgapur","state":"West Bengal","latitude":23.5204,"longitude":87.3119,"temp":26.2,"humidity":54,"rain":0.0,"pressure":995.8,"uv_index":8.75,"wind_gusts":20.9,"aqi":160,"pm10":238.4,"pm2_5":79.6,"mosquito_risk":4,"arthritis_risk":5,"migraine_risk":7,"frizz_risk":1,"updated_at":"2026-04-11T20:08:50.034993+05:30"},{"city":"Asansol","state":"West Bengal","latitude":23.6739,"longitude":86.9524,"temp":27.6,"humidity":45,"rain":0.0,"pressure":994.3,"uv_index":8.75,"wind_gusts":22.7,"aqi":151,"pm10":192.3,"pm2_5":61.9,"mosquito_risk":4,"arthritis_risk":5,"migraine_risk":7,"frizz_risk":0,"updated_at":"2026-04-11T20:08:50.035003+05:30"},{"city":"Pondicherry","state":"Puducherry","latitude":11.9139,"longitude":79.8145,"temp":28.6,"humidity":86,"rain":0.0,"pressure":1009.5,"uv_index":9.35,"wind_gusts":34.9,"aqi":56,"pm10":18.1,"pm2_5":12.4,"mosquito_risk":7,"arthritis_risk":0,"migraine_risk":4,"frizz_risk":1,"updated_at":"2026-04-11T20:08:50.035012+05:30"},{"city":"Port Blair","state":"Andaman and Nicobar Islands","latitude":11.6234,"longitude":92.7265,"temp":29.0,"humidity":78,"rain":0.0,"pressure":1008.7,"uv_index":9.25,"wind_gusts":26.3,"aqi":30,"pm10":9.6,"pm2_5":6.1,"mosquito_risk":7,"arthritis_risk":0,"migraine_risk":4,"frizz_risk":1,"updated_at":"2026-04-11T20:08:50.035020+05:30"},{"city":"Haridwar","state":"Uttarakhand","latitude":29.9457,"longitude":78.1642,"temp":23.9,"humidity":53,"rain":0.0,"pressure":976.1,"uv_index":7.0,"wind_gusts":42.1,"aqi":103,"pm10":60.5,"pm2_5":25.4,"mosquito_risk":0,"arthritis_risk":5,"migraine_risk":7,"frizz_risk":0,"updated_at":"2026-04-11T20:08:50.035028+05:30"},{"city":"Rishikesh","state":"Uttarakhand","latitude":30.0869,"longitude":78.2676,"temp":22.5,"humidity":56,"rain":0.0,"pressure":969.0,"uv_index":6.9,"wind_gusts":42.1,"aqi":98,"pm10":62.6,"pm2_5":19.6,"mosquito_risk":0,"arthritis_risk":5,"migraine_risk":7,"frizz_risk":0,"updated_at":"2026-04-11T20:08:50.035035+05:30"},{"city":"Nainital","state":"Uttarakhand","latitude":29.3919,"longitude":79.4542,"temp":18.9,"humidity":43,"rain":0.0,"pressure":807.5,"uv_index":7.85,"wind_gusts":69.8,"aqi":93,"pm10":70.5,"pm2_5":21.7,"mosquito_risk":0,"arthritis_risk":5,"migraine_risk":7,"frizz_risk":0,"updated_at":"2026-04-11T20:08:50.035042+05:30"},{"city":"Mussoorie","state":"Uttarakhand","latitude":30.4599,"longitude":78.0664,"temp":15.5,"humidity":56,"rain":0.0,"pressure":803.3,"uv_index":7.45,"wind_gusts":59.8,"aqi":98,"pm10":100.6,"pm2_5":26.0,"mosquito_risk":0,"arthritis_risk":5,"migraine_risk":7,"frizz_risk":0,"updated_at":"2026-04-11T20:08:50.035049+05:30"},{"city":"Dharamshala","state":"Himachal Pradesh","latitude":32.219,"longitude":76.3234,"temp":16.9,"humidity":68,"rain":0.0,"pressure":870.4,"uv_index":7.5,"wind_gusts":30.6,"aqi":121,"pm10":38.4,"pm2_5":12.6,"mosquito_risk":3,"arthritis_risk":5,"migraine_risk":7,"frizz_risk":0,"updated_at":"2026-04-11T20:08:50.035061+05:30"},{"city":"Dalhousie","state":"Himachal Pradesh","latitude":32.5387,"longitude":75.971,"temp":13.9,"humidity":67,"rain":0.0,"pressure":804.0,"uv_index":6.7,"wind_gusts":23.4,"aqi":109,"pm10":70.8,"pm2_5":23.8,"mosquito_risk":3,"arthritis_risk":5,"migraine_risk":7,"frizz_risk":0,"updated_at":"2026-04-11T20:08:50.035069+05:30"},{"city":"Patiala","state":"Punjab","latitude":30.3398,"longitude":76.3869,"temp":25.2,"humidity":46,"rain":0.0,"pressure":980.9,"uv_index":6.95,"wind_gusts":30.6,"aqi":469,"pm10":169.5,"pm2_5":43.0,"mosquito_risk":4,"arthritis_risk":5,"migraine_risk":7,"frizz_risk":0,"updated_at":"2026-04-11T20:08:50.035076+05:30"},{"city":"Bhatinda","state":"Punjab","latitude":30.211,"longitude":74.9455,"temp":25.9,"humidity":44,"rain":0.0,"pressure":986.4,"uv_index":7.7,"wind_gusts":30.2,"aqi":136,"pm10":155.1,"pm2_5":43.2,"mosquito_risk":4,"arthritis_risk":5,"migraine_risk":7,"frizz_risk":0,"updated_at":"2026-04-11T20:08:50.035083+05:30"},{"city":"Rohtak","state":"Haryana","latitude":28.8955,"longitude":76.6066,"temp":25.9,"humidity":48,"rain":0.0,"pressure":983.5,"uv_index":7.1,"wind_gusts":25.9,"aqi":768,"pm10":410.7,"pm2_5":76.4,"mosquito_risk":4,"arthritis_risk":5,"migraine_risk":7,"frizz_risk":0,"updated_at":"2026-04-11T20:08:50.035090+05:30"},{"city":"Panipat","state":"Haryana","latitude":29.3909,"longitude":76.9635,"temp":25.0,"humidity":49,"rain":0.0,"pressure":982.1,"uv_index":6.95,"wind_gusts":29.5,"aqi":1566,"pm10":858.7,"pm2_5":117.1,"mosquito_risk":4,"arthritis_risk":5,"migraine_risk":7,"frizz_risk":0,"updated_at":"2026-04-11T20:08:50.035097+05:30"},{"city":"Mathura","state":"Uttar Pradesh","latitude":27.4924,"longitude":77.6737,"temp":27.4,"humidity":45,"rain":0.0,"pressure":988.1,"uv_index":7.5,"wind_gusts":27.7,"aqi":972,"pm10":683.6,"pm2_5":92.4,"mosquito_risk":4,"arthritis_risk":5,"migraine_risk":7,"frizz_risk":0,"updated_at":"2026-04-11T20:08:50.035104+05:30"},{"city":"Vrindavan","state":"Uttar Pradesh","latitude":27.5823,"longitude":77.7027,"temp":26.4,"humidity":46,"rain":0.0,"pressure":988.6,"uv_index":7.45,"wind_gusts":32.0,"aqi":972,"pm10":683.6,"pm2_5":92.4,"mosquito_risk":4,"arthritis_risk":5,"migraine_risk":7,"frizz_risk":0,"updated_at":"2026-04-11T20:08:50.035110+05:30"},{"city":"Ayodhya","state":"Uttar Pradesh","latitude":26.7922,"longitude":82.1998,"temp":29.0,"humidity":31,"rain":0.0,"pressure":995.9,"uv_index":7.85,"wind_gusts":43.6,"aqi":150,"pm10":144.4,"pm2_5":37.1,"mosquito_risk":4,"arthritis_risk":5,"migraine_risk":7,"frizz_risk":0,"updated_at":"2026-04-11T20:08:50.035117+05:30"},{"city":"Ratlam","state":"Madhya Pradesh","latitude":23.3315,"longitude":75.0367,"temp":29.2,"humidity":44,"rain":0.0,"pressure":956.2,"uv_index":8.35,"wind_gusts":19.8,"aqi":130,"pm10":24.4,"pm2_5":16.4,"mosquito_risk":4,"arthritis_risk":5,"migraine_risk":7,"frizz_risk":0,"updated_at":"2026-04-11T20:08:50.035123+05:30"},{"city":"Sagar","state":"Madhya Pradesh","latitude":23.8388,"longitude":78.7378,"temp":29.9,"humidity":35,"rain":0.0,"pressure":951.8,"uv_index":8.5,"wind_gusts":27.4,"aqi":113,"pm10":46.3,"pm2_5":15.3,"mosquito_risk":4,"arthritis_risk":5,"migraine_risk":7,"frizz_risk":0,"updated_at":"2026-04-11T20:08:50.035130+05:30"},{"city":"Satna","state":"Madhya Pradesh","latitude":24.6005,"longitude":80.8322,"temp":30.4,"humidity":29,"rain":0.0,"pressure":973.2,"uv_index":8.5,"wind_gusts":28.1,"aqi":124,"pm10":61.9,"pm2_5":21.2,"mosquito_risk":0,"arthritis_risk":5,"migraine_risk":7,"frizz_risk":0,"updated_at":"2026-04-11T20:08:50.035137+05:30"},{"city":"Akola","state":"Maharashtra","latitude":20.7002,"longitude":77.0082,"temp":32.2,"humidity":28,"rain":0.0,"pressure":975.8,"uv_index":8.75,"wind_gusts":29.5,"aqi":168,"pm10":30.5,"pm2_5":22.2,"mosquito_risk":0,"arthritis_risk":5,"migraine_risk":7,"frizz_risk":0,"updated_at":"2026-04-11T20:08:50.035144+05:30"},{"city":"Amravati","state":"Maharashtra","latitude":20.9374,"longitude":77.7796,"temp":32.1,"humidity":39,"rain":0.0,"pressure":967.9,"uv_index":8.75,"wind_gusts":23.4,"aqi":171,"pm10":32.7,"pm2_5":23.9,"mosquito_risk":0,"arthritis_risk":5,"migraine_risk":7,"frizz_risk":1,"updated_at":"2026-04-11T20:08:50.035151+05:30"},{"city":"Latur","state":"Maharashtra","latitude":18.4088,"longitude":76.5604,"temp":30.4,"humidity":41,"rain":0.0,"pressure":940.9,"uv_index":9.0,"wind_gusts":20.9,"aqi":163,"pm10":31.0,"pm2_5":24.6,"mosquito_risk":0,"arthritis_risk":5,"migraine_risk":7,"frizz_risk":0,"updated_at":"2026-04-11T20:08:50.035157+05:30"},{"city":"Nanded","state":"Maharashtra","latitude":19.1383,"longitude":77.3091,"temp":32.5,"humidity":41,"rain":0.0,"pressure":969.3,"uv_index":8.9,"wind_gusts":17.3,"aqi":156,"pm10":41.1,"pm2_5":28.8,"mosquito_risk":0,"arthritis_risk":5,"migraine_risk":7,"frizz_risk":1,"updated_at":"2026-04-11T20:08:50.035164+05:30"},{"city":"Gulbarga","state":"Karnataka","latitude":17.3297,"longitude":76.8343,"temp":35.5,"humidity":26,"rain":0.0,"pressure":959.0,"uv_index":9.05,"wind_gusts":19.8,"aqi":162,"pm10":42.1,"pm2_5":31.1,"mosquito_risk":0,"arthritis_risk":5,"migraine_risk":10,"frizz_risk":0,"updated_at":"2026-04-11T20:08:50.035170+05:30"},{"city":"Bidar","state":"Karnataka","latitude":17.9104,"longitude":77.5199,"temp":32.4,"humidity":34,"rain":0.0,"pressure":936.7,"uv_index":9.05,"wind_gusts":25.2,"aqi":160,"pm10":29.6,"pm2_5":23.2,"mosquito_risk":0,"arthritis_risk":5,"migraine_risk":7,"frizz_risk":0,"updated_at":"2026-04-11T20:08:50.035176+05:30"},{"city":"Hospet","state":"Karnataka","latitude":15.2689,"longitude":76.3909,"temp":34.9,"humidity":38,"rain":0.0,"pressure":956.0,"uv_index":9.25,"wind_gusts":27.7,"aqi":183,"pm10":44.7,"pm2_5":37.6,"mosquito_risk":0,"arthritis_risk":5,"migraine_risk":7,"frizz_risk":1,"updated_at":"2026-04-11T20:08:50.035182+05:30"},{"city":"Tirupur","state":"Tamil Nadu","latitude":11.1085,"longitude":77.3411,"temp":33.6,"humidity":41,"rain":0.0,"pressure":975.4,"uv_index":8.95,"wind_gusts":32.4,"aqi":133,"pm10":37.8,"pm2_5":29.9,"mosquito_risk":0,"arthritis_risk":5,"migraine_risk":7,"frizz_risk":1,"updated_at":"2026-04-11T20:08:50.035188+05:30"},{"city":"Alappuzha","state":"Kerala","latitude":9.4981,"longitude":76.3388,"temp":29.8,"humidity":80,"rain":0.0,"pressure":1009.3,"uv_index":8.9,"wind_gusts":30.6,"aqi":85,"pm10":42.5,"pm2_5":23.0,"mosquito_risk":7,"arthritis_risk":0,"migraine_risk":4,"frizz_risk":1,"updated_at":"2026-04-11T20:08:50.035195+05:30"},{"city":"Munnar","state":"Kerala","latitude":10.0889,"longitude":77.0595,"temp":23.2,"humidity":91,"rain":0.0,"pressure":858.6,"uv_index":9.65,"wind_gusts":38.5,"aqi":77,"pm10":32.4,"pm2_5":26.9,"mosquito_risk":3,"arthritis_risk":5,"migraine_risk":7,"frizz_risk":1,"updated_at":"2026-04-11T20:08:50.035202+05:30"},{"city":"Silchar","state":"Assam","latitude":24.8333,"longitude":92.7789,"temp":25.1,"humidity":72,"rain":0.0,"pressure":1006.2,"uv_index":8.6,"wind_gusts":24.5,"aqi":142,"pm10":70.5,"pm2_5":54.6,"mosquito_risk":7,"arthritis_risk":5,"migraine_risk":4,"frizz_risk":1,"updated_at":"2026-04-11T20:08:50.035209+05:30"},{"city":"Dibrugarh","state":"Assam","latitude":27.4728,"longitude":94.912,"temp":22.3,"humidity":84,"rain":0.0,"pressure":998.0,"uv_index":8.4,"wind_gusts":25.2,"aqi":94,"pm10":54.1,"pm2_5":46.4,"mosquito_risk":3,"arthritis_risk":5,"migraine_risk":7,"frizz_risk":1,"updated_at":"2026-04-11T20:08:50.035215+05:30"}]