[{"city":"Delhi","state":"Delhi","latitude":28.6139,"longitude":77.209,"temp":24.9,"humidity":43,"rain":0.0,"pressure":987.2,"uv_index":7.15,"wind_gusts":38.5,"aqi":610,"pm10":1341.1,"pm2_5":185.3,"mosquito_risk":0,"arthritis_risk":5,"migraine_risk":7,"frizz_risk":0,"updated_at":"2026-04-10T21:26:53.059948+05:30"},{"city":"Mumbai","state":"Maharashtra","latitude":19.076,"longitude":72.8777,"temp":28.7,"humidity":75,"rain":0.0,"pressure":1010.8,"uv_index":7.95,"wind_gusts":25.2,"aqi":98,"pm10":63.1,"pm2_5":36.6,"mosquito_risk":7,"arthritis_risk":0,"migraine_risk":4,"frizz_risk":1,"updated_at":"2026-04-10T21:26:53.059993+05:30"},{"city":"Bangalore","state":"Karnataka","latitude":12.9716,"longitude":77.5946,"temp":26.5,"humidity":66,"rain":0.0,"pressure":914.5,"uv_index":9.65,"wind_gusts":42.8,"aqi":176,"pm10":41.8,"pm2_5":37.1,"mosquito_risk":7,"arthritis_risk":5,"migraine_risk":7,"frizz_risk":1,"updated_at":"2026-04-10T21:26:53.060007+05:30"},{"city":"Hyderabad","state":"Telangana","latitude":17.385,"longitude":78.4867,"temp":32.5,"humidity":32,"rain":0.0,"pressure":955.7,"uv_index":9.15,"wind_gusts":19.4,"aqi":145,"pm10":68.2,"pm2_5":41.4,"mosquito_risk":0,"arthritis_risk":5,"migraine_risk":7,"frizz_risk":0,"updated_at":"2026-04-10T21:26:53.060017+05:30"},{"city":"Chennai","state":"Tamil Nadu","latitude":13.0827,"longitude":80.2707,"temp":29.2,"humidity":79,"rain":0.0,"pressure":1010.3,"uv_index":9.4,"wind_gusts":36.4,"aqi":65,"pm10":21.9,"pm2_5":15.6,"mosquito_risk":7,"arthritis_risk":0,"migraine_risk":4,"frizz_risk":1,"updated_at":"2026-04-10T21:26:53.060026+05:30"},{"city":"Kolkata","state":"West Bengal","latitude":22.5726,"longitude":88.3639,"temp":25.7,"humidity":73,"rain":0.0,"pressure":1008.8,"uv_index":8.7,"wind_gusts":21.2,"aqi":155,"pm10":85.7,"pm2_5":66.1,"mosquito_risk":7,"arthritis_risk":0,"migraine_risk":4,"frizz_risk":1,"updated_at":"2026-04-10T21:26:53.060034+05:30"},{"city":"Pune","state":"Maharashtra","latitude":18.5204,"longitude":73.8567,"temp":28.9,"humidity":62,"rain":0.0,"pressure":951.1,"uv_index":8.5,"wind_gusts":31.3,"aqi":126,"pm10":46.1,"pm2_5":29.5,"mosquito_risk":7,"arthritis_risk":5,"migraine_risk":7,"frizz_risk":1,"updated_at":"2026-04-10T21:26:53.060044+05:30"},{"city":"Ahmedabad","state":"Gujarat","latitude":23.0225,"longitude":72.5714,"temp":31.2,"humidity":28,"rain":0.0,"pressure":1005.7,"uv_index":8.0,"wind_gusts":36.7,"aqi":125,"pm10":59.5,"pm2_5":35.7,"mosquito_risk":0,"arthritis_risk":5,"migraine_risk":4,"frizz_risk":0,"updated_at":"2026-04-10T21:26:53.060051+05:30"},{"city":"Jaipur","state":"Rajasthan","latitude":26.9124,"longitude":75.7873,"temp":26.9,"humidity":31,"rain":0.0,"pressure":965.0,"uv_index":7.75,"wind_gusts":28.4,"aqi":162,"pm10":167.6,"pm2_5":35.9,"mosquito_risk":4,"arthritis_risk":5,"migraine_risk":7,"frizz_risk":0,"updated_at":"2026-04-10T21:26:53.060057+05:30"},{"city":"Lucknow","state":"Uttar Pradesh","latitude":26.8467,"longitude":80.9462,"temp":24.6,"humidity":41,"rain":0.0,"pressure":996.8,"uv_index":7.65,"wind_gusts":40.0,"aqi":125,"pm10":637.0,"pm2_5":106.6,"mosquito_risk":0,"arthritis_risk":5,"migraine_risk":7,"frizz_risk":0,"updated_at":"2026-04-10T21:26:53.060062+05:30"},{"city":"Kanpur","state":"Uttar Pradesh","latitude":26.4499,"longitude":80.3319,"temp":23.1,"humidity":55,"rain":0.0,"pressure":995.5,"uv_index":7.65,"wind_gusts":35.3,"aqi":289,"pm10":787.9,"pm2_5":112.2,"mosquito_risk":0,"arthritis_risk":5,"migraine_risk":7,"frizz_risk":0,"updated_at":"2026-04-10T21:26:53.060068+05:30"},{"city":"Chandigarh","state":"Chandigarh","latitude":30.7333,"longitude":76.7794,"temp":21.4,"humidity":54,"rain":0.0,"pressure":973.1,"uv_index":7.15,"wind_gusts":42.1,"aqi":131,"pm10":15.4,"pm2_5":14.1,"mosquito_risk":0,"arthritis_risk":5,"migraine_risk":7,"frizz_risk":0,"updated_at":"2026-04-10T21:26:53.060074+05:30"},{"city":"Srinagar","state":"Jammu and Kashmir","latitude":34.0837,"longitude":74.7973,"temp":12.8,"humidity":66,"rain":0.0,"pressure":843.4,"uv_index":8.1,"wind_gusts":12.6,"aqi":106,"pm10":64.0,"pm2_5":44.8,"mosquito_risk":3,"arthritis_risk":5,"migraine_risk":7,"frizz_risk":0,"updated_at":"2026-04-10T21:26:53.060080+05:30"},{"city":"Jammu","state":"Jammu and Kashmir","latitude":32.7266,"longitude":74.857,"temp":21.4,"humidity":56,"rain":0.0,"pressure":977.5,"uv_index":7.75,"wind_gusts":34.2,"aqi":99,"pm10":32.2,"pm2_5":23.5,"mosquito_risk":0,"arthritis_risk":5,"migraine_risk":7,"frizz_risk":0,"updated_at":"2026-04-10T21:26:53.060085+05:30"},{"city":"Amritsar","state":"Punjab","latitude":31.634,"longitude":74.8723,"temp":21.9,"humidity":56,"rain":0.0,"pressure":986.3,"uv_index":7.7,"wind_gusts":29.2,"aqi":132,"pm10":22.9,"pm2_5":19.5,"mosquito_risk":0,"arthritis_risk":5,"migraine_risk":7,"frizz_risk":0,"updated_at":"2026-04-10T21:26:53.060091+05:30"},{"city":"Ludhiana","state":"Punjab","latitude":30.901,"longitude":75.8573,"temp":23.8,"humidity":44,"rain":0.0,"pressure":984.0,"uv_index":7.3,"wind_gusts":32.8,"aqi":118,"pm10":45.8,"pm2_5":24.2,"mosquito_risk":0,"arthritis_risk":5,"migraine_risk":7,"frizz_risk":0,"updated_at":"2026-04-10T21:26:53.060096+05:30"},{"city":"Jalandhar","state":"Punjab","latitude":31.326,"longitude":75.5762,"temp":22.7,"humidity":50,"rain":0.0,"pressure":985.3,"uv_index":7.5,"wind_gusts":29.9,"aqi":130,"pm10":49.2,"pm2_5":22.2,"mosquito_risk":0,"arthritis_risk":5,"migraine_risk":7,"frizz_risk":0,"updated_at":"2026-04-10T21:26:53.060104+05:30"},{"city":"Dehradun","state":"Uttarakhand","latitude":30.6284,"longitude":78.0322,"temp":12.7,"humidity":64,"rain":0.0,"pressure":830.0,"uv_index":7.55,"wind_gusts":29.5,"aqi":132,"pm10":11.8,"pm2_5":10.5,"mosquito_risk":3,"arthritis_risk":5,"migraine_risk":7,"frizz_risk":0,"updated_at":"2026-04-10T21:26:53.060109+05:30"},{"city":"Shimla","state":"Himachal Pradesh","latitude":31.1048,"longitude":77.1734,"temp":9.9,"humidity":52,"rain":0.0,"pressure":784.8,"uv_index":7.6,"wind_gusts":50.8,"aqi":115,"pm10":14.5,"pm2_5":11.7,"mosquito_risk":0,"arthritis_risk":5,"migraine_risk":7,"frizz_risk":0,"updated_at":"2026-04-10T21:26:53.060115+05:30"},{"city":"Manali","state":"Himachal Pradesh","latitude":32.2396,"longitude":77.1887,"temp":13.2,"humidity":84,"rain":0.0,"pressure":820.6,"uv_index":9.9,"wind_gusts":32.4,"aqi":173,"pm10":17.5,"pm2_5":9.9,"mosquito_risk":3,"arthritis_risk":10,"migraine_risk":7,"frizz_risk":0,"updated_at":"2026-04-10T21:26:53.060120+05:30"},{"city":"Gurgaon","state":"Haryana","latitude":28.4595,"longitude":77.0266,"temp":22.6,"humidity":55,"rain":0.0,"pressure":985.9,"uv_index":7.25,"wind_gusts":35.6,"aqi":1780,"pm10":3099.4,"pm2_5":353.9,"mosquito_risk":0,"arthritis_risk":5,"migraine_risk":7,"frizz_risk":0,"updated_at":"2026-04-10T21:26:53.060126+05:30"},{"city":"Noida","state":"Uttar Pradesh","latitude":28.5355,"longitude":77.391,"temp":24.5,"humidity":47,"rain":0.0,"pressure":988.8,"uv_index":7.15,"wind_gusts":37.8,"aqi":1780,"pm10":3099.4,"pm2_5":353.9,"mosquito_risk":0,"arthritis_risk":5,"migraine_risk":7,"frizz_risk":0,"updated_at":"2026-04-10T21:26:53.060132+05:30"},{"city":"Ghaziabad","state":"Uttar Pradesh","latitude":28.6692,"longitude":77.4538,"temp":23.4,"humidity":48,"rain":0.0,"pressure":986.8,"uv_index":7.15,"wind_gusts":37.8,"aqi":421,"pm10":1184.6,"pm2_5":170.9,"mosquito_risk":0,"arthritis_risk":5,"migraine_risk":7,"frizz_risk":0,"updated_at":"2026-04-10T21:26:53.060137+05:30"},{"city":"Faridabad","state":"Haryana","latitude":28.4089,"longitude":77.3178,"temp":24.9,"humidity":42,"rain":0.0,"pressure":988.1,"uv_index":7.2,"wind_gusts":36.4,"aqi":1780,"pm10":3099.4,"pm2_5":353.9,"mosquito_risk":0,"arthritis_risk":5,"migraine_risk":7,"frizz_risk":0,"updated_at":"2026-04-10T21:26:53.060142+05:30"},{"city":"Meerut","state":"Uttar Pradesh","latitude":28.9845,"longitude":77.7064,"temp":21.8,"humidity":52,"rain":0.0,"pressure":985.2,"uv_index":7.05,"wind_gusts":42.5,"aqi":421,"pm10":1184.6,"pm2_5":170.9,"mosquito_risk":0,"arthritis_risk":5,"migraine_risk":7,"frizz_risk":0,"updated_at":"2026-04-10T21:26:53.060148+05:30"},{"city":"Agra","state":"Uttar Pradesh","latitude":27.1767,"longitude":78.0081,"temp":23.1,"humidity":50,"rain":0.0,"pressure":992.1,"uv_index":7.5,"wind_gusts":36.0,"aqi":942,"pm10":1534.8,"pm2_5":176.0,"mosquito_risk":0,"arthritis_risk":5,"migraine_risk":7,"frizz_risk":0,"updated_at":"2026-04-10T21:26:53.060153+05:30"},{"city":"Varanasi","state":"Uttar Pradesh","latitude":25.3176,"longitude":82.9739,"temp":24.1,"humidity":41,"rain":0.0,"pressure":1000.9,"uv_index":8.2,"wind_gusts":39.2,"aqi":144,"pm10":66.8,"pm2_5":29.9,"mosquito_risk":0,"arthritis_risk":5,"migraine_risk":4,"frizz_risk":0,"updated_at":"2026-04-10T21:26:53.060174+05:30"},{"city":"Prayagraj","state":"Uttar Pradesh","latitude":25.4358,"longitude":81.8463,"temp":25.0,"humidity":46,"rain":0.0,"pressure":999.9,"uv_index":8.05,"wind_gusts":31.7,"aqi":140,"pm10":117.3,"pm2_5":34.6,"mosquito_risk":4,"arthritis_risk":5,"migraine_risk":7,"frizz_risk":0,"updated_at":"2026-04-10T21:26:53.060180+05:30"},{"city":"Gorakhpur","state":"Uttar Pradesh","latitude":26.7606,"longitude":83.3732,"temp":24.3,"humidity":33,"rain":0.0,"pressure":999.7,"uv_index":8.05,"wind_gusts":43.2,"aqi":130,"pm10":75.9,"pm2_5":24.2,"mosquito_risk":0,"arthritis_risk":5,"migraine_risk":7,"frizz_risk":0,"updated_at":"2026-04-10T21:26:53.060187+05:30"},{"city":"Bareilly","state":"Uttar Pradesh","latitude":28.367,"longitude":79.4304,"temp":21.2,"humidity":59,"rain":0.0,"pressure":989.9,"uv_index":7.4,"wind_gusts":38.2,"aqi":123,"pm10":295.2,"pm2_5":67.3,"mosquito_risk":0,"arthritis_risk":5,"migraine_risk":7,"frizz_risk":0,"updated_at":"2026-04-10T21:26:53.060192+05:30"},{"city":"Aligarh","state":"Uttar Pradesh","latitude":27.8974,"longitude":78.088,"temp":22.2,"humidity":51,"rain":0.0,"pressure":989.6,"uv_index":7.3,"wind_gusts":38.9,"aqi":898,"pm10":1996.8,"pm2_5":266.4,"mosquito_risk":0,"arthritis_risk":5,"migraine_risk":7,"frizz_risk":0,"updated_at":"2026-04-10T21:26:53.060197+05:30"},{"city":"Moradabad","state":"Uttar Pradesh","latitude":28.8386,"longitude":78.7733,"temp":21.1,"humidity":57,"rain":0.0,"pressure":986.9,"uv_index":7.25,"wind_gusts":38.2,"aqi":108,"pm10":438.7,"pm2_5":89.4,"mosquito_risk":0,"arthritis_risk":5,"migraine_risk":7,"frizz_risk":0,"updated_at":"2026-04-10T21:26:53.060202+05:30"},{"city":"Saharanpur","state":"Uttar Pradesh","latitude":29.9637,"longitude":77.546,"temp":22.4,"humidity":47,"rain":0.0,"pressure":979.0,"uv_index":6.85,"wind_gusts":50.4,"aqi":126,"pm10":119.7,"pm2_5":28.9,"mosquito_risk":0,"arthritis_risk":5,"migraine_risk":7,"frizz_risk":0,"updated_at":"2026-04-10T21:26:53.060207+05:30"},{"city":"Jhansi","state":"Uttar Pradesh","latitude":25.4484,"longitude":78.5685,"temp":25.9,"humidity":36,"rain":0.0,"pressure":982.9,"uv_index":8.0,"wind_gusts":33.5,"aqi":124,"pm10":23.0,"pm2_5":15.1,"mosquito_risk":4,"arthritis_risk":5,"migraine_risk":7,"frizz_risk":0,"updated_at":"2026-04-10T21:26:56.345978+05:30"},{"city":"Surat","state":"Gujarat","latitude":21.1702,"longitude":72.8311,"temp":28.7,"humidity":58,"rain":0.0,"pressure":1009.0,"uv_index":7.75,"wind_gusts":19.4,"aqi":140,"pm10":63.6,"pm2_5":48.4,"mosquito_risk":4,"arthritis_risk":0,"migraine_risk":4,"frizz_risk":1,"updated_at":"2026-04-10T21:26:56.346010+05:30"},{"city":"Vadodara","state":"Gujarat","latitude":22.3072,"longitude":73.1812,"temp":29.9,"humidity":33,"rain":0.0,"pressure":1007.2,"uv_index":8.0,"wind_gusts":31.7,"aqi":117,"pm10":40.9,"pm2_5":28.1,"mosquito_risk":4,"arthritis_risk":5,"migraine_risk":4,"frizz_risk":0,"updated_at":"2026-04-10T21:26:56.346021+05:30"},{"city":"Rajkot","state":"Gujarat","latitude":22.3039,"longitude":70.8022,"temp":30.9,"humidity":27,"rain":0.0,"pressure":997.5,"uv_index":7.7,"wind_gusts":25.9,"aqi":149,"pm10":47.8,"pm2_5":28.5,"mosquito_risk":0,"arthritis_risk":5,"migraine_risk":7,"frizz_risk":0,"updated_at":"2026-04-10T21:26:56.346031+05:30"},{"city":"Thane","state":"Maharashtra","latitude":19.2183,"longitude":72.9781,"temp":27.8,"humidity":75,"rain":0.0,"pressure":1010.2,"uv_index":7.95,"wind_gusts":37.8,"aqi":98,"pm10":63.1,"pm2_5":36.6,"mosquito_risk":7,"arthritis_risk":0,"migraine_risk":4,"frizz_risk":1,"updated_at":"2026-04-10T21:26:56.346040+05:30"},{"city":"Nagpur","state":"Maharashtra","latitude":21.1458,"longitude":79.0882,"temp":28.4,"humidity":54,"rain":0.0,"pressure":976.3,"uv_index":8.75,"wind_gusts":24.1,"aqi":152,"pm10":57.4,"pm2_5":31.0,"mosquito_risk":4,"arthritis_risk":5,"migraine_risk":7,"frizz_risk":1,"updated_at":"2026-04-10T21:26:56.346049+05:30"},{"city":"Nashik","state":"Maharashtra","latitude":19.9975,"longitude":73.7898,"temp":28.0,"humidity":46,"rain":0.0,"pressure":948.5,"uv_index":8.2,"wind_gusts":28.1,"aqi":153,"pm10":47.8,"pm2_5":37.4,"mosquito_risk":4,"arthritis_risk":5,"migraine_risk":7,"frizz_risk":0,"updated_at":"2026-04-10T21:26:56.346058+05:30"},{"city":"Aurangabad","state":"Maharashtra","latitude":19.8762,"longitude":75.3433,"temp":30.3,"humidity":28,"rain":0.0,"pressure":946.9,"uv_index":8.85,"wind_gusts":28.4,"aqi":136,"pm10":36.2,"pm2_5":25.4,"mosquito_risk":0,"arthritis_risk":5,"migraine_risk":7,"frizz_risk":0,"updated_at":"2026-04-10T21:26:56.346067+05:30"},{"city":"Solapur","state":"Maharashtra","latitude":17.6599,"longitude":75.9064,"temp":33.4,"humidity":31,"rain":0.0,"pressure":958.8,"uv_index":9.0,"wind_gusts":23.4,"aqi":120,"pm10":43.1,"pm2_5":28.1,"mosquito_risk":0,"arthritis_risk":5,"migraine_risk":7,"frizz_risk":0,"updated_at":"2026-04-10T21:26:56.346075+05:30"},{"city":"Kolhapur","state":"Maharashtra","latitude":16.705,"longitude":74.2433,"temp":26.7,"humidity":60,"rain":0.0,"pressure":949.9,"uv_index":9.0,"wind_gusts":34.6,"aqi":91,"pm10":55.1,"pm2_5":35.4,"mosquito_risk":4,"arthritis_risk":5,"migraine_risk":7,"frizz_risk":1,"updated_at":"2026-04-10T21:26:56.346083+05:30"},{"city":"Goa","state":"Goa","latitude":15.2993,"longitude":74.124,"temp":28.2,"humidity":76,"rain":0.0,"pressure":999.5,"uv_index":9.0,"wind_gusts":37.1,"aqi":79,"pm10":99.9,"pm2_5":39.2,"mosquito_risk":7,"arthritis_risk":5,"migraine_risk":7,"frizz_risk":1,"updated_at":"2026-04-10T21:26:56.346092+05:30"},{"city":"Jodhpur","state":"Rajasthan","latitude":26.2389,"longitude":73.0243,"temp":28.2,"humidity":35,"rain":0.0,"pressure":987.8,"uv_index":8.0,"wind_gusts":22.7,"aqi":106,"pm10":75.9,"pm2_5":24.1,"mosquito_risk":4,"arthritis_risk":5,"migraine_risk":7,"frizz_risk":0,"updated_at":"2026-04-10T21:26:56.346100+05:30"},{"city":"Udaipur","state":"Rajasthan","latitude":24.5854,"longitude":73.7125,"temp":26.7,"humidity":30,"rain":0.0,"pressure":951.5,"uv_index":8.55,"wind_gusts":29.9,"aqi":106,"pm10":35.7,"pm2_5":13.1,"mosquito_risk":4,"arthritis_risk":5,"migraine_risk":7,"frizz_risk":0,"updated_at":"2026-04-10T21:26:56.346108+05:30"},{"city":"Kota","state":"Rajasthan","latitude":25.2138,"longitude":75.8648,"temp":27.1,"humidity":40,"rain":0.0,"pressure":984.0,"uv_index":8.0,"wind_gusts":23.8,"aqi":113,"pm10":66.8,"pm2_5":33.2,"mosquito_risk":4,"arthritis_risk":5,"migraine_risk":7,"frizz_risk":0,"updated_at":"2026-04-10T21:26:56.346115+05:30"},{"city":"Bikaner","state":"Rajasthan","latitude":28.0229,"longitude":73.3119,"temp":29.8,"humidity":28,"rain":0.0,"pressure":986.9,"uv_index":7.8,"wind_gusts":19.8,"aqi":123,"pm10":62.4,"pm2_5":19.6,"mosquito_risk":4,"arthritis_risk":5,"migraine_risk":7,"frizz_risk":0,"updated_at":"2026-04-10T21:26:56.346121+05:30"},{"city":"Ajmer","state":"Rajasthan","latitude":26.4499,"longitude":74.6399,"temp":26.0,"humidity":39,"rain":0.0,"pressure":959.5,"uv_index":7.95,"wind_gusts":20.2,"aqi":99,"pm10":54.0,"pm2_5":24.8,"mosquito_risk":4,"arthritis_risk":5,"migraine_risk":7,"frizz_risk":0,"updated_at":"2026-04-10T21:26:56.346128+05:30"},{"city":"Gwalior","state":"Madhya Pradesh","latitude":26.2183,"longitude":78.1828,"temp":24.7,"humidity":53,"rain":0.0,"pressure":988.1,"uv_index":7.75,"wind_gusts":33.1,"aqi":113,"pm10":58.7,"pm2_5":18.9,"mosquito_risk":0,"arthritis_risk":5,"migraine_risk":7,"frizz_risk":0,"updated_at":"2026-04-10T21:26:56.346135+05:30"},{"city":"Indore","state":"Madhya Pradesh","latitude":22.7196,"longitude":75.8577,"temp":26.2,"humidity":39,"rain":0.0,"pressure":952.0,"uv_index":8.45,"wind_gusts":31.0,"aqi":130,"pm10":29.6,"pm2_5":17.6,"mosquito_risk":4,"arthritis_risk":5,"migraine_risk":7,"frizz_risk":0,"updated_at":"2026-04-10T21:26:56.346141+05:30"},{"city":"Bhopal","state":"Madhya Pradesh","latitude":23.2599,"longitude":77.4126,"temp":27.6,"humidity":22,"rain":0.0,"pressure":958.1,"uv_index":8.45,"wind_gusts":30.2,"aqi":122,"pm10":21.5,"pm2_5":11.6,"mosquito_risk":4,"arthritis_risk":5,"migraine_risk":7,"frizz_risk":0,"updated_at":"2026-04-10T21:26:56.346148+05:30"},{"city":"Jabalpur","state":"Madhya Pradesh","latitude":23.1815,"longitude":79.9864,"temp":28.0,"humidity":37,"rain":0.0,"pressure":965.2,"uv_index":8.55,"wind_gusts":24.5,"aqi":118,"pm10":55.3,"pm2_5":24.0,"mosquito_risk":4,"arthritis_risk":5,"migraine_risk":7,"frizz_risk":0,"updated_at":"2026-04-10T21:26:56.346154+05:30"},{"city":"Ujjain","state":"Madhya Pradesh","latitude":23.1765,"longitude":75.7885,"temp":26.3,"humidity":35,"rain":0.0,"pressure":957.9,"uv_index":8.35,"wind_gusts":29.5,"aqi":122,"pm10":39.0,"pm2_5":23.2,"mosquito_risk":4,"arthritis_risk":5,"migraine_risk":7,"frizz_risk":0,"updated_at":"2026-04-10T21:26:56.346161+05:30"},{"city":"Visakhapatnam","state":"Andhra Pradesh","latitude":17.6868,"longitude":83.2185,"temp":28.3,"humidity":85,"rain":0.0,"pressure":1007.0,"uv_index":9.1,"wind_gusts":37.1,"aqi":97,"pm10":28.5,"pm2_5":21.9,"mosquito_risk":7,"arthritis_risk":5,"migraine_risk":4,"frizz_risk":1,"updated_at":"2026-04-10T21:26:56.346168+05:30"},{"city":"Vijayawada","state":"Andhra Pradesh","latitude":16.5062,"longitude":80.648,"temp":29.4,"humidity":76,"rain":0.0,"pressure":1005.1,"uv_index":9.2,"wind_gusts":35.6,"aqi":85,"pm10":21.8,"pm2_5":19.5,"mosquito_risk":7,"arthritis_risk":5,"migraine_risk":4,"frizz_risk":1,"updated_at":"2026-04-10T21:26:56.346174+05:30"},{"city":"Guntur","state":"Andhra Pradesh","latitude":16.3067,"longitude":80.4365,"temp":28.5,"humidity":84,"rain":0.0,"pressure":1006.6,"uv_index":9.2,"wind_gusts":33.8,"aqi":90,"pm10":24.9,"pm2_5":22.8,"mosquito_risk":7,"arthritis_risk":5,"migraine_risk":4,"frizz_risk":1,"updated_at":"2026-04-10T21:26:56.346181+05:30"},{"city":"Nellore","state":"Andhra Pradesh","latitude":14.4426,"longitude":79.9865,"temp":28.6,"humidity":83,"rain":0.0,"pressure":1008.8,"uv_index":9.3,"wind_gusts":34.9,"aqi":82,"pm10":20.9,"pm2_5":16.5,"mosquito_risk":7,"arthritis_risk":0,"migraine_risk":4,"frizz_risk":1,"updated_at":"2026-04-10T21:26:56.346189+05:30"},{"city":"Kurnool","state":"Andhra Pradesh","latitude":15.8281,"longitude":78.0373,"temp":34.3,"humidity":41,"rain":0.0,"pressure":978.4,"uv_index":9.15,"wind_gusts":25.2,"aqi":115,"pm10":46.3,"pm2_5":28.9,"mosquito_risk":0,"arthritis_risk":5,"migraine_risk":7,"frizz_risk":1,"updated_at":"2026-04-10T21:26:56.346196+05:30"},{"city":"Kakinada","state":"Andhra Pradesh","latitude":16.9891,"longitude":82.2475,"temp":28.6,"humidity":83,"rain":0.0,"pressure":1010.6,"uv_index":9.15,"wind_gusts":37.1,"aqi":73,"pm10":22.8,"pm2_5":15.7,"mosquito_risk":7,"arthritis_risk":0,"migraine_risk":4,"frizz_risk":1,"updated_at":"2026-04-10T21:26:56.346203+05:30"},{"city":"Tirupati","state":"Andhra Pradesh","latitude":13.6288,"longitude":79.4192,"temp":29.3,"humidity":75,"rain":0.0,"pressure":994.9,"uv_index":9.05,"wind_gusts":30.6,"aqi":133,"pm10":31.4,"pm2_5":29.2,"mosquito_risk":7,"arthritis_risk":5,"migraine_risk":7,"frizz_risk":1,"updated_at":"2026-04-10T21:26:56.346210+05:30"},{"city":"Warangal","state":"Telangana","latitude":17.9689,"longitude":79.5941,"temp":31.5,"humidity":41,"rain":0.0,"pressure":980.5,"uv_index":9.0,"wind_gusts":23.4,"aqi":137,"pm10":66.4,"pm2_5":44.9,"mosquito_risk":0,"arthritis_risk":5,"migraine_risk":7,"frizz_risk":1,"updated_at":"2026-04-10T21:26:56.346217+05:30"},{"city":"Nizamabad","state":"Telangana","latitude":18.6725,"longitude":78.0941,"temp":30.4,"humidity":45,"rain":0.0,"pressure":967.1,"uv_index":8.95,"wind_gusts":29.5,"aqi":127,"pm10":50.5,"pm2_5":34.9,"mosquito_risk":0,"arthritis_risk":5,"migraine_risk":7,"frizz_risk":1,"updated_at":"2026-04-10T21:26:56.346239+05:30"},{"city":"Mysore","state":"Karnataka","latitude":12.2958,"longitude":76.6396,"temp":25.5,"humidity":80,"rain":0.0,"pressure":931.2,"uv_index":9.55,"wind_gusts":37.4,"aqi":162,"pm10":43.1,"pm2_5":36.1,"mosquito_risk":7,"arthritis_risk":5,"migraine_risk":7,"frizz_risk":1,"updated_at":"2026-04-10T21:26:56.346246+05:30"},{"city":"Mangalore","state":"Karnataka","latitude":12.9141,"longitude":74.856,"temp":29.6,"humidity":78,"rain":0.0,"pressure":1008.5,"uv_index":9.15,"wind_gusts":32.4,"aqi":66,"pm10":82.0,"pm2_5":27.1,"mosquito_risk":7,"arthritis_risk":0,"migraine_risk":4,"frizz_risk":1,"updated_at":"2026-04-10T21:26:56.346254+05:30"},{"city":"Hubli-Dharwad","state":"Karnataka","latitude":15.3647,"longitude":75.124,"temp":27.5,"humidity":66,"rain":0.0,"pressure":942.5,"uv_index":9.2,"wind_gusts":36.0,"aqi":117,"pm10":55.8,"pm2_5":33.1,"mosquito_risk":7,"arthritis_risk":5,"migraine_risk":7,"frizz_risk":1,"updated_at":"2026-04-10T21:26:56.346261+05:30"},{"city":"Belgaum","state":"Karnataka","latitude":15.8497,"longitude":74.4977,"temp":25.7,"humidity":68,"rain":0.0,"pressure":927.7,"uv_index":9.25,"wind_gusts":35.3,"aqi":116,"pm10":55.1,"pm2_5":31.8,"mosquito_risk":7,"arthritis_risk":5,"migraine_risk":7,"frizz_risk":1,"updated_at":"2026-04-10T21:26:59.637047+05:30"},{"city":"Coimbatore","state":"Tamil Nadu","latitude":11.0168,"longitude":76.9558,"temp":27.6,"humidity":72,"rain":0.0,"pressure":964.3,"uv_index":9.5,"wind_gusts":36.7,"aqi":133,"pm10":36.9,"pm2_5":31.4,"mosquito_risk":7,"arthritis_risk":5,"migraine_risk":7,"frizz_risk":1,"updated_at":"2026-04-10T21:26:59.637078+05:30"},{"city":"Madurai","state":"Tamil Nadu","latitude":9.9252,"longitude":78.1198,"temp":29.5,"humidity":70,"rain":0.0,"pressure":996.0,"uv_index":9.4,"wind_gusts":41.0,"aqi":113,"pm10":17.6,"pm2_5":15.7,"mosquito_risk":7,"arthritis_risk":5,"migraine_risk":7,"frizz_risk":1,"updated_at":"2026-04-10T21:26:59.637088+05:30"},{"city":"Trichy","state":"Tamil Nadu","latitude":10.7905,"longitude":78.7047,"temp":29.5,"humidity":72,"rain":0.0,"pressure":1002.6,"uv_index":9.4,"wind_gusts":31.7,"aqi":98,"pm10":18.7,"pm2_5":17.2,"mosquito_risk":7,"arthritis_risk":5,"migraine_risk":4,"frizz_risk":1,"updated_at":"2026-04-10T21:26:59.637097+05:30"},{"city":"Salem","state":"Tamil Nadu","latitude":11.6643,"longitude":78.146,"temp":31.0,"humidity":58,"rain":0.0,"pressure":979.4,"uv_index":9.3,"wind_gusts":24.1,"aqi":157,"pm10":38.5,"pm2_5":35.0,"mosquito_risk":0,"arthritis_risk":5,"migraine_risk":7,"frizz_risk":1,"updated_at":"2026-04-10T21:26:59.637106+05:30"},{"city":"Tirunelveli","state":"Tamil Nadu","latitude":8.7139,"longitude":77.7567,"temp":28.7,"humidity":73,"rain":0.0,"pressure":1006.2,"uv_index":9.35,"wind_gusts":38.2,"aqi":132,"pm10":26.5,"pm2_5":23.0,"mosquito_risk":7,"arthritis_risk":5,"migraine_risk":4,"frizz_risk":1,"updated_at":"2026-04-10T21:26:59.637114+05:30"},{"city":"Vellore","state":"Tamil Nadu","latitude":12.9165,"longitude":79.1325,"temp":29.4,"humidity":67,"rain":0.0,"pressure":987.6,"uv_index":9.45,"wind_gusts":35.3,"aqi":130,"pm10":29.2,"pm2_5":27.2,"mosquito_risk":7,"arthritis_risk":5,"migraine_risk":7,"frizz_risk":1,"updated_at":"2026-04-10T21:26:59.637122+05:30"},{"city":"Erode","state":"Tamil Nadu","latitude":11.341,"longitude":77.7172,"temp":32.4,"humidity":53,"rain":0.0,"pressure":990.7,"uv_index":9.45,"wind_gusts":34.9,"aqi":148,"pm10":31.4,"pm2_5":28.5,"mosquito_risk":0,"arthritis_risk":5,"migraine_risk":7,"frizz_risk":1,"updated_at":"2026-04-10T21:26:59.637131+05:30"},{"city":"Kochi","state":"Kerala","latitude":9.9312,"longitude":76.2673,"temp":28.3,"humidity":83,"rain":0.0,"pressure":1011.7,"uv_index":9.25,"wind_gusts":31.7,"aqi":74,"pm10":34.1,"pm2_5":24.9,"mosquito_risk":7,"arthritis_risk":0,"migraine_risk":4,"frizz_risk":1,"updated_at":"2026-04-10T21:26:59.637139+05:30"},{"city":"Thiruvananthapuram","state":"Kerala","latitude":8.5241,"longitude":76.9366,"temp":27.7,"humidity":81,"rain":0.0,"pressure":1011.3,"uv_index":9.2,"wind_gusts":28.1,"aqi":67,"pm10":36.1,"pm2_5":18.9,"mosquito_risk":7,"arthritis_risk":0,"migraine_risk":4,"frizz_risk":1,"updated_at":"2026-04-10T21:26:59.637148+05:30"},{"city":"Kozhikode","state":"Kerala","latitude":11.2588,"longitude":75.7804,"temp":29.6,"humidity":81,"rain":0.0,"pressure":1010.2,"uv_index":9.15,"wind_gusts":30.2,"aqi":68,"pm10":58.2,"pm2_5":17.7,"mosquito_risk":7,"arthritis_risk":0,"migraine_risk":4,"frizz_risk":1,"updated_at":"2026-04-10T21:26:59.637156+05:30"},{"city":"Thrissur","state":"Kerala","latitude":10.5276,"longitude":76.2144,"temp":29.2,"humidity":79,"rain":0.0,"pressure":1009.5,"uv_index":9.2,"wind_gusts":36.0,"aqi":80,"pm10":38.5,"pm2_5":23.3,"mosquito_risk":7,"arthritis_risk":0,"migraine_risk":4,"frizz_risk":1,"updated_at":"2026-04-10T21:26:59.637164+05:30"},{"city":"Kannur","state":"Kerala","latitude":11.8745,"longitude":75.3704,"temp":29.3,"humidity":78,"rain":0.0,"pressure":1009.3,"uv_index":9.15,"wind_gusts":36.4,"aqi":68,"pm10":66.1,"pm2_5":20.7,"mosquito_risk":7,"arthritis_risk":0,"migraine_risk":4,"frizz_risk":1,"updated_at":"2026-04-10T21:26:59.637173+05:30"},{"city":"Patna","state":"Bihar","latitude":25.5941,"longitude":85.1376,"temp":25.8,"humidity":41,"rain":0.0,"pressure":1003.0,"uv_index":8.35,"wind_gusts":38.9,"aqi":125,"pm10":50.4,"pm2_5":27.7,"mosquito_risk":4,"arthritis_risk":5,"migraine_risk":4,"frizz_risk":0,"updated_at":"2026-04-10T21:26:59.637181+05:30"},{"city":"Gaya","state":"Bihar","latitude":24.7914,"longitude":85.0002,"temp":24.8,"humidity":45,"rain":0.0,"pressure":997.0,"uv_index":8.45,"wind_gusts":37.8,"aqi":140,"pm10":53.3,"pm2_5":27.6,"mosquito_risk":0,"arthritis_risk":5,"migraine_risk":7,"frizz_risk":0,"updated_at":"2026-04-10T21:26:59.637190+05:30"},{"city":"Muzaffarpur","state":"Bihar","latitude":26.1209,"longitude":85.3647,"temp":24.3,"humidity":40,"rain":0.0,"pressure":1002.6,"uv_index":8.35,"wind_gusts":36.0,"aqi":123,"pm10":46.2,"pm2_5":25.4,"mosquito_risk":0,"arthritis_risk":5,"migraine_risk":4,"frizz_risk":0,"updated_at":"2026-04-10T21:26:59.637197+05:30"},{"city":"Bhagalpur","state":"Bihar","latitude":25.2425,"longitude":87.0117,"temp":24.1,"humidity":57,"rain":0.0,"pressure":1003.2,"uv_index":8.35,"wind_gusts":34.2,"aqi":131,"pm10":35.9,"pm2_5":22.1,"mosquito_risk":0,"arthritis_risk":5,"migraine_risk":4,"frizz_risk":0,"updated_at":"2026-04-10T21:26:59.637204+05:30"},{"city":"Ranchi","state":"Jharkhand","latitude":23.3441,"longitude":85.3096,"temp":23.1,"humidity":38,"rain":0.0,"pressure":940.8,"uv_index":9.0,"wind_gusts":37.4,"aqi":120,"pm10":43.2,"pm2_5":21.1,"mosquito_risk":0,"arthritis_risk":5,"migraine_risk":7,"frizz_risk":0,"updated_at":"2026-04-10T21:26:59.637211+05:30"},{"city":"Jamshedpur","state":"Jharkhand","latitude":22.8046,"longitude":86.2029,"temp":26.6,"humidity":61,"rain":0.0,"pressure":993.7,"uv_index":8.85,"wind_gusts":16.9,"aqi":131,"pm10":78.2,"pm2_5":42.4,"mosquito_risk":7,"arthritis_risk":5,"migraine_risk":7,"frizz_risk":1,"updated_at":"2026-04-10T21:26:59.637218+05:30"},{"city":"Dhanbad","state":"Jharkhand","latitude":23.7957,"longitude":86.4304,"temp":24.7,"humidity":48,"rain":0.0,"pressure":982.7,"uv_index":8.75,"wind_gusts":31.0,"aqi":146,"pm10":62.6,"pm2_5":39.9,"mosquito_risk":0,"arthritis_risk":5,"migraine_risk":7,"frizz_risk":0,"updated_at":"2026-04-10T21:26:59.637242+05:30"},{"city":"Bokaro","state":"Jharkhand","latitude":23.6693,"longitude":86.1511,"temp":24.9,"humidity":47,"rain":0.0,"pressure":987.0,"uv_index":8.8,"wind_gusts":32.8,"aqi":128,"pm10":64.5,"pm2_5":38.0,"mosquito_risk":0,"arthritis_risk":5,"migraine_risk":7,"frizz_risk":0,"updated_at":"2026-04-10T21:26:59.637250+05:30"},{"city":"Bhubaneswar","state":"Odisha","latitude":20.2961,"longitude":85.8245,"temp":27.0,"humidity":93,"rain":0.0,"pressure":1005.9,"uv_index":9.0,"wind_gusts":24.5,"aqi":136,"pm10":32.5,"pm2_5":28.1,"mosquito_risk":7,"arthritis_risk":5,"migraine_risk":4,"frizz_risk":1,"updated_at":"2026-04-10T21:26:59.637257+05:30"},{"city":"Cuttack","state":"Odisha","latitude":20.4625,"longitude":85.8828,"temp":27.6,"humidity":89,"rain":0.0,"pressure":1007.6,"uv_index":9.0,"wind_gusts":22.7,"aqi":136,"pm10":32.5,"pm2_5":28.1,"mosquito_risk":7,"arthritis_risk":5,"migraine_risk":4,"frizz_risk":1,"updated_at":"2026-04-10T21:26:59.637264+05:30"},{"city":"Rourkela","state":"Odisha","latitude":22.2604,"longitude":84.8536,"temp":25.1,"humidity":68,"rain":0.0,"pressure":987.8,"uv_index":8.75,"wind_gusts":20.2,"aqi":110,"pm10":61.7,"pm2_5":34.5,"mosquito_risk":7,"arthritis_risk":5,"migraine_risk":7,"frizz_risk":1,"updated_at":"2026-04-10T21:26:59.637271+05:30"},{"city":"Raipur","state":"Chhattisgarh","latitude":21.2514,"longitude":81.6296,"temp":30.4,"humidity":34,"rain":0.0,"pressure":977.4,"uv_index":8.8,"wind_gusts":24.1,"aqi":172,"pm10":82.9,"pm2_5":55.8,"mosquito_risk":0,"arthritis_risk":5,"migraine_risk":7,"frizz_risk":0,"updated_at":"2026-04-10T21:26:59.637278+05:30"},{"city":"Bhilai","state":"Chhattisgarh","latitude":21.1938,"longitude":81.3509,"temp":28.5,"humidity":33,"rain":0.0,"pressure":977.6,"uv_index":8.8,"wind_gusts":22.3,"aqi":173,"pm10":81.7,"pm2_5":57.4,"mosquito_risk":4,"arthritis_risk":5,"migraine_risk":7,"frizz_risk":0,"updated_at":"2026-04-10T21:26:59.637285+05:30"},{"city":"Guwahati","state":"Assam","latitude":26.1158,"longitude":91.7086,"temp":22.5,"humidity":87,"rain":0.0,"pressure":1005.0,"uv_index":8.2,"wind_gusts":32.4,"aqi":101,"pm10":50.1,"pm2_5":42.4,"mosquito_risk":3,"arthritis_risk":5,"migraine_risk":4,"frizz_risk":1,"updated_at":"2026-04-10T21:26:59.637291+05:30"},{"city":"Agartala","state":"Tripura","latitude":23.8315,"longitude":91.2868,"temp":23.9,"humidity":84,"rain":0.0,"pressure":1009.0,"uv_index":8.55,"wind_gusts":28.8,"aqi":153,"pm10":70.5,"pm2_5":55.6,"mosquito_risk":3,"arthritis_risk":0,"migraine_risk":4,"frizz_risk":1,"updated_at":"2026-04-10T21:26:59.637299+05:30"},{"city":"Shillong","state":"Meghalaya","latitude":25.5788,"longitude":91.8933,"temp":11.7,"humidity":86,"rain":0.0,"pressure":856.4,"uv_index":7.05,"wind_gusts":50.4,"aqi":97,"pm10":36.6,"pm2_5":30.2,"mosquito_risk":3,"arthritis_risk":10,"migraine_risk":7,"frizz_risk":0,"updated_at":"2026-04-10T21:26:59.637306+05:30"},{"city":"Imphal","state":"Manipur","latitude":24.817,"longitude":93.9368,"temp":15.6,"humidity":79,"rain":0.0,"pressure":924.7,"uv_index":8.9,"wind_gusts":57.6,"aqi":97,"pm10":48.4,"pm2_5":37.7,"mosquito_risk":3,"arthritis_risk":5,"migraine_risk":7,"frizz_risk":0,"updated_at":"2026-04-10T21:26:59.637313+05:30"},{"city":"Aizawl","state":"Mizoram","latitude":23.7271,"longitude":92.7176,"temp":17.1,"humidity":76,"rain":0.0,"pressure":894.4,"uv_index":8.8,"wind_gusts":58.0,"aqi":81,"pm10":54.5,"pm2_5":28.3,"mosquito_risk":3,"arthritis_risk":5,"migraine_risk":7,"frizz_risk":0,"updated_at":"2026-04-10T21:26:59.637320+05:30"},{"city":"Kohima","state":"Nagaland","latitude":25.6701,"longitude":94.1077,"temp":12.5,"humidity":88,"rain":0.0,"pressure":855.1,"uv_index":8.4,"wind_gusts":72.0,"aqi":80,"pm10":35.4,"pm2_5":27.2,"mosquito_risk":3,"arthritis_risk":10,"migraine_risk":7,"frizz_risk":0,"updated_at":"2026-04-10T21:26:59.637327+05:30"},{"city":"Gangtok","state":"Sikkim","latitude":27.3314,"longitude":88.6138,"temp":12.6,"humidity":95,"rain":0.1,"pressure":837.2,"uv_index":8.5,"wind_gusts":15.1,"aqi":93,"pm10":41.9,"pm2_5":32.2,"mosquito_risk":6,"arthritis_risk":10,"migraine_risk":7,"frizz_risk":0,"updated_at":"2026-04-10T21:26:59.637334+05:30"},{"city":"Siliguri","state":"West Bengal","latitude":26.7271,"longitude":88.3953,"temp":20.2,"humidity":65,"rain":0.0,"pressure":996.1,"uv_index":8.2,"wind_gusts":26.6,"aqi":95,"pm10":60.5,"pm2_5":48.9,"mosquito_risk":3,"arthritis_risk":5,"migraine_risk":7,"frizz_risk":0,"updated_at":"2026-04-10T21:27:02.927515+05:30"},{"city":"Durgapur","state":"West Bengal","latitude":23.5204,"longitude":87.3119,"temp":26.1,"humidity":56,"rain":0.0,"pressure":998.0,"uv_index":8.7,"wind_gusts":20.9,"aqi":143,"pm10":59.6,"pm2_5":39.1,"mosquito_risk":4,"arthritis_risk":5,"migraine_risk":7,"frizz_risk":1,"updated_at":"2026-04-10T21:27:02.927545+05:30"},{"city":"Asansol","state":"West Bengal","latitude":23.6739,"longitude":86.9524,"temp":26.3,"humidity":50,"rain":0.0,"pressure":996.6,"uv_index":8.75,"wind_gusts":23.0,"aqi":122,"pm10":52.5,"pm2_5":31.9,"mosquito_risk":4,"arthritis_risk":5,"migraine_risk":7,"frizz_risk":0,"updated_at":"2026-04-10T21:27:02.927554+05:30"},{"city":"Pondicherry","state":"Puducherry","latitude":11.9139,"longitude":79.8145,"temp":28.1,"humidity":87,"rain":0.0,"pressure":1011.5,"uv_index":8.85,"wind_gusts":33.8,"aqi":61,"pm10":20.5,"pm2_5":14.2,"mosquito_risk":7,"arthritis_risk":0,"migraine_risk":4,"frizz_risk":1,"updated_at":"2026-04-10T21:27:02.927562+05:30"},{"city":"Port Blair","state":"Andaman and Nicobar Islands","latitude":11.6234,"longitude":92.7265,"temp":29.2,"humidity":75,"rain":0.0,"pressure":1010.5,"uv_index":9.15,"wind_gusts":16.6,"aqi":39,"pm10":3.0,"pm2_5":2.3,"mosquito_risk":7,"arthritis_risk":0,"migraine_risk":4,"frizz_risk":1,"updated_at":"2026-04-10T21:27:02.927570+05:30"},{"city":"Haridwar","state":"Uttarakhand","latitude":29.9457,"longitude":78.1642,"temp":20.6,"humidity":56,"rain":0.0,"pressure":977.1,"uv_index":6.95,"wind_gusts":45.4,"aqi":134,"pm10":63.1,"pm2_5":21.5,"mosquito_risk":0,"arthritis_risk":5,"migraine_risk":7,"frizz_risk":0,"updated_at":"2026-04-10T21:27:02.927578+05:30"},{"city":"Rishikesh","state":"Uttarakhand","latitude":30.0869,"longitude":78.2676,"temp":18.5,"humidity":65,"rain":0.0,"pressure":969.6,"uv_index":7.0,"wind_gusts":37.1,"aqi":146,"pm10":44.2,"pm2_5":19.0,"mosquito_risk":3,"arthritis_risk":5,"migraine_risk":7,"frizz_risk":0,"updated_at":"2026-04-10T21:27:02.927585+05:30"},{"city":"Nainital","state":"Uttarakhand","latitude":29.3919,"longitude":79.4542,"temp":16.2,"humidity":45,"rain":0.0,"pressure":806.8,"uv_index":7.9,"wind_gusts":57.2,"aqi":135,"pm10":81.3,"pm2_5":26.7,"mosquito_risk":0,"arthritis_risk":5,"migraine_risk":7,"frizz_risk":0,"updated_at":"2026-04-10T21:27:02.927593+05:30"},{"city":"Mussoorie","state":"Uttarakhand","latitude":30.4599,"longitude":78.0664,"temp":13.8,"humidity":60,"rain":0.0,"pressure":802.7,"uv_index":7.4,"wind_gusts":37.8,"aqi":135,"pm10":25.6,"pm2_5":20.8,"mosquito_risk":0,"arthritis_risk":5,"migraine_risk":7,"frizz_risk":0,"updated_at":"2026-04-10T21:27:02.927600+05:30"},{"city":"Dharamshala","state":"Himachal Pradesh","latitude":32.219,"longitude":76.3234,"temp":17.2,"humidity":59,"rain":0.0,"pressure":871.9,"uv_index":7.6,"wind_gusts":24.8,"aqi":146,"pm10":19.4,"pm2_5":13.7,"mosquito_risk":0,"arthritis_risk":5,"migraine_risk":7,"frizz_risk":0,"updated_at":"2026-04-10T21:27:02.927606+05:30"},{"city":"Dalhousie","state":"Himachal Pradesh","latitude":32.5387,"longitude":75.971,"temp":13.7,"humidity":62,"rain":0.0,"pressure":805.1,"uv_index":7.85,"wind_gusts":19.4,"aqi":121,"pm10":27.1,"pm2_5":22.7,"mosquito_risk":3,"arthritis_risk":5,"migraine_risk":7,"frizz_risk":0,"updated_at":"2026-04-10T21:27:02.927614+05:30"},{"city":"Patiala","state":"Punjab","latitude":30.3398,"longitude":76.3869,"temp":22.4,"humidity":48,"rain":0.0,"pressure":982.9,"uv_index":7.0,"wind_gusts":38.5,"aqi":679,"pm10":875.4,"pm2_5":101.3,"mosquito_risk":0,"arthritis_risk":5,"migraine_risk":7,"frizz_risk":0,"updated_at":"2026-04-10T21:27:02.927621+05:30"},{"city":"Bhatinda","state":"Punjab","latitude":30.211,"longitude":74.9455,"temp":23.7,"humidity":48,"rain":0.0,"pressure":989.3,"uv_index":7.65,"wind_gusts":31.7,"aqi":135,"pm10":36.9,"pm2_5":21.4,"mosquito_risk":0,"arthritis_risk":5,"migraine_risk":7,"frizz_risk":0,"updated_at":"2026-04-10T21:27:02.927628+05:30"},{"city":"Rohtak","state":"Haryana","latitude":28.8955,"longitude":76.6066,"temp":23.4,"humidity":47,"rain":0.0,"pressure":986.4,"uv_index":7.15,"wind_gusts":38.5,"aqi":970,"pm10":1672.7,"pm2_5":205.4,"mosquito_risk":0,"arthritis_risk":5,"migraine_risk":7,"frizz_risk":0,"updated_at":"2026-04-10T21:27:02.927634+05:30"},{"city":"Panipat","state":"Haryana","latitude":29.3909,"longitude":76.9635,"temp":22.6,"humidity":46,"rain":0.0,"pressure":984.6,"uv_index":7.0,"wind_gusts":41.0,"aqi":1830,"pm10":2674.8,"pm2_5":300.8,"mosquito_risk":0,"arthritis_risk":5,"migraine_risk":7,"frizz_risk":0,"updated_at":"2026-04-10T21:27:02.927641+05:30"},{"city":"Mathura","state":"Uttar Pradesh","latitude":27.4924,"longitude":77.6737,"temp":25.0,"humidity":42,"rain":0.0,"pressure":991.3,"uv_index":7.45,"wind_gusts":34.2,"aqi":1039,"pm10":1706.2,"pm2_5":200.7,"mosquito_risk":4,"arthritis_risk":5,"migraine_risk":7,"frizz_risk":0,"updated_at":"2026-04-10T21:27:02.927648+05:30"},{"city":"Vrindavan","state":"Uttar Pradesh","latitude":27.5823,"longitude":77.7027,"temp":22.8,"humidity":51,"rain":0.0,"pressure":991.5,"uv_index":7.4,"wind_gusts":37.4,"aqi":1039,"pm10":1706.2,"pm2_5":200.7,"mosquito_risk":0,"arthritis_risk":5,"migraine_risk":7,"frizz_risk":0,"updated_at":"2026-04-10T21:27:02.927654+05:30"},{"city":"Ayodhya","state":"Uttar Pradesh","latitude":26.7922,"longitude":82.1998,"temp":24.1,"humidity":41,"rain":0.0,"pressure":998.3,"uv_index":7.8,"wind_gusts":49.7,"aqi":122,"pm10":230.5,"pm2_5":46.4,"mosquito_risk":0,"arthritis_risk":5,"migraine_risk":7,"frizz_risk":0,"updated_at":"2026-04-10T21:27:02.927661+05:30"},{"city":"Ratlam","state":"Madhya Pradesh","latitude":23.3315,"longitude":75.0367,"temp":25.7,"humidity":46,"rain":0.0,"pressure":958.5,"uv_index":8.3,"wind_gusts":32.4,"aqi":121,"pm10":33.8,"pm2_5":18.9,"mosquito_risk":4,"arthritis_risk":5,"migraine_risk":7,"frizz_risk":0,"updated_at":"2026-04-10T21:27:02.927668+05:30"},{"city":"Sagar","state":"Madhya Pradesh","latitude":23.8388,"longitude":78.7378,"temp":27.2,"humidity":25,"rain":0.0,"pressure":954.6,"uv_index":8.4,"wind_gusts":29.9,"aqi":120,"pm10":28.8,"pm2_5":12.6,"mosquito_risk":4,"arthritis_risk":5,"migraine_risk":7,"frizz_risk":0,"updated_at":"2026-04-10T21:27:02.927674+05:30"},{"city":"Satna","state":"Madhya Pradesh","latitude":24.6005,"longitude":80.8322,"temp":26.6,"humidity":32,"rain":0.0,"pressure":975.4,"uv_index":8.45,"wind_gusts":34.6,"aqi":130,"pm10":28.3,"pm2_5":14.9,"mosquito_risk":4,"arthritis_risk":5,"migraine_risk":7,"frizz_risk":0,"updated_at":"2026-04-10T21:27:02.927681+05:30"},{"city":"Akola","state":"Maharashtra","latitude":20.7002,"longitude":77.0082,"temp":31.1,"humidity":21,"rain":0.0,"pressure":977.7,"uv_index":8.7,"wind_gusts":24.5,"aqi":144,"pm10":71.2,"pm2_5":40.6,"mosquito_risk":0,"arthritis_risk":5,"migraine_risk":7,"frizz_risk":0,"updated_at":"2026-04-10T21:27:02.927688+05:30"},{"city":"Amravati","state":"Maharashtra","latitude":20.9374,"longitude":77.7796,"temp":30.7,"humidity":41,"rain":0.0,"pressure":969.9,"uv_index":8.7,"wind_gusts":28.4,"aqi":140,"pm10":65.7,"pm2_5":35.3,"mosquito_risk":0,"arthritis_risk":5,"migraine_risk":7,"frizz_risk":0,"updated_at":"2026-04-10T21:27:02.927696+05:30"},{"city":"Latur","state":"Maharashtra","latitude":18.4088,"longitude":76.5604,"temp":28.7,"humidity":51,"rain":0.0,"pressure":942.5,"uv_index":8.95,"wind_gusts":30.2,"aqi":129,"pm10":35.3,"pm2_5":23.7,"mosquito_risk":4,"arthritis_risk":5,"migraine_risk":7,"frizz_risk":1,"updated_at":"2026-04-10T21:27:02.927703+05:30"},{"city":"Nanded","state":"Maharashtra","latitude":19.1383,"longitude":77.3091,"temp":30.1,"humidity":46,"rain":0.0,"pressure":971.0,"uv_index":8.85,"wind_gusts":19.4,"aqi":124,"pm10":53.0,"pm2_5":36.4,"mosquito_risk":0,"arthritis_risk":5,"migraine_risk":7,"frizz_risk":1,"updated_at":"2026-04-10T21:27:02.927709+05:30"},{"city":"Gulbarga","state":"Karnataka","latitude":17.3297,"longitude":76.8343,"temp":33.3,"humidity":32,"rain":0.0,"pressure":960.7,"uv_index":9.05,"wind_gusts":26.3,"aqi":129,"pm10":33.2,"pm2_5":22.4,"mosquito_risk":0,"arthritis_risk":5,"migraine_risk":7,"frizz_risk":0,"updated_at":"2026-04-10T21:27:02.927716+05:30"},{"city":"Bidar","state":"Karnataka","latitude":17.9104,"longitude":77.5199,"temp":30.1,"humidity":39,"rain":0.0,"pressure":938.2,"uv_index":9.05,"wind_gusts":28.8,"aqi":125,"pm10":39.3,"pm2_5":26.0,"mosquito_risk":0,"arthritis_risk":5,"migraine_risk":7,"frizz_risk":0,"updated_at":"2026-04-10T21:27:02.927722+05:30"},{"city":"Hospet","state":"Karnataka","latitude":15.2689,"longitude":76.3909,"temp":33.7,"humidity":39,"rain":0.0,"pressure":957.4,"uv_index":9.25,"wind_gusts":23.4,"aqi":169,"pm10":41.3,"pm2_5":29.3,"mosquito_risk":0,"arthritis_risk":5,"migraine_risk":7,"frizz_risk":1,"updated_at":"2026-04-10T21:27:02.927729+05:30"},{"city":"Tirupur","state":"Tamil Nadu","latitude":11.1085,"longitude":77.3411,"temp":31.0,"humidity":58,"rain":0.0,"pressure":977.6,"uv_index":9.5,"wind_gusts":30.2,"aqi":159,"pm10":40.7,"pm2_5":36.3,"mosquito_risk":0,"arthritis_risk":5,"migraine_risk":7,"frizz_risk":1,"updated_at":"2026-04-10T21:27:02.927735+05:30"},{"city":"Alappuzha","state":"Kerala","latitude":9.4981,"longitude":76.3388,"temp":27.7,"humidity":84,"rain":0.0,"pressure":1012.1,"uv_index":9.2,"wind_gusts":26.6,"aqi":75,"pm10":42.1,"pm2_5":25.8,"mosquito_risk":7,"arthritis_risk":0,"migraine_risk":4,"frizz_risk":1,"updated_at":"2026-04-10T21:27:02.927742+05:30"},{"city":"Munnar","state":"Kerala","latitude":10.0889,"longitude":77.0595,"temp":22.7,"humidity":96,"rain":0.0,"pressure":859.9,"uv_index":8.1,"wind_gusts":31.3,"aqi":105,"pm10":36.0,"pm2_5":33.4,"mosquito_risk":3,"arthritis_risk":5,"migraine_risk":7,"frizz_risk":1,"updated_at":"2026-04-10T21:27:02.927749+05:30"},{"city":"Silchar","state":"Assam","latitude":24.8333,"longitude":92.7789,"temp":21.9,"humidity":82,"rain":0.0,"pressure":1008.3,"uv_index":8.55,"wind_gusts":25.9,"aqi":128,"pm10":76.1,"pm2_5":62.2,"mosquito_risk":3,"arthritis_risk":0,"migraine_risk":4,"frizz_risk":1,"updated_at":"2026-04-10T21:27:02.927755+05:30"},{"city":"Dibrugarh","state":"Assam","latitude":27.4728,"longitude":94.912,"temp":20.7,"humidity":90,"rain":0.0,"pressure":999.5,"uv_index":8.35,"wind_gusts":16.2,"aqi":96,"pm10":46.0,"pm2_5":39.8,"mosquito_risk":3,"arthritis_risk":5,"migraine_risk":7,"frizz_risk":1,"updated_at":"2026-04-10T21:27:02.927762+05:30"}]