[{"city":"Delhi","state":"Delhi","latitude":28.6139,"longitude":77.209,"temp":39.4,"humidity":15,"rain":0.0,"pressure":977.7,"uv_index":7.4,"wind_gusts":50.4,"aqi":582,"pm10":754.4,"pm2_5":89.9,"mosquito_risk":0,"arthritis_risk":5,"migraine_risk":10,"frizz_risk":0,"updated_at":"2026-04-26T17:11:06.149423+05:30"},{"city":"Mumbai","state":"Maharashtra","latitude":19.076,"longitude":72.8777,"temp":34.8,"humidity":49,"rain":0.0,"pressure":1003.6,"uv_index":7.6,"wind_gusts":34.9,"aqi":120,"pm10":67.1,"pm2_5":35.5,"mosquito_risk":0,"arthritis_risk":5,"migraine_risk":4,"frizz_risk":1,"updated_at":"2026-04-26T17:11:06.149458+05:30"},{"city":"Bangalore","state":"Karnataka","latitude":12.9716,"longitude":77.5946,"temp":34.8,"humidity":23,"rain":0.0,"pressure":910.0,"uv_index":9.55,"wind_gusts":37.8,"aqi":150,"pm10":43.9,"pm2_5":30.4,"mosquito_risk":0,"arthritis_risk":5,"migraine_risk":7,"frizz_risk":0,"updated_at":"2026-04-26T17:11:06.149473+05:30"},{"city":"Hyderabad","state":"Telangana","latitude":17.385,"longitude":78.4867,"temp":37.3,"humidity":23,"rain":0.0,"pressure":950.4,"uv_index":9.25,"wind_gusts":33.8,"aqi":136,"pm10":46.2,"pm2_5":37.5,"mosquito_risk":0,"arthritis_risk":5,"migraine_risk":10,"frizz_risk":0,"updated_at":"2026-04-26T17:11:06.149483+05:30"},{"city":"Chennai","state":"Tamil Nadu","latitude":13.0827,"longitude":80.2707,"temp":31.9,"humidity":59,"rain":0.0,"pressure":1004.3,"uv_index":9.25,"wind_gusts":51.8,"aqi":38,"pm10":20.0,"pm2_5":13.0,"mosquito_risk":0,"arthritis_risk":5,"migraine_risk":4,"frizz_risk":1,"updated_at":"2026-04-26T17:11:06.149492+05:30"},{"city":"Kolkata","state":"West Bengal","latitude":22.5726,"longitude":88.3639,"temp":32.4,"humidity":60,"rain":0.0,"pressure":1001.6,"uv_index":8.9,"wind_gusts":49.3,"aqi":62,"pm10":23.9,"pm2_5":16.2,"mosquito_risk":0,"arthritis_risk":5,"migraine_risk":4,"frizz_risk":1,"updated_at":"2026-04-26T17:11:06.149503+05:30"},{"city":"Pune","state":"Maharashtra","latitude":18.5204,"longitude":73.8567,"temp":38.8,"humidity":14,"rain":0.0,"pressure":945.0,"uv_index":8.35,"wind_gusts":39.2,"aqi":145,"pm10":30.6,"pm2_5":22.6,"mosquito_risk":0,"arthritis_risk":5,"migraine_risk":10,"frizz_risk":0,"updated_at":"2026-04-26T17:11:06.149510+05:30"},{"city":"Ahmedabad","state":"Gujarat","latitude":23.0225,"longitude":72.5714,"temp":43.3,"humidity":10,"rain":0.0,"pressure":996.6,"uv_index":8.2,"wind_gusts":38.9,"aqi":65,"pm10":37.0,"pm2_5":13.6,"mosquito_risk":0,"arthritis_risk":5,"migraine_risk":10,"frizz_risk":0,"updated_at":"2026-04-26T17:11:06.149518+05:30"},{"city":"Jaipur","state":"Rajasthan","latitude":26.9124,"longitude":75.7873,"temp":40.2,"humidity":13,"rain":0.0,"pressure":956.1,"uv_index":8.05,"wind_gusts":42.5,"aqi":144,"pm10":320.4,"pm2_5":40.4,"mosquito_risk":0,"arthritis_risk":5,"migraine_risk":10,"frizz_risk":0,"updated_at":"2026-04-26T17:11:06.149525+05:30"},{"city":"Lucknow","state":"Uttar Pradesh","latitude":26.8467,"longitude":80.9462,"temp":41.6,"humidity":13,"rain":0.0,"pressure":986.4,"uv_index":7.9,"wind_gusts":51.8,"aqi":153,"pm10":248.7,"pm2_5":43.7,"mosquito_risk":0,"arthritis_risk":5,"migraine_risk":10,"frizz_risk":0,"updated_at":"2026-04-26T17:11:06.149532+05:30"},{"city":"Kanpur","state":"Uttar Pradesh","latitude":26.4499,"longitude":80.3319,"temp":41.8,"humidity":13,"rain":0.0,"pressure":985.2,"uv_index":7.9,"wind_gusts":54.0,"aqi":441,"pm10":735.7,"pm2_5":82.9,"mosquito_risk":0,"arthritis_risk":5,"migraine_risk":10,"frizz_risk":0,"updated_at":"2026-04-26T17:11:06.149539+05:30"},{"city":"Chandigarh","state":"Chandigarh","latitude":30.7333,"longitude":76.7794,"temp":36.5,"humidity":16,"rain":0.0,"pressure":964.0,"uv_index":7.4,"wind_gusts":44.3,"aqi":92,"pm10":21.2,"pm2_5":10.1,"mosquito_risk":0,"arthritis_risk":5,"migraine_risk":10,"frizz_risk":0,"updated_at":"2026-04-26T17:11:06.149547+05:30"},{"city":"Srinagar","state":"Jammu and Kashmir","latitude":34.0837,"longitude":74.7973,"temp":23.6,"humidity":39,"rain":0.0,"pressure":842.1,"uv_index":8.6,"wind_gusts":15.8,"aqi":79,"pm10":16.3,"pm2_5":6.3,"mosquito_risk":0,"arthritis_risk":5,"migraine_risk":7,"frizz_risk":0,"updated_at":"2026-04-26T17:11:06.149554+05:30"},{"city":"Jammu","state":"Jammu and Kashmir","latitude":32.7266,"longitude":74.857,"temp":36.7,"humidity":15,"rain":0.0,"pressure":967.8,"uv_index":8.15,"wind_gusts":34.6,"aqi":72,"pm10":25.3,"pm2_5":9.3,"mosquito_risk":0,"arthritis_risk":5,"migraine_risk":10,"frizz_risk":0,"updated_at":"2026-04-26T17:11:06.149561+05:30"},{"city":"Amritsar","state":"Punjab","latitude":31.634,"longitude":74.8723,"temp":38.2,"humidity":16,"rain":0.0,"pressure":975.9,"uv_index":8.1,"wind_gusts":36.7,"aqi":96,"pm10":28.3,"pm2_5":10.9,"mosquito_risk":0,"arthritis_risk":5,"migraine_risk":10,"frizz_risk":0,"updated_at":"2026-04-26T17:11:06.149568+05:30"},{"city":"Ludhiana","state":"Punjab","latitude":30.901,"longitude":75.8573,"temp":38.5,"humidity":14,"rain":0.0,"pressure":973.6,"uv_index":7.65,"wind_gusts":41.0,"aqi":81,"pm10":51.1,"pm2_5":13.1,"mosquito_risk":0,"arthritis_risk":5,"migraine_risk":10,"frizz_risk":0,"updated_at":"2026-04-26T17:11:06.149578+05:30"},{"city":"Jalandhar","state":"Punjab","latitude":31.326,"longitude":75.5762,"temp":37.3,"humidity":16,"rain":0.0,"pressure":974.8,"uv_index":7.85,"wind_gusts":37.8,"aqi":89,"pm10":57.0,"pm2_5":14.4,"mosquito_risk":0,"arthritis_risk":5,"migraine_risk":10,"frizz_risk":0,"updated_at":"2026-04-26T17:11:06.149585+05:30"},{"city":"Dehradun","state":"Uttarakhand","latitude":30.6284,"longitude":78.0322,"temp":26.8,"humidity":19,"rain":0.0,"pressure":829.1,"uv_index":7.8,"wind_gusts":49.3,"aqi":84,"pm10":20.4,"pm2_5":7.0,"mosquito_risk":4,"arthritis_risk":5,"migraine_risk":7,"frizz_risk":0,"updated_at":"2026-04-26T17:11:06.149592+05:30"},{"city":"Shimla","state":"Himachal Pradesh","latitude":31.1048,"longitude":77.1734,"temp":21.8,"humidity":22,"rain":0.0,"pressure":785.3,"uv_index":7.9,"wind_gusts":52.2,"aqi":78,"pm10":22.5,"pm2_5":7.8,"mosquito_risk":0,"arthritis_risk":5,"migraine_risk":7,"frizz_risk":1,"updated_at":"2026-04-26T17:11:06.149599+05:30"},{"city":"Manali","state":"Himachal Pradesh","latitude":32.2396,"longitude":77.1887,"temp":20.4,"humidity":34,"rain":0.0,"pressure":817.4,"uv_index":9.8,"wind_gusts":45.0,"aqi":103,"pm10":20.7,"pm2_5":6.1,"mosquito_risk":0,"arthritis_risk":5,"migraine_risk":7,"frizz_risk":0,"updated_at":"2026-04-26T17:11:06.149605+05:30"},{"city":"Gurgaon","state":"Haryana","latitude":28.4595,"longitude":77.0266,"temp":38.5,"humidity":17,"rain":0.0,"pressure":976.4,"uv_index":7.55,"wind_gusts":50.8,"aqi":1595,"pm10":2138.3,"pm2_5":204.0,"mosquito_risk":0,"arthritis_risk":5,"migraine_risk":10,"frizz_risk":0,"updated_at":"2026-04-26T17:11:06.149612+05:30"},{"city":"Noida","state":"Uttar Pradesh","latitude":28.5355,"longitude":77.391,"temp":39.3,"humidity":16,"rain":0.0,"pressure":978.8,"uv_index":7.45,"wind_gusts":45.7,"aqi":1595,"pm10":2138.3,"pm2_5":204.0,"mosquito_risk":0,"arthritis_risk":5,"migraine_risk":10,"frizz_risk":0,"updated_at":"2026-04-26T17:11:06.149618+05:30"},{"city":"Ghaziabad","state":"Uttar Pradesh","latitude":28.6692,"longitude":77.4538,"temp":39.8,"humidity":14,"rain":0.0,"pressure":976.9,"uv_index":7.4,"wind_gusts":49.7,"aqi":453,"pm10":720.8,"pm2_5":84.8,"mosquito_risk":0,"arthritis_risk":5,"migraine_risk":10,"frizz_risk":0,"updated_at":"2026-04-26T17:11:06.149624+05:30"},{"city":"Faridabad","state":"Haryana","latitude":28.4089,"longitude":77.3178,"temp":39.4,"humidity":15,"rain":0.0,"pressure":978.4,"uv_index":7.5,"wind_gusts":55.1,"aqi":1595,"pm10":2138.3,"pm2_5":204.0,"mosquito_risk":0,"arthritis_risk":5,"migraine_risk":10,"frizz_risk":0,"updated_at":"2026-04-26T17:11:06.149630+05:30"},{"city":"Meerut","state":"Uttar Pradesh","latitude":28.9845,"longitude":77.7064,"temp":39.0,"humidity":17,"rain":0.0,"pressure":974.9,"uv_index":7.3,"wind_gusts":48.6,"aqi":453,"pm10":720.8,"pm2_5":84.8,"mosquito_risk":0,"arthritis_risk":5,"migraine_risk":10,"frizz_risk":0,"updated_at":"2026-04-26T17:11:06.149636+05:30"},{"city":"Agra","state":"Uttar Pradesh","latitude":27.1767,"longitude":78.0081,"temp":41.2,"humidity":13,"rain":0.0,"pressure":982.3,"uv_index":7.8,"wind_gusts":49.7,"aqi":1130,"pm10":1046.8,"pm2_5":99.9,"mosquito_risk":0,"arthritis_risk":5,"migraine_risk":10,"frizz_risk":0,"updated_at":"2026-04-26T17:11:06.149644+05:30"},{"city":"Varanasi","state":"Uttar Pradesh","latitude":25.3176,"longitude":82.9739,"temp":42.3,"humidity":13,"rain":0.0,"pressure":989.9,"uv_index":8.5,"wind_gusts":45.0,"aqi":165,"pm10":111.5,"pm2_5":34.7,"mosquito_risk":0,"arthritis_risk":5,"migraine_risk":10,"frizz_risk":0,"updated_at":"2026-04-26T17:11:06.149651+05:30"},{"city":"Prayagraj","state":"Uttar Pradesh","latitude":25.4358,"longitude":81.8463,"temp":42.2,"humidity":13,"rain":0.0,"pressure":988.7,"uv_index":8.4,"wind_gusts":50.8,"aqi":154,"pm10":127.1,"pm2_5":35.3,"mosquito_risk":0,"arthritis_risk":5,"migraine_risk":10,"frizz_risk":0,"updated_at":"2026-04-26T17:11:06.149657+05:30"},{"city":"Gorakhpur","state":"Uttar Pradesh","latitude":26.7606,"longitude":83.3732,"temp":33.7,"humidity":43,"rain":0.0,"pressure":991.6,"uv_index":8.35,"wind_gusts":42.5,"aqi":172,"pm10":95.2,"pm2_5":57.7,"mosquito_risk":0,"arthritis_risk":5,"migraine_risk":7,"frizz_risk":1,"updated_at":"2026-04-26T17:11:06.149663+05:30"},{"city":"Bareilly","state":"Uttar Pradesh","latitude":28.367,"longitude":79.4304,"temp":39.8,"humidity":16,"rain":0.0,"pressure":980.0,"uv_index":7.65,"wind_gusts":47.5,"aqi":114,"pm10":68.2,"pm2_5":24.4,"mosquito_risk":0,"arthritis_risk":5,"migraine_risk":10,"frizz_risk":0,"updated_at":"2026-04-26T17:11:06.149669+05:30"},{"city":"Aligarh","state":"Uttar Pradesh","latitude":27.8974,"longitude":78.088,"temp":40.0,"humidity":16,"rain":0.0,"pressure":979.9,"uv_index":7.6,"wind_gusts":52.6,"aqi":1025,"pm10":1378.4,"pm2_5":141.1,"mosquito_risk":0,"arthritis_risk":5,"migraine_risk":10,"frizz_risk":0,"updated_at":"2026-04-26T17:11:06.149675+05:30"},{"city":"Moradabad","state":"Uttar Pradesh","latitude":28.8386,"longitude":78.7733,"temp":39.7,"humidity":15,"rain":0.0,"pressure":977.0,"uv_index":7.5,"wind_gusts":52.6,"aqi":126,"pm10":157.4,"pm2_5":31.7,"mosquito_risk":0,"arthritis_risk":5,"migraine_risk":10,"frizz_risk":0,"updated_at":"2026-04-26T17:11:06.149683+05:30"},{"city":"Saharanpur","state":"Uttar Pradesh","latitude":29.9637,"longitude":77.546,"temp":37.5,"humidity":16,"rain":0.0,"pressure":969.6,"uv_index":7.1,"wind_gusts":51.8,"aqi":90,"pm10":124.8,"pm2_5":24.4,"mosquito_risk":0,"arthritis_risk":5,"migraine_risk":10,"frizz_risk":0,"updated_at":"2026-04-26T17:11:06.149689+05:30"},{"city":"Jhansi","state":"Uttar Pradesh","latitude":25.4484,"longitude":78.5685,"temp":41.0,"humidity":14,"rain":0.0,"pressure":973.3,"uv_index":8.3,"wind_gusts":42.8,"aqi":93,"pm10":99.9,"pm2_5":24.4,"mosquito_risk":0,"arthritis_risk":5,"migraine_risk":10,"frizz_risk":0,"updated_at":"2026-04-26T17:11:09.508652+05:30"},{"city":"Surat","state":"Gujarat","latitude":21.1702,"longitude":72.8311,"temp":42.1,"humidity":12,"rain":0.0,"pressure":1001.5,"uv_index":7.85,"wind_gusts":35.3,"aqi":109,"pm10":82.2,"pm2_5":53.1,"mosquito_risk":0,"arthritis_risk":5,"migraine_risk":7,"frizz_risk":0,"updated_at":"2026-04-26T17:11:09.508684+05:30"},{"city":"Vadodara","state":"Gujarat","latitude":22.3072,"longitude":73.1812,"temp":43.3,"humidity":10,"rain":0.0,"pressure":998.6,"uv_index":8.15,"wind_gusts":42.5,"aqi":106,"pm10":35.9,"pm2_5":20.1,"mosquito_risk":0,"arthritis_risk":5,"migraine_risk":10,"frizz_risk":0,"updated_at":"2026-04-26T17:11:09.508695+05:30"},{"city":"Rajkot","state":"Gujarat","latitude":22.3039,"longitude":70.8022,"temp":40.8,"humidity":13,"rain":0.0,"pressure":990.3,"uv_index":7.85,"wind_gusts":39.2,"aqi":60,"pm10":56.2,"pm2_5":16.7,"mosquito_risk":0,"arthritis_risk":5,"migraine_risk":10,"frizz_risk":0,"updated_at":"2026-04-26T17:11:09.508703+05:30"},{"city":"Thane","state":"Maharashtra","latitude":19.2183,"longitude":72.9781,"temp":39.5,"humidity":29,"rain":0.0,"pressure":1002.5,"uv_index":7.6,"wind_gusts":31.0,"aqi":120,"pm10":67.1,"pm2_5":35.5,"mosquito_risk":0,"arthritis_risk":5,"migraine_risk":7,"frizz_risk":1,"updated_at":"2026-04-26T17:11:09.508711+05:30"},{"city":"Nagpur","state":"Maharashtra","latitude":21.1458,"longitude":79.0882,"temp":42.8,"humidity":10,"rain":0.0,"pressure":967.9,"uv_index":8.9,"wind_gusts":38.5,"aqi":198,"pm10":54.0,"pm2_5":23.6,"mosquito_risk":0,"arthritis_risk":5,"migraine_risk":10,"frizz_risk":0,"updated_at":"2026-04-26T17:11:09.508719+05:30"},{"city":"Nashik","state":"Maharashtra","latitude":19.9975,"longitude":73.7898,"temp":38.8,"humidity":15,"rain":0.0,"pressure":943.0,"uv_index":8.1,"wind_gusts":36.7,"aqi":118,"pm10":33.1,"pm2_5":22.5,"mosquito_risk":0,"arthritis_risk":5,"migraine_risk":10,"frizz_risk":0,"updated_at":"2026-04-26T17:11:09.508726+05:30"},{"city":"Aurangabad","state":"Maharashtra","latitude":19.8762,"longitude":75.3433,"temp":40.5,"humidity":11,"rain":0.0,"pressure":940.9,"uv_index":9.05,"wind_gusts":29.5,"aqi":113,"pm10":18.5,"pm2_5":9.3,"mosquito_risk":0,"arthritis_risk":5,"migraine_risk":10,"frizz_risk":0,"updated_at":"2026-04-26T17:11:09.508734+05:30"},{"city":"Solapur","state":"Maharashtra","latitude":17.6599,"longitude":75.9064,"temp":40.0,"humidity":16,"rain":0.0,"pressure":953.3,"uv_index":9.05,"wind_gusts":24.8,"aqi":158,"pm10":42.0,"pm2_5":32.8,"mosquito_risk":0,"arthritis_risk":5,"migraine_risk":10,"frizz_risk":0,"updated_at":"2026-04-26T17:11:09.508743+05:30"},{"city":"Kolhapur","state":"Maharashtra","latitude":16.705,"longitude":74.2433,"temp":33.7,"humidity":38,"rain":0.0,"pressure":944.9,"uv_index":9.0,"wind_gusts":49.3,"aqi":153,"pm10":41.1,"pm2_5":35.2,"mosquito_risk":0,"arthritis_risk":5,"migraine_risk":7,"frizz_risk":1,"updated_at":"2026-04-26T17:11:09.508750+05:30"},{"city":"Goa","state":"Goa","latitude":15.2993,"longitude":74.124,"temp":33.7,"humidity":59,"rain":0.0,"pressure":995.0,"uv_index":8.95,"wind_gusts":39.6,"aqi":87,"pm10":36.2,"pm2_5":25.6,"mosquito_risk":0,"arthritis_risk":5,"migraine_risk":7,"frizz_risk":1,"updated_at":"2026-04-26T17:11:09.508758+05:30"},{"city":"Jodhpur","state":"Rajasthan","latitude":26.2389,"longitude":73.0243,"temp":42.0,"humidity":12,"rain":0.0,"pressure":978.1,"uv_index":8.3,"wind_gusts":35.6,"aqi":77,"pm10":114.6,"pm2_5":17.2,"mosquito_risk":0,"arthritis_risk":5,"migraine_risk":10,"frizz_risk":0,"updated_at":"2026-04-26T17:11:09.508766+05:30"},{"city":"Udaipur","state":"Rajasthan","latitude":24.5854,"longitude":73.7125,"temp":38.6,"humidity":14,"rain":0.0,"pressure":943.6,"uv_index":8.75,"wind_gusts":29.9,"aqi":73,"pm10":14.9,"pm2_5":5.6,"mosquito_risk":0,"arthritis_risk":5,"migraine_risk":10,"frizz_risk":0,"updated_at":"2026-04-26T17:11:09.508774+05:30"},{"city":"Kota","state":"Rajasthan","latitude":25.2138,"longitude":75.8648,"temp":41.2,"humidity":14,"rain":0.0,"pressure":974.4,"uv_index":8.3,"wind_gusts":32.0,"aqi":90,"pm10":97.3,"pm2_5":24.9,"mosquito_risk":0,"arthritis_risk":5,"migraine_risk":10,"frizz_risk":0,"updated_at":"2026-04-26T17:11:09.508781+05:30"},{"city":"Bikaner","state":"Rajasthan","latitude":28.0229,"longitude":73.3119,"temp":42.4,"humidity":12,"rain":0.0,"pressure":976.9,"uv_index":8.15,"wind_gusts":35.3,"aqi":73,"pm10":75.0,"pm2_5":18.2,"mosquito_risk":0,"arthritis_risk":5,"migraine_risk":10,"frizz_risk":0,"updated_at":"2026-04-26T17:11:09.508789+05:30"},{"city":"Ajmer","state":"Rajasthan","latitude":26.4499,"longitude":74.6399,"temp":39.7,"humidity":14,"rain":0.0,"pressure":951.4,"uv_index":8.25,"wind_gusts":41.0,"aqi":68,"pm10":73.8,"pm2_5":16.1,"mosquito_risk":0,"arthritis_risk":5,"migraine_risk":10,"frizz_risk":0,"updated_at":"2026-04-26T17:11:09.508797+05:30"},{"city":"Gwalior","state":"Madhya Pradesh","latitude":26.2183,"longitude":78.1828,"temp":40.5,"humidity":14,"rain":0.0,"pressure":978.4,"uv_index":8.0,"wind_gusts":49.7,"aqi":126,"pm10":109.0,"pm2_5":27.0,"mosquito_risk":0,"arthritis_risk":5,"migraine_risk":10,"frizz_risk":0,"updated_at":"2026-04-26T17:11:09.508804+05:30"},{"city":"Indore","state":"Madhya Pradesh","latitude":22.7196,"longitude":75.8577,"temp":36.7,"humidity":19,"rain":0.0,"pressure":945.7,"uv_index":8.65,"wind_gusts":49.7,"aqi":102,"pm10":49.0,"pm2_5":17.6,"mosquito_risk":0,"arthritis_risk":5,"migraine_risk":10,"frizz_risk":0,"updated_at":"2026-04-26T17:11:09.508812+05:30"},{"city":"Bhopal","state":"Madhya Pradesh","latitude":23.2599,"longitude":77.4126,"temp":40.0,"humidity":14,"rain":0.0,"pressure":950.4,"uv_index":8.65,"wind_gusts":39.6,"aqi":123,"pm10":78.5,"pm2_5":24.5,"mosquito_risk":0,"arthritis_risk":5,"migraine_risk":10,"frizz_risk":0,"updated_at":"2026-04-26T17:11:09.508819+05:30"},{"city":"Jabalpur","state":"Madhya Pradesh","latitude":23.1815,"longitude":79.9864,"temp":39.7,"humidity":14,"rain":0.0,"pressure":957.7,"uv_index":8.7,"wind_gusts":39.6,"aqi":101,"pm10":76.4,"pm2_5":20.4,"mosquito_risk":0,"arthritis_risk":5,"migraine_risk":10,"frizz_risk":0,"updated_at":"2026-04-26T17:11:09.508826+05:30"},{"city":"Ujjain","state":"Madhya Pradesh","latitude":23.1765,"longitude":75.7885,"temp":38.4,"humidity":16,"rain":0.0,"pressure":951.2,"uv_index":8.55,"wind_gusts":37.4,"aqi":77,"pm10":57.3,"pm2_5":19.0,"mosquito_risk":0,"arthritis_risk":5,"migraine_risk":10,"frizz_risk":0,"updated_at":"2026-04-26T17:11:09.508857+05:30"},{"city":"Visakhapatnam","state":"Andhra Pradesh","latitude":17.6868,"longitude":83.2185,"temp":30.9,"humidity":71,"rain":0.0,"pressure":1000.4,"uv_index":8.95,"wind_gusts":48.2,"aqi":55,"pm10":22.2,"pm2_5":14.3,"mosquito_risk":3,"arthritis_risk":5,"migraine_risk":4,"frizz_risk":1,"updated_at":"2026-04-26T17:11:09.508868+05:30"},{"city":"Vijayawada","state":"Andhra Pradesh","latitude":16.5062,"longitude":80.648,"temp":36.4,"humidity":32,"rain":0.0,"pressure":999.0,"uv_index":8.9,"wind_gusts":39.6,"aqi":55,"pm10":29.3,"pm2_5":20.0,"mosquito_risk":0,"arthritis_risk":5,"migraine_risk":10,"frizz_risk":1,"updated_at":"2026-04-26T17:11:09.508876+05:30"},{"city":"Guntur","state":"Andhra Pradesh","latitude":16.3067,"longitude":80.4365,"temp":34.8,"humidity":43,"rain":0.0,"pressure":1000.3,"uv_index":8.95,"wind_gusts":42.1,"aqi":56,"pm10":33.9,"pm2_5":23.5,"mosquito_risk":0,"arthritis_risk":5,"migraine_risk":4,"frizz_risk":1,"updated_at":"2026-04-26T17:11:09.508882+05:30"},{"city":"Nellore","state":"Andhra Pradesh","latitude":14.4426,"longitude":79.9865,"temp":33.2,"humidity":55,"rain":0.0,"pressure":1002.0,"uv_index":9.1,"wind_gusts":45.0,"aqi":57,"pm10":27.7,"pm2_5":19.5,"mosquito_risk":0,"arthritis_risk":5,"migraine_risk":4,"frizz_risk":1,"updated_at":"2026-04-26T17:11:09.508889+05:30"},{"city":"Kurnool","state":"Andhra Pradesh","latitude":15.8281,"longitude":78.0373,"temp":41.0,"humidity":16,"rain":0.0,"pressure":972.3,"uv_index":9.2,"wind_gusts":33.5,"aqi":130,"pm10":42.5,"pm2_5":33.1,"mosquito_risk":0,"arthritis_risk":5,"migraine_risk":10,"frizz_risk":0,"updated_at":"2026-04-26T17:11:09.508896+05:30"},{"city":"Kakinada","state":"Andhra Pradesh","latitude":16.9891,"longitude":82.2475,"temp":34.8,"humidity":49,"rain":0.0,"pressure":1003.6,"uv_index":8.85,"wind_gusts":42.1,"aqi":46,"pm10":21.2,"pm2_5":12.1,"mosquito_risk":0,"arthritis_risk":5,"migraine_risk":4,"frizz_risk":1,"updated_at":"2026-04-26T17:11:09.508902+05:30"},{"city":"Tirupati","state":"Andhra Pradesh","latitude":13.6288,"longitude":79.4192,"temp":38.5,"humidity":23,"rain":0.0,"pressure":987.0,"uv_index":9.3,"wind_gusts":41.4,"aqi":63,"pm10":30.9,"pm2_5":24.5,"mosquito_risk":0,"arthritis_risk":5,"migraine_risk":10,"frizz_risk":0,"updated_at":"2026-04-26T17:11:09.508909+05:30"},{"city":"Warangal","state":"Telangana","latitude":17.9689,"longitude":79.5941,"temp":39.4,"humidity":20,"rain":0.0,"pressure":974.7,"uv_index":9.0,"wind_gusts":36.7,"aqi":93,"pm10":40.2,"pm2_5":31.9,"mosquito_risk":0,"arthritis_risk":5,"migraine_risk":10,"frizz_risk":0,"updated_at":"2026-04-26T17:11:09.508915+05:30"},{"city":"Nizamabad","state":"Telangana","latitude":18.6725,"longitude":78.0941,"temp":39.6,"humidity":14,"rain":0.0,"pressure":960.9,"uv_index":8.6,"wind_gusts":30.6,"aqi":153,"pm10":31.7,"pm2_5":21.4,"mosquito_risk":0,"arthritis_risk":5,"migraine_risk":10,"frizz_risk":0,"updated_at":"2026-04-26T17:11:09.508921+05:30"},{"city":"Mysore","state":"Karnataka","latitude":12.2958,"longitude":76.6396,"temp":34.1,"humidity":27,"rain":0.0,"pressure":926.0,"uv_index":9.45,"wind_gusts":40.3,"aqi":139,"pm10":39.9,"pm2_5":26.7,"mosquito_risk":0,"arthritis_risk":5,"migraine_risk":7,"frizz_risk":0,"updated_at":"2026-04-26T17:11:09.508928+05:30"},{"city":"Mangalore","state":"Karnataka","latitude":12.9141,"longitude":74.856,"temp":31.8,"humidity":68,"rain":0.0,"pressure":1003.6,"uv_index":9.05,"wind_gusts":37.8,"aqi":79,"pm10":29.5,"pm2_5":22.7,"mosquito_risk":3,"arthritis_risk":5,"migraine_risk":4,"frizz_risk":1,"updated_at":"2026-04-26T17:11:09.508934+05:30"},{"city":"Hubli-Dharwad","state":"Karnataka","latitude":15.3647,"longitude":75.124,"temp":28.5,"humidity":61,"rain":0.0,"pressure":939.2,"uv_index":8.85,"wind_gusts":57.2,"aqi":142,"pm10":45.3,"pm2_5":38.0,"mosquito_risk":7,"arthritis_risk":5,"migraine_risk":7,"frizz_risk":1,"updated_at":"2026-04-26T17:11:09.508940+05:30"},{"city":"Belgaum","state":"Karnataka","latitude":15.8497,"longitude":74.4977,"temp":31.6,"humidity":46,"rain":0.0,"pressure":924.3,"uv_index":8.85,"wind_gusts":45.7,"aqi":165,"pm10":42.1,"pm2_5":35.4,"mosquito_risk":0,"arthritis_risk":5,"migraine_risk":7,"frizz_risk":1,"updated_at":"2026-04-26T17:11:12.868480+05:30"},{"city":"Coimbatore","state":"Tamil Nadu","latitude":11.0168,"longitude":76.9558,"temp":37.5,"humidity":20,"rain":0.0,"pressure":958.5,"uv_index":9.35,"wind_gusts":37.8,"aqi":122,"pm10":28.6,"pm2_5":20.8,"mosquito_risk":0,"arthritis_risk":5,"migraine_risk":10,"frizz_risk":0,"updated_at":"2026-04-26T17:11:12.868506+05:30"},{"city":"Madurai","state":"Tamil Nadu","latitude":9.9252,"longitude":78.1198,"temp":38.2,"humidity":26,"rain":0.0,"pressure":989.0,"uv_index":9.25,"wind_gusts":39.6,"aqi":52,"pm10":9.5,"pm2_5":8.5,"mosquito_risk":0,"arthritis_risk":5,"migraine_risk":10,"frizz_risk":0,"updated_at":"2026-04-26T17:11:12.868515+05:30"},{"city":"Trichy","state":"Tamil Nadu","latitude":10.7905,"longitude":78.7047,"temp":36.8,"humidity":31,"rain":0.0,"pressure":996.0,"uv_index":9.25,"wind_gusts":32.4,"aqi":51,"pm10":12.1,"pm2_5":10.6,"mosquito_risk":0,"arthritis_risk":5,"migraine_risk":10,"frizz_risk":1,"updated_at":"2026-04-26T17:11:12.868522+05:30"},{"city":"Salem","state":"Tamil Nadu","latitude":11.6643,"longitude":78.146,"temp":37.8,"humidity":22,"rain":0.0,"pressure":973.6,"uv_index":9.35,"wind_gusts":41.4,"aqi":68,"pm10":22.4,"pm2_5":17.8,"mosquito_risk":0,"arthritis_risk":5,"migraine_risk":10,"frizz_risk":0,"updated_at":"2026-04-26T17:11:12.868528+05:30"},{"city":"Tirunelveli","state":"Tamil Nadu","latitude":8.7139,"longitude":77.7567,"temp":34.8,"humidity":44,"rain":0.0,"pressure":999.7,"uv_index":9.2,"wind_gusts":37.4,"aqi":70,"pm10":11.9,"pm2_5":11.3,"mosquito_risk":0,"arthritis_risk":5,"migraine_risk":7,"frizz_risk":1,"updated_at":"2026-04-26T17:11:12.868535+05:30"},{"city":"Vellore","state":"Tamil Nadu","latitude":12.9165,"longitude":79.1325,"temp":37.3,"humidity":26,"rain":0.0,"pressure":980.9,"uv_index":9.3,"wind_gusts":37.1,"aqi":82,"pm10":31.8,"pm2_5":26.3,"mosquito_risk":0,"arthritis_risk":5,"migraine_risk":10,"frizz_risk":0,"updated_at":"2026-04-26T17:11:12.868541+05:30"},{"city":"Erode","state":"Tamil Nadu","latitude":11.341,"longitude":77.7172,"temp":38.4,"humidity":22,"rain":0.0,"pressure":984.9,"uv_index":9.3,"wind_gusts":38.9,"aqi":57,"pm10":17.8,"pm2_5":14.4,"mosquito_risk":0,"arthritis_risk":5,"migraine_risk":10,"frizz_risk":0,"updated_at":"2026-04-26T17:11:12.868548+05:30"},{"city":"Kochi","state":"Kerala","latitude":9.9312,"longitude":76.2673,"temp":31.4,"humidity":68,"rain":0.0,"pressure":1005.1,"uv_index":9.0,"wind_gusts":36.7,"aqi":95,"pm10":18.4,"pm2_5":16.1,"mosquito_risk":3,"arthritis_risk":5,"migraine_risk":4,"frizz_risk":1,"updated_at":"2026-04-26T17:11:12.868554+05:30"},{"city":"Thiruvananthapuram","state":"Kerala","latitude":8.5241,"longitude":76.9366,"temp":30.5,"humidity":66,"rain":0.0,"pressure":1004.9,"uv_index":8.8,"wind_gusts":33.1,"aqi":52,"pm10":10.8,"pm2_5":8.2,"mosquito_risk":3,"arthritis_risk":5,"migraine_risk":4,"frizz_risk":1,"updated_at":"2026-04-26T17:11:12.868560+05:30"},{"city":"Kozhikode","state":"Kerala","latitude":11.2588,"longitude":75.7804,"temp":30.6,"humidity":77,"rain":0.0,"pressure":1004.5,"uv_index":8.4,"wind_gusts":34.9,"aqi":68,"pm10":12.0,"pm2_5":9.3,"mosquito_risk":3,"arthritis_risk":5,"migraine_risk":4,"frizz_risk":1,"updated_at":"2026-04-26T17:11:12.868566+05:30"},{"city":"Thrissur","state":"Kerala","latitude":10.5276,"longitude":76.2144,"temp":31.2,"humidity":69,"rain":0.0,"pressure":1003.4,"uv_index":9.0,"wind_gusts":40.0,"aqi":85,"pm10":20.1,"pm2_5":17.1,"mosquito_risk":3,"arthritis_risk":5,"migraine_risk":4,"frizz_risk":1,"updated_at":"2026-04-26T17:11:12.868572+05:30"},{"city":"Kannur","state":"Kerala","latitude":11.8745,"longitude":75.3704,"temp":30.6,"humidity":73,"rain":0.0,"pressure":1004.0,"uv_index":9.0,"wind_gusts":37.4,"aqi":69,"pm10":24.3,"pm2_5":18.3,"mosquito_risk":3,"arthritis_risk":5,"migraine_risk":4,"frizz_risk":1,"updated_at":"2026-04-26T17:11:12.868578+05:30"},{"city":"Patna","state":"Bihar","latitude":25.5941,"longitude":85.1376,"temp":32.2,"humidity":54,"rain":0.0,"pressure":995.0,"uv_index":8.65,"wind_gusts":43.9,"aqi":185,"pm10":85.0,"pm2_5":62.6,"mosquito_risk":0,"arthritis_risk":5,"migraine_risk":7,"frizz_risk":1,"updated_at":"2026-04-26T17:11:12.868584+05:30"},{"city":"Gaya","state":"Bihar","latitude":24.7914,"longitude":85.0002,"temp":36.4,"humidity":32,"rain":0.0,"pressure":987.5,"uv_index":8.7,"wind_gusts":44.3,"aqi":176,"pm10":120.1,"pm2_5":40.3,"mosquito_risk":0,"arthritis_risk":5,"migraine_risk":10,"frizz_risk":1,"updated_at":"2026-04-26T17:11:12.868589+05:30"},{"city":"Muzaffarpur","state":"Bihar","latitude":26.1209,"longitude":85.3647,"temp":30.0,"humidity":61,"rain":0.0,"pressure":995.7,"uv_index":8.65,"wind_gusts":48.6,"aqi":172,"pm10":84.3,"pm2_5":61.9,"mosquito_risk":7,"arthritis_risk":5,"migraine_risk":7,"frizz_risk":1,"updated_at":"2026-04-26T17:11:12.868595+05:30"},{"city":"Bhagalpur","state":"Bihar","latitude":25.2425,"longitude":87.0117,"temp":33.0,"humidity":51,"rain":0.0,"pressure":995.4,"uv_index":8.6,"wind_gusts":38.5,"aqi":144,"pm10":75.2,"pm2_5":59.5,"mosquito_risk":0,"arthritis_risk":5,"migraine_risk":7,"frizz_risk":1,"updated_at":"2026-04-26T17:11:12.868602+05:30"},{"city":"Ranchi","state":"Jharkhand","latitude":23.3441,"longitude":85.3096,"temp":35.0,"humidity":21,"rain":0.0,"pressure":933.9,"uv_index":9.15,"wind_gusts":41.0,"aqi":154,"pm10":138.3,"pm2_5":32.9,"mosquito_risk":0,"arthritis_risk":5,"migraine_risk":7,"frizz_risk":0,"updated_at":"2026-04-26T17:11:12.868608+05:30"},{"city":"Jamshedpur","state":"Jharkhand","latitude":22.8046,"longitude":86.2029,"temp":39.6,"humidity":19,"rain":0.0,"pressure":984.3,"uv_index":8.85,"wind_gusts":41.0,"aqi":190,"pm10":77.1,"pm2_5":34.9,"mosquito_risk":0,"arthritis_risk":5,"migraine_risk":10,"frizz_risk":0,"updated_at":"2026-04-26T17:11:12.868614+05:30"},{"city":"Dhanbad","state":"Jharkhand","latitude":23.7957,"longitude":86.4304,"temp":34.3,"humidity":48,"rain":0.0,"pressure":974.1,"uv_index":8.95,"wind_gusts":43.2,"aqi":171,"pm10":145.8,"pm2_5":41.1,"mosquito_risk":0,"arthritis_risk":5,"migraine_risk":7,"frizz_risk":1,"updated_at":"2026-04-26T17:11:12.868620+05:30"},{"city":"Bokaro","state":"Jharkhand","latitude":23.6693,"longitude":86.1511,"temp":36.5,"humidity":30,"rain":0.0,"pressure":977.4,"uv_index":8.95,"wind_gusts":36.0,"aqi":169,"pm10":158.3,"pm2_5":41.1,"mosquito_risk":0,"arthritis_risk":5,"migraine_risk":10,"frizz_risk":1,"updated_at":"2026-04-26T17:11:12.868626+05:30"},{"city":"Bhubaneswar","state":"Odisha","latitude":20.2961,"longitude":85.8245,"temp":30.8,"humidity":72,"rain":0.0,"pressure":998.3,"uv_index":9.1,"wind_gusts":52.2,"aqi":56,"pm10":20.3,"pm2_5":14.9,"mosquito_risk":3,"arthritis_risk":5,"migraine_risk":7,"frizz_risk":1,"updated_at":"2026-04-26T17:11:12.868632+05:30"},{"city":"Cuttack","state":"Odisha","latitude":20.4625,"longitude":85.8828,"temp":31.7,"humidity":69,"rain":0.0,"pressure":1000.2,"uv_index":9.1,"wind_gusts":49.7,"aqi":56,"pm10":20.3,"pm2_5":14.9,"mosquito_risk":3,"arthritis_risk":5,"migraine_risk":4,"frizz_risk":1,"updated_at":"2026-04-26T17:11:12.868638+05:30"},{"city":"Rourkela","state":"Odisha","latitude":22.2604,"longitude":84.8536,"temp":41.0,"humidity":15,"rain":0.0,"pressure":978.9,"uv_index":8.65,"wind_gusts":45.7,"aqi":214,"pm10":74.5,"pm2_5":30.0,"mosquito_risk":0,"arthritis_risk":5,"migraine_risk":10,"frizz_risk":0,"updated_at":"2026-04-26T17:11:12.868644+05:30"},{"city":"Raipur","state":"Chhattisgarh","latitude":21.2514,"longitude":81.6296,"temp":41.6,"humidity":13,"rain":0.0,"pressure":969.4,"uv_index":8.95,"wind_gusts":41.0,"aqi":196,"pm10":33.4,"pm2_5":26.7,"mosquito_risk":0,"arthritis_risk":5,"migraine_risk":10,"frizz_risk":0,"updated_at":"2026-04-26T17:11:12.868650+05:30"},{"city":"Bhilai","state":"Chhattisgarh","latitude":21.1938,"longitude":81.3509,"temp":40.8,"humidity":14,"rain":0.0,"pressure":969.9,"uv_index":9.0,"wind_gusts":44.3,"aqi":171,"pm10":29.9,"pm2_5":23.1,"mosquito_risk":0,"arthritis_risk":5,"migraine_risk":10,"frizz_risk":0,"updated_at":"2026-04-26T17:11:12.868655+05:30"},{"city":"Guwahati","state":"Assam","latitude":26.1158,"longitude":91.7086,"temp":25.4,"humidity":78,"rain":0.0,"pressure":998.8,"uv_index":3.7,"wind_gusts":40.3,"aqi":139,"pm10":72.4,"pm2_5":48.5,"mosquito_risk":7,"arthritis_risk":5,"migraine_risk":3,"frizz_risk":1,"updated_at":"2026-04-26T17:11:12.868661+05:30"},{"city":"Agartala","state":"Tripura","latitude":23.8315,"longitude":91.2868,"temp":32.8,"humidity":49,"rain":0.0,"pressure":1000.8,"uv_index":8.8,"wind_gusts":36.4,"aqi":108,"pm10":36.6,"pm2_5":25.6,"mosquito_risk":0,"arthritis_risk":5,"migraine_risk":4,"frizz_risk":1,"updated_at":"2026-04-26T17:11:12.868667+05:30"},{"city":"Shillong","state":"Meghalaya","latitude":25.5788,"longitude":91.8933,"temp":19.1,"humidity":78,"rain":0.0,"pressure":855.0,"uv_index":4.65,"wind_gusts":45.4,"aqi":132,"pm10":76.1,"pm2_5":47.4,"mosquito_risk":3,"arthritis_risk":5,"migraine_risk":3,"frizz_risk":0,"updated_at":"2026-04-26T17:11:12.868673+05:30"},{"city":"Imphal","state":"Manipur","latitude":24.817,"longitude":93.9368,"temp":25.7,"humidity":59,"rain":0.0,"pressure":920.9,"uv_index":5.7,"wind_gusts":32.4,"aqi":152,"pm10":88.7,"pm2_5":48.0,"mosquito_risk":4,"arthritis_risk":5,"migraine_risk":3,"frizz_risk":1,"updated_at":"2026-04-26T17:11:12.868679+05:30"},{"city":"Aizawl","state":"Mizoram","latitude":23.7271,"longitude":92.7176,"temp":24.6,"humidity":56,"rain":0.0,"pressure":890.9,"uv_index":9.0,"wind_gusts":36.4,"aqi":116,"pm10":60.1,"pm2_5":31.0,"mosquito_risk":0,"arthritis_risk":5,"migraine_risk":7,"frizz_risk":0,"updated_at":"2026-04-26T17:11:12.868685+05:30"},{"city":"Kohima","state":"Nagaland","latitude":25.6701,"longitude":94.1077,"temp":19.4,"humidity":86,"rain":0.0,"pressure":853.6,"uv_index":6.95,"wind_gusts":35.6,"aqi":152,"pm10":96.6,"pm2_5":54.7,"mosquito_risk":3,"arthritis_risk":10,"migraine_risk":7,"frizz_risk":1,"updated_at":"2026-04-26T17:11:12.868691+05:30"},{"city":"Gangtok","state":"Sikkim","latitude":27.3314,"longitude":88.6138,"temp":16.2,"humidity":97,"rain":0.1,"pressure":834.0,"uv_index":6.75,"wind_gusts":42.1,"aqi":126,"pm10":39.9,"pm2_5":20.4,"mosquito_risk":6,"arthritis_risk":10,"migraine_risk":7,"frizz_risk":0,"updated_at":"2026-04-26T17:11:12.868698+05:30"},{"city":"Siliguri","state":"West Bengal","latitude":26.7271,"longitude":88.3953,"temp":26.8,"humidity":67,"rain":0.0,"pressure":989.1,"uv_index":8.4,"wind_gusts":33.1,"aqi":130,"pm10":69.4,"pm2_5":39.8,"mosquito_risk":7,"arthritis_risk":5,"migraine_risk":7,"frizz_risk":1,"updated_at":"2026-04-26T17:11:16.229310+05:30"},{"city":"Durgapur","state":"West Bengal","latitude":23.5204,"longitude":87.3119,"temp":28.7,"humidity":78,"rain":0.0,"pressure":989.4,"uv_index":8.85,"wind_gusts":38.9,"aqi":141,"pm10":56.8,"pm2_5":48.5,"mosquito_risk":7,"arthritis_risk":5,"migraine_risk":7,"frizz_risk":1,"updated_at":"2026-04-26T17:11:16.229340+05:30"},{"city":"Asansol","state":"West Bengal","latitude":23.6739,"longitude":86.9524,"temp":30.9,"humidity":67,"rain":0.0,"pressure":987.8,"uv_index":8.9,"wind_gusts":40.7,"aqi":163,"pm10":99.4,"pm2_5":45.4,"mosquito_risk":3,"arthritis_risk":5,"migraine_risk":7,"frizz_risk":1,"updated_at":"2026-04-26T17:11:16.229352+05:30"},{"city":"Pondicherry","state":"Puducherry","latitude":11.9139,"longitude":79.8145,"temp":31.0,"humidity":68,"rain":0.0,"pressure":1005.6,"uv_index":9.2,"wind_gusts":42.8,"aqi":33,"pm10":16.1,"pm2_5":10.7,"mosquito_risk":3,"arthritis_risk":5,"migraine_risk":4,"frizz_risk":1,"updated_at":"2026-04-26T17:11:16.229361+05:30"},{"city":"Port Blair","state":"Andaman and Nicobar Islands","latitude":11.6234,"longitude":92.7265,"temp":31.0,"humidity":64,"rain":0.0,"pressure":1005.2,"uv_index":9.1,"wind_gusts":34.9,"aqi":58,"pm10":18.8,"pm2_5":13.8,"mosquito_risk":3,"arthritis_risk":5,"migraine_risk":4,"frizz_risk":1,"updated_at":"2026-04-26T17:11:16.229370+05:30"},{"city":"Haridwar","state":"Uttarakhand","latitude":29.9457,"longitude":78.1642,"temp":36.0,"humidity":21,"rain":0.0,"pressure":967.4,"uv_index":7.2,"wind_gusts":45.7,"aqi":91,"pm10":48.0,"pm2_5":13.7,"mosquito_risk":0,"arthritis_risk":5,"migraine_risk":10,"frizz_risk":0,"updated_at":"2026-04-26T17:11:16.229379+05:30"},{"city":"Rishikesh","state":"Uttarakhand","latitude":30.0869,"longitude":78.2676,"temp":34.3,"humidity":24,"rain":0.0,"pressure":960.3,"uv_index":7.3,"wind_gusts":36.0,"aqi":90,"pm10":22.6,"pm2_5":10.2,"mosquito_risk":0,"arthritis_risk":5,"migraine_risk":7,"frizz_risk":0,"updated_at":"2026-04-26T17:11:16.229387+05:30"},{"city":"Nainital","state":"Uttarakhand","latitude":29.3919,"longitude":79.4542,"temp":22.4,"humidity":35,"rain":0.0,"pressure":805.0,"uv_index":8.15,"wind_gusts":52.2,"aqi":118,"pm10":30.7,"pm2_5":12.4,"mosquito_risk":0,"arthritis_risk":5,"migraine_risk":7,"frizz_risk":0,"updated_at":"2026-04-26T17:11:16.229396+05:30"},{"city":"Mussoorie","state":"Uttarakhand","latitude":30.4599,"longitude":78.0664,"temp":22.5,"humidity":26,"rain":0.0,"pressure":802.4,"uv_index":7.7,"wind_gusts":60.8,"aqi":95,"pm10":19.1,"pm2_5":10.0,"mosquito_risk":0,"arthritis_risk":5,"migraine_risk":7,"frizz_risk":0,"updated_at":"2026-04-26T17:11:16.229405+05:30"},{"city":"Dharamshala","state":"Himachal Pradesh","latitude":32.219,"longitude":76.3234,"temp":26.6,"humidity":29,"rain":0.0,"pressure":868.0,"uv_index":8.05,"wind_gusts":44.3,"aqi":76,"pm10":30.2,"pm2_5":9.4,"mosquito_risk":4,"arthritis_risk":5,"migraine_risk":7,"frizz_risk":0,"updated_at":"2026-04-26T17:11:16.229413+05:30"},{"city":"Dalhousie","state":"Himachal Pradesh","latitude":32.5387,"longitude":75.971,"temp":22.0,"humidity":33,"rain":0.0,"pressure":805.0,"uv_index":8.3,"wind_gusts":40.7,"aqi":82,"pm10":32.1,"pm2_5":10.9,"mosquito_risk":0,"arthritis_risk":5,"migraine_risk":7,"frizz_risk":0,"updated_at":"2026-04-26T17:11:16.229422+05:30"},{"city":"Patiala","state":"Punjab","latitude":30.3398,"longitude":76.3869,"temp":39.4,"humidity":13,"rain":0.0,"pressure":972.7,"uv_index":7.3,"wind_gusts":46.4,"aqi":397,"pm10":750.6,"pm2_5":68.2,"mosquito_risk":0,"arthritis_risk":5,"migraine_risk":10,"frizz_risk":0,"updated_at":"2026-04-26T17:11:16.229430+05:30"},{"city":"Bhatinda","state":"Punjab","latitude":30.211,"longitude":74.9455,"temp":40.0,"humidity":14,"rain":0.0,"pressure":978.6,"uv_index":8.0,"wind_gusts":37.4,"aqi":96,"pm10":76.8,"pm2_5":20.1,"mosquito_risk":0,"arthritis_risk":5,"migraine_risk":10,"frizz_risk":0,"updated_at":"2026-04-26T17:11:16.229437+05:30"},{"city":"Rohtak","state":"Haryana","latitude":28.8955,"longitude":76.6066,"temp":39.8,"humidity":14,"rain":0.0,"pressure":976.4,"uv_index":7.45,"wind_gusts":42.5,"aqi":799,"pm10":1050.5,"pm2_5":107.3,"mosquito_risk":0,"arthritis_risk":5,"migraine_risk":10,"frizz_risk":0,"updated_at":"2026-04-26T17:11:16.229445+05:30"},{"city":"Panipat","state":"Haryana","latitude":29.3909,"longitude":76.9635,"temp":40.8,"humidity":13,"rain":0.0,"pressure":974.1,"uv_index":7.25,"wind_gusts":49.7,"aqi":1512,"pm10":2153.2,"pm2_5":191.9,"mosquito_risk":0,"arthritis_risk":5,"migraine_risk":10,"frizz_risk":0,"updated_at":"2026-04-26T17:11:16.229453+05:30"},{"city":"Mathura","state":"Uttar Pradesh","latitude":27.4924,"longitude":77.6737,"temp":40.5,"humidity":15,"rain":0.0,"pressure":981.3,"uv_index":7.75,"wind_gusts":48.6,"aqi":1060,"pm10":1099.0,"pm2_5":106.4,"mosquito_risk":0,"arthritis_risk":5,"migraine_risk":10,"frizz_risk":0,"updated_at":"2026-04-26T17:11:16.229461+05:30"},{"city":"Vrindavan","state":"Uttar Pradesh","latitude":27.5823,"longitude":77.7027,"temp":40.2,"humidity":16,"rain":0.0,"pressure":981.7,"uv_index":7.7,"wind_gusts":48.2,"aqi":1060,"pm10":1099.0,"pm2_5":106.4,"mosquito_risk":0,"arthritis_risk":5,"migraine_risk":10,"frizz_risk":0,"updated_at":"2026-04-26T17:11:16.229468+05:30"},{"city":"Ayodhya","state":"Uttar Pradesh","latitude":26.7922,"longitude":82.1998,"temp":37.2,"humidity":31,"rain":0.0,"pressure":989.1,"uv_index":8.1,"wind_gusts":53.3,"aqi":161,"pm10":95.0,"pm2_5":36.8,"mosquito_risk":0,"arthritis_risk":5,"migraine_risk":10,"frizz_risk":1,"updated_at":"2026-04-26T17:11:16.229476+05:30"},{"city":"Ratlam","state":"Madhya Pradesh","latitude":23.3315,"longitude":75.0367,"temp":40.2,"humidity":13,"rain":0.0,"pressure":951.6,"uv_index":8.5,"wind_gusts":39.6,"aqi":71,"pm10":41.4,"pm2_5":14.0,"mosquito_risk":0,"arthritis_risk":5,"migraine_risk":10,"frizz_risk":0,"updated_at":"2026-04-26T17:11:16.229483+05:30"},{"city":"Sagar","state":"Madhya Pradesh","latitude":23.8388,"longitude":78.7378,"temp":38.5,"humidity":16,"rain":0.0,"pressure":947.4,"uv_index":8.65,"wind_gusts":44.3,"aqi":83,"pm10":73.6,"pm2_5":21.7,"mosquito_risk":0,"arthritis_risk":5,"migraine_risk":10,"frizz_risk":0,"updated_at":"2026-04-26T17:11:16.229491+05:30"},{"city":"Satna","state":"Madhya Pradesh","latitude":24.6005,"longitude":80.8322,"temp":40.5,"humidity":14,"rain":0.0,"pressure":966.7,"uv_index":8.65,"wind_gusts":43.2,"aqi":101,"pm10":109.4,"pm2_5":27.1,"mosquito_risk":0,"arthritis_risk":5,"migraine_risk":10,"frizz_risk":0,"updated_at":"2026-04-26T17:11:16.229498+05:30"},{"city":"Akola","state":"Maharashtra","latitude":20.7002,"longitude":77.0082,"temp":42.2,"humidity":12,"rain":0.0,"pressure":970.0,"uv_index":8.85,"wind_gusts":34.2,"aqi":117,"pm10":27.2,"pm2_5":12.2,"mosquito_risk":0,"arthritis_risk":5,"migraine_risk":10,"frizz_risk":0,"updated_at":"2026-04-26T17:11:16.229507+05:30"},{"city":"Amravati","state":"Maharashtra","latitude":20.9374,"longitude":77.7796,"temp":42.2,"humidity":10,"rain":0.0,"pressure":962.5,"uv_index":8.85,"wind_gusts":27.7,"aqi":127,"pm10":25.6,"pm2_5":11.4,"mosquito_risk":0,"arthritis_risk":5,"migraine_risk":10,"frizz_risk":0,"updated_at":"2026-04-26T17:11:16.229513+05:30"},{"city":"Latur","state":"Maharashtra","latitude":18.4088,"longitude":76.5604,"temp":38.8,"humidity":13,"rain":0.0,"pressure":937.0,"uv_index":8.95,"wind_gusts":26.6,"aqi":139,"pm10":26.8,"pm2_5":19.4,"mosquito_risk":0,"arthritis_risk":5,"migraine_risk":10,"frizz_risk":0,"updated_at":"2026-04-26T17:11:16.229519+05:30"},{"city":"Nanded","state":"Maharashtra","latitude":19.1383,"longitude":77.3091,"temp":41.1,"humidity":12,"rain":0.0,"pressure":964.3,"uv_index":9.0,"wind_gusts":29.9,"aqi":135,"pm10":21.4,"pm2_5":11.1,"mosquito_risk":0,"arthritis_risk":5,"migraine_risk":10,"frizz_risk":0,"updated_at":"2026-04-26T17:11:16.229526+05:30"},{"city":"Gulbarga","state":"Karnataka","latitude":17.3297,"longitude":76.8343,"temp":39.7,"humidity":16,"rain":0.0,"pressure":954.9,"uv_index":7.9,"wind_gusts":25.6,"aqi":160,"pm10":47.4,"pm2_5":38.5,"mosquito_risk":0,"arthritis_risk":5,"migraine_risk":10,"frizz_risk":0,"updated_at":"2026-04-26T17:11:16.229532+05:30"},{"city":"Bidar","state":"Karnataka","latitude":17.9104,"longitude":77.5199,"temp":38.0,"humidity":18,"rain":0.0,"pressure":933.0,"uv_index":7.95,"wind_gusts":33.8,"aqi":159,"pm10":41.0,"pm2_5":32.0,"mosquito_risk":0,"arthritis_risk":5,"migraine_risk":10,"frizz_risk":0,"updated_at":"2026-04-26T17:11:16.229537+05:30"},{"city":"Hospet","state":"Karnataka","latitude":15.2689,"longitude":76.3909,"temp":37.2,"humidity":25,"rain":0.0,"pressure":952.6,"uv_index":8.65,"wind_gusts":41.8,"aqi":143,"pm10":44.0,"pm2_5":35.9,"mosquito_risk":0,"arthritis_risk":5,"migraine_risk":10,"frizz_risk":0,"updated_at":"2026-04-26T17:11:16.229543+05:30"},{"city":"Tirupur","state":"Tamil Nadu","latitude":11.1085,"longitude":77.3411,"temp":38.8,"humidity":20,"rain":0.0,"pressure":971.2,"uv_index":9.4,"wind_gusts":31.0,"aqi":88,"pm10":20.2,"pm2_5":15.6,"mosquito_risk":0,"arthritis_risk":5,"migraine_risk":10,"frizz_risk":0,"updated_at":"2026-04-26T17:11:16.229549+05:30"},{"city":"Alappuzha","state":"Kerala","latitude":9.4981,"longitude":76.3388,"temp":30.5,"humidity":72,"rain":0.0,"pressure":1005.3,"uv_index":8.55,"wind_gusts":38.2,"aqi":86,"pm10":17.9,"pm2_5":14.1,"mosquito_risk":3,"arthritis_risk":5,"migraine_risk":4,"frizz_risk":1,"updated_at":"2026-04-26T17:11:16.229555+05:30"},{"city":"Munnar","state":"Kerala","latitude":10.0889,"longitude":77.0595,"temp":24.0,"humidity":50,"rain":0.1,"pressure":856.8,"uv_index":9.6,"wind_gusts":27.0,"aqi":67,"pm10":16.1,"pm2_5":14.1,"mosquito_risk":3,"arthritis_risk":5,"migraine_risk":7,"frizz_risk":0,"updated_at":"2026-04-26T17:11:16.229562+05:30"},{"city":"Silchar","state":"Assam","latitude":24.8333,"longitude":92.7789,"temp":28.3,"humidity":79,"rain":0.0,"pressure":1001.3,"uv_index":6.8,"wind_gusts":21.6,"aqi":162,"pm10":102.0,"pm2_5":57.3,"mosquito_risk":7,"arthritis_risk":5,"migraine_risk":4,"frizz_risk":1,"updated_at":"2026-04-26T17:11:16.229568+05:30"},{"city":"Dibrugarh","state":"Assam","latitude":27.4728,"longitude":94.912,"temp":25.5,"humidity":74,"rain":0.0,"pressure":993.5,"uv_index":5.15,"wind_gusts":25.2,"aqi":90,"pm10":46.7,"pm2_5":28.4,"mosquito_risk":7,"arthritis_risk":5,"migraine_risk":3,"frizz_risk":1,"updated_at":"2026-04-26T17:11:16.229574+05:30"}]