[{"city":"Delhi","state":"Delhi","latitude":28.6139,"longitude":77.209,"temp":31.2,"humidity":44,"rain":0.0,"pressure":978.3,"uv_index":7.7,"wind_gusts":43.9,"aqi":514,"pm10":353.0,"pm2_5":103.4,"no2":29.8,"co":176.0,"o3":26.0,"so2":11.2,"mosquito_risk":0,"arthritis_risk":5,"migraine_risk":7,"frizz_risk":1,"updated_at":"2026-06-22T04:46:44.183592+05:30"},{"city":"Mumbai","state":"Maharashtra","latitude":19.076,"longitude":72.8777,"temp":26.5,"humidity":92,"rain":0.0,"pressure":1006.1,"uv_index":7.7,"wind_gusts":42.8,"aqi":43,"pm10":6.8,"pm2_5":4.9,"no2":8.3,"co":128.0,"o3":36.0,"so2":6.6,"mosquito_risk":7,"arthritis_risk":5,"migraine_risk":4,"frizz_risk":1,"updated_at":"2026-06-22T04:46:44.183640+05:30"},{"city":"Bangalore","state":"Karnataka","latitude":12.9716,"longitude":77.5946,"temp":20.7,"humidity":98,"rain":0.0,"pressure":910.8,"uv_index":8.9,"wind_gusts":47.9,"aqi":39,"pm10":10.9,"pm2_5":10.0,"no2":13.6,"co":165.0,"o3":25.0,"so2":7.4,"mosquito_risk":3,"arthritis_risk":5,"migraine_risk":7,"frizz_risk":1,"updated_at":"2026-06-22T04:46:44.183656+05:30"},{"city":"Hyderabad","state":"Telangana","latitude":17.385,"longitude":78.4867,"temp":26.5,"humidity":70,"rain":0.0,"pressure":951.4,"uv_index":8.2,"wind_gusts":41.8,"aqi":63,"pm10":14.0,"pm2_5":12.5,"no2":14.7,"co":150.0,"o3":46.0,"so2":14.9,"mosquito_risk":7,"arthritis_risk":5,"migraine_risk":7,"frizz_risk":1,"updated_at":"2026-06-22T04:46:44.183666+05:30"},{"city":"Chennai","state":"Tamil Nadu","latitude":13.0827,"longitude":80.2707,"temp":27.4,"humidity":87,"rain":0.0,"pressure":1006.0,"uv_index":8.7,"wind_gusts":36.7,"aqi":73,"pm10":22.6,"pm2_5":17.9,"no2":13.2,"co":232.0,"o3":56.0,"so2":14.2,"mosquito_risk":7,"arthritis_risk":5,"migraine_risk":4,"frizz_risk":1,"updated_at":"2026-06-22T04:46:44.183675+05:30"},{"city":"Kolkata","state":"West Bengal","latitude":22.5726,"longitude":88.3639,"temp":26.3,"humidity":94,"rain":0.0,"pressure":1002.5,"uv_index":8.5,"wind_gusts":30.2,"aqi":111,"pm10":72.6,"pm2_5":68.5,"no2":18.5,"co":389.0,"o3":74.0,"so2":8.6,"mosquito_risk":7,"arthritis_risk":5,"migraine_risk":4,"frizz_risk":1,"updated_at":"2026-06-22T04:46:44.183683+05:30"},{"city":"Pune","state":"Maharashtra","latitude":18.5204,"longitude":73.8567,"temp":24.3,"humidity":86,"rain":0.0,"pressure":946.0,"uv_index":8.2,"wind_gusts":42.5,"aqi":39,"pm10":11.2,"pm2_5":9.2,"no2":14.0,"co":110.0,"o3":30.0,"so2":11.4,"mosquito_risk":3,"arthritis_risk":5,"migraine_risk":7,"frizz_risk":1,"updated_at":"2026-06-22T04:46:44.183690+05:30"},{"city":"Ahmedabad","state":"Gujarat","latitude":23.0225,"longitude":72.5714,"temp":30.0,"humidity":68,"rain":0.0,"pressure":998.7,"uv_index":8.0,"wind_gusts":41.0,"aqi":72,"pm10":50.6,"pm2_5":23.1,"no2":5.6,"co":117.0,"o3":41.0,"so2":4.0,"mosquito_risk":7,"arthritis_risk":5,"migraine_risk":7,"frizz_risk":1,"updated_at":"2026-06-22T04:46:44.183696+05:30"},{"city":"Jaipur","state":"Rajasthan","latitude":26.9124,"longitude":75.7873,"temp":27.6,"humidity":66,"rain":0.0,"pressure":955.4,"uv_index":8.2,"wind_gusts":59.4,"aqi":117,"pm10":112.9,"pm2_5":37.5,"no2":12.6,"co":147.0,"o3":32.0,"so2":4.6,"mosquito_risk":7,"arthritis_risk":5,"migraine_risk":7,"frizz_risk":1,"updated_at":"2026-06-22T04:46:44.183702+05:30"},{"city":"Lucknow","state":"Uttar Pradesh","latitude":26.8467,"longitude":80.9462,"temp":31.1,"humidity":49,"rain":0.0,"pressure":988.1,"uv_index":7.85,"wind_gusts":37.8,"aqi":213,"pm10":291.5,"pm2_5":96.4,"no2":19.1,"co":173.0,"o3":56.0,"so2":9.3,"mosquito_risk":0,"arthritis_risk":5,"migraine_risk":7,"frizz_risk":1,"updated_at":"2026-06-22T04:46:44.183712+05:30"},{"city":"Kanpur","state":"Uttar Pradesh","latitude":26.4499,"longitude":80.3319,"temp":31.6,"humidity":46,"rain":0.0,"pressure":986.6,"uv_index":8.3,"wind_gusts":38.5,"aqi":316,"pm10":306.4,"pm2_5":84.3,"no2":21.9,"co":143.0,"o3":37.0,"so2":6.8,"mosquito_risk":0,"arthritis_risk":5,"migraine_risk":7,"frizz_risk":1,"updated_at":"2026-06-22T04:46:44.183719+05:30"},{"city":"Chandigarh","state":"Chandigarh","latitude":30.7333,"longitude":76.7794,"temp":25.4,"humidity":69,"rain":0.0,"pressure":963.6,"uv_index":7.3,"wind_gusts":37.4,"aqi":97,"pm10":54.7,"pm2_5":43.4,"no2":39.3,"co":353.0,"o3":6.0,"so2":5.3,"mosquito_risk":7,"arthritis_risk":5,"migraine_risk":7,"frizz_risk":1,"updated_at":"2026-06-22T04:46:44.183727+05:30"},{"city":"Srinagar","state":"Jammu and Kashmir","latitude":34.0837,"longitude":74.7973,"temp":15.1,"humidity":94,"rain":0.1,"pressure":839.6,"uv_index":9.0,"wind_gusts":28.1,"aqi":70,"pm10":27.1,"pm2_5":25.4,"no2":17.4,"co":344.0,"o3":14.0,"so2":0.4,"mosquito_risk":6,"arthritis_risk":10,"migraine_risk":7,"frizz_risk":0,"updated_at":"2026-06-22T04:46:44.183735+05:30"},{"city":"Jammu","state":"Jammu and Kashmir","latitude":32.7266,"longitude":74.857,"temp":27.2,"humidity":57,"rain":0.0,"pressure":967.7,"uv_index":8.6,"wind_gusts":51.8,"aqi":68,"pm10":29.2,"pm2_5":28.1,"no2":39.4,"co":314.0,"o3":0.0,"so2":1.9,"mosquito_risk":4,"arthritis_risk":5,"migraine_risk":7,"frizz_risk":1,"updated_at":"2026-06-22T04:46:44.183743+05:30"},{"city":"Amritsar","state":"Punjab","latitude":31.634,"longitude":74.8723,"temp":25.8,"humidity":82,"rain":0.0,"pressure":975.3,"uv_index":8.1,"wind_gusts":38.9,"aqi":125,"pm10":80.1,"pm2_5":61.5,"no2":45.8,"co":673.0,"o3":26.0,"so2":9.1,"mosquito_risk":7,"arthritis_risk":5,"migraine_risk":7,"frizz_risk":1,"updated_at":"2026-06-22T04:46:44.183750+05:30"},{"city":"Ludhiana","state":"Punjab","latitude":30.901,"longitude":75.8573,"temp":28.2,"humidity":62,"rain":0.0,"pressure":973.4,"uv_index":7.25,"wind_gusts":47.9,"aqi":133,"pm10":87.3,"pm2_5":58.0,"no2":32.3,"co":550.0,"o3":33.0,"so2":7.4,"mosquito_risk":7,"arthritis_risk":5,"migraine_risk":7,"frizz_risk":1,"updated_at":"2026-06-22T04:46:44.183755+05:30"},{"city":"Jalandhar","state":"Punjab","latitude":31.326,"longitude":75.5762,"temp":27.6,"humidity":64,"rain":0.0,"pressure":974.4,"uv_index":7.05,"wind_gusts":34.2,"aqi":137,"pm10":87.8,"pm2_5":69.2,"no2":53.3,"co":697.0,"o3":10.0,"so2":8.6,"mosquito_risk":7,"arthritis_risk":5,"migraine_risk":7,"frizz_risk":1,"updated_at":"2026-06-22T04:46:44.183776+05:30"},{"city":"Dehradun","state":"Uttarakhand","latitude":30.6284,"longitude":78.0322,"temp":15.5,"humidity":92,"rain":0.0,"pressure":826.5,"uv_index":7.35,"wind_gusts":37.1,"aqi":61,"pm10":21.5,"pm2_5":16.5,"no2":22.4,"co":252.0,"o3":4.0,"so2":0.1,"mosquito_risk":3,"arthritis_risk":10,"migraine_risk":7,"frizz_risk":0,"updated_at":"2026-06-22T04:46:44.183783+05:30"},{"city":"Shimla","state":"Himachal Pradesh","latitude":31.1048,"longitude":77.1734,"temp":13.7,"humidity":66,"rain":0.0,"pressure":780.7,"uv_index":6.2,"wind_gusts":37.4,"aqi":77,"pm10":36.2,"pm2_5":29.7,"no2":19.9,"co":227.0,"o3":33.0,"so2":1.0,"mosquito_risk":3,"arthritis_risk":5,"migraine_risk":7,"frizz_risk":0,"updated_at":"2026-06-22T04:46:44.183789+05:30"},{"city":"Manali","state":"Himachal Pradesh","latitude":32.2396,"longitude":77.1887,"temp":13.1,"humidity":63,"rain":0.0,"pressure":814.9,"uv_index":7.35,"wind_gusts":36.4,"aqi":43,"pm10":4.8,"pm2_5":2.9,"no2":6.7,"co":138.0,"o3":128.0,"so2":0.0,"mosquito_risk":3,"arthritis_risk":5,"migraine_risk":7,"frizz_risk":0,"updated_at":"2026-06-22T04:46:44.183797+05:30"},{"city":"Gurgaon","state":"Haryana","latitude":28.4595,"longitude":77.0266,"temp":29.4,"humidity":48,"rain":0.0,"pressure":976.7,"uv_index":7.85,"wind_gusts":49.3,"aqi":1251,"pm10":411.6,"pm2_5":117.6,"no2":23.5,"co":165.0,"o3":33.0,"so2":9.6,"mosquito_risk":4,"arthritis_risk":5,"migraine_risk":7,"frizz_risk":1,"updated_at":"2026-06-22T04:46:44.183803+05:30"},{"city":"Noida","state":"Uttar Pradesh","latitude":28.5355,"longitude":77.391,"temp":30.3,"humidity":49,"rain":0.0,"pressure":979.4,"uv_index":7.8,"wind_gusts":35.6,"aqi":1251,"pm10":411.6,"pm2_5":117.6,"no2":23.5,"co":172.0,"o3":33.0,"so2":9.6,"mosquito_risk":0,"arthritis_risk":5,"migraine_risk":7,"frizz_risk":1,"updated_at":"2026-06-22T04:46:44.183808+05:30"},{"city":"Ghaziabad","state":"Uttar Pradesh","latitude":28.6692,"longitude":77.4538,"temp":30.6,"humidity":48,"rain":0.0,"pressure":977.7,"uv_index":7.8,"wind_gusts":43.9,"aqi":419,"pm10":434.9,"pm2_5":128.1,"no2":35.6,"co":238.0,"o3":22.0,"so2":14.5,"mosquito_risk":0,"arthritis_risk":5,"migraine_risk":7,"frizz_risk":1,"updated_at":"2026-06-22T04:46:44.183814+05:30"},{"city":"Faridabad","state":"Haryana","latitude":28.4089,"longitude":77.3178,"temp":31.0,"humidity":43,"rain":0.0,"pressure":978.8,"uv_index":7.85,"wind_gusts":38.5,"aqi":1251,"pm10":411.6,"pm2_5":117.6,"no2":23.5,"co":168.0,"o3":33.0,"so2":9.6,"mosquito_risk":0,"arthritis_risk":5,"migraine_risk":7,"frizz_risk":1,"updated_at":"2026-06-22T04:46:44.183820+05:30"},{"city":"Meerut","state":"Uttar Pradesh","latitude":28.9845,"longitude":77.7064,"temp":29.1,"humidity":55,"rain":0.0,"pressure":976.5,"uv_index":7.7,"wind_gusts":42.5,"aqi":419,"pm10":434.9,"pm2_5":128.1,"no2":35.6,"co":275.0,"o3":22.0,"so2":14.5,"mosquito_risk":4,"arthritis_risk":5,"migraine_risk":7,"frizz_risk":1,"updated_at":"2026-06-22T04:46:44.183826+05:30"},{"city":"Agra","state":"Uttar Pradesh","latitude":27.1767,"longitude":78.0081,"temp":29.9,"humidity":55,"rain":0.0,"pressure":982.7,"uv_index":7.2,"wind_gusts":63.0,"aqi":569,"pm10":422.8,"pm2_5":61.5,"no2":25.9,"co":142.0,"o3":25.0,"so2":5.3,"mosquito_risk":4,"arthritis_risk":5,"migraine_risk":7,"frizz_risk":1,"updated_at":"2026-06-22T04:46:44.183832+05:30"},{"city":"Varanasi","state":"Uttar Pradesh","latitude":25.3176,"longitude":82.9739,"temp":28.6,"humidity":75,"rain":0.1,"pressure":992.6,"uv_index":8.8,"wind_gusts":37.8,"aqi":118,"pm10":40.6,"pm2_5":24.4,"no2":13.6,"co":199.0,"o3":58.0,"so2":7.6,"mosquito_risk":10,"arthritis_risk":5,"migraine_risk":7,"frizz_risk":1,"updated_at":"2026-06-22T04:46:44.183838+05:30"},{"city":"Prayagraj","state":"Uttar Pradesh","latitude":25.4358,"longitude":81.8463,"temp":32.0,"humidity":57,"rain":0.0,"pressure":990.9,"uv_index":8.55,"wind_gusts":34.9,"aqi":123,"pm10":37.3,"pm2_5":27.5,"no2":13.7,"co":167.0,"o3":51.0,"so2":5.0,"mosquito_risk":0,"arthritis_risk":5,"migraine_risk":7,"frizz_risk":1,"updated_at":"2026-06-22T04:46:44.183844+05:30"},{"city":"Gorakhpur","state":"Uttar Pradesh","latitude":26.7606,"longitude":83.3732,"temp":27.3,"humidity":88,"rain":0.0,"pressure":992.2,"uv_index":8.3,"wind_gusts":33.1,"aqi":163,"pm10":83.4,"pm2_5":62.2,"no2":14.8,"co":409.0,"o3":79.0,"so2":10.1,"mosquito_risk":7,"arthritis_risk":5,"migraine_risk":7,"frizz_risk":1,"updated_at":"2026-06-22T04:46:44.183851+05:30"},{"city":"Bareilly","state":"Uttar Pradesh","latitude":28.367,"longitude":79.4304,"temp":29.0,"humidity":64,"rain":0.0,"pressure":981.4,"uv_index":8.1,"wind_gusts":41.4,"aqi":162,"pm10":210.5,"pm2_5":73.8,"no2":24.7,"co":415.0,"o3":35.0,"so2":8.3,"mosquito_risk":7,"arthritis_risk":5,"migraine_risk":7,"frizz_risk":1,"updated_at":"2026-06-22T04:46:44.183859+05:30"},{"city":"Aligarh","state":"Uttar Pradesh","latitude":27.8974,"longitude":78.088,"temp":28.2,"humidity":59,"rain":0.0,"pressure":980.3,"uv_index":7.85,"wind_gusts":39.6,"aqi":798,"pm10":635.2,"pm2_5":137.4,"no2":21.7,"co":158.0,"o3":33.0,"so2":5.7,"mosquito_risk":4,"arthritis_risk":5,"migraine_risk":7,"frizz_risk":1,"updated_at":"2026-06-22T04:46:44.183865+05:30"},{"city":"Moradabad","state":"Uttar Pradesh","latitude":28.8386,"longitude":78.7733,"temp":29.3,"humidity":59,"rain":0.0,"pressure":978.3,"uv_index":7.9,"wind_gusts":50.0,"aqi":169,"pm10":287.8,"pm2_5":101.0,"no2":32.1,"co":415.0,"o3":20.0,"so2":10.9,"mosquito_risk":4,"arthritis_risk":5,"migraine_risk":7,"frizz_risk":1,"updated_at":"2026-06-22T04:46:44.183871+05:30"},{"city":"Saharanpur","state":"Uttar Pradesh","latitude":29.9637,"longitude":77.546,"temp":26.7,"humidity":67,"rain":0.0,"pressure":970.5,"uv_index":7.0,"wind_gusts":41.8,"aqi":160,"pm10":112.9,"pm2_5":80.6,"no2":62.1,"co":448.0,"o3":1.0,"so2":13.3,"mosquito_risk":7,"arthritis_risk":5,"migraine_risk":7,"frizz_risk":1,"updated_at":"2026-06-22T04:46:44.183878+05:30"},{"city":"Jhansi","state":"Uttar Pradesh","latitude":25.4484,"longitude":78.5685,"temp":29.3,"humidity":61,"rain":0.0,"pressure":973.7,"uv_index":7.85,"wind_gusts":44.3,"aqi":90,"pm10":56.5,"pm2_5":31.8,"no2":7.9,"co":158.0,"o3":50.0,"so2":7.1,"mosquito_risk":7,"arthritis_risk":5,"migraine_risk":7,"frizz_risk":1,"updated_at":"2026-06-22T04:46:47.479534+05:30"},{"city":"Surat","state":"Gujarat","latitude":21.1702,"longitude":72.8311,"temp":29.1,"humidity":81,"rain":0.1,"pressure":1003.4,"uv_index":7.45,"wind_gusts":38.9,"aqi":58,"pm10":21.2,"pm2_5":14.7,"no2":21.0,"co":240.0,"o3":26.0,"so2":31.0,"mosquito_risk":10,"arthritis_risk":5,"migraine_risk":4,"frizz_risk":1,"updated_at":"2026-06-22T04:46:47.479569+05:30"},{"city":"Vadodara","state":"Gujarat","latitude":22.3072,"longitude":73.1812,"temp":29.4,"humidity":75,"rain":0.0,"pressure":1001.0,"uv_index":8.0,"wind_gusts":42.5,"aqi":53,"pm10":15.3,"pm2_5":10.6,"no2":10.6,"co":112.0,"o3":30.0,"so2":8.1,"mosquito_risk":7,"arthritis_risk":5,"migraine_risk":4,"frizz_risk":1,"updated_at":"2026-06-22T04:46:47.479580+05:30"},{"city":"Rajkot","state":"Gujarat","latitude":22.3039,"longitude":70.8022,"temp":28.0,"humidity":74,"rain":0.0,"pressure":990.9,"uv_index":7.55,"wind_gusts":41.0,"aqi":71,"pm10":32.5,"pm2_5":13.6,"no2":4.8,"co":95.0,"o3":38.0,"so2":3.4,"mosquito_risk":7,"arthritis_risk":5,"migraine_risk":7,"frizz_risk":1,"updated_at":"2026-06-22T04:46:47.479588+05:30"},{"city":"Thane","state":"Maharashtra","latitude":19.2183,"longitude":72.9781,"temp":25.8,"humidity":96,"rain":0.1,"pressure":1005.5,"uv_index":7.7,"wind_gusts":35.6,"aqi":43,"pm10":6.8,"pm2_5":4.9,"no2":8.3,"co":127.0,"o3":36.0,"so2":6.6,"mosquito_risk":10,"arthritis_risk":5,"migraine_risk":4,"frizz_risk":1,"updated_at":"2026-06-22T04:46:47.479596+05:30"},{"city":"Nagpur","state":"Maharashtra","latitude":21.1458,"longitude":79.0882,"temp":31.0,"humidity":52,"rain":0.0,"pressure":970.3,"uv_index":8.2,"wind_gusts":36.0,"aqi":65,"pm10":27.0,"pm2_5":22.8,"no2":18.5,"co":279.0,"o3":35.0,"so2":12.3,"mosquito_risk":0,"arthritis_risk":5,"migraine_risk":7,"frizz_risk":1,"updated_at":"2026-06-22T04:46:47.479603+05:30"},{"city":"Nashik","state":"Maharashtra","latitude":19.9975,"longitude":73.7898,"temp":25.0,"humidity":82,"rain":0.0,"pressure":943.2,"uv_index":7.7,"wind_gusts":43.9,"aqi":28,"pm10":7.9,"pm2_5":6.2,"no2":9.2,"co":122.0,"o3":29.0,"so2":8.0,"mosquito_risk":7,"arthritis_risk":5,"migraine_risk":7,"frizz_risk":1,"updated_at":"2026-06-22T04:46:47.479611+05:30"},{"city":"Aurangabad","state":"Maharashtra","latitude":19.8762,"longitude":75.3433,"temp":27.6,"humidity":64,"rain":0.0,"pressure":942.3,"uv_index":8.85,"wind_gusts":69.1,"aqi":36,"pm10":10.1,"pm2_5":7.6,"no2":7.4,"co":128.0,"o3":38.0,"so2":5.4,"mosquito_risk":7,"arthritis_risk":5,"migraine_risk":7,"frizz_risk":1,"updated_at":"2026-06-22T04:46:47.479618+05:30"},{"city":"Solapur","state":"Maharashtra","latitude":17.6599,"longitude":75.9064,"temp":27.9,"humidity":71,"rain":0.0,"pressure":955.7,"uv_index":8.8,"wind_gusts":54.0,"aqi":38,"pm10":5.1,"pm2_5":4.7,"no2":5.7,"co":117.0,"o3":40.0,"so2":2.6,"mosquito_risk":7,"arthritis_risk":5,"migraine_risk":7,"frizz_risk":1,"updated_at":"2026-06-22T04:46:47.479627+05:30"},{"city":"Kolhapur","state":"Maharashtra","latitude":16.705,"longitude":74.2433,"temp":24.3,"humidity":84,"rain":0.0,"pressure":946.4,"uv_index":7.85,"wind_gusts":47.9,"aqi":29,"pm10":3.7,"pm2_5":3.4,"no2":3.4,"co":135.0,"o3":38.0,"so2":1.4,"mosquito_risk":3,"arthritis_risk":5,"migraine_risk":7,"frizz_risk":1,"updated_at":"2026-06-22T04:46:47.479634+05:30"},{"city":"Goa","state":"Goa","latitude":15.2993,"longitude":74.124,"temp":25.2,"humidity":96,"rain":0.0,"pressure":996.8,"uv_index":8.35,"wind_gusts":39.6,"aqi":21,"pm10":8.6,"pm2_5":6.3,"no2":2.6,"co":179.0,"o3":43.0,"so2":0.9,"mosquito_risk":7,"arthritis_risk":5,"migraine_risk":7,"frizz_risk":1,"updated_at":"2026-06-22T04:46:47.479640+05:30"},{"city":"Jodhpur","state":"Rajasthan","latitude":26.2389,"longitude":73.0243,"temp":30.0,"humidity":48,"rain":0.0,"pressure":978.5,"uv_index":8.4,"wind_gusts":45.4,"aqi":142,"pm10":210.9,"pm2_5":53.6,"no2":4.4,"co":108.0,"o3":49.0,"so2":2.2,"mosquito_risk":4,"arthritis_risk":5,"migraine_risk":7,"frizz_risk":1,"updated_at":"2026-06-22T04:46:47.479647+05:30"},{"city":"Udaipur","state":"Rajasthan","latitude":24.5854,"longitude":73.7125,"temp":25.6,"humidity":74,"rain":0.0,"pressure":943.0,"uv_index":8.8,"wind_gusts":37.4,"aqi":72,"pm10":28.3,"pm2_5":17.7,"no2":9.8,"co":121.0,"o3":39.0,"so2":8.6,"mosquito_risk":7,"arthritis_risk":5,"migraine_risk":7,"frizz_risk":1,"updated_at":"2026-06-22T04:46:47.479653+05:30"},{"city":"Kota","state":"Rajasthan","latitude":25.2138,"longitude":75.8648,"temp":28.8,"humidity":60,"rain":0.0,"pressure":974.7,"uv_index":8.35,"wind_gusts":32.4,"aqi":96,"pm10":48.2,"pm2_5":28.1,"no2":7.0,"co":142.0,"o3":57.0,"so2":5.5,"mosquito_risk":4,"arthritis_risk":5,"migraine_risk":7,"frizz_risk":1,"updated_at":"2026-06-22T04:46:47.479660+05:30"},{"city":"Bikaner","state":"Rajasthan","latitude":28.0229,"longitude":73.3119,"temp":30.5,"humidity":49,"rain":0.0,"pressure":976.5,"uv_index":8.45,"wind_gusts":68.4,"aqi":151,"pm10":150.9,"pm2_5":45.8,"no2":2.8,"co":113.0,"o3":53.0,"so2":3.0,"mosquito_risk":0,"arthritis_risk":5,"migraine_risk":7,"frizz_risk":1,"updated_at":"2026-06-22T04:46:47.479668+05:30"},{"city":"Ajmer","state":"Rajasthan","latitude":26.4499,"longitude":74.6399,"temp":27.8,"humidity":57,"rain":0.0,"pressure":950.4,"uv_index":8.35,"wind_gusts":54.7,"aqi":98,"pm10":43.4,"pm2_5":22.2,"no2":8.3,"co":128.0,"o3":46.0,"so2":3.7,"mosquito_risk":4,"arthritis_risk":5,"migraine_risk":7,"frizz_risk":1,"updated_at":"2026-06-22T04:46:47.479674+05:30"},{"city":"Gwalior","state":"Madhya Pradesh","latitude":26.2183,"longitude":78.1828,"temp":30.0,"humidity":54,"rain":0.0,"pressure":978.4,"uv_index":7.65,"wind_gusts":58.3,"aqi":88,"pm10":49.7,"pm2_5":24.9,"no2":8.7,"co":132.0,"o3":44.0,"so2":2.7,"mosquito_risk":4,"arthritis_risk":5,"migraine_risk":7,"frizz_risk":1,"updated_at":"2026-06-22T04:46:47.479681+05:30"},{"city":"Indore","state":"Madhya Pradesh","latitude":22.7196,"longitude":75.8577,"temp":27.0,"humidity":64,"rain":0.0,"pressure":945.4,"uv_index":8.5,"wind_gusts":49.7,"aqi":80,"pm10":15.5,"pm2_5":14.0,"no2":8.5,"co":147.0,"o3":56.0,"so2":9.6,"mosquito_risk":7,"arthritis_risk":5,"migraine_risk":7,"frizz_risk":1,"updated_at":"2026-06-22T04:46:47.479687+05:30"},{"city":"Bhopal","state":"Madhya Pradesh","latitude":23.2599,"longitude":77.4126,"temp":27.2,"humidity":67,"rain":0.0,"pressure":950.2,"uv_index":8.6,"wind_gusts":37.4,"aqi":91,"pm10":66.1,"pm2_5":40.4,"no2":10.9,"co":199.0,"o3":45.0,"so2":4.3,"mosquito_risk":7,"arthritis_risk":5,"migraine_risk":7,"frizz_risk":1,"updated_at":"2026-06-22T04:46:47.479694+05:30"},{"city":"Jabalpur","state":"Madhya Pradesh","latitude":23.1815,"longitude":79.9864,"temp":28.7,"humidity":69,"rain":0.0,"pressure":958.1,"uv_index":7.25,"wind_gusts":37.4,"aqi":81,"pm10":43.7,"pm2_5":27.2,"no2":12.0,"co":209.0,"o3":50.0,"so2":3.8,"mosquito_risk":7,"arthritis_risk":5,"migraine_risk":7,"frizz_risk":1,"updated_at":"2026-06-22T04:46:47.479700+05:30"},{"city":"Ujjain","state":"Madhya Pradesh","latitude":23.1765,"longitude":75.7885,"temp":27.1,"humidity":65,"rain":0.0,"pressure":951.0,"uv_index":7.8,"wind_gusts":41.4,"aqi":76,"pm10":14.5,"pm2_5":12.7,"no2":8.7,"co":164.0,"o3":49.0,"so2":10.7,"mosquito_risk":7,"arthritis_risk":5,"migraine_risk":7,"frizz_risk":1,"updated_at":"2026-06-22T04:46:47.479707+05:30"},{"city":"Visakhapatnam","state":"Andhra Pradesh","latitude":17.6868,"longitude":83.2185,"temp":28.0,"humidity":86,"rain":0.0,"pressure":1001.1,"uv_index":5.25,"wind_gusts":50.0,"aqi":78,"pm10":35.5,"pm2_5":30.6,"no2":17.2,"co":340.0,"o3":72.0,"so2":29.0,"mosquito_risk":7,"arthritis_risk":5,"migraine_risk":0,"frizz_risk":1,"updated_at":"2026-06-22T04:46:47.479713+05:30"},{"city":"Vijayawada","state":"Andhra Pradesh","latitude":16.5062,"longitude":80.648,"temp":28.6,"humidity":84,"rain":0.0,"pressure":1000.3,"uv_index":8.9,"wind_gusts":37.1,"aqi":83,"pm10":33.6,"pm2_5":28.5,"no2":8.2,"co":264.0,"o3":86.0,"so2":7.0,"mosquito_risk":7,"arthritis_risk":5,"migraine_risk":4,"frizz_risk":1,"updated_at":"2026-06-22T04:46:47.479720+05:30"},{"city":"Guntur","state":"Andhra Pradesh","latitude":16.3067,"longitude":80.4365,"temp":28.4,"humidity":77,"rain":0.0,"pressure":1001.6,"uv_index":8.8,"wind_gusts":41.8,"aqi":80,"pm10":30.6,"pm2_5":26.7,"no2":9.9,"co":233.0,"o3":71.0,"so2":6.4,"mosquito_risk":7,"arthritis_risk":5,"migraine_risk":4,"frizz_risk":1,"updated_at":"2026-06-22T04:46:47.479727+05:30"},{"city":"Nellore","state":"Andhra Pradesh","latitude":14.4426,"longitude":79.9865,"temp":27.3,"humidity":78,"rain":0.0,"pressure":1004.2,"uv_index":3.7,"wind_gusts":33.1,"aqi":75,"pm10":28.5,"pm2_5":24.1,"no2":9.6,"co":281.0,"o3":74.0,"so2":8.7,"mosquito_risk":7,"arthritis_risk":5,"migraine_risk":0,"frizz_risk":1,"updated_at":"2026-06-22T04:46:47.479734+05:30"},{"city":"Kurnool","state":"Andhra Pradesh","latitude":15.8281,"longitude":78.0373,"temp":27.5,"humidity":72,"rain":0.0,"pressure":975.6,"uv_index":8.5,"wind_gusts":33.8,"aqi":55,"pm10":10.5,"pm2_5":9.8,"no2":16.1,"co":142.0,"o3":25.0,"so2":9.9,"mosquito_risk":7,"arthritis_risk":5,"migraine_risk":7,"frizz_risk":1,"updated_at":"2026-06-22T04:46:47.479742+05:30"},{"city":"Kakinada","state":"Andhra Pradesh","latitude":16.9891,"longitude":82.2475,"temp":28.6,"humidity":89,"rain":0.0,"pressure":1005.2,"uv_index":7.65,"wind_gusts":43.2,"aqi":77,"pm10":40.4,"pm2_5":29.8,"no2":4.6,"co":231.0,"o3":101.0,"so2":4.9,"mosquito_risk":7,"arthritis_risk":5,"migraine_risk":4,"frizz_risk":1,"updated_at":"2026-06-22T04:46:47.479748+05:30"},{"city":"Tirupati","state":"Andhra Pradesh","latitude":13.6288,"longitude":79.4192,"temp":25.6,"humidity":82,"rain":0.0,"pressure":990.0,"uv_index":8.2,"wind_gusts":35.3,"aqi":83,"pm10":42.4,"pm2_5":38.5,"no2":19.9,"co":188.0,"o3":31.0,"so2":4.6,"mosquito_risk":7,"arthritis_risk":5,"migraine_risk":7,"frizz_risk":1,"updated_at":"2026-06-22T04:46:47.479755+05:30"},{"city":"Warangal","state":"Telangana","latitude":17.9689,"longitude":79.5941,"temp":27.4,"humidity":77,"rain":0.0,"pressure":976.3,"uv_index":8.45,"wind_gusts":32.8,"aqi":71,"pm10":15.0,"pm2_5":13.2,"no2":6.2,"co":272.0,"o3":78.0,"so2":1.9,"mosquito_risk":7,"arthritis_risk":5,"migraine_risk":7,"frizz_risk":1,"updated_at":"2026-06-22T04:46:47.479781+05:30"},{"city":"Nizamabad","state":"Telangana","latitude":18.6725,"longitude":78.0941,"temp":28.9,"humidity":60,"rain":0.0,"pressure":962.6,"uv_index":6.05,"wind_gusts":37.4,"aqi":64,"pm10":14.8,"pm2_5":12.8,"no2":8.3,"co":178.0,"o3":62.0,"so2":4.8,"mosquito_risk":4,"arthritis_risk":5,"migraine_risk":7,"frizz_risk":1,"updated_at":"2026-06-22T04:46:47.479788+05:30"},{"city":"Mysore","state":"Karnataka","latitude":12.2958,"longitude":76.6396,"temp":21.4,"humidity":96,"rain":0.0,"pressure":927.8,"uv_index":8.85,"wind_gusts":44.6,"aqi":25,"pm10":6.2,"pm2_5":5.5,"no2":5.7,"co":138.0,"o3":31.0,"so2":1.9,"mosquito_risk":3,"arthritis_risk":5,"migraine_risk":7,"frizz_risk":1,"updated_at":"2026-06-22T04:46:47.479795+05:30"},{"city":"Mangalore","state":"Karnataka","latitude":12.9141,"longitude":74.856,"temp":24.7,"humidity":97,"rain":0.1,"pressure":1006.6,"uv_index":8.45,"wind_gusts":37.8,"aqi":28,"pm10":8.4,"pm2_5":6.0,"no2":3.5,"co":136.0,"o3":39.0,"so2":1.5,"mosquito_risk":6,"arthritis_risk":5,"migraine_risk":4,"frizz_risk":1,"updated_at":"2026-06-22T04:46:47.479802+05:30"},{"city":"Hubli-Dharwad","state":"Karnataka","latitude":15.3647,"longitude":75.124,"temp":23.0,"humidity":92,"rain":0.0,"pressure":939.6,"uv_index":8.9,"wind_gusts":56.9,"aqi":19,"pm10":2.6,"pm2_5":2.1,"no2":3.2,"co":87.0,"o3":38.0,"so2":1.3,"mosquito_risk":3,"arthritis_risk":5,"migraine_risk":7,"frizz_risk":1,"updated_at":"2026-06-22T04:46:47.479809+05:30"},{"city":"Belgaum","state":"Karnataka","latitude":15.8497,"longitude":74.4977,"temp":22.0,"humidity":95,"rain":0.0,"pressure":924.1,"uv_index":8.05,"wind_gusts":52.2,"aqi":18,"pm10":2.4,"pm2_5":2.1,"no2":2.7,"co":106.0,"o3":41.0,"so2":1.3,"mosquito_risk":3,"arthritis_risk":5,"migraine_risk":7,"frizz_risk":1,"updated_at":"2026-06-22T04:46:50.768411+05:30"},{"city":"Coimbatore","state":"Tamil Nadu","latitude":11.0168,"longitude":76.9558,"temp":23.6,"humidity":89,"rain":0.0,"pressure":961.4,"uv_index":8.7,"wind_gusts":58.3,"aqi":22,"pm10":3.1,"pm2_5":2.7,"no2":4.1,"co":124.0,"o3":37.0,"so2":2.2,"mosquito_risk":3,"arthritis_risk":5,"migraine_risk":7,"frizz_risk":1,"updated_at":"2026-06-22T04:46:50.768446+05:30"},{"city":"Madurai","state":"Tamil Nadu","latitude":9.9252,"longitude":78.1198,"temp":27.7,"humidity":70,"rain":0.0,"pressure":992.8,"uv_index":7.35,"wind_gusts":47.2,"aqi":72,"pm10":17.8,"pm2_5":16.2,"no2":26.1,"co":350.0,"o3":4.0,"so2":4.5,"mosquito_risk":7,"arthritis_risk":5,"migraine_risk":7,"frizz_risk":1,"updated_at":"2026-06-22T04:46:50.768457+05:30"},{"city":"Trichy","state":"Tamil Nadu","latitude":10.7905,"longitude":78.7047,"temp":27.0,"humidity":78,"rain":0.0,"pressure":999.5,"uv_index":7.3,"wind_gusts":41.4,"aqi":58,"pm10":15.6,"pm2_5":12.8,"no2":11.8,"co":230.0,"o3":39.0,"so2":4.1,"mosquito_risk":7,"arthritis_risk":5,"migraine_risk":7,"frizz_risk":1,"updated_at":"2026-06-22T04:46:50.768465+05:30"},{"city":"Salem","state":"Tamil Nadu","latitude":11.6643,"longitude":78.146,"temp":25.6,"humidity":82,"rain":0.0,"pressure":977.2,"uv_index":8.25,"wind_gusts":40.7,"aqi":55,"pm10":12.0,"pm2_5":10.9,"no2":14.5,"co":199.0,"o3":26.0,"so2":6.5,"mosquito_risk":7,"arthritis_risk":5,"migraine_risk":7,"frizz_risk":1,"updated_at":"2026-06-22T04:46:50.768474+05:30"},{"city":"Tirunelveli","state":"Tamil Nadu","latitude":8.7139,"longitude":77.7567,"temp":27.5,"humidity":73,"rain":0.0,"pressure":1003.0,"uv_index":8.05,"wind_gusts":36.7,"aqi":24,"pm10":4.5,"pm2_5":3.9,"no2":5.6,"co":151.0,"o3":30.0,"so2":1.7,"mosquito_risk":7,"arthritis_risk":5,"migraine_risk":4,"frizz_risk":1,"updated_at":"2026-06-22T04:46:50.768482+05:30"},{"city":"Vellore","state":"Tamil Nadu","latitude":12.9165,"longitude":79.1325,"temp":24.6,"humidity":98,"rain":0.0,"pressure":983.4,"uv_index":8.6,"wind_gusts":33.1,"aqi":84,"pm10":44.0,"pm2_5":37.6,"no2":24.1,"co":183.0,"o3":28.0,"so2":8.1,"mosquito_risk":3,"arthritis_risk":5,"migraine_risk":7,"frizz_risk":1,"updated_at":"2026-06-22T04:46:50.768489+05:30"},{"city":"Erode","state":"Tamil Nadu","latitude":11.341,"longitude":77.7172,"temp":25.3,"humidity":84,"rain":0.0,"pressure":989.2,"uv_index":8.2,"wind_gusts":47.2,"aqi":37,"pm10":8.8,"pm2_5":8.1,"no2":12.7,"co":135.0,"o3":24.0,"so2":3.5,"mosquito_risk":7,"arthritis_risk":5,"migraine_risk":7,"frizz_risk":1,"updated_at":"2026-06-22T04:46:50.768497+05:30"},{"city":"Kochi","state":"Kerala","latitude":9.9312,"longitude":76.2673,"temp":24.7,"humidity":95,"rain":0.1,"pressure":1009.7,"uv_index":8.1,"wind_gusts":32.4,"aqi":42,"pm10":8.1,"pm2_5":7.3,"no2":8.4,"co":105.0,"o3":24.0,"so2":3.6,"mosquito_risk":6,"arthritis_risk":0,"migraine_risk":4,"frizz_risk":1,"updated_at":"2026-06-22T04:46:50.768504+05:30"},{"city":"Thiruvananthapuram","state":"Kerala","latitude":8.5241,"longitude":76.9366,"temp":23.6,"humidity":99,"rain":0.0,"pressure":1009.2,"uv_index":6.95,"wind_gusts":37.1,"aqi":25,"pm10":9.4,"pm2_5":5.5,"no2":2.5,"co":84.0,"o3":48.0,"so2":1.3,"mosquito_risk":3,"arthritis_risk":0,"migraine_risk":4,"frizz_risk":1,"updated_at":"2026-06-22T04:46:50.768511+05:30"},{"city":"Kozhikode","state":"Kerala","latitude":11.2588,"longitude":75.7804,"temp":23.8,"humidity":99,"rain":0.1,"pressure":1008.6,"uv_index":8.45,"wind_gusts":29.2,"aqi":25,"pm10":5.1,"pm2_5":3.0,"no2":0.9,"co":160.0,"o3":52.0,"so2":0.7,"mosquito_risk":6,"arthritis_risk":0,"migraine_risk":4,"frizz_risk":1,"updated_at":"2026-06-22T04:46:50.768518+05:30"},{"city":"Thrissur","state":"Kerala","latitude":10.5276,"longitude":76.2144,"temp":23.6,"humidity":99,"rain":0.0,"pressure":1008.1,"uv_index":7.95,"wind_gusts":33.5,"aqi":41,"pm10":8.3,"pm2_5":7.8,"no2":8.4,"co":174.0,"o3":24.0,"so2":3.7,"mosquito_risk":3,"arthritis_risk":0,"migraine_risk":4,"frizz_risk":1,"updated_at":"2026-06-22T04:46:50.768525+05:30"},{"city":"Kannur","state":"Kerala","latitude":11.8745,"longitude":75.3704,"temp":24.4,"humidity":97,"rain":0.0,"pressure":1007.6,"uv_index":8.55,"wind_gusts":37.4,"aqi":22,"pm10":5.2,"pm2_5":3.6,"no2":3.1,"co":152.0,"o3":39.0,"so2":1.6,"mosquito_risk":3,"arthritis_risk":5,"migraine_risk":4,"frizz_risk":1,"updated_at":"2026-06-22T04:46:50.768531+05:30"},{"city":"Patna","state":"Bihar","latitude":25.5941,"longitude":85.1376,"temp":27.8,"humidity":89,"rain":0.0,"pressure":995.6,"uv_index":8.9,"wind_gusts":31.0,"aqi":158,"pm10":51.3,"pm2_5":41.4,"no2":17.0,"co":238.0,"o3":51.0,"so2":10.4,"mosquito_risk":7,"arthritis_risk":5,"migraine_risk":7,"frizz_risk":1,"updated_at":"2026-06-22T04:46:50.768538+05:30"},{"city":"Gaya","state":"Bihar","latitude":24.7914,"longitude":85.0002,"temp":29.1,"humidity":65,"rain":0.0,"pressure":988.8,"uv_index":8.65,"wind_gusts":31.3,"aqi":138,"pm10":46.6,"pm2_5":31.2,"no2":9.1,"co":178.0,"o3":85.0,"so2":12.5,"mosquito_risk":7,"arthritis_risk":5,"migraine_risk":7,"frizz_risk":1,"updated_at":"2026-06-22T04:46:50.768545+05:30"},{"city":"Muzaffarpur","state":"Bihar","latitude":26.1209,"longitude":85.3647,"temp":26.1,"humidity":87,"rain":0.0,"pressure":995.9,"uv_index":8.9,"wind_gusts":36.0,"aqi":160,"pm10":50.3,"pm2_5":44.0,"no2":14.1,"co":517.0,"o3":74.0,"so2":11.6,"mosquito_risk":7,"arthritis_risk":5,"migraine_risk":7,"frizz_risk":1,"updated_at":"2026-06-22T04:46:50.768552+05:30"},{"city":"Bhagalpur","state":"Bihar","latitude":25.2425,"longitude":87.0117,"temp":27.6,"humidity":92,"rain":0.0,"pressure":996.6,"uv_index":8.7,"wind_gusts":25.9,"aqi":127,"pm10":61.9,"pm2_5":57.7,"no2":15.6,"co":232.0,"o3":66.0,"so2":18.9,"mosquito_risk":7,"arthritis_risk":5,"migraine_risk":7,"frizz_risk":1,"updated_at":"2026-06-22T04:46:50.768559+05:30"},{"city":"Ranchi","state":"Jharkhand","latitude":23.3441,"longitude":85.3096,"temp":24.6,"humidity":77,"rain":0.0,"pressure":934.2,"uv_index":6.6,"wind_gusts":38.2,"aqi":96,"pm10":49.5,"pm2_5":46.0,"no2":9.9,"co":238.0,"o3":86.0,"so2":9.7,"mosquito_risk":3,"arthritis_risk":5,"migraine_risk":7,"frizz_risk":1,"updated_at":"2026-06-22T04:46:50.768566+05:30"},{"city":"Jamshedpur","state":"Jharkhand","latitude":22.8046,"longitude":86.2029,"temp":26.7,"humidity":94,"rain":0.0,"pressure":987.3,"uv_index":6.7,"wind_gusts":37.1,"aqi":128,"pm10":55.1,"pm2_5":51.6,"no2":21.5,"co":252.0,"o3":58.0,"so2":23.1,"mosquito_risk":7,"arthritis_risk":5,"migraine_risk":7,"frizz_risk":1,"updated_at":"2026-06-22T04:46:50.768573+05:30"},{"city":"Dhanbad","state":"Jharkhand","latitude":23.7957,"longitude":86.4304,"temp":26.2,"humidity":87,"rain":0.0,"pressure":975.5,"uv_index":7.25,"wind_gusts":33.5,"aqi":152,"pm10":63.3,"pm2_5":57.2,"no2":35.9,"co":389.0,"o3":67.0,"so2":87.2,"mosquito_risk":7,"arthritis_risk":5,"migraine_risk":7,"frizz_risk":1,"updated_at":"2026-06-22T04:46:50.768580+05:30"},{"city":"Bokaro","state":"Jharkhand","latitude":23.6693,"longitude":86.1511,"temp":25.3,"humidity":93,"rain":0.0,"pressure":979.0,"uv_index":6.85,"wind_gusts":37.1,"aqi":123,"pm10":56.5,"pm2_5":48.9,"no2":22.5,"co":397.0,"o3":81.0,"so2":58.4,"mosquito_risk":7,"arthritis_risk":5,"migraine_risk":7,"frizz_risk":1,"updated_at":"2026-06-22T04:46:50.768586+05:30"},{"city":"Bhubaneswar","state":"Odisha","latitude":20.2961,"longitude":85.8245,"temp":26.3,"humidity":93,"rain":0.2,"pressure":999.9,"uv_index":8.35,"wind_gusts":40.7,"aqi":101,"pm10":30.4,"pm2_5":28.6,"no2":7.0,"co":358.0,"o3":109.0,"so2":8.6,"mosquito_risk":10,"arthritis_risk":5,"migraine_risk":7,"frizz_risk":1,"updated_at":"2026-06-22T04:46:50.768593+05:30"},{"city":"Cuttack","state":"Odisha","latitude":20.4625,"longitude":85.8828,"temp":27.1,"humidity":93,"rain":0.2,"pressure":1001.4,"uv_index":8.35,"wind_gusts":38.2,"aqi":101,"pm10":30.4,"pm2_5":28.6,"no2":7.0,"co":348.0,"o3":109.0,"so2":8.6,"mosquito_risk":10,"arthritis_risk":5,"migraine_risk":4,"frizz_risk":1,"updated_at":"2026-06-22T04:46:50.768600+05:30"},{"city":"Rourkela","state":"Odisha","latitude":22.2604,"longitude":84.8536,"temp":26.7,"humidity":82,"rain":0.0,"pressure":981.3,"uv_index":8.9,"wind_gusts":52.9,"aqi":113,"pm10":59.5,"pm2_5":54.1,"no2":20.1,"co":306.0,"o3":57.0,"so2":18.5,"mosquito_risk":7,"arthritis_risk":5,"migraine_risk":7,"frizz_risk":1,"updated_at":"2026-06-22T04:46:50.768606+05:30"},{"city":"Raipur","state":"Chhattisgarh","latitude":21.2514,"longitude":81.6296,"temp":30.1,"humidity":57,"rain":0.0,"pressure":971.6,"uv_index":8.95,"wind_gusts":45.4,"aqi":83,"pm10":37.0,"pm2_5":32.6,"no2":19.9,"co":583.0,"o3":84.0,"so2":38.6,"mosquito_risk":0,"arthritis_risk":5,"migraine_risk":7,"frizz_risk":1,"updated_at":"2026-06-22T04:46:50.768613+05:30"},{"city":"Bhilai","state":"Chhattisgarh","latitude":21.1938,"longitude":81.3509,"temp":29.6,"humidity":60,"rain":0.0,"pressure":972.1,"uv_index":8.95,"wind_gusts":55.1,"aqi":81,"pm10":35.6,"pm2_5":31.4,"no2":17.3,"co":599.0,"o3":86.0,"so2":33.0,"mosquito_risk":4,"arthritis_risk":5,"migraine_risk":7,"frizz_risk":1,"updated_at":"2026-06-22T04:46:50.768619+05:30"},{"city":"Guwahati","state":"Assam","latitude":26.1158,"longitude":91.7086,"temp":24.2,"humidity":99,"rain":0.0,"pressure":998.6,"uv_index":6.8,"wind_gusts":25.2,"aqi":62,"pm10":22.5,"pm2_5":18.2,"no2":6.9,"co":355.0,"o3":67.0,"so2":2.7,"mosquito_risk":3,"arthritis_risk":5,"migraine_risk":7,"frizz_risk":1,"updated_at":"2026-06-22T04:46:50.768626+05:30"},{"city":"Agartala","state":"Tripura","latitude":23.8315,"longitude":91.2868,"temp":25.4,"humidity":95,"rain":0.0,"pressure":1004.1,"uv_index":8.4,"wind_gusts":37.8,"aqi":57,"pm10":11.5,"pm2_5":11.0,"no2":11.4,"co":210.0,"o3":48.0,"so2":3.3,"mosquito_risk":7,"arthritis_risk":5,"migraine_risk":4,"frizz_risk":1,"updated_at":"2026-06-22T04:46:50.768633+05:30"},{"city":"Shillong","state":"Meghalaya","latitude":25.5788,"longitude":91.8933,"temp":19.7,"humidity":94,"rain":0.0,"pressure":854.7,"uv_index":5.25,"wind_gusts":32.0,"aqi":36,"pm10":1.5,"pm2_5":1.3,"no2":4.0,"co":195.0,"o3":63.0,"so2":2.3,"mosquito_risk":3,"arthritis_risk":10,"migraine_risk":3,"frizz_risk":1,"updated_at":"2026-06-22T04:46:50.768639+05:30"},{"city":"Imphal","state":"Manipur","latitude":24.817,"longitude":93.9368,"temp":21.8,"humidity":99,"rain":0.1,"pressure":921.5,"uv_index":7.55,"wind_gusts":32.8,"aqi":68,"pm10":26.4,"pm2_5":23.8,"no2":7.1,"co":402.0,"o3":41.0,"so2":2.4,"mosquito_risk":6,"arthritis_risk":5,"migraine_risk":7,"frizz_risk":1,"updated_at":"2026-06-22T04:46:50.768645+05:30"},{"city":"Aizawl","state":"Mizoram","latitude":23.7271,"longitude":92.7176,"temp":19.5,"humidity":96,"rain":0.0,"pressure":890.6,"uv_index":6.8,"wind_gusts":36.0,"aqi":37,"pm10":8.1,"pm2_5":7.7,"no2":4.1,"co":155.0,"o3":29.0,"so2":0.5,"mosquito_risk":3,"arthritis_risk":10,"migraine_risk":7,"frizz_risk":1,"updated_at":"2026-06-22T04:46:50.768652+05:30"},{"city":"Kohima","state":"Nagaland","latitude":25.6701,"longitude":94.1077,"temp":19.0,"humidity":92,"rain":0.1,"pressure":853.3,"uv_index":7.65,"wind_gusts":20.2,"aqi":44,"pm10":13.0,"pm2_5":10.2,"no2":3.0,"co":211.0,"o3":50.0,"so2":0.9,"mosquito_risk":6,"arthritis_risk":10,"migraine_risk":7,"frizz_risk":1,"updated_at":"2026-06-22T04:46:50.768658+05:30"},{"city":"Gangtok","state":"Sikkim","latitude":27.3314,"longitude":88.6138,"temp":17.9,"humidity":98,"rain":0.6,"pressure":835.1,"uv_index":8.4,"wind_gusts":32.0,"aqi":75,"pm10":6.5,"pm2_5":3.6,"no2":2.5,"co":390.0,"o3":127.0,"so2":3.9,"mosquito_risk":6,"arthritis_risk":10,"migraine_risk":7,"frizz_risk":1,"updated_at":"2026-06-22T04:46:50.768666+05:30"},{"city":"Siliguri","state":"West Bengal","latitude":26.7271,"longitude":88.3953,"temp":24.0,"humidity":99,"rain":0.3,"pressure":990.0,"uv_index":7.85,"wind_gusts":22.0,"aqi":59,"pm10":13.9,"pm2_5":12.0,"no2":8.5,"co":397.0,"o3":91.0,"so2":4.3,"mosquito_risk":6,"arthritis_risk":5,"migraine_risk":7,"frizz_risk":1,"updated_at":"2026-06-22T04:46:54.061149+05:30"},{"city":"Durgapur","state":"West Bengal","latitude":23.5204,"longitude":87.3119,"temp":26.5,"humidity":95,"rain":0.2,"pressure":991.1,"uv_index":8.9,"wind_gusts":36.0,"aqi":156,"pm10":85.7,"pm2_5":83.4,"no2":37.2,"co":949.0,"o3":37.0,"so2":42.7,"mosquito_risk":10,"arthritis_risk":5,"migraine_risk":7,"frizz_risk":1,"updated_at":"2026-06-22T04:46:54.061186+05:30"},{"city":"Asansol","state":"West Bengal","latitude":23.6739,"longitude":86.9524,"temp":26.9,"humidity":91,"rain":0.0,"pressure":989.4,"uv_index":8.85,"wind_gusts":31.0,"aqi":153,"pm10":69.6,"pm2_5":65.4,"no2":38.7,"co":1530.0,"o3":44.0,"so2":54.7,"mosquito_risk":7,"arthritis_risk":5,"migraine_risk":7,"frizz_risk":1,"updated_at":"2026-06-22T04:46:54.061199+05:30"},{"city":"Pondicherry","state":"Puducherry","latitude":11.9139,"longitude":79.8145,"temp":27.8,"humidity":90,"rain":0.0,"pressure":1007.2,"uv_index":8.1,"wind_gusts":43.9,"aqi":60,"pm10":13.2,"pm2_5":10.1,"no2":9.5,"co":217.0,"o3":47.0,"so2":8.0,"mosquito_risk":7,"arthritis_risk":5,"migraine_risk":4,"frizz_risk":1,"updated_at":"2026-06-22T04:46:54.061208+05:30"},{"city":"Port Blair","state":"Andaman and Nicobar Islands","latitude":11.6234,"longitude":92.7265,"temp":26.8,"humidity":83,"rain":0.0,"pressure":1008.7,"uv_index":8.75,"wind_gusts":38.5,"aqi":43,"pm10":16.6,"pm2_5":9.4,"no2":0.2,"co":87.0,"o3":45.0,"so2":0.4,"mosquito_risk":7,"arthritis_risk":0,"migraine_risk":4,"frizz_risk":1,"updated_at":"2026-06-22T04:46:54.061215+05:30"},{"city":"Haridwar","state":"Uttarakhand","latitude":29.9457,"longitude":78.1642,"temp":25.2,"humidity":84,"rain":0.0,"pressure":968.7,"uv_index":7.15,"wind_gusts":30.2,"aqi":122,"pm10":55.8,"pm2_5":49.7,"no2":37.4,"co":412.0,"o3":16.0,"so2":5.0,"mosquito_risk":7,"arthritis_risk":5,"migraine_risk":7,"frizz_risk":1,"updated_at":"2026-06-22T04:46:54.061223+05:30"},{"city":"Rishikesh","state":"Uttarakhand","latitude":30.0869,"longitude":78.2676,"temp":23.7,"humidity":86,"rain":0.0,"pressure":961.4,"uv_index":7.15,"wind_gusts":27.4,"aqi":90,"pm10":43.0,"pm2_5":31.7,"no2":10.5,"co":351.0,"o3":83.0,"so2":2.5,"mosquito_risk":3,"arthritis_risk":5,"migraine_risk":7,"frizz_risk":1,"updated_at":"2026-06-22T04:46:54.061230+05:30"},{"city":"Nainital","state":"Uttarakhand","latitude":29.3919,"longitude":79.4542,"temp":14.4,"humidity":94,"rain":0.0,"pressure":802.1,"uv_index":6.9,"wind_gusts":32.4,"aqi":120,"pm10":56.1,"pm2_5":40.5,"no2":23.9,"co":337.0,"o3":50.0,"so2":3.3,"mosquito_risk":3,"arthritis_risk":10,"migraine_risk":7,"frizz_risk":0,"updated_at":"2026-06-22T04:46:54.061238+05:30"},{"city":"Mussoorie","state":"Uttarakhand","latitude":30.4599,"longitude":78.0664,"temp":15.9,"humidity":78,"rain":0.0,"pressure":800.0,"uv_index":7.35,"wind_gusts":41.4,"aqi":84,"pm10":35.3,"pm2_5":29.3,"no2":32.0,"co":293.0,"o3":18.0,"so2":3.3,"mosquito_risk":3,"arthritis_risk":5,"migraine_risk":7,"frizz_risk":0,"updated_at":"2026-06-22T04:46:54.061246+05:30"},{"city":"Dharamshala","state":"Himachal Pradesh","latitude":32.219,"longitude":76.3234,"temp":21.6,"humidity":55,"rain":0.0,"pressure":865.9,"uv_index":6.6,"wind_gusts":45.4,"aqi":51,"pm10":12.8,"pm2_5":10.5,"no2":11.0,"co":255.0,"o3":47.0,"so2":0.0,"mosquito_risk":0,"arthritis_risk":5,"migraine_risk":7,"frizz_risk":0,"updated_at":"2026-06-22T04:46:54.061252+05:30"},{"city":"Dalhousie","state":"Himachal Pradesh","latitude":32.5387,"longitude":75.971,"temp":12.5,"humidity":84,"rain":0.0,"pressure":799.5,"uv_index":7.15,"wind_gusts":34.2,"aqi":64,"pm10":25.8,"pm2_5":22.8,"no2":25.5,"co":238.0,"o3":14.0,"so2":0.7,"mosquito_risk":3,"arthritis_risk":10,"migraine_risk":7,"frizz_risk":0,"updated_at":"2026-06-22T04:46:54.061260+05:30"},{"city":"Patiala","state":"Punjab","latitude":30.3398,"longitude":76.3869,"temp":28.0,"humidity":60,"rain":0.0,"pressure":973.2,"uv_index":5.45,"wind_gusts":57.6,"aqi":254,"pm10":143.9,"pm2_5":70.3,"no2":26.6,"co":509.0,"o3":39.0,"so2":6.1,"mosquito_risk":4,"arthritis_risk":5,"migraine_risk":3,"frizz_risk":1,"updated_at":"2026-06-22T04:46:54.061268+05:30"},{"city":"Bhatinda","state":"Punjab","latitude":30.211,"longitude":74.9455,"temp":28.9,"humidity":56,"rain":0.0,"pressure":978.4,"uv_index":8.05,"wind_gusts":54.7,"aqi":132,"pm10":80.6,"pm2_5":57.5,"no2":49.5,"co":299.0,"o3":24.0,"so2":6.4,"mosquito_risk":4,"arthritis_risk":5,"migraine_risk":7,"frizz_risk":1,"updated_at":"2026-06-22T04:46:54.061274+05:30"},{"city":"Rohtak","state":"Haryana","latitude":28.8955,"longitude":76.6066,"temp":28.2,"humidity":63,"rain":0.0,"pressure":976.9,"uv_index":7.5,"wind_gusts":50.8,"aqi":623,"pm10":225.4,"pm2_5":68.5,"no2":27.3,"co":177.0,"o3":24.0,"so2":3.9,"mosquito_risk":7,"arthritis_risk":5,"migraine_risk":7,"frizz_risk":1,"updated_at":"2026-06-22T04:46:54.061281+05:30"},{"city":"Panipat","state":"Haryana","latitude":29.3909,"longitude":76.9635,"temp":27.8,"humidity":60,"rain":0.0,"pressure":975.4,"uv_index":7.2,"wind_gusts":47.2,"aqi":1642,"pm10":295.2,"pm2_5":99.4,"no2":35.1,"co":296.0,"o3":17.0,"so2":5.0,"mosquito_risk":4,"arthritis_risk":5,"migraine_risk":7,"frizz_risk":1,"updated_at":"2026-06-22T04:46:54.061288+05:30"},{"city":"Mathura","state":"Uttar Pradesh","latitude":27.4924,"longitude":77.6737,"temp":28.2,"humidity":62,"rain":0.0,"pressure":981.7,"uv_index":8.05,"wind_gusts":57.6,"aqi":627,"pm10":174.2,"pm2_5":49.6,"no2":31.6,"co":139.0,"o3":17.0,"so2":4.4,"mosquito_risk":7,"arthritis_risk":5,"migraine_risk":7,"frizz_risk":1,"updated_at":"2026-06-22T04:46:54.061295+05:30"},{"city":"Vrindavan","state":"Uttar Pradesh","latitude":27.5823,"longitude":77.7027,"temp":27.8,"humidity":64,"rain":0.0,"pressure":982.1,"uv_index":8.05,"wind_gusts":52.2,"aqi":627,"pm10":174.2,"pm2_5":49.6,"no2":31.6,"co":141.0,"o3":17.0,"so2":4.4,"mosquito_risk":7,"arthritis_risk":5,"migraine_risk":7,"frizz_risk":1,"updated_at":"2026-06-22T04:46:54.061302+05:30"},{"city":"Ayodhya","state":"Uttar Pradesh","latitude":26.7922,"longitude":82.1998,"temp":30.0,"humidity":66,"rain":0.0,"pressure":989.7,"uv_index":8.05,"wind_gusts":28.8,"aqi":163,"pm10":101.5,"pm2_5":55.8,"no2":30.6,"co":256.0,"o3":16.0,"so2":5.6,"mosquito_risk":7,"arthritis_risk":5,"migraine_risk":7,"frizz_risk":1,"updated_at":"2026-06-22T04:46:54.061309+05:30"},{"city":"Ratlam","state":"Madhya Pradesh","latitude":23.3315,"longitude":75.0367,"temp":26.1,"humidity":74,"rain":0.0,"pressure":952.0,"uv_index":8.45,"wind_gusts":51.5,"aqi":69,"pm10":14.5,"pm2_5":11.5,"no2":10.0,"co":154.0,"o3":39.0,"so2":12.5,"mosquito_risk":7,"arthritis_risk":5,"migraine_risk":7,"frizz_risk":1,"updated_at":"2026-06-22T04:46:54.061315+05:30"},{"city":"Sagar","state":"Madhya Pradesh","latitude":23.8388,"longitude":78.7378,"temp":28.1,"humidity":67,"rain":0.0,"pressure":946.9,"uv_index":8.7,"wind_gusts":34.2,"aqi":82,"pm10":59.0,"pm2_5":34.1,"no2":8.4,"co":226.0,"o3":55.0,"so2":3.2,"mosquito_risk":7,"arthritis_risk":5,"migraine_risk":7,"frizz_risk":1,"updated_at":"2026-06-22T04:46:54.061322+05:30"},{"city":"Satna","state":"Madhya Pradesh","latitude":24.6005,"longitude":80.8322,"temp":29.1,"humidity":66,"rain":0.0,"pressure":967.3,"uv_index":8.3,"wind_gusts":36.7,"aqi":86,"pm10":41.9,"pm2_5":27.3,"no2":8.0,"co":173.0,"o3":59.0,"so2":3.0,"mosquito_risk":7,"arthritis_risk":5,"migraine_risk":7,"frizz_risk":1,"updated_at":"2026-06-22T04:46:54.061328+05:30"},{"city":"Akola","state":"Maharashtra","latitude":20.7002,"longitude":77.0082,"temp":31.7,"humidity":46,"rain":0.0,"pressure":972.1,"uv_index":8.85,"wind_gusts":44.3,"aqi":59,"pm10":18.2,"pm2_5":17.0,"no2":21.5,"co":112.0,"o3":36.0,"so2":8.3,"mosquito_risk":0,"arthritis_risk":5,"migraine_risk":7,"frizz_risk":1,"updated_at":"2026-06-22T04:46:54.061336+05:30"},{"city":"Amravati","state":"Maharashtra","latitude":20.9374,"longitude":77.7796,"temp":30.7,"humidity":53,"rain":0.0,"pressure":964.4,"uv_index":8.7,"wind_gusts":32.8,"aqi":59,"pm10":19.7,"pm2_5":17.8,"no2":20.3,"co":126.0,"o3":32.0,"so2":5.4,"mosquito_risk":0,"arthritis_risk":5,"migraine_risk":7,"frizz_risk":1,"updated_at":"2026-06-22T04:46:54.061343+05:30"},{"city":"Latur","state":"Maharashtra","latitude":18.4088,"longitude":76.5604,"temp":27.8,"humidity":64,"rain":0.0,"pressure":938.2,"uv_index":8.05,"wind_gusts":56.5,"aqi":53,"pm10":4.7,"pm2_5":4.4,"no2":5.8,"co":128.0,"o3":48.0,"so2":1.7,"mosquito_risk":7,"arthritis_risk":5,"migraine_risk":7,"frizz_risk":1,"updated_at":"2026-06-22T04:46:54.061350+05:30"},{"city":"Nanded","state":"Maharashtra","latitude":19.1383,"longitude":77.3091,"temp":29.3,"humidity":67,"rain":0.0,"pressure":966.0,"uv_index":8.85,"wind_gusts":57.2,"aqi":58,"pm10":16.4,"pm2_5":13.4,"no2":8.9,"co":142.0,"o3":51.0,"so2":4.3,"mosquito_risk":7,"arthritis_risk":5,"migraine_risk":7,"frizz_risk":1,"updated_at":"2026-06-22T04:46:54.061357+05:30"},{"city":"Gulbarga","state":"Karnataka","latitude":17.3297,"longitude":76.8343,"temp":27.1,"humidity":71,"rain":0.0,"pressure":957.4,"uv_index":8.9,"wind_gusts":53.3,"aqi":43,"pm10":4.9,"pm2_5":4.5,"no2":9.3,"co":148.0,"o3":28.0,"so2":2.6,"mosquito_risk":7,"arthritis_risk":5,"migraine_risk":7,"frizz_risk":1,"updated_at":"2026-06-22T04:46:54.061363+05:30"},{"city":"Bidar","state":"Karnataka","latitude":17.9104,"longitude":77.5199,"temp":26.6,"humidity":70,"rain":0.0,"pressure":933.8,"uv_index":8.95,"wind_gusts":36.0,"aqi":61,"pm10":6.5,"pm2_5":6.2,"no2":9.8,"co":150.0,"o3":44.0,"so2":5.0,"mosquito_risk":7,"arthritis_risk":5,"migraine_risk":7,"frizz_risk":1,"updated_at":"2026-06-22T04:46:54.061369+05:30"},{"city":"Hospet","state":"Karnataka","latitude":15.2689,"longitude":76.3909,"temp":24.4,"humidity":86,"rain":0.0,"pressure":955.0,"uv_index":8.95,"wind_gusts":58.0,"aqi":20,"pm10":3.8,"pm2_5":3.5,"no2":4.6,"co":113.0,"o3":36.0,"so2":1.3,"mosquito_risk":3,"arthritis_risk":5,"migraine_risk":7,"frizz_risk":1,"updated_at":"2026-06-22T04:46:54.061375+05:30"},{"city":"Tirupur","state":"Tamil Nadu","latitude":11.1085,"longitude":77.3411,"temp":24.1,"humidity":89,"rain":0.0,"pressure":975.0,"uv_index":8.9,"wind_gusts":56.9,"aqi":41,"pm10":9.4,"pm2_5":8.8,"no2":13.9,"co":114.0,"o3":22.0,"so2":4.0,"mosquito_risk":3,"arthritis_risk":5,"migraine_risk":7,"frizz_risk":1,"updated_at":"2026-06-22T04:46:54.061381+05:30"},{"city":"Alappuzha","state":"Kerala","latitude":9.4981,"longitude":76.3388,"temp":24.7,"humidity":100,"rain":0.1,"pressure":1010.0,"uv_index":7.75,"wind_gusts":35.3,"aqi":32,"pm10":7.5,"pm2_5":5.4,"no2":4.5,"co":81.0,"o3":38.0,"so2":1.6,"mosquito_risk":6,"arthritis_risk":0,"migraine_risk":4,"frizz_risk":1,"updated_at":"2026-06-22T04:46:54.061388+05:30"},{"city":"Munnar","state":"Kerala","latitude":10.0889,"longitude":77.0595,"temp":17.0,"humidity":99,"rain":0.0,"pressure":856.2,"uv_index":6.3,"wind_gusts":38.2,"aqi":20,"pm10":3.6,"pm2_5":3.5,"no2":6.1,"co":90.0,"o3":23.0,"so2":1.2,"mosquito_risk":3,"arthritis_risk":10,"migraine_risk":7,"frizz_risk":1,"updated_at":"2026-06-22T04:46:54.061395+05:30"},{"city":"Silchar","state":"Assam","latitude":24.8333,"longitude":92.7789,"temp":25.4,"humidity":95,"rain":0.1,"pressure":1003.3,"uv_index":8.6,"wind_gusts":31.3,"aqi":71,"pm10":31.0,"pm2_5":26.5,"no2":10.0,"co":247.0,"o3":56.0,"so2":4.2,"mosquito_risk":10,"arthritis_risk":5,"migraine_risk":4,"frizz_risk":1,"updated_at":"2026-06-22T04:46:54.061402+05:30"},{"city":"Dibrugarh","state":"Assam","latitude":27.4728,"longitude":94.912,"temp":24.6,"humidity":97,"rain":0.1,"pressure":993.0,"uv_index":4.95,"wind_gusts":27.7,"aqi":74,"pm10":29.2,"pm2_5":24.3,"no2":8.1,"co":217.0,"o3":76.0,"so2":1.5,"mosquito_risk":6,"arthritis_risk":5,"migraine_risk":3,"frizz_risk":1,"updated_at":"2026-06-22T04:46:54.061408+05:30"}]