[{"city":"Delhi","state":"Delhi","latitude":28.6139,"longitude":77.209,"temp":39.8,"humidity":16,"rain":0.0,"pressure":981.2,"uv_index":7.25,"wind_gusts":50.4,"aqi":403,"pm10":627.7,"pm2_5":77.1,"mosquito_risk":0,"arthritis_risk":5,"migraine_risk":10,"frizz_risk":0,"updated_at":"2026-04-25T16:24:20.107879+05:30"},{"city":"Mumbai","state":"Maharashtra","latitude":19.076,"longitude":72.8777,"temp":37.0,"humidity":33,"rain":0.0,"pressure":1004.2,"uv_index":8.0,"wind_gusts":44.6,"aqi":92,"pm10":43.2,"pm2_5":30.6,"mosquito_risk":0,"arthritis_risk":5,"migraine_risk":7,"frizz_risk":1,"updated_at":"2026-04-25T16:24:20.107919+05:30"},{"city":"Bangalore","state":"Karnataka","latitude":12.9716,"longitude":77.5946,"temp":34.5,"humidity":24,"rain":0.0,"pressure":911.5,"uv_index":9.5,"wind_gusts":37.1,"aqi":97,"pm10":34.1,"pm2_5":26.8,"mosquito_risk":0,"arthritis_risk":5,"migraine_risk":7,"frizz_risk":0,"updated_at":"2026-04-25T16:24:20.107934+05:30"},{"city":"Hyderabad","state":"Telangana","latitude":17.385,"longitude":78.4867,"temp":37.7,"humidity":20,"rain":0.0,"pressure":952.1,"uv_index":9.3,"wind_gusts":31.7,"aqi":148,"pm10":47.8,"pm2_5":39.9,"mosquito_risk":0,"arthritis_risk":5,"migraine_risk":10,"frizz_risk":0,"updated_at":"2026-04-25T16:24:20.107944+05:30"},{"city":"Chennai","state":"Tamil Nadu","latitude":13.0827,"longitude":80.2707,"temp":32.7,"humidity":60,"rain":0.0,"pressure":1005.3,"uv_index":9.3,"wind_gusts":51.1,"aqi":31,"pm10":13.3,"pm2_5":8.9,"mosquito_risk":0,"arthritis_risk":5,"migraine_risk":4,"frizz_risk":1,"updated_at":"2026-04-25T16:24:20.107953+05:30"},{"city":"Kolkata","state":"West Bengal","latitude":22.5726,"longitude":88.3639,"temp":34.0,"humidity":58,"rain":0.0,"pressure":1002.8,"uv_index":8.45,"wind_gusts":43.9,"aqi":78,"pm10":28.3,"pm2_5":21.5,"mosquito_risk":0,"arthritis_risk":5,"migraine_risk":4,"frizz_risk":1,"updated_at":"2026-04-25T16:24:20.107966+05:30"},{"city":"Pune","state":"Maharashtra","latitude":18.5204,"longitude":73.8567,"temp":39.2,"humidity":12,"rain":0.0,"pressure":946.1,"uv_index":8.45,"wind_gusts":37.8,"aqi":136,"pm10":33.4,"pm2_5":26.8,"mosquito_risk":0,"arthritis_risk":5,"migraine_risk":10,"frizz_risk":0,"updated_at":"2026-04-25T16:24:20.107973+05:30"},{"city":"Ahmedabad","state":"Gujarat","latitude":23.0225,"longitude":72.5714,"temp":43.0,"humidity":11,"rain":0.0,"pressure":998.5,"uv_index":8.2,"wind_gusts":24.1,"aqi":64,"pm10":47.4,"pm2_5":15.3,"mosquito_risk":0,"arthritis_risk":5,"migraine_risk":10,"frizz_risk":0,"updated_at":"2026-04-25T16:24:20.107981+05:30"},{"city":"Jaipur","state":"Rajasthan","latitude":26.9124,"longitude":75.7873,"temp":40.2,"humidity":14,"rain":0.0,"pressure":959.0,"uv_index":8.05,"wind_gusts":31.0,"aqi":123,"pm10":179.7,"pm2_5":31.0,"mosquito_risk":0,"arthritis_risk":5,"migraine_risk":10,"frizz_risk":0,"updated_at":"2026-04-25T16:24:20.107988+05:30"},{"city":"Lucknow","state":"Uttar Pradesh","latitude":26.8467,"longitude":80.9462,"temp":42.6,"humidity":11,"rain":0.0,"pressure":988.9,"uv_index":7.9,"wind_gusts":43.6,"aqi":148,"pm10":193.7,"pm2_5":36.9,"mosquito_risk":0,"arthritis_risk":5,"migraine_risk":10,"frizz_risk":0,"updated_at":"2026-04-25T16:24:20.107995+05:30"},{"city":"Kanpur","state":"Uttar Pradesh","latitude":26.4499,"longitude":80.3319,"temp":43.0,"humidity":11,"rain":0.0,"pressure":987.1,"uv_index":7.95,"wind_gusts":45.4,"aqi":154,"pm10":413.5,"pm2_5":50.4,"mosquito_risk":0,"arthritis_risk":5,"migraine_risk":10,"frizz_risk":0,"updated_at":"2026-04-25T16:24:20.108003+05:30"},{"city":"Chandigarh","state":"Chandigarh","latitude":30.7333,"longitude":76.7794,"temp":34.7,"humidity":28,"rain":0.0,"pressure":968.3,"uv_index":7.25,"wind_gusts":58.3,"aqi":79,"pm10":49.6,"pm2_5":16.8,"mosquito_risk":0,"arthritis_risk":5,"migraine_risk":7,"frizz_risk":0,"updated_at":"2026-04-25T16:24:20.108010+05:30"},{"city":"Srinagar","state":"Jammu and Kashmir","latitude":34.0837,"longitude":74.7973,"temp":19.7,"humidity":61,"rain":0.0,"pressure":845.9,"uv_index":8.6,"wind_gusts":36.7,"aqi":73,"pm10":42.7,"pm2_5":14.7,"mosquito_risk":3,"arthritis_risk":5,"migraine_risk":7,"frizz_risk":0,"updated_at":"2026-04-25T16:24:20.108018+05:30"},{"city":"Jammu","state":"Jammu and Kashmir","latitude":32.7266,"longitude":74.857,"temp":35.8,"humidity":21,"rain":0.0,"pressure":972.8,"uv_index":8.2,"wind_gusts":27.7,"aqi":76,"pm10":118.3,"pm2_5":26.2,"mosquito_risk":0,"arthritis_risk":5,"migraine_risk":10,"frizz_risk":0,"updated_at":"2026-04-25T16:24:20.108025+05:30"},{"city":"Amritsar","state":"Punjab","latitude":31.634,"longitude":74.8723,"temp":38.0,"humidity":19,"rain":0.0,"pressure":980.3,"uv_index":8.1,"wind_gusts":33.5,"aqi":82,"pm10":139.2,"pm2_5":32.6,"mosquito_risk":0,"arthritis_risk":5,"migraine_risk":10,"frizz_risk":0,"updated_at":"2026-04-25T16:24:20.108031+05:30"},{"city":"Ludhiana","state":"Punjab","latitude":30.901,"longitude":75.8573,"temp":36.5,"humidity":21,"rain":0.0,"pressure":978.5,"uv_index":7.7,"wind_gusts":48.6,"aqi":80,"pm10":95.9,"pm2_5":24.4,"mosquito_risk":0,"arthritis_risk":5,"migraine_risk":10,"frizz_risk":0,"updated_at":"2026-04-25T16:24:20.108039+05:30"},{"city":"Jalandhar","state":"Punjab","latitude":31.326,"longitude":75.5762,"temp":36.7,"humidity":20,"rain":0.0,"pressure":979.5,"uv_index":7.85,"wind_gusts":38.5,"aqi":87,"pm10":121.5,"pm2_5":25.5,"mosquito_risk":0,"arthritis_risk":5,"migraine_risk":10,"frizz_risk":0,"updated_at":"2026-04-25T16:24:20.108045+05:30"},{"city":"Dehradun","state":"Uttarakhand","latitude":30.6284,"longitude":78.0322,"temp":25.7,"humidity":31,"rain":0.0,"pressure":833.2,"uv_index":7.85,"wind_gusts":52.9,"aqi":72,"pm10":38.2,"pm2_5":11.5,"mosquito_risk":4,"arthritis_risk":5,"migraine_risk":7,"frizz_risk":0,"updated_at":"2026-04-25T16:24:20.108052+05:30"},{"city":"Shimla","state":"Himachal Pradesh","latitude":31.1048,"longitude":77.1734,"temp":20.8,"humidity":32,"rain":0.0,"pressure":788.3,"uv_index":7.45,"wind_gusts":55.8,"aqi":64,"pm10":46.1,"pm2_5":12.8,"mosquito_risk":0,"arthritis_risk":5,"migraine_risk":7,"frizz_risk":0,"updated_at":"2026-04-25T16:24:20.108059+05:30"},{"city":"Manali","state":"Himachal Pradesh","latitude":32.2396,"longitude":77.1887,"temp":18.3,"humidity":53,"rain":0.0,"pressure":821.1,"uv_index":9.85,"wind_gusts":43.9,"aqi":107,"pm10":37.5,"pm2_5":9.5,"mosquito_risk":0,"arthritis_risk":5,"migraine_risk":7,"frizz_risk":0,"updated_at":"2026-04-25T16:24:20.108066+05:30"},{"city":"Gurgaon","state":"Haryana","latitude":28.4595,"longitude":77.0266,"temp":39.2,"humidity":16,"rain":0.0,"pressure":979.8,"uv_index":7.45,"wind_gusts":51.1,"aqi":968,"pm10":1557.2,"pm2_5":152.7,"mosquito_risk":0,"arthritis_risk":5,"migraine_risk":10,"frizz_risk":0,"updated_at":"2026-04-25T16:24:20.108073+05:30"},{"city":"Noida","state":"Uttar Pradesh","latitude":28.5355,"longitude":77.391,"temp":39.8,"humidity":16,"rain":0.0,"pressure":982.2,"uv_index":7.3,"wind_gusts":43.9,"aqi":968,"pm10":1557.2,"pm2_5":152.7,"mosquito_risk":0,"arthritis_risk":5,"migraine_risk":10,"frizz_risk":0,"updated_at":"2026-04-25T16:24:20.108079+05:30"},{"city":"Ghaziabad","state":"Uttar Pradesh","latitude":28.6692,"longitude":77.4538,"temp":40.0,"humidity":16,"rain":0.0,"pressure":980.5,"uv_index":7.25,"wind_gusts":50.8,"aqi":190,"pm10":462.9,"pm2_5":62.4,"mosquito_risk":0,"arthritis_risk":5,"migraine_risk":10,"frizz_risk":0,"updated_at":"2026-04-25T16:24:20.108085+05:30"},{"city":"Faridabad","state":"Haryana","latitude":28.4089,"longitude":77.3178,"temp":39.9,"humidity":15,"rain":0.0,"pressure":981.6,"uv_index":7.35,"wind_gusts":52.6,"aqi":968,"pm10":1557.2,"pm2_5":152.7,"mosquito_risk":0,"arthritis_risk":5,"migraine_risk":10,"frizz_risk":0,"updated_at":"2026-04-25T16:24:20.108091+05:30"},{"city":"Meerut","state":"Uttar Pradesh","latitude":28.9845,"longitude":77.7064,"temp":37.9,"humidity":19,"rain":0.0,"pressure":979.2,"uv_index":7.35,"wind_gusts":55.4,"aqi":190,"pm10":462.9,"pm2_5":62.4,"mosquito_risk":0,"arthritis_risk":5,"migraine_risk":10,"frizz_risk":0,"updated_at":"2026-04-25T16:24:20.108097+05:30"},{"city":"Agra","state":"Uttar Pradesh","latitude":27.1767,"longitude":78.0081,"temp":42.2,"humidity":12,"rain":0.0,"pressure":984.5,"uv_index":7.8,"wind_gusts":45.0,"aqi":276,"pm10":862.4,"pm2_5":90.8,"mosquito_risk":0,"arthritis_risk":5,"migraine_risk":10,"frizz_risk":0,"updated_at":"2026-04-25T16:24:20.108105+05:30"},{"city":"Varanasi","state":"Uttar Pradesh","latitude":25.3176,"longitude":82.9739,"temp":43.1,"humidity":11,"rain":0.0,"pressure":992.5,"uv_index":8.5,"wind_gusts":41.0,"aqi":139,"pm10":154.1,"pm2_5":33.9,"mosquito_risk":0,"arthritis_risk":5,"migraine_risk":10,"frizz_risk":0,"updated_at":"2026-04-25T16:24:20.108112+05:30"},{"city":"Prayagraj","state":"Uttar Pradesh","latitude":25.4358,"longitude":81.8463,"temp":42.5,"humidity":12,"rain":0.0,"pressure":991.2,"uv_index":8.4,"wind_gusts":29.5,"aqi":135,"pm10":165.3,"pm2_5":32.4,"mosquito_risk":0,"arthritis_risk":5,"migraine_risk":10,"frizz_risk":0,"updated_at":"2026-04-25T16:24:20.108119+05:30"},{"city":"Gorakhpur","state":"Uttar Pradesh","latitude":26.7606,"longitude":83.3732,"temp":36.7,"humidity":33,"rain":0.0,"pressure":993.8,"uv_index":8.35,"wind_gusts":41.4,"aqi":178,"pm10":173.7,"pm2_5":43.8,"mosquito_risk":0,"arthritis_risk":5,"migraine_risk":10,"frizz_risk":1,"updated_at":"2026-04-25T16:24:20.108125+05:30"},{"city":"Bareilly","state":"Uttar Pradesh","latitude":28.367,"longitude":79.4304,"temp":40.2,"humidity":15,"rain":0.0,"pressure":983.1,"uv_index":7.7,"wind_gusts":48.2,"aqi":163,"pm10":58.1,"pm2_5":22.4,"mosquito_risk":0,"arthritis_risk":5,"migraine_risk":10,"frizz_risk":0,"updated_at":"2026-04-25T16:24:20.108133+05:30"},{"city":"Aligarh","state":"Uttar Pradesh","latitude":27.8974,"longitude":78.088,"temp":41.5,"humidity":13,"rain":0.0,"pressure":982.4,"uv_index":7.6,"wind_gusts":47.9,"aqi":313,"pm10":765.5,"pm2_5":88.7,"mosquito_risk":0,"arthritis_risk":5,"migraine_risk":10,"frizz_risk":0,"updated_at":"2026-04-25T16:24:20.108139+05:30"},{"city":"Moradabad","state":"Uttar Pradesh","latitude":28.8386,"longitude":78.7733,"temp":38.9,"humidity":20,"rain":0.0,"pressure":980.8,"uv_index":7.5,"wind_gusts":49.3,"aqi":179,"pm10":63.6,"pm2_5":27.2,"mosquito_risk":0,"arthritis_risk":5,"migraine_risk":10,"frizz_risk":0,"updated_at":"2026-04-25T16:24:20.108145+05:30"},{"city":"Saharanpur","state":"Uttar Pradesh","latitude":29.9637,"longitude":77.546,"temp":36.2,"humidity":22,"rain":0.0,"pressure":973.8,"uv_index":7.1,"wind_gusts":53.6,"aqi":134,"pm10":150.4,"pm2_5":32.1,"mosquito_risk":0,"arthritis_risk":5,"migraine_risk":10,"frizz_risk":0,"updated_at":"2026-04-25T16:24:20.108151+05:30"},{"city":"Jhansi","state":"Uttar Pradesh","latitude":25.4484,"longitude":78.5685,"temp":42.8,"humidity":11,"rain":0.0,"pressure":974.5,"uv_index":8.3,"wind_gusts":29.5,"aqi":83,"pm10":139.2,"pm2_5":28.2,"mosquito_risk":0,"arthritis_risk":5,"migraine_risk":10,"frizz_risk":0,"updated_at":"2026-04-25T16:24:23.386057+05:30"},{"city":"Surat","state":"Gujarat","latitude":21.1702,"longitude":72.8311,"temp":42.1,"humidity":10,"rain":0.0,"pressure":1003.1,"uv_index":7.85,"wind_gusts":36.7,"aqi":106,"pm10":75.7,"pm2_5":45.5,"mosquito_risk":0,"arthritis_risk":5,"migraine_risk":7,"frizz_risk":0,"updated_at":"2026-04-25T16:24:23.386087+05:30"},{"city":"Vadodara","state":"Gujarat","latitude":22.3072,"longitude":73.1812,"temp":43.5,"humidity":11,"rain":0.0,"pressure":1000.4,"uv_index":8.15,"wind_gusts":25.2,"aqi":85,"pm10":53.0,"pm2_5":19.3,"mosquito_risk":0,"arthritis_risk":5,"migraine_risk":7,"frizz_risk":0,"updated_at":"2026-04-25T16:24:23.386097+05:30"},{"city":"Rajkot","state":"Gujarat","latitude":22.3039,"longitude":70.8022,"temp":41.3,"humidity":14,"rain":0.0,"pressure":991.8,"uv_index":7.9,"wind_gusts":33.1,"aqi":50,"pm10":59.8,"pm2_5":18.1,"mosquito_risk":0,"arthritis_risk":5,"migraine_risk":10,"frizz_risk":0,"updated_at":"2026-04-25T16:24:23.386105+05:30"},{"city":"Thane","state":"Maharashtra","latitude":19.2183,"longitude":72.9781,"temp":42.0,"humidity":17,"rain":0.0,"pressure":1002.9,"uv_index":8.0,"wind_gusts":47.5,"aqi":92,"pm10":43.2,"pm2_5":30.6,"mosquito_risk":0,"arthritis_risk":5,"migraine_risk":7,"frizz_risk":0,"updated_at":"2026-04-25T16:24:23.386112+05:30"},{"city":"Nagpur","state":"Maharashtra","latitude":21.1458,"longitude":79.0882,"temp":43.0,"humidity":9,"rain":0.0,"pressure":969.8,"uv_index":8.9,"wind_gusts":29.9,"aqi":160,"pm10":34.0,"pm2_5":24.7,"mosquito_risk":0,"arthritis_risk":5,"migraine_risk":10,"frizz_risk":0,"updated_at":"2026-04-25T16:24:23.386119+05:30"},{"city":"Nashik","state":"Maharashtra","latitude":19.9975,"longitude":73.7898,"temp":39.2,"humidity":13,"rain":0.0,"pressure":943.6,"uv_index":8.25,"wind_gusts":31.7,"aqi":104,"pm10":31.7,"pm2_5":19.2,"mosquito_risk":0,"arthritis_risk":5,"migraine_risk":10,"frizz_risk":0,"updated_at":"2026-04-25T16:24:23.386125+05:30"},{"city":"Aurangabad","state":"Maharashtra","latitude":19.8762,"longitude":75.3433,"temp":39.8,"humidity":13,"rain":0.0,"pressure":942.5,"uv_index":8.75,"wind_gusts":29.5,"aqi":126,"pm10":35.6,"pm2_5":24.9,"mosquito_risk":0,"arthritis_risk":5,"migraine_risk":10,"frizz_risk":0,"updated_at":"2026-04-25T16:24:23.386133+05:30"},{"city":"Solapur","state":"Maharashtra","latitude":17.6599,"longitude":75.9064,"temp":39.2,"humidity":17,"rain":0.0,"pressure":954.7,"uv_index":8.65,"wind_gusts":24.8,"aqi":149,"pm10":44.2,"pm2_5":37.1,"mosquito_risk":0,"arthritis_risk":5,"migraine_risk":10,"frizz_risk":0,"updated_at":"2026-04-25T16:24:23.386140+05:30"},{"city":"Kolhapur","state":"Maharashtra","latitude":16.705,"longitude":74.2433,"temp":37.7,"humidity":19,"rain":0.0,"pressure":945.9,"uv_index":9.05,"wind_gusts":34.2,"aqi":150,"pm10":51.0,"pm2_5":41.2,"mosquito_risk":0,"arthritis_risk":5,"migraine_risk":10,"frizz_risk":0,"updated_at":"2026-04-25T16:24:23.386147+05:30"},{"city":"Goa","state":"Goa","latitude":15.2993,"longitude":74.124,"temp":36.6,"humidity":52,"rain":0.0,"pressure":994.6,"uv_index":8.95,"wind_gusts":32.0,"aqi":77,"pm10":27.1,"pm2_5":19.9,"mosquito_risk":0,"arthritis_risk":5,"migraine_risk":10,"frizz_risk":1,"updated_at":"2026-04-25T16:24:23.386153+05:30"},{"city":"Jodhpur","state":"Rajasthan","latitude":26.2389,"longitude":73.0243,"temp":42.5,"humidity":12,"rain":0.0,"pressure":980.5,"uv_index":8.3,"wind_gusts":27.4,"aqi":84,"pm10":123.4,"pm2_5":24.0,"mosquito_risk":0,"arthritis_risk":5,"migraine_risk":10,"frizz_risk":0,"updated_at":"2026-04-25T16:24:23.386160+05:30"},{"city":"Udaipur","state":"Rajasthan","latitude":24.5854,"longitude":73.7125,"temp":39.0,"humidity":14,"rain":0.0,"pressure":945.7,"uv_index":8.8,"wind_gusts":42.5,"aqi":59,"pm10":81.5,"pm2_5":19.0,"mosquito_risk":0,"arthritis_risk":5,"migraine_risk":10,"frizz_risk":0,"updated_at":"2026-04-25T16:24:23.386166+05:30"},{"city":"Kota","state":"Rajasthan","latitude":25.2138,"longitude":75.8648,"temp":42.2,"humidity":12,"rain":0.0,"pressure":975.9,"uv_index":8.3,"wind_gusts":32.8,"aqi":92,"pm10":62.2,"pm2_5":18.5,"mosquito_risk":0,"arthritis_risk":5,"migraine_risk":10,"frizz_risk":0,"updated_at":"2026-04-25T16:24:23.386173+05:30"},{"city":"Bikaner","state":"Rajasthan","latitude":28.0229,"longitude":73.3119,"temp":42.3,"humidity":12,"rain":0.0,"pressure":979.7,"uv_index":8.15,"wind_gusts":33.8,"aqi":71,"pm10":118.3,"pm2_5":25.0,"mosquito_risk":0,"arthritis_risk":5,"migraine_risk":10,"frizz_risk":0,"updated_at":"2026-04-25T16:24:23.386180+05:30"},{"city":"Ajmer","state":"Rajasthan","latitude":26.4499,"longitude":74.6399,"temp":39.8,"humidity":13,"rain":0.0,"pressure":953.8,"uv_index":8.25,"wind_gusts":33.5,"aqi":80,"pm10":118.0,"pm2_5":25.0,"mosquito_risk":0,"arthritis_risk":5,"migraine_risk":10,"frizz_risk":0,"updated_at":"2026-04-25T16:24:23.386186+05:30"},{"city":"Gwalior","state":"Madhya Pradesh","latitude":26.2183,"longitude":78.1828,"temp":42.2,"humidity":11,"rain":0.0,"pressure":980.0,"uv_index":8.05,"wind_gusts":39.6,"aqi":87,"pm10":125.3,"pm2_5":28.3,"mosquito_risk":0,"arthritis_risk":5,"migraine_risk":10,"frizz_risk":0,"updated_at":"2026-04-25T16:24:23.386193+05:30"},{"city":"Indore","state":"Madhya Pradesh","latitude":22.7196,"longitude":75.8577,"temp":41.8,"humidity":10,"rain":0.0,"pressure":946.0,"uv_index":8.65,"wind_gusts":32.4,"aqi":65,"pm10":36.6,"pm2_5":11.7,"mosquito_risk":0,"arthritis_risk":5,"migraine_risk":10,"frizz_risk":0,"updated_at":"2026-04-25T16:24:23.386199+05:30"},{"city":"Bhopal","state":"Madhya Pradesh","latitude":23.2599,"longitude":77.4126,"temp":41.7,"humidity":9,"rain":0.0,"pressure":951.2,"uv_index":8.65,"wind_gusts":30.6,"aqi":95,"pm10":27.5,"pm2_5":10.7,"mosquito_risk":0,"arthritis_risk":5,"migraine_risk":10,"frizz_risk":0,"updated_at":"2026-04-25T16:24:23.386205+05:30"},{"city":"Jabalpur","state":"Madhya Pradesh","latitude":23.1815,"longitude":79.9864,"temp":41.3,"humidity":10,"rain":0.0,"pressure":958.8,"uv_index":8.75,"wind_gusts":32.0,"aqi":106,"pm10":28.2,"pm2_5":10.6,"mosquito_risk":0,"arthritis_risk":5,"migraine_risk":10,"frizz_risk":0,"updated_at":"2026-04-25T16:24:23.386212+05:30"},{"city":"Ujjain","state":"Madhya Pradesh","latitude":23.1765,"longitude":75.7885,"temp":41.2,"humidity":11,"rain":0.0,"pressure":951.6,"uv_index":8.55,"wind_gusts":29.2,"aqi":57,"pm10":49.8,"pm2_5":14.6,"mosquito_risk":0,"arthritis_risk":5,"migraine_risk":10,"frizz_risk":0,"updated_at":"2026-04-25T16:24:23.386218+05:30"},{"city":"Visakhapatnam","state":"Andhra Pradesh","latitude":17.6868,"longitude":83.2185,"temp":32.4,"humidity":65,"rain":0.0,"pressure":1001.7,"uv_index":8.7,"wind_gusts":44.3,"aqi":59,"pm10":18.6,"pm2_5":13.3,"mosquito_risk":3,"arthritis_risk":5,"migraine_risk":4,"frizz_risk":1,"updated_at":"2026-04-25T16:24:23.386225+05:30"},{"city":"Vijayawada","state":"Andhra Pradesh","latitude":16.5062,"longitude":80.648,"temp":38.1,"humidity":31,"rain":0.0,"pressure":1000.2,"uv_index":8.65,"wind_gusts":34.2,"aqi":53,"pm10":21.1,"pm2_5":14.9,"mosquito_risk":0,"arthritis_risk":5,"migraine_risk":7,"frizz_risk":1,"updated_at":"2026-04-25T16:24:23.386232+05:30"},{"city":"Guntur","state":"Andhra Pradesh","latitude":16.3067,"longitude":80.4365,"temp":36.3,"humidity":39,"rain":0.0,"pressure":1001.7,"uv_index":8.7,"wind_gusts":40.0,"aqi":55,"pm10":25.4,"pm2_5":18.3,"mosquito_risk":0,"arthritis_risk":5,"migraine_risk":7,"frizz_risk":1,"updated_at":"2026-04-25T16:24:23.386238+05:30"},{"city":"Nellore","state":"Andhra Pradesh","latitude":14.4426,"longitude":79.9865,"temp":34.8,"humidity":50,"rain":0.0,"pressure":1003.2,"uv_index":9.2,"wind_gusts":42.1,"aqi":42,"pm10":22.4,"pm2_5":16.2,"mosquito_risk":0,"arthritis_risk":5,"migraine_risk":4,"frizz_risk":1,"updated_at":"2026-04-25T16:24:23.386245+05:30"},{"city":"Kurnool","state":"Andhra Pradesh","latitude":15.8281,"longitude":78.0373,"temp":41.2,"humidity":15,"rain":0.0,"pressure":973.8,"uv_index":8.9,"wind_gusts":32.8,"aqi":94,"pm10":37.6,"pm2_5":29.5,"mosquito_risk":0,"arthritis_risk":5,"migraine_risk":10,"frizz_risk":0,"updated_at":"2026-04-25T16:24:23.386252+05:30"},{"city":"Kakinada","state":"Andhra Pradesh","latitude":16.9891,"longitude":82.2475,"temp":37.0,"humidity":41,"rain":0.0,"pressure":1004.8,"uv_index":8.45,"wind_gusts":39.6,"aqi":40,"pm10":13.8,"pm2_5":8.4,"mosquito_risk":0,"arthritis_risk":5,"migraine_risk":7,"frizz_risk":1,"updated_at":"2026-04-25T16:24:23.386259+05:30"},{"city":"Tirupati","state":"Andhra Pradesh","latitude":13.6288,"longitude":79.4192,"temp":38.8,"humidity":23,"rain":0.0,"pressure":988.2,"uv_index":9.35,"wind_gusts":37.4,"aqi":57,"pm10":27.0,"pm2_5":20.9,"mosquito_risk":0,"arthritis_risk":5,"migraine_risk":10,"frizz_risk":0,"updated_at":"2026-04-25T16:24:23.386265+05:30"},{"city":"Warangal","state":"Telangana","latitude":17.9689,"longitude":79.5941,"temp":38.8,"humidity":24,"rain":0.0,"pressure":976.8,"uv_index":8.9,"wind_gusts":28.1,"aqi":105,"pm10":43.5,"pm2_5":36.1,"mosquito_risk":0,"arthritis_risk":5,"migraine_risk":10,"frizz_risk":0,"updated_at":"2026-04-25T16:24:23.386272+05:30"},{"city":"Nizamabad","state":"Telangana","latitude":18.6725,"longitude":78.0941,"temp":40.0,"humidity":15,"rain":0.0,"pressure":962.7,"uv_index":9.05,"wind_gusts":27.7,"aqi":140,"pm10":41.6,"pm2_5":33.6,"mosquito_risk":0,"arthritis_risk":5,"migraine_risk":10,"frizz_risk":0,"updated_at":"2026-04-25T16:24:23.386278+05:30"},{"city":"Mysore","state":"Karnataka","latitude":12.2958,"longitude":76.6396,"temp":36.0,"humidity":19,"rain":0.0,"pressure":926.8,"uv_index":8.85,"wind_gusts":44.6,"aqi":99,"pm10":27.6,"pm2_5":21.7,"mosquito_risk":0,"arthritis_risk":5,"migraine_risk":10,"frizz_risk":0,"updated_at":"2026-04-25T16:24:23.386285+05:30"},{"city":"Mangalore","state":"Karnataka","latitude":12.9141,"longitude":74.856,"temp":32.3,"humidity":68,"rain":0.0,"pressure":1003.6,"uv_index":9.1,"wind_gusts":41.4,"aqi":76,"pm10":22.5,"pm2_5":17.5,"mosquito_risk":3,"arthritis_risk":5,"migraine_risk":4,"frizz_risk":1,"updated_at":"2026-04-25T16:24:23.386291+05:30"},{"city":"Hubli-Dharwad","state":"Karnataka","latitude":15.3647,"longitude":75.124,"temp":36.7,"humidity":21,"rain":0.0,"pressure":939.6,"uv_index":9.1,"wind_gusts":37.8,"aqi":139,"pm10":43.2,"pm2_5":35.2,"mosquito_risk":0,"arthritis_risk":5,"migraine_risk":10,"frizz_risk":0,"updated_at":"2026-04-25T16:24:23.386298+05:30"},{"city":"Belgaum","state":"Karnataka","latitude":15.8497,"longitude":74.4977,"temp":36.0,"humidity":20,"rain":0.0,"pressure":924.8,"uv_index":9.15,"wind_gusts":37.1,"aqi":143,"pm10":53.8,"pm2_5":43.3,"mosquito_risk":0,"arthritis_risk":5,"migraine_risk":10,"frizz_risk":0,"updated_at":"2026-04-25T16:24:26.661000+05:30"},{"city":"Coimbatore","state":"Tamil Nadu","latitude":11.0168,"longitude":76.9558,"temp":37.3,"humidity":22,"rain":0.0,"pressure":959.5,"uv_index":8.9,"wind_gusts":46.4,"aqi":75,"pm10":21.3,"pm2_5":17.2,"mosquito_risk":0,"arthritis_risk":5,"migraine_risk":10,"frizz_risk":0,"updated_at":"2026-04-25T16:24:26.661033+05:30"},{"city":"Madurai","state":"Tamil Nadu","latitude":9.9252,"longitude":78.1198,"temp":39.2,"humidity":23,"rain":0.0,"pressure":989.4,"uv_index":9.1,"wind_gusts":39.6,"aqi":53,"pm10":16.0,"pm2_5":13.5,"mosquito_risk":0,"arthritis_risk":5,"migraine_risk":10,"frizz_risk":0,"updated_at":"2026-04-25T16:24:26.661045+05:30"},{"city":"Trichy","state":"Tamil Nadu","latitude":10.7905,"longitude":78.7047,"temp":37.3,"humidity":33,"rain":0.0,"pressure":996.6,"uv_index":9.3,"wind_gusts":33.1,"aqi":50,"pm10":19.4,"pm2_5":14.8,"mosquito_risk":0,"arthritis_risk":5,"migraine_risk":10,"frizz_risk":1,"updated_at":"2026-04-25T16:24:26.661055+05:30"},{"city":"Salem","state":"Tamil Nadu","latitude":11.6643,"longitude":78.146,"temp":38.1,"humidity":23,"rain":0.0,"pressure":974.6,"uv_index":9.0,"wind_gusts":42.1,"aqi":59,"pm10":25.0,"pm2_5":19.6,"mosquito_risk":0,"arthritis_risk":5,"migraine_risk":10,"frizz_risk":0,"updated_at":"2026-04-25T16:24:26.661065+05:30"},{"city":"Tirunelveli","state":"Tamil Nadu","latitude":8.7139,"longitude":77.7567,"temp":36.5,"humidity":32,"rain":0.0,"pressure":1000.3,"uv_index":9.2,"wind_gusts":40.7,"aqi":64,"pm10":12.3,"pm2_5":11.1,"mosquito_risk":0,"arthritis_risk":5,"migraine_risk":7,"frizz_risk":1,"updated_at":"2026-04-25T16:24:26.661073+05:30"},{"city":"Vellore","state":"Tamil Nadu","latitude":12.9165,"longitude":79.1325,"temp":38.2,"humidity":24,"rain":0.0,"pressure":981.9,"uv_index":9.25,"wind_gusts":36.0,"aqi":78,"pm10":28.1,"pm2_5":22.8,"mosquito_risk":0,"arthritis_risk":5,"migraine_risk":10,"frizz_risk":0,"updated_at":"2026-04-25T16:24:26.661082+05:30"},{"city":"Erode","state":"Tamil Nadu","latitude":11.341,"longitude":77.7172,"temp":39.2,"humidity":21,"rain":0.0,"pressure":985.7,"uv_index":9.25,"wind_gusts":46.1,"aqi":49,"pm10":19.0,"pm2_5":15.3,"mosquito_risk":0,"arthritis_risk":5,"migraine_risk":10,"frizz_risk":0,"updated_at":"2026-04-25T16:24:26.661090+05:30"},{"city":"Kochi","state":"Kerala","latitude":9.9312,"longitude":76.2673,"temp":32.2,"humidity":64,"rain":0.0,"pressure":1005.0,"uv_index":8.05,"wind_gusts":39.2,"aqi":102,"pm10":23.0,"pm2_5":21.2,"mosquito_risk":3,"arthritis_risk":5,"migraine_risk":4,"frizz_risk":1,"updated_at":"2026-04-25T16:24:26.661099+05:30"},{"city":"Thiruvananthapuram","state":"Kerala","latitude":8.5241,"longitude":76.9366,"temp":29.9,"humidity":71,"rain":0.0,"pressure":1005.4,"uv_index":8.2,"wind_gusts":33.1,"aqi":68,"pm10":16.6,"pm2_5":13.7,"mosquito_risk":7,"arthritis_risk":5,"migraine_risk":4,"frizz_risk":1,"updated_at":"2026-04-25T16:24:26.661107+05:30"},{"city":"Kozhikode","state":"Kerala","latitude":11.2588,"longitude":75.7804,"temp":31.3,"humidity":73,"rain":0.0,"pressure":1004.4,"uv_index":8.55,"wind_gusts":37.1,"aqi":86,"pm10":17.8,"pm2_5":14.1,"mosquito_risk":3,"arthritis_risk":5,"migraine_risk":4,"frizz_risk":1,"updated_at":"2026-04-25T16:24:26.661114+05:30"},{"city":"Thrissur","state":"Kerala","latitude":10.5276,"longitude":76.2144,"temp":33.1,"humidity":58,"rain":0.0,"pressure":1003.3,"uv_index":8.15,"wind_gusts":44.3,"aqi":82,"pm10":18.5,"pm2_5":16.4,"mosquito_risk":0,"arthritis_risk":5,"migraine_risk":4,"frizz_risk":1,"updated_at":"2026-04-25T16:24:26.661122+05:30"},{"city":"Kannur","state":"Kerala","latitude":11.8745,"longitude":75.3704,"temp":32.5,"humidity":68,"rain":0.0,"pressure":1004.1,"uv_index":8.55,"wind_gusts":40.7,"aqi":72,"pm10":21.5,"pm2_5":16.6,"mosquito_risk":3,"arthritis_risk":5,"migraine_risk":4,"frizz_risk":1,"updated_at":"2026-04-25T16:24:26.661130+05:30"},{"city":"Patna","state":"Bihar","latitude":25.5941,"longitude":85.1376,"temp":34.5,"humidity":51,"rain":0.0,"pressure":997.1,"uv_index":8.65,"wind_gusts":60.1,"aqi":177,"pm10":143.4,"pm2_5":42.0,"mosquito_risk":0,"arthritis_risk":5,"migraine_risk":7,"frizz_risk":1,"updated_at":"2026-04-25T16:24:26.661138+05:30"},{"city":"Gaya","state":"Bihar","latitude":24.7914,"longitude":85.0002,"temp":41.3,"humidity":12,"rain":0.0,"pressure":989.6,"uv_index":8.7,"wind_gusts":48.2,"aqi":166,"pm10":96.2,"pm2_5":25.8,"mosquito_risk":0,"arthritis_risk":5,"migraine_risk":10,"frizz_risk":0,"updated_at":"2026-04-25T16:24:26.661145+05:30"},{"city":"Muzaffarpur","state":"Bihar","latitude":26.1209,"longitude":85.3647,"temp":32.7,"humidity":56,"rain":0.0,"pressure":997.9,"uv_index":8.65,"wind_gusts":34.6,"aqi":176,"pm10":150.9,"pm2_5":52.0,"mosquito_risk":0,"arthritis_risk":5,"migraine_risk":7,"frizz_risk":1,"updated_at":"2026-04-25T16:24:26.661153+05:30"},{"city":"Bhagalpur","state":"Bihar","latitude":25.2425,"longitude":87.0117,"temp":27.5,"humidity":74,"rain":0.0,"pressure":999.4,"uv_index":8.6,"wind_gusts":52.9,"aqi":175,"pm10":130.4,"pm2_5":53.1,"mosquito_risk":7,"arthritis_risk":5,"migraine_risk":7,"frizz_risk":1,"updated_at":"2026-04-25T16:24:26.661160+05:30"},{"city":"Ranchi","state":"Jharkhand","latitude":23.3441,"longitude":85.3096,"temp":36.4,"humidity":17,"rain":0.0,"pressure":936.1,"uv_index":9.2,"wind_gusts":28.8,"aqi":181,"pm10":46.8,"pm2_5":23.6,"mosquito_risk":0,"arthritis_risk":5,"migraine_risk":10,"frizz_risk":0,"updated_at":"2026-04-25T16:24:26.661168+05:30"},{"city":"Jamshedpur","state":"Jharkhand","latitude":22.8046,"longitude":86.2029,"temp":41.8,"humidity":11,"rain":0.0,"pressure":986.6,"uv_index":8.9,"wind_gusts":35.3,"aqi":181,"pm10":66.8,"pm2_5":39.6,"mosquito_risk":0,"arthritis_risk":5,"migraine_risk":10,"frizz_risk":0,"updated_at":"2026-04-25T16:24:26.661175+05:30"},{"city":"Dhanbad","state":"Jharkhand","latitude":23.7957,"longitude":86.4304,"temp":41.3,"humidity":12,"rain":0.0,"pressure":975.8,"uv_index":8.95,"wind_gusts":42.1,"aqi":157,"pm10":82.0,"pm2_5":52.7,"mosquito_risk":0,"arthritis_risk":5,"migraine_risk":10,"frizz_risk":0,"updated_at":"2026-04-25T16:24:26.661183+05:30"},{"city":"Bokaro","state":"Jharkhand","latitude":23.6693,"longitude":86.1511,"temp":41.5,"humidity":12,"rain":0.0,"pressure":979.5,"uv_index":9.0,"wind_gusts":34.6,"aqi":190,"pm10":61.7,"pm2_5":32.4,"mosquito_risk":0,"arthritis_risk":5,"migraine_risk":10,"frizz_risk":0,"updated_at":"2026-04-25T16:24:26.661191+05:30"},{"city":"Bhubaneswar","state":"Odisha","latitude":20.2961,"longitude":85.8245,"temp":31.8,"humidity":70,"rain":0.0,"pressure":1000.7,"uv_index":9.1,"wind_gusts":41.0,"aqi":66,"pm10":26.4,"pm2_5":20.6,"mosquito_risk":3,"arthritis_risk":5,"migraine_risk":4,"frizz_risk":1,"updated_at":"2026-04-25T16:24:26.661199+05:30"},{"city":"Cuttack","state":"Odisha","latitude":20.4625,"longitude":85.8828,"temp":32.7,"humidity":66,"rain":0.0,"pressure":1002.3,"uv_index":9.15,"wind_gusts":37.8,"aqi":66,"pm10":26.4,"pm2_5":20.6,"mosquito_risk":3,"arthritis_risk":5,"migraine_risk":4,"frizz_risk":1,"updated_at":"2026-04-25T16:24:26.661208+05:30"},{"city":"Rourkela","state":"Odisha","latitude":22.2604,"longitude":84.8536,"temp":41.7,"humidity":12,"rain":0.0,"pressure":981.0,"uv_index":8.6,"wind_gusts":45.0,"aqi":202,"pm10":34.5,"pm2_5":28.1,"mosquito_risk":0,"arthritis_risk":5,"migraine_risk":10,"frizz_risk":0,"updated_at":"2026-04-25T16:24:26.661215+05:30"},{"city":"Raipur","state":"Chhattisgarh","latitude":21.2514,"longitude":81.6296,"temp":41.8,"humidity":10,"rain":0.0,"pressure":971.5,"uv_index":9.0,"wind_gusts":31.0,"aqi":202,"pm10":28.6,"pm2_5":18.2,"mosquito_risk":0,"arthritis_risk":5,"migraine_risk":10,"frizz_risk":0,"updated_at":"2026-04-25T16:24:26.661222+05:30"},{"city":"Bhilai","state":"Chhattisgarh","latitude":21.1938,"longitude":81.3509,"temp":42.0,"humidity":11,"rain":0.0,"pressure":971.7,"uv_index":9.0,"wind_gusts":35.6,"aqi":168,"pm10":27.5,"pm2_5":16.7,"mosquito_risk":0,"arthritis_risk":5,"migraine_risk":10,"frizz_risk":0,"updated_at":"2026-04-25T16:24:26.661228+05:30"},{"city":"Guwahati","state":"Assam","latitude":26.1158,"longitude":91.7086,"temp":30.4,"humidity":70,"rain":0.0,"pressure":999.5,"uv_index":8.55,"wind_gusts":42.1,"aqi":160,"pm10":102.0,"pm2_5":64.0,"mosquito_risk":3,"arthritis_risk":5,"migraine_risk":7,"frizz_risk":1,"updated_at":"2026-04-25T16:24:26.661235+05:30"},{"city":"Agartala","state":"Tripura","latitude":23.8315,"longitude":91.2868,"temp":37.2,"humidity":31,"rain":0.0,"pressure":1002.5,"uv_index":8.75,"wind_gusts":35.6,"aqi":153,"pm10":71.0,"pm2_5":38.8,"mosquito_risk":0,"arthritis_risk":5,"migraine_risk":7,"frizz_risk":1,"updated_at":"2026-04-25T16:24:26.661241+05:30"},{"city":"Shillong","state":"Meghalaya","latitude":25.5788,"longitude":91.8933,"temp":23.5,"humidity":57,"rain":0.1,"pressure":858.2,"uv_index":8.2,"wind_gusts":27.0,"aqi":150,"pm10":95.9,"pm2_5":50.3,"mosquito_risk":3,"arthritis_risk":5,"migraine_risk":7,"frizz_risk":0,"updated_at":"2026-04-25T16:24:26.661248+05:30"},{"city":"Imphal","state":"Manipur","latitude":24.817,"longitude":93.9368,"temp":30.2,"humidity":39,"rain":0.0,"pressure":922.3,"uv_index":9.1,"wind_gusts":34.2,"aqi":155,"pm10":71.0,"pm2_5":34.0,"mosquito_risk":0,"arthritis_risk":5,"migraine_risk":7,"frizz_risk":0,"updated_at":"2026-04-25T16:24:26.661254+05:30"},{"city":"Aizawl","state":"Mizoram","latitude":23.7271,"longitude":92.7176,"temp":30.9,"humidity":25,"rain":0.0,"pressure":892.8,"uv_index":8.95,"wind_gusts":37.8,"aqi":122,"pm10":86.8,"pm2_5":30.7,"mosquito_risk":0,"arthritis_risk":5,"migraine_risk":7,"frizz_risk":0,"updated_at":"2026-04-25T16:24:26.661260+05:30"},{"city":"Kohima","state":"Nagaland","latitude":25.6701,"longitude":94.1077,"temp":21.5,"humidity":78,"rain":0.0,"pressure":856.2,"uv_index":8.8,"wind_gusts":38.2,"aqi":157,"pm10":101.0,"pm2_5":57.9,"mosquito_risk":3,"arthritis_risk":5,"migraine_risk":7,"frizz_risk":1,"updated_at":"2026-04-25T16:24:26.661266+05:30"},{"city":"Gangtok","state":"Sikkim","latitude":27.3314,"longitude":88.6138,"temp":17.8,"humidity":77,"rain":0.0,"pressure":837.9,"uv_index":8.8,"wind_gusts":41.4,"aqi":125,"pm10":48.0,"pm2_5":28.6,"mosquito_risk":3,"arthritis_risk":5,"migraine_risk":7,"frizz_risk":0,"updated_at":"2026-04-25T16:24:26.661272+05:30"},{"city":"Siliguri","state":"West Bengal","latitude":26.7271,"longitude":88.3953,"temp":30.1,"humidity":60,"rain":0.0,"pressure":991.4,"uv_index":8.45,"wind_gusts":29.2,"aqi":152,"pm10":81.5,"pm2_5":51.2,"mosquito_risk":0,"arthritis_risk":5,"migraine_risk":7,"frizz_risk":1,"updated_at":"2026-04-25T16:24:29.942781+05:30"},{"city":"Durgapur","state":"West Bengal","latitude":23.5204,"longitude":87.3119,"temp":37.3,"humidity":40,"rain":0.0,"pressure":991.5,"uv_index":8.9,"wind_gusts":38.2,"aqi":141,"pm10":80.6,"pm2_5":54.0,"mosquito_risk":0,"arthritis_risk":5,"migraine_risk":10,"frizz_risk":1,"updated_at":"2026-04-25T16:24:29.942809+05:30"},{"city":"Asansol","state":"West Bengal","latitude":23.6739,"longitude":86.9524,"temp":37.5,"humidity":39,"rain":0.0,"pressure":989.5,"uv_index":8.95,"wind_gusts":38.9,"aqi":143,"pm10":79.2,"pm2_5":56.2,"mosquito_risk":0,"arthritis_risk":5,"migraine_risk":10,"frizz_risk":1,"updated_at":"2026-04-25T16:24:29.942818+05:30"},{"city":"Pondicherry","state":"Puducherry","latitude":11.9139,"longitude":79.8145,"temp":31.6,"humidity":66,"rain":0.0,"pressure":1006.5,"uv_index":9.15,"wind_gusts":44.6,"aqi":29,"pm10":10.6,"pm2_5":6.9,"mosquito_risk":3,"arthritis_risk":5,"migraine_risk":4,"frizz_risk":1,"updated_at":"2026-04-25T16:24:29.942826+05:30"},{"city":"Port Blair","state":"Andaman and Nicobar Islands","latitude":11.6234,"longitude":92.7265,"temp":31.2,"humidity":63,"rain":0.0,"pressure":1005.4,"uv_index":9.15,"wind_gusts":32.4,"aqi":39,"pm10":17.8,"pm2_5":11.4,"mosquito_risk":3,"arthritis_risk":5,"migraine_risk":4,"frizz_risk":1,"updated_at":"2026-04-25T16:24:29.942833+05:30"},{"city":"Haridwar","state":"Uttarakhand","latitude":29.9457,"longitude":78.1642,"temp":35.8,"humidity":29,"rain":0.0,"pressure":971.7,"uv_index":7.2,"wind_gusts":32.8,"aqi":111,"pm10":64.0,"pm2_5":19.7,"mosquito_risk":0,"arthritis_risk":5,"migraine_risk":10,"frizz_risk":0,"updated_at":"2026-04-25T16:24:29.942840+05:30"},{"city":"Rishikesh","state":"Uttarakhand","latitude":30.0869,"longitude":78.2676,"temp":34.8,"humidity":34,"rain":0.0,"pressure":964.7,"uv_index":7.35,"wind_gusts":37.4,"aqi":102,"pm10":46.0,"pm2_5":16.1,"mosquito_risk":0,"arthritis_risk":5,"migraine_risk":7,"frizz_risk":1,"updated_at":"2026-04-25T16:24:29.942847+05:30"},{"city":"Nainital","state":"Uttarakhand","latitude":29.3919,"longitude":79.4542,"temp":23.3,"humidity":34,"rain":0.0,"pressure":808.3,"uv_index":8.15,"wind_gusts":43.6,"aqi":146,"pm10":49.6,"pm2_5":23.4,"mosquito_risk":0,"arthritis_risk":5,"migraine_risk":7,"frizz_risk":0,"updated_at":"2026-04-25T16:24:29.942854+05:30"},{"city":"Mussoorie","state":"Uttarakhand","latitude":30.4599,"longitude":78.0664,"temp":22.4,"humidity":37,"rain":0.0,"pressure":806.1,"uv_index":7.75,"wind_gusts":58.7,"aqi":108,"pm10":47.3,"pm2_5":16.9,"mosquito_risk":0,"arthritis_risk":5,"migraine_risk":7,"frizz_risk":0,"updated_at":"2026-04-25T16:24:29.942861+05:30"},{"city":"Dharamshala","state":"Himachal Pradesh","latitude":32.219,"longitude":76.3234,"temp":24.3,"humidity":37,"rain":0.0,"pressure":872.2,"uv_index":7.55,"wind_gusts":59.0,"aqi":62,"pm10":43.2,"pm2_5":10.9,"mosquito_risk":0,"arthritis_risk":5,"migraine_risk":7,"frizz_risk":0,"updated_at":"2026-04-25T16:24:29.942867+05:30"},{"city":"Dalhousie","state":"Himachal Pradesh","latitude":32.5387,"longitude":75.971,"temp":20.1,"humidity":47,"rain":0.0,"pressure":808.6,"uv_index":8.1,"wind_gusts":45.7,"aqi":56,"pm10":72.2,"pm2_5":17.6,"mosquito_risk":0,"arthritis_risk":5,"migraine_risk":7,"frizz_risk":0,"updated_at":"2026-04-25T16:24:29.942875+05:30"},{"city":"Patiala","state":"Punjab","latitude":30.3398,"longitude":76.3869,"temp":37.0,"humidity":20,"rain":0.0,"pressure":977.5,"uv_index":7.35,"wind_gusts":56.2,"aqi":528,"pm10":1009.6,"pm2_5":97.3,"mosquito_risk":0,"arthritis_risk":5,"migraine_risk":10,"frizz_risk":0,"updated_at":"2026-04-25T16:24:29.942882+05:30"},{"city":"Bhatinda","state":"Punjab","latitude":30.211,"longitude":74.9455,"temp":38.5,"humidity":17,"rain":0.0,"pressure":983.1,"uv_index":8.0,"wind_gusts":46.1,"aqi":86,"pm10":118.3,"pm2_5":30.7,"mosquito_risk":0,"arthritis_risk":5,"migraine_risk":10,"frizz_risk":0,"updated_at":"2026-04-25T16:24:29.942889+05:30"},{"city":"Rohtak","state":"Haryana","latitude":28.8955,"longitude":76.6066,"temp":39.2,"humidity":17,"rain":0.0,"pressure":980.3,"uv_index":7.45,"wind_gusts":54.4,"aqi":633,"pm10":998.4,"pm2_5":101.3,"mosquito_risk":0,"arthritis_risk":5,"migraine_risk":10,"frizz_risk":0,"updated_at":"2026-04-25T16:24:29.942895+05:30"},{"city":"Panipat","state":"Haryana","latitude":29.3909,"longitude":76.9635,"temp":40.2,"humidity":14,"rain":0.0,"pressure":978.2,"uv_index":7.15,"wind_gusts":51.1,"aqi":1182,"pm10":2488.5,"pm2_5":224.9,"mosquito_risk":0,"arthritis_risk":5,"migraine_risk":10,"frizz_risk":0,"updated_at":"2026-04-25T16:24:29.942901+05:30"},{"city":"Mathura","state":"Uttar Pradesh","latitude":27.4924,"longitude":77.6737,"temp":40.8,"humidity":13,"rain":0.0,"pressure":984.2,"uv_index":7.65,"wind_gusts":45.0,"aqi":321,"pm10":961.1,"pm2_5":100.4,"mosquito_risk":0,"arthritis_risk":5,"migraine_risk":10,"frizz_risk":0,"updated_at":"2026-04-25T16:24:29.942908+05:30"},{"city":"Vrindavan","state":"Uttar Pradesh","latitude":27.5823,"longitude":77.7027,"temp":40.7,"humidity":14,"rain":0.0,"pressure":984.6,"uv_index":7.55,"wind_gusts":45.0,"aqi":321,"pm10":961.1,"pm2_5":100.4,"mosquito_risk":0,"arthritis_risk":5,"migraine_risk":10,"frizz_risk":0,"updated_at":"2026-04-25T16:24:29.942914+05:30"},{"city":"Ayodhya","state":"Uttar Pradesh","latitude":26.7922,"longitude":82.1998,"temp":39.5,"humidity":20,"rain":0.0,"pressure":990.8,"uv_index":8.1,"wind_gusts":38.5,"aqi":176,"pm10":180.2,"pm2_5":37.1,"mosquito_risk":0,"arthritis_risk":5,"migraine_risk":10,"frizz_risk":0,"updated_at":"2026-04-25T16:24:29.942920+05:30"},{"city":"Ratlam","state":"Madhya Pradesh","latitude":23.3315,"longitude":75.0367,"temp":40.9,"humidity":12,"rain":0.0,"pressure":952.7,"uv_index":8.45,"wind_gusts":25.9,"aqi":56,"pm10":51.5,"pm2_5":14.9,"mosquito_risk":0,"arthritis_risk":5,"migraine_risk":10,"frizz_risk":0,"updated_at":"2026-04-25T16:24:29.942927+05:30"},{"city":"Sagar","state":"Madhya Pradesh","latitude":23.8388,"longitude":78.7378,"temp":40.5,"humidity":12,"rain":0.0,"pressure":948.1,"uv_index":8.65,"wind_gusts":29.9,"aqi":99,"pm10":52.2,"pm2_5":14.1,"mosquito_risk":0,"arthritis_risk":5,"migraine_risk":10,"frizz_risk":0,"updated_at":"2026-04-25T16:24:29.942933+05:30"},{"city":"Satna","state":"Madhya Pradesh","latitude":24.6005,"longitude":80.8322,"temp":41.5,"humidity":11,"rain":0.0,"pressure":968.0,"uv_index":8.7,"wind_gusts":43.9,"aqi":122,"pm10":116.9,"pm2_5":27.6,"mosquito_risk":0,"arthritis_risk":5,"migraine_risk":10,"frizz_risk":0,"updated_at":"2026-04-25T16:24:29.942939+05:30"},{"city":"Akola","state":"Maharashtra","latitude":20.7002,"longitude":77.0082,"temp":42.0,"humidity":12,"rain":0.0,"pressure":972.0,"uv_index":8.7,"wind_gusts":23.8,"aqi":98,"pm10":29.5,"pm2_5":17.1,"mosquito_risk":0,"arthritis_risk":5,"migraine_risk":10,"frizz_risk":0,"updated_at":"2026-04-25T16:24:29.942946+05:30"},{"city":"Amravati","state":"Maharashtra","latitude":20.9374,"longitude":77.7796,"temp":41.7,"humidity":11,"rain":0.0,"pressure":964.5,"uv_index":8.5,"wind_gusts":27.7,"aqi":101,"pm10":27.1,"pm2_5":16.4,"mosquito_risk":0,"arthritis_risk":5,"migraine_risk":10,"frizz_risk":0,"updated_at":"2026-04-25T16:24:29.942953+05:30"},{"city":"Latur","state":"Maharashtra","latitude":18.4088,"longitude":76.5604,"temp":38.5,"humidity":14,"rain":0.0,"pressure":938.6,"uv_index":8.8,"wind_gusts":32.8,"aqi":142,"pm10":38.2,"pm2_5":31.3,"mosquito_risk":0,"arthritis_risk":5,"migraine_risk":10,"frizz_risk":0,"updated_at":"2026-04-25T16:24:29.942959+05:30"},{"city":"Nanded","state":"Maharashtra","latitude":19.1383,"longitude":77.3091,"temp":41.0,"humidity":13,"rain":0.0,"pressure":966.0,"uv_index":8.6,"wind_gusts":28.1,"aqi":124,"pm10":33.1,"pm2_5":23.3,"mosquito_risk":0,"arthritis_risk":5,"migraine_risk":10,"frizz_risk":0,"updated_at":"2026-04-25T16:24:29.942966+05:30"},{"city":"Gulbarga","state":"Karnataka","latitude":17.3297,"longitude":76.8343,"temp":40.0,"humidity":16,"rain":0.0,"pressure":956.6,"uv_index":9.15,"wind_gusts":26.6,"aqi":153,"pm10":50.2,"pm2_5":42.0,"mosquito_risk":0,"arthritis_risk":5,"migraine_risk":10,"frizz_risk":0,"updated_at":"2026-04-25T16:24:29.942973+05:30"},{"city":"Bidar","state":"Karnataka","latitude":17.9104,"longitude":77.5199,"temp":38.0,"humidity":19,"rain":0.0,"pressure":934.6,"uv_index":8.9,"wind_gusts":27.0,"aqi":141,"pm10":46.3,"pm2_5":38.5,"mosquito_risk":0,"arthritis_risk":5,"migraine_risk":10,"frizz_risk":0,"updated_at":"2026-04-25T16:24:29.942979+05:30"},{"city":"Hospet","state":"Karnataka","latitude":15.2689,"longitude":76.3909,"temp":38.7,"humidity":19,"rain":0.0,"pressure":953.5,"uv_index":9.3,"wind_gusts":27.4,"aqi":138,"pm10":42.3,"pm2_5":34.7,"mosquito_risk":0,"arthritis_risk":5,"migraine_risk":10,"frizz_risk":0,"updated_at":"2026-04-25T16:24:29.942986+05:30"},{"city":"Tirupur","state":"Tamil Nadu","latitude":11.1085,"longitude":77.3411,"temp":39.0,"humidity":22,"rain":0.0,"pressure":972.1,"uv_index":9.4,"wind_gusts":42.1,"aqi":54,"pm10":18.1,"pm2_5":14.6,"mosquito_risk":0,"arthritis_risk":5,"migraine_risk":10,"frizz_risk":0,"updated_at":"2026-04-25T16:24:29.942991+05:30"},{"city":"Alappuzha","state":"Kerala","latitude":9.4981,"longitude":76.3388,"temp":31.0,"humidity":74,"rain":0.0,"pressure":1005.4,"uv_index":8.05,"wind_gusts":36.7,"aqi":113,"pm10":22.5,"pm2_5":20.1,"mosquito_risk":3,"arthritis_risk":5,"migraine_risk":4,"frizz_risk":1,"updated_at":"2026-04-25T16:24:29.942997+05:30"},{"city":"Munnar","state":"Kerala","latitude":10.0889,"longitude":77.0595,"temp":25.2,"humidity":44,"rain":0.0,"pressure":857.4,"uv_index":9.15,"wind_gusts":31.7,"aqi":61,"pm10":11.4,"pm2_5":10.0,"mosquito_risk":4,"arthritis_risk":5,"migraine_risk":7,"frizz_risk":0,"updated_at":"2026-04-25T16:24:29.943004+05:30"},{"city":"Silchar","state":"Assam","latitude":24.8333,"longitude":92.7789,"temp":32.8,"humidity":62,"rain":0.0,"pressure":1001.7,"uv_index":8.75,"wind_gusts":21.6,"aqi":160,"pm10":113.4,"pm2_5":50.6,"mosquito_risk":3,"arthritis_risk":5,"migraine_risk":4,"frizz_risk":1,"updated_at":"2026-04-25T16:24:29.943011+05:30"},{"city":"Dibrugarh","state":"Assam","latitude":27.4728,"longitude":94.912,"temp":27.9,"humidity":70,"rain":0.0,"pressure":995.0,"uv_index":8.6,"wind_gusts":31.7,"aqi":102,"pm10":63.3,"pm2_5":33.1,"mosquito_risk":7,"arthritis_risk":5,"migraine_risk":7,"frizz_risk":1,"updated_at":"2026-04-25T16:24:29.943017+05:30"}]