[{"city":"Delhi","state":"Delhi","latitude":28.6139,"longitude":77.209,"temp":27.3,"humidity":84,"rain":0.0,"pressure":979.6,"uv_index":7.75,"wind_gusts":25.9,"aqi":203,"pm10":243.1,"pm2_5":135.5,"no2":112.8,"co":1546.0,"o3":11.0,"so2":48.7,"mosquito_risk":7,"arthritis_risk":5,"migraine_risk":7,"frizz_risk":1,"updated_at":"2026-06-13T23:39:31.315518+05:30"},{"city":"Mumbai","state":"Maharashtra","latitude":19.076,"longitude":72.8777,"temp":30.5,"humidity":72,"rain":0.0,"pressure":1008.8,"uv_index":6.5,"wind_gusts":51.5,"aqi":70,"pm10":48.9,"pm2_5":21.7,"no2":4.2,"co":164.0,"o3":49.0,"so2":3.3,"mosquito_risk":3,"arthritis_risk":0,"migraine_risk":4,"frizz_risk":1,"updated_at":"2026-06-13T23:39:31.315574+05:30"},{"city":"Bangalore","state":"Karnataka","latitude":12.9716,"longitude":77.5946,"temp":22.7,"humidity":88,"rain":0.0,"pressure":913.2,"uv_index":8.45,"wind_gusts":37.8,"aqi":46,"pm10":14.8,"pm2_5":11.7,"no2":21.6,"co":379.0,"o3":43.0,"so2":5.4,"mosquito_risk":3,"arthritis_risk":5,"migraine_risk":7,"frizz_risk":1,"updated_at":"2026-06-13T23:39:31.315590+05:30"},{"city":"Hyderabad","state":"Telangana","latitude":17.385,"longitude":78.4867,"temp":27.8,"humidity":73,"rain":0.0,"pressure":952.1,"uv_index":6.4,"wind_gusts":38.2,"aqi":85,"pm10":49.9,"pm2_5":30.2,"no2":19.9,"co":523.0,"o3":55.0,"so2":6.4,"mosquito_risk":7,"arthritis_risk":5,"migraine_risk":7,"frizz_risk":1,"updated_at":"2026-06-13T23:39:31.315600+05:30"},{"city":"Chennai","state":"Tamil Nadu","latitude":13.0827,"longitude":80.2707,"temp":29.2,"humidity":74,"rain":0.0,"pressure":1007.3,"uv_index":4.95,"wind_gusts":38.9,"aqi":71,"pm10":25.1,"pm2_5":18.7,"no2":11.4,"co":346.0,"o3":89.0,"so2":5.8,"mosquito_risk":7,"arthritis_risk":5,"migraine_risk":0,"frizz_risk":1,"updated_at":"2026-06-13T23:39:31.315608+05:30"},{"city":"Kolkata","state":"West Bengal","latitude":22.5726,"longitude":88.3639,"temp":27.3,"humidity":94,"rain":0.0,"pressure":1002.5,"uv_index":8.9,"wind_gusts":40.7,"aqi":117,"pm10":51.1,"pm2_5":47.6,"no2":18.8,"co":552.0,"o3":62.0,"so2":8.4,"mosquito_risk":7,"arthritis_risk":5,"migraine_risk":4,"frizz_risk":1,"updated_at":"2026-06-13T23:39:31.315616+05:30"},{"city":"Pune","state":"Maharashtra","latitude":18.5204,"longitude":73.8567,"temp":25.4,"humidity":81,"rain":0.0,"pressure":948.9,"uv_index":7.8,"wind_gusts":51.8,"aqi":58,"pm10":26.6,"pm2_5":14.7,"no2":9.2,"co":150.0,"o3":42.0,"so2":7.6,"mosquito_risk":7,"arthritis_risk":5,"migraine_risk":7,"frizz_risk":1,"updated_at":"2026-06-13T23:39:31.315623+05:30"},{"city":"Ahmedabad","state":"Gujarat","latitude":23.0225,"longitude":72.5714,"temp":32.6,"humidity":51,"rain":0.0,"pressure":999.6,"uv_index":8.05,"wind_gusts":43.9,"aqi":70,"pm10":36.3,"pm2_5":17.5,"no2":4.0,"co":128.0,"o3":56.0,"so2":2.9,"mosquito_risk":0,"arthritis_risk":5,"migraine_risk":7,"frizz_risk":1,"updated_at":"2026-06-13T23:39:31.315630+05:30"},{"city":"Jaipur","state":"Rajasthan","latitude":26.9124,"longitude":75.7873,"temp":28.3,"humidity":67,"rain":0.0,"pressure":956.7,"uv_index":8.2,"wind_gusts":28.4,"aqi":112,"pm10":75.9,"pm2_5":38.6,"no2":21.1,"co":654.0,"o3":49.0,"so2":7.9,"mosquito_risk":7,"arthritis_risk":5,"migraine_risk":7,"frizz_risk":1,"updated_at":"2026-06-13T23:39:31.315641+05:30"},{"city":"Lucknow","state":"Uttar Pradesh","latitude":26.8467,"longitude":80.9462,"temp":27.5,"humidity":85,"rain":0.0,"pressure":990.1,"uv_index":8.0,"wind_gusts":32.4,"aqi":138,"pm10":131.3,"pm2_5":77.3,"no2":48.0,"co":730.0,"o3":30.0,"so2":16.8,"mosquito_risk":7,"arthritis_risk":5,"migraine_risk":7,"frizz_risk":1,"updated_at":"2026-06-13T23:39:31.315648+05:30"},{"city":"Kanpur","state":"Uttar Pradesh","latitude":26.4499,"longitude":80.3319,"temp":28.8,"humidity":80,"rain":0.0,"pressure":988.3,"uv_index":8.3,"wind_gusts":52.2,"aqi":152,"pm10":228.2,"pm2_5":76.1,"no2":30.0,"co":676.0,"o3":51.0,"so2":10.2,"mosquito_risk":7,"arthritis_risk":5,"migraine_risk":7,"frizz_risk":1,"updated_at":"2026-06-13T23:39:31.315655+05:30"},{"city":"Chandigarh","state":"Chandigarh","latitude":30.7333,"longitude":76.7794,"temp":24.6,"humidity":77,"rain":0.0,"pressure":965.4,"uv_index":7.8,"wind_gusts":49.7,"aqi":103,"pm10":101.0,"pm2_5":57.6,"no2":44.2,"co":1408.0,"o3":56.0,"so2":14.0,"mosquito_risk":3,"arthritis_risk":5,"migraine_risk":7,"frizz_risk":1,"updated_at":"2026-06-13T23:39:31.315663+05:30"},{"city":"Srinagar","state":"Jammu and Kashmir","latitude":34.0837,"longitude":74.7973,"temp":14.4,"humidity":97,"rain":0.0,"pressure":840.6,"uv_index":7.4,"wind_gusts":20.9,"aqi":72,"pm10":50.1,"pm2_5":44.8,"no2":45.6,"co":971.0,"o3":29.0,"so2":2.9,"mosquito_risk":3,"arthritis_risk":10,"migraine_risk":7,"frizz_risk":0,"updated_at":"2026-06-13T23:39:31.315670+05:30"},{"city":"Jammu","state":"Jammu and Kashmir","latitude":32.7266,"longitude":74.857,"temp":25.2,"humidity":66,"rain":0.0,"pressure":969.4,"uv_index":8.4,"wind_gusts":38.2,"aqi":86,"pm10":78.5,"pm2_5":45.1,"no2":48.4,"co":702.0,"o3":39.0,"so2":5.9,"mosquito_risk":7,"arthritis_risk":5,"migraine_risk":7,"frizz_risk":1,"updated_at":"2026-06-13T23:39:31.315677+05:30"},{"city":"Amritsar","state":"Punjab","latitude":31.634,"longitude":74.8723,"temp":24.8,"humidity":84,"rain":0.0,"pressure":977.6,"uv_index":8.45,"wind_gusts":51.5,"aqi":112,"pm10":91.7,"pm2_5":48.5,"no2":27.5,"co":571.0,"o3":53.0,"so2":6.0,"mosquito_risk":3,"arthritis_risk":5,"migraine_risk":7,"frizz_risk":1,"updated_at":"2026-06-13T23:39:31.315683+05:30"},{"city":"Ludhiana","state":"Punjab","latitude":30.901,"longitude":75.8573,"temp":25.5,"humidity":85,"rain":0.0,"pressure":975.3,"uv_index":8.05,"wind_gusts":42.1,"aqi":129,"pm10":103.4,"pm2_5":59.4,"no2":34.2,"co":881.0,"o3":53.0,"so2":9.9,"mosquito_risk":7,"arthritis_risk":5,"migraine_risk":7,"frizz_risk":1,"updated_at":"2026-06-13T23:39:31.315690+05:30"},{"city":"Jalandhar","state":"Punjab","latitude":31.326,"longitude":75.5762,"temp":24.7,"humidity":80,"rain":0.0,"pressure":976.2,"uv_index":8.2,"wind_gusts":49.7,"aqi":111,"pm10":82.9,"pm2_5":46.6,"no2":28.9,"co":715.0,"o3":53.0,"so2":5.4,"mosquito_risk":3,"arthritis_risk":5,"migraine_risk":7,"frizz_risk":1,"updated_at":"2026-06-13T23:39:31.315697+05:30"},{"city":"Dehradun","state":"Uttarakhand","latitude":30.6284,"longitude":78.0322,"temp":13.7,"humidity":94,"rain":0.0,"pressure":826.3,"uv_index":7.65,"wind_gusts":30.6,"aqi":57,"pm10":32.6,"pm2_5":16.1,"no2":30.3,"co":202.0,"o3":42.0,"so2":0.9,"mosquito_risk":3,"arthritis_risk":10,"migraine_risk":7,"frizz_risk":0,"updated_at":"2026-06-13T23:39:31.315712+05:30"},{"city":"Shimla","state":"Himachal Pradesh","latitude":31.1048,"longitude":77.1734,"temp":11.6,"humidity":82,"rain":0.0,"pressure":780.3,"uv_index":7.4,"wind_gusts":27.7,"aqi":78,"pm10":43.1,"pm2_5":30.0,"no2":36.0,"co":327.0,"o3":33.0,"so2":0.3,"mosquito_risk":3,"arthritis_risk":10,"migraine_risk":7,"frizz_risk":0,"updated_at":"2026-06-13T23:39:31.315721+05:30"},{"city":"Manali","state":"Himachal Pradesh","latitude":32.2396,"longitude":77.1887,"temp":14.9,"humidity":64,"rain":0.0,"pressure":816.2,"uv_index":4.85,"wind_gusts":37.1,"aqi":64,"pm10":6.0,"pm2_5":5.4,"no2":24.4,"co":334.0,"o3":96.0,"so2":0.0,"mosquito_risk":3,"arthritis_risk":5,"migraine_risk":3,"frizz_risk":0,"updated_at":"2026-06-13T23:39:31.315727+05:30"},{"city":"Gurgaon","state":"Haryana","latitude":28.4595,"longitude":77.0266,"temp":27.1,"humidity":81,"rain":0.0,"pressure":978.1,"uv_index":7.85,"wind_gusts":27.7,"aqi":828,"pm10":451.7,"pm2_5":183.5,"no2":133.8,"co":1567.0,"o3":2.0,"so2":47.3,"mosquito_risk":7,"arthritis_risk":5,"migraine_risk":7,"frizz_risk":1,"updated_at":"2026-06-13T23:39:31.315733+05:30"},{"city":"Noida","state":"Uttar Pradesh","latitude":28.5355,"longitude":77.391,"temp":27.3,"humidity":84,"rain":0.0,"pressure":981.1,"uv_index":7.8,"wind_gusts":23.4,"aqi":828,"pm10":451.7,"pm2_5":183.5,"no2":133.8,"co":1288.0,"o3":2.0,"so2":47.3,"mosquito_risk":7,"arthritis_risk":5,"migraine_risk":7,"frizz_risk":1,"updated_at":"2026-06-13T23:39:31.315740+05:30"},{"city":"Ghaziabad","state":"Uttar Pradesh","latitude":28.6692,"longitude":77.4538,"temp":26.6,"humidity":87,"rain":0.0,"pressure":979.2,"uv_index":7.8,"wind_gusts":25.6,"aqi":161,"pm10":225.4,"pm2_5":121.1,"no2":78.6,"co":654.0,"o3":21.0,"so2":25.1,"mosquito_risk":7,"arthritis_risk":5,"migraine_risk":7,"frizz_risk":1,"updated_at":"2026-06-13T23:39:31.315746+05:30"},{"city":"Faridabad","state":"Haryana","latitude":28.4089,"longitude":77.3178,"temp":27.3,"humidity":84,"rain":0.0,"pressure":980.3,"uv_index":7.8,"wind_gusts":25.9,"aqi":828,"pm10":451.7,"pm2_5":183.5,"no2":133.8,"co":1176.0,"o3":2.0,"so2":47.3,"mosquito_risk":7,"arthritis_risk":5,"migraine_risk":7,"frizz_risk":1,"updated_at":"2026-06-13T23:39:31.315752+05:30"},{"city":"Meerut","state":"Uttar Pradesh","latitude":28.9845,"longitude":77.7064,"temp":26.2,"humidity":85,"rain":0.0,"pressure":978.0,"uv_index":7.7,"wind_gusts":35.3,"aqi":161,"pm10":225.4,"pm2_5":121.1,"no2":78.6,"co":648.0,"o3":21.0,"so2":25.1,"mosquito_risk":7,"arthritis_risk":5,"migraine_risk":7,"frizz_risk":1,"updated_at":"2026-06-13T23:39:31.315758+05:30"},{"city":"Agra","state":"Uttar Pradesh","latitude":27.1767,"longitude":78.0081,"temp":28.4,"humidity":72,"rain":0.0,"pressure":984.4,"uv_index":8.1,"wind_gusts":25.2,"aqi":621,"pm10":447.0,"pm2_5":138.8,"no2":78.1,"co":578.0,"o3":27.0,"so2":26.9,"mosquito_risk":7,"arthritis_risk":5,"migraine_risk":7,"frizz_risk":1,"updated_at":"2026-06-13T23:39:31.315764+05:30"},{"city":"Varanasi","state":"Uttar Pradesh","latitude":25.3176,"longitude":82.9739,"temp":28.6,"humidity":84,"rain":0.0,"pressure":994.4,"uv_index":8.4,"wind_gusts":61.6,"aqi":157,"pm10":109.0,"pm2_5":90.3,"no2":40.8,"co":790.0,"o3":69.0,"so2":21.5,"mosquito_risk":7,"arthritis_risk":5,"migraine_risk":7,"frizz_risk":1,"updated_at":"2026-06-13T23:39:31.315774+05:30"},{"city":"Prayagraj","state":"Uttar Pradesh","latitude":25.4358,"longitude":81.8463,"temp":28.8,"humidity":71,"rain":0.0,"pressure":992.7,"uv_index":8.7,"wind_gusts":46.8,"aqi":158,"pm10":119.7,"pm2_5":102.4,"no2":50.9,"co":410.0,"o3":49.0,"so2":23.7,"mosquito_risk":7,"arthritis_risk":5,"migraine_risk":7,"frizz_risk":1,"updated_at":"2026-06-13T23:39:31.315780+05:30"},{"city":"Gorakhpur","state":"Uttar Pradesh","latitude":26.7606,"longitude":83.3732,"temp":26.3,"humidity":82,"rain":0.0,"pressure":994.2,"uv_index":8.7,"wind_gusts":32.8,"aqi":147,"pm10":81.7,"pm2_5":70.5,"no2":35.0,"co":557.0,"o3":57.0,"so2":13.0,"mosquito_risk":7,"arthritis_risk":5,"migraine_risk":7,"frizz_risk":1,"updated_at":"2026-06-13T23:39:31.315789+05:30"},{"city":"Bareilly","state":"Uttar Pradesh","latitude":28.367,"longitude":79.4304,"temp":26.8,"humidity":87,"rain":0.0,"pressure":983.3,"uv_index":7.95,"wind_gusts":21.2,"aqi":152,"pm10":113.4,"pm2_5":63.6,"no2":25.6,"co":465.0,"o3":76.0,"so2":13.3,"mosquito_risk":7,"arthritis_risk":5,"migraine_risk":7,"frizz_risk":1,"updated_at":"2026-06-13T23:39:31.315795+05:30"},{"city":"Aligarh","state":"Uttar Pradesh","latitude":27.8974,"longitude":78.088,"temp":27.9,"humidity":73,"rain":0.0,"pressure":982.3,"uv_index":7.95,"wind_gusts":25.6,"aqi":261,"pm10":326.0,"pm2_5":132.7,"no2":91.2,"co":561.0,"o3":7.0,"so2":23.1,"mosquito_risk":7,"arthritis_risk":5,"migraine_risk":7,"frizz_risk":1,"updated_at":"2026-06-13T23:39:31.315801+05:30"},{"city":"Moradabad","state":"Uttar Pradesh","latitude":28.8386,"longitude":78.7733,"temp":26.6,"humidity":82,"rain":0.0,"pressure":980.3,"uv_index":7.95,"wind_gusts":44.6,"aqi":151,"pm10":112.0,"pm2_5":65.9,"no2":30.1,"co":548.0,"o3":62.0,"so2":9.7,"mosquito_risk":7,"arthritis_risk":5,"migraine_risk":7,"frizz_risk":1,"updated_at":"2026-06-13T23:39:31.315807+05:30"},{"city":"Saharanpur","state":"Uttar Pradesh","latitude":29.9637,"longitude":77.546,"temp":25.0,"humidity":85,"rain":0.0,"pressure":972.4,"uv_index":7.55,"wind_gusts":37.8,"aqi":135,"pm10":182.5,"pm2_5":105.9,"no2":69.3,"co":582.0,"o3":36.0,"so2":24.3,"mosquito_risk":7,"arthritis_risk":5,"migraine_risk":7,"frizz_risk":1,"updated_at":"2026-06-13T23:39:31.315813+05:30"},{"city":"Jhansi","state":"Uttar Pradesh","latitude":25.4484,"longitude":78.5685,"temp":30.6,"humidity":60,"rain":0.0,"pressure":975.1,"uv_index":8.5,"wind_gusts":29.9,"aqi":130,"pm10":32.2,"pm2_5":24.6,"no2":6.0,"co":402.0,"o3":77.0,"so2":4.1,"mosquito_risk":0,"arthritis_risk":5,"migraine_risk":7,"frizz_risk":1,"updated_at":"2026-06-13T23:39:34.544513+05:30"},{"city":"Surat","state":"Gujarat","latitude":21.1702,"longitude":72.8311,"temp":30.3,"humidity":76,"rain":0.0,"pressure":1005.6,"uv_index":7.6,"wind_gusts":54.7,"aqi":72,"pm10":42.8,"pm2_5":23.8,"no2":12.0,"co":196.0,"o3":40.0,"so2":19.9,"mosquito_risk":3,"arthritis_risk":5,"migraine_risk":4,"frizz_risk":1,"updated_at":"2026-06-13T23:39:34.544549+05:30"},{"city":"Vadodara","state":"Gujarat","latitude":22.3072,"longitude":73.1812,"temp":30.6,"humidity":74,"rain":0.0,"pressure":1002.2,"uv_index":8.0,"wind_gusts":50.8,"aqi":69,"pm10":35.4,"pm2_5":24.0,"no2":19.6,"co":200.0,"o3":28.0,"so2":17.8,"mosquito_risk":3,"arthritis_risk":5,"migraine_risk":4,"frizz_risk":1,"updated_at":"2026-06-13T23:39:34.544560+05:30"},{"city":"Rajkot","state":"Gujarat","latitude":22.3039,"longitude":70.8022,"temp":29.7,"humidity":69,"rain":0.0,"pressure":992.9,"uv_index":7.55,"wind_gusts":53.3,"aqi":66,"pm10":41.0,"pm2_5":18.1,"no2":5.1,"co":105.0,"o3":48.0,"so2":5.6,"mosquito_risk":7,"arthritis_risk":5,"migraine_risk":7,"frizz_risk":1,"updated_at":"2026-06-13T23:39:34.544569+05:30"},{"city":"Thane","state":"Maharashtra","latitude":19.2183,"longitude":72.9781,"temp":30.4,"humidity":71,"rain":0.0,"pressure":1008.1,"uv_index":6.65,"wind_gusts":42.1,"aqi":70,"pm10":48.9,"pm2_5":21.7,"no2":4.2,"co":156.0,"o3":49.0,"so2":3.3,"mosquito_risk":3,"arthritis_risk":0,"migraine_risk":4,"frizz_risk":1,"updated_at":"2026-06-13T23:39:34.544577+05:30"},{"city":"Nagpur","state":"Maharashtra","latitude":21.1458,"longitude":79.0882,"temp":28.9,"humidity":80,"rain":0.0,"pressure":970.9,"uv_index":8.9,"wind_gusts":59.0,"aqi":106,"pm10":65.4,"pm2_5":47.1,"no2":42.8,"co":272.0,"o3":17.0,"so2":17.2,"mosquito_risk":7,"arthritis_risk":5,"migraine_risk":7,"frizz_risk":1,"updated_at":"2026-06-13T23:39:34.544585+05:30"},{"city":"Nashik","state":"Maharashtra","latitude":19.9975,"longitude":73.7898,"temp":25.4,"humidity":84,"rain":0.0,"pressure":945.7,"uv_index":8.0,"wind_gusts":52.9,"aqi":62,"pm10":27.3,"pm2_5":13.6,"no2":4.1,"co":128.0,"o3":46.0,"so2":1.5,"mosquito_risk":7,"arthritis_risk":5,"migraine_risk":7,"frizz_risk":1,"updated_at":"2026-06-13T23:39:34.544593+05:30"},{"city":"Aurangabad","state":"Maharashtra","latitude":19.8762,"longitude":75.3433,"temp":27.7,"humidity":67,"rain":0.0,"pressure":944.1,"uv_index":8.95,"wind_gusts":49.3,"aqi":72,"pm10":34.8,"pm2_5":18.3,"no2":5.7,"co":125.0,"o3":55.0,"so2":5.4,"mosquito_risk":7,"arthritis_risk":5,"migraine_risk":7,"frizz_risk":1,"updated_at":"2026-06-13T23:39:34.544601+05:30"},{"city":"Solapur","state":"Maharashtra","latitude":17.6599,"longitude":75.9064,"temp":29.6,"humidity":58,"rain":0.0,"pressure":957.1,"uv_index":7.8,"wind_gusts":50.4,"aqi":62,"pm10":17.3,"pm2_5":10.9,"no2":4.8,"co":125.0,"o3":57.0,"so2":2.6,"mosquito_risk":4,"arthritis_risk":5,"migraine_risk":7,"frizz_risk":1,"updated_at":"2026-06-13T23:39:34.544609+05:30"},{"city":"Kolhapur","state":"Maharashtra","latitude":16.705,"longitude":74.2433,"temp":24.7,"humidity":90,"rain":0.0,"pressure":949.1,"uv_index":7.7,"wind_gusts":49.7,"aqi":49,"pm10":16.9,"pm2_5":10.1,"no2":5.7,"co":169.0,"o3":43.0,"so2":2.5,"mosquito_risk":3,"arthritis_risk":5,"migraine_risk":7,"frizz_risk":1,"updated_at":"2026-06-13T23:39:34.544616+05:30"},{"city":"Goa","state":"Goa","latitude":15.2993,"longitude":74.124,"temp":27.9,"humidity":81,"rain":0.0,"pressure":999.4,"uv_index":6.9,"wind_gusts":32.0,"aqi":64,"pm10":42.7,"pm2_5":23.3,"no2":6.9,"co":269.0,"o3":46.0,"so2":2.2,"mosquito_risk":7,"arthritis_risk":5,"migraine_risk":7,"frizz_risk":1,"updated_at":"2026-06-13T23:39:34.544624+05:30"},{"city":"Jodhpur","state":"Rajasthan","latitude":26.2389,"longitude":73.0243,"temp":33.5,"humidity":45,"rain":0.0,"pressure":979.4,"uv_index":8.4,"wind_gusts":40.3,"aqi":145,"pm10":215.1,"pm2_5":52.6,"no2":8.1,"co":289.0,"o3":52.0,"so2":2.6,"mosquito_risk":0,"arthritis_risk":5,"migraine_risk":7,"frizz_risk":1,"updated_at":"2026-06-13T23:39:34.544632+05:30"},{"city":"Udaipur","state":"Rajasthan","latitude":24.5854,"longitude":73.7125,"temp":30.1,"humidity":53,"rain":0.0,"pressure":944.4,"uv_index":8.8,"wind_gusts":38.9,"aqi":76,"pm10":55.1,"pm2_5":24.4,"no2":5.7,"co":147.0,"o3":63.0,"so2":2.8,"mosquito_risk":0,"arthritis_risk":5,"migraine_risk":7,"frizz_risk":1,"updated_at":"2026-06-13T23:39:34.544639+05:30"},{"city":"Kota","state":"Rajasthan","latitude":25.2138,"longitude":75.8648,"temp":27.7,"humidity":74,"rain":0.0,"pressure":976.8,"uv_index":8.35,"wind_gusts":49.7,"aqi":93,"pm10":82.9,"pm2_5":41.9,"no2":13.7,"co":215.0,"o3":57.0,"so2":10.1,"mosquito_risk":7,"arthritis_risk":5,"migraine_risk":7,"frizz_risk":1,"updated_at":"2026-06-13T23:39:34.544647+05:30"},{"city":"Bikaner","state":"Rajasthan","latitude":28.0229,"longitude":73.3119,"temp":31.4,"humidity":49,"rain":0.0,"pressure":977.7,"uv_index":8.5,"wind_gusts":33.5,"aqi":154,"pm10":122.9,"pm2_5":55.1,"no2":3.6,"co":171.0,"o3":78.0,"so2":3.5,"mosquito_risk":0,"arthritis_risk":5,"migraine_risk":7,"frizz_risk":1,"updated_at":"2026-06-13T23:39:34.544654+05:30"},{"city":"Ajmer","state":"Rajasthan","latitude":26.4499,"longitude":74.6399,"temp":26.8,"humidity":68,"rain":0.0,"pressure":951.5,"uv_index":8.35,"wind_gusts":49.7,"aqi":96,"pm10":80.8,"pm2_5":34.1,"no2":9.5,"co":627.0,"o3":64.0,"so2":2.9,"mosquito_risk":7,"arthritis_risk":5,"migraine_risk":7,"frizz_risk":1,"updated_at":"2026-06-13T23:39:34.544661+05:30"},{"city":"Gwalior","state":"Madhya Pradesh","latitude":26.2183,"longitude":78.1828,"temp":29.1,"humidity":68,"rain":0.0,"pressure":980.1,"uv_index":8.3,"wind_gusts":21.6,"aqi":159,"pm10":142.0,"pm2_5":58.0,"no2":20.6,"co":391.0,"o3":56.0,"so2":7.9,"mosquito_risk":7,"arthritis_risk":5,"migraine_risk":7,"frizz_risk":1,"updated_at":"2026-06-13T23:39:34.544668+05:30"},{"city":"Indore","state":"Madhya Pradesh","latitude":22.7196,"longitude":75.8577,"temp":31.2,"humidity":47,"rain":0.0,"pressure":946.7,"uv_index":8.6,"wind_gusts":44.6,"aqi":80,"pm10":44.4,"pm2_5":25.3,"no2":5.4,"co":214.0,"o3":86.0,"so2":5.7,"mosquito_risk":0,"arthritis_risk":5,"migraine_risk":7,"frizz_risk":1,"updated_at":"2026-06-13T23:39:34.544676+05:30"},{"city":"Bhopal","state":"Madhya Pradesh","latitude":23.2599,"longitude":77.4126,"temp":23.5,"humidity":95,"rain":0.1,"pressure":951.6,"uv_index":8.65,"wind_gusts":37.1,"aqi":97,"pm10":69.4,"pm2_5":34.8,"no2":9.0,"co":412.0,"o3":65.0,"so2":4.3,"mosquito_risk":6,"arthritis_risk":5,"migraine_risk":7,"frizz_risk":1,"updated_at":"2026-06-13T23:39:34.544682+05:30"},{"city":"Jabalpur","state":"Madhya Pradesh","latitude":23.1815,"longitude":79.9864,"temp":27.3,"humidity":71,"rain":0.0,"pressure":959.2,"uv_index":8.6,"wind_gusts":26.6,"aqi":99,"pm10":46.6,"pm2_5":29.2,"no2":6.4,"co":322.0,"o3":87.0,"so2":3.5,"mosquito_risk":7,"arthritis_risk":5,"migraine_risk":7,"frizz_risk":1,"updated_at":"2026-06-13T23:39:34.544689+05:30"},{"city":"Ujjain","state":"Madhya Pradesh","latitude":23.1765,"longitude":75.7885,"temp":30.8,"humidity":49,"rain":0.0,"pressure":952.0,"uv_index":8.55,"wind_gusts":45.4,"aqi":79,"pm10":48.1,"pm2_5":27.3,"no2":4.0,"co":314.0,"o3":86.0,"so2":6.2,"mosquito_risk":0,"arthritis_risk":5,"migraine_risk":7,"frizz_risk":1,"updated_at":"2026-06-13T23:39:34.544697+05:30"},{"city":"Visakhapatnam","state":"Andhra Pradesh","latitude":17.6868,"longitude":83.2185,"temp":29.8,"humidity":82,"rain":0.0,"pressure":1001.0,"uv_index":9.0,"wind_gusts":43.6,"aqi":104,"pm10":35.4,"pm2_5":28.8,"no2":26.0,"co":391.0,"o3":85.0,"so2":37.0,"mosquito_risk":7,"arthritis_risk":5,"migraine_risk":4,"frizz_risk":1,"updated_at":"2026-06-13T23:39:34.544703+05:30"},{"city":"Vijayawada","state":"Andhra Pradesh","latitude":16.5062,"longitude":80.648,"temp":29.5,"humidity":77,"rain":0.0,"pressure":1001.2,"uv_index":2.5,"wind_gusts":32.0,"aqi":85,"pm10":49.1,"pm2_5":37.1,"no2":14.6,"co":435.0,"o3":62.0,"so2":6.1,"mosquito_risk":7,"arthritis_risk":5,"migraine_risk":0,"frizz_risk":1,"updated_at":"2026-06-13T23:39:34.544710+05:30"},{"city":"Guntur","state":"Andhra Pradesh","latitude":16.3067,"longitude":80.4365,"temp":29.9,"humidity":71,"rain":0.0,"pressure":1002.4,"uv_index":3.45,"wind_gusts":33.8,"aqi":86,"pm10":54.5,"pm2_5":41.1,"no2":21.7,"co":416.0,"o3":45.0,"so2":6.4,"mosquito_risk":7,"arthritis_risk":5,"migraine_risk":0,"frizz_risk":1,"updated_at":"2026-06-13T23:39:34.544717+05:30"},{"city":"Nellore","state":"Andhra Pradesh","latitude":14.4426,"longitude":79.9865,"temp":29.4,"humidity":71,"rain":0.0,"pressure":1005.0,"uv_index":8.0,"wind_gusts":43.2,"aqi":61,"pm10":29.6,"pm2_5":20.1,"no2":9.3,"co":214.0,"o3":81.0,"so2":5.6,"mosquito_risk":7,"arthritis_risk":5,"migraine_risk":4,"frizz_risk":1,"updated_at":"2026-06-13T23:39:34.544725+05:30"},{"city":"Kurnool","state":"Andhra Pradesh","latitude":15.8281,"longitude":78.0373,"temp":30.1,"humidity":56,"rain":0.0,"pressure":976.7,"uv_index":2.8,"wind_gusts":33.8,"aqi":73,"pm10":38.6,"pm2_5":22.4,"no2":9.4,"co":225.0,"o3":62.0,"so2":3.3,"mosquito_risk":0,"arthritis_risk":5,"migraine_risk":3,"frizz_risk":1,"updated_at":"2026-06-13T23:39:34.544732+05:30"},{"city":"Kakinada","state":"Andhra Pradesh","latitude":16.9891,"longitude":82.2475,"temp":29.0,"humidity":75,"rain":0.0,"pressure":1005.3,"uv_index":9.0,"wind_gusts":33.8,"aqi":73,"pm10":31.5,"pm2_5":23.5,"no2":4.9,"co":548.0,"o3":102.0,"so2":3.5,"mosquito_risk":7,"arthritis_risk":5,"migraine_risk":4,"frizz_risk":1,"updated_at":"2026-06-13T23:39:34.544739+05:30"},{"city":"Tirupati","state":"Andhra Pradesh","latitude":13.6288,"longitude":79.4192,"temp":27.1,"humidity":77,"rain":0.0,"pressure":991.3,"uv_index":8.1,"wind_gusts":31.3,"aqi":56,"pm10":19.2,"pm2_5":15.4,"no2":13.4,"co":188.0,"o3":56.0,"so2":1.6,"mosquito_risk":7,"arthritis_risk":5,"migraine_risk":7,"frizz_risk":1,"updated_at":"2026-06-13T23:39:34.544746+05:30"},{"city":"Warangal","state":"Telangana","latitude":17.9689,"longitude":79.5941,"temp":28.0,"humidity":73,"rain":0.0,"pressure":977.0,"uv_index":4.3,"wind_gusts":40.7,"aqi":102,"pm10":74.7,"pm2_5":55.2,"no2":25.5,"co":297.0,"o3":39.0,"so2":6.8,"mosquito_risk":7,"arthritis_risk":5,"migraine_risk":3,"frizz_risk":1,"updated_at":"2026-06-13T23:39:34.544753+05:30"},{"city":"Nizamabad","state":"Telangana","latitude":18.6725,"longitude":78.0941,"temp":27.2,"humidity":71,"rain":0.0,"pressure":962.7,"uv_index":8.8,"wind_gusts":41.0,"aqi":93,"pm10":102.4,"pm2_5":57.6,"no2":31.8,"co":530.0,"o3":45.0,"so2":8.3,"mosquito_risk":7,"arthritis_risk":5,"migraine_risk":7,"frizz_risk":1,"updated_at":"2026-06-13T23:39:34.544760+05:30"},{"city":"Mysore","state":"Karnataka","latitude":12.2958,"longitude":76.6396,"temp":22.5,"humidity":89,"rain":0.0,"pressure":930.6,"uv_index":7.6,"wind_gusts":39.6,"aqi":36,"pm10":12.7,"pm2_5":9.8,"no2":14.2,"co":156.0,"o3":42.0,"so2":2.6,"mosquito_risk":3,"arthritis_risk":5,"migraine_risk":7,"frizz_risk":1,"updated_at":"2026-06-13T23:39:34.544767+05:30"},{"city":"Mangalore","state":"Karnataka","latitude":12.9141,"longitude":74.856,"temp":26.3,"humidity":91,"rain":0.0,"pressure":1009.6,"uv_index":8.55,"wind_gusts":28.4,"aqi":47,"pm10":27.2,"pm2_5":14.9,"no2":6.9,"co":679.0,"o3":43.0,"so2":3.1,"mosquito_risk":7,"arthritis_risk":0,"migraine_risk":4,"frizz_risk":1,"updated_at":"2026-06-13T23:39:34.544773+05:30"},{"city":"Hubli-Dharwad","state":"Karnataka","latitude":15.3647,"longitude":75.124,"temp":23.7,"humidity":89,"rain":0.0,"pressure":941.9,"uv_index":7.3,"wind_gusts":49.7,"aqi":35,"pm10":13.4,"pm2_5":8.8,"no2":8.2,"co":146.0,"o3":38.0,"so2":1.9,"mosquito_risk":3,"arthritis_risk":5,"migraine_risk":7,"frizz_risk":1,"updated_at":"2026-06-13T23:39:34.544781+05:30"},{"city":"Belgaum","state":"Karnataka","latitude":15.8497,"longitude":74.4977,"temp":22.5,"humidity":96,"rain":0.0,"pressure":926.6,"uv_index":7.9,"wind_gusts":49.3,"aqi":39,"pm10":20.3,"pm2_5":11.3,"no2":5.3,"co":137.0,"o3":43.0,"so2":1.6,"mosquito_risk":3,"arthritis_risk":5,"migraine_risk":7,"frizz_risk":1,"updated_at":"2026-06-13T23:39:37.791348+05:30"},{"city":"Coimbatore","state":"Tamil Nadu","latitude":11.0168,"longitude":76.9558,"temp":23.3,"humidity":97,"rain":0.0,"pressure":963.8,"uv_index":8.75,"wind_gusts":49.3,"aqi":31,"pm10":15.1,"pm2_5":10.5,"no2":11.3,"co":217.0,"o3":37.0,"so2":3.1,"mosquito_risk":3,"arthritis_risk":5,"migraine_risk":7,"frizz_risk":1,"updated_at":"2026-06-13T23:39:37.791385+05:30"},{"city":"Madurai","state":"Tamil Nadu","latitude":9.9252,"longitude":78.1198,"temp":29.2,"humidity":59,"rain":0.0,"pressure":994.7,"uv_index":8.4,"wind_gusts":44.3,"aqi":61,"pm10":29.6,"pm2_5":24.6,"no2":38.9,"co":168.0,"o3":11.0,"so2":7.4,"mosquito_risk":4,"arthritis_risk":5,"migraine_risk":7,"frizz_risk":1,"updated_at":"2026-06-13T23:39:37.791397+05:30"},{"city":"Trichy","state":"Tamil Nadu","latitude":10.7905,"longitude":78.7047,"temp":27.4,"humidity":77,"rain":0.0,"pressure":1001.2,"uv_index":8.35,"wind_gusts":55.4,"aqi":52,"pm10":24.0,"pm2_5":17.8,"no2":16.3,"co":152.0,"o3":50.0,"so2":4.5,"mosquito_risk":7,"arthritis_risk":5,"migraine_risk":4,"frizz_risk":1,"updated_at":"2026-06-13T23:39:37.791406+05:30"},{"city":"Salem","state":"Tamil Nadu","latitude":11.6643,"longitude":78.146,"temp":25.1,"humidity":93,"rain":0.0,"pressure":979.3,"uv_index":7.35,"wind_gusts":32.8,"aqi":55,"pm10":22.3,"pm2_5":16.3,"no2":17.4,"co":476.0,"o3":48.0,"so2":6.4,"mosquito_risk":7,"arthritis_risk":5,"migraine_risk":7,"frizz_risk":1,"updated_at":"2026-06-13T23:39:37.791415+05:30"},{"city":"Tirunelveli","state":"Tamil Nadu","latitude":8.7139,"longitude":77.7567,"temp":28.2,"humidity":68,"rain":0.0,"pressure":1005.8,"uv_index":8.4,"wind_gusts":39.2,"aqi":30,"pm10":13.8,"pm2_5":9.1,"no2":7.8,"co":189.0,"o3":42.0,"so2":2.0,"mosquito_risk":7,"arthritis_risk":5,"migraine_risk":4,"frizz_risk":1,"updated_at":"2026-06-13T23:39:37.791424+05:30"},{"city":"Vellore","state":"Tamil Nadu","latitude":12.9165,"longitude":79.1325,"temp":27.2,"humidity":75,"rain":0.0,"pressure":984.9,"uv_index":8.35,"wind_gusts":40.7,"aqi":52,"pm10":21.5,"pm2_5":17.8,"no2":15.9,"co":222.0,"o3":54.0,"so2":3.2,"mosquito_risk":7,"arthritis_risk":5,"migraine_risk":7,"frizz_risk":1,"updated_at":"2026-06-13T23:39:37.791432+05:30"},{"city":"Erode","state":"Tamil Nadu","latitude":11.341,"longitude":77.7172,"temp":25.9,"humidity":81,"rain":0.0,"pressure":991.2,"uv_index":7.95,"wind_gusts":36.7,"aqi":52,"pm10":20.3,"pm2_5":14.8,"no2":15.9,"co":176.0,"o3":41.0,"so2":3.7,"mosquito_risk":7,"arthritis_risk":5,"migraine_risk":7,"frizz_risk":1,"updated_at":"2026-06-13T23:39:37.791439+05:30"},{"city":"Kochi","state":"Kerala","latitude":9.9312,"longitude":76.2673,"temp":24.9,"humidity":98,"rain":0.1,"pressure":1012.6,"uv_index":7.6,"wind_gusts":28.8,"aqi":62,"pm10":29.7,"pm2_5":21.4,"no2":21.9,"co":205.0,"o3":24.0,"so2":5.5,"mosquito_risk":6,"arthritis_risk":0,"migraine_risk":4,"frizz_risk":1,"updated_at":"2026-06-13T23:39:37.791448+05:30"},{"city":"Thiruvananthapuram","state":"Kerala","latitude":8.5241,"longitude":76.9366,"temp":24.4,"humidity":98,"rain":0.1,"pressure":1012.2,"uv_index":8.05,"wind_gusts":41.4,"aqi":29,"pm10":15.5,"pm2_5":7.6,"no2":2.5,"co":136.0,"o3":57.0,"so2":1.1,"mosquito_risk":6,"arthritis_risk":0,"migraine_risk":4,"frizz_risk":1,"updated_at":"2026-06-13T23:39:37.791456+05:30"},{"city":"Kozhikode","state":"Kerala","latitude":11.2588,"longitude":75.7804,"temp":24.8,"humidity":97,"rain":0.0,"pressure":1011.2,"uv_index":8.4,"wind_gusts":34.2,"aqi":35,"pm10":22.1,"pm2_5":8.9,"no2":1.2,"co":674.0,"o3":66.0,"so2":0.9,"mosquito_risk":3,"arthritis_risk":0,"migraine_risk":4,"frizz_risk":1,"updated_at":"2026-06-13T23:39:37.791463+05:30"},{"city":"Thrissur","state":"Kerala","latitude":10.5276,"longitude":76.2144,"temp":23.7,"humidity":99,"rain":0.1,"pressure":1011.1,"uv_index":7.95,"wind_gusts":31.3,"aqi":63,"pm10":29.9,"pm2_5":22.2,"no2":16.3,"co":299.0,"o3":28.0,"so2":4.0,"mosquito_risk":6,"arthritis_risk":0,"migraine_risk":4,"frizz_risk":1,"updated_at":"2026-06-13T23:39:37.791488+05:30"},{"city":"Kannur","state":"Kerala","latitude":11.8745,"longitude":75.3704,"temp":25.8,"humidity":93,"rain":0.0,"pressure":1010.4,"uv_index":8.55,"wind_gusts":31.0,"aqi":44,"pm10":31.1,"pm2_5":19.9,"no2":20.3,"co":442.0,"o3":31.0,"so2":4.2,"mosquito_risk":7,"arthritis_risk":0,"migraine_risk":4,"frizz_risk":1,"updated_at":"2026-06-13T23:39:37.791495+05:30"},{"city":"Patna","state":"Bihar","latitude":25.5941,"longitude":85.1376,"temp":28.0,"humidity":83,"rain":0.0,"pressure":997.3,"uv_index":8.85,"wind_gusts":45.4,"aqi":159,"pm10":117.6,"pm2_5":104.5,"no2":48.1,"co":601.0,"o3":56.0,"so2":25.6,"mosquito_risk":7,"arthritis_risk":5,"migraine_risk":7,"frizz_risk":1,"updated_at":"2026-06-13T23:39:37.791502+05:30"},{"city":"Gaya","state":"Bihar","latitude":24.7914,"longitude":85.0002,"temp":27.7,"humidity":82,"rain":0.0,"pressure":990.7,"uv_index":8.9,"wind_gusts":57.2,"aqi":164,"pm10":154.1,"pm2_5":134.1,"no2":57.1,"co":494.0,"o3":64.0,"so2":29.3,"mosquito_risk":7,"arthritis_risk":5,"migraine_risk":7,"frizz_risk":1,"updated_at":"2026-06-13T23:39:37.791510+05:30"},{"city":"Muzaffarpur","state":"Bihar","latitude":26.1209,"longitude":85.3647,"temp":28.1,"humidity":79,"rain":0.0,"pressure":997.1,"uv_index":8.85,"wind_gusts":23.0,"aqi":158,"pm10":127.1,"pm2_5":114.1,"no2":50.0,"co":550.0,"o3":59.0,"so2":25.3,"mosquito_risk":7,"arthritis_risk":5,"migraine_risk":7,"frizz_risk":1,"updated_at":"2026-06-13T23:39:37.791516+05:30"},{"city":"Bhagalpur","state":"Bihar","latitude":25.2425,"longitude":87.0117,"temp":28.6,"humidity":84,"rain":0.0,"pressure":997.3,"uv_index":7.9,"wind_gusts":40.0,"aqi":158,"pm10":73.6,"pm2_5":68.0,"no2":15.6,"co":441.0,"o3":108.0,"so2":27.0,"mosquito_risk":7,"arthritis_risk":5,"migraine_risk":7,"frizz_risk":1,"updated_at":"2026-06-13T23:39:37.791522+05:30"},{"city":"Ranchi","state":"Jharkhand","latitude":23.3441,"longitude":85.3096,"temp":24.1,"humidity":88,"rain":0.0,"pressure":934.6,"uv_index":9.3,"wind_gusts":30.6,"aqi":150,"pm10":71.7,"pm2_5":57.4,"no2":13.5,"co":302.0,"o3":82.0,"so2":6.3,"mosquito_risk":3,"arthritis_risk":5,"migraine_risk":7,"frizz_risk":1,"updated_at":"2026-06-13T23:39:37.791529+05:30"},{"city":"Jamshedpur","state":"Jharkhand","latitude":22.8046,"longitude":86.2029,"temp":27.6,"humidity":77,"rain":0.0,"pressure":987.6,"uv_index":9.05,"wind_gusts":46.1,"aqi":157,"pm10":96.2,"pm2_5":81.3,"no2":27.9,"co":985.0,"o3":66.0,"so2":24.5,"mosquito_risk":7,"arthritis_risk":5,"migraine_risk":7,"frizz_risk":1,"updated_at":"2026-06-13T23:39:37.791537+05:30"},{"city":"Dhanbad","state":"Jharkhand","latitude":23.7957,"longitude":86.4304,"temp":26.4,"humidity":94,"rain":0.0,"pressure":976.4,"uv_index":8.9,"wind_gusts":34.6,"aqi":170,"pm10":117.3,"pm2_5":105.2,"no2":61.1,"co":272.0,"o3":37.0,"so2":174.2,"mosquito_risk":7,"arthritis_risk":5,"migraine_risk":7,"frizz_risk":1,"updated_at":"2026-06-13T23:39:37.791544+05:30"},{"city":"Bokaro","state":"Jharkhand","latitude":23.6693,"longitude":86.1511,"temp":26.4,"humidity":93,"rain":0.0,"pressure":980.3,"uv_index":8.9,"wind_gusts":29.5,"aqi":166,"pm10":107.8,"pm2_5":91.7,"no2":41.9,"co":403.0,"o3":53.0,"so2":126.9,"mosquito_risk":7,"arthritis_risk":5,"migraine_risk":7,"frizz_risk":1,"updated_at":"2026-06-13T23:39:37.791551+05:30"},{"city":"Bhubaneswar","state":"Odisha","latitude":20.2961,"longitude":85.8245,"temp":28.7,"humidity":90,"rain":0.0,"pressure":999.6,"uv_index":8.8,"wind_gusts":41.4,"aqi":119,"pm10":46.0,"pm2_5":41.3,"no2":16.9,"co":639.0,"o3":94.0,"so2":9.4,"mosquito_risk":7,"arthritis_risk":5,"migraine_risk":7,"frizz_risk":1,"updated_at":"2026-06-13T23:39:37.791558+05:30"},{"city":"Cuttack","state":"Odisha","latitude":20.4625,"longitude":85.8828,"temp":28.7,"humidity":90,"rain":0.0,"pressure":1001.4,"uv_index":8.9,"wind_gusts":38.5,"aqi":119,"pm10":46.0,"pm2_5":41.3,"no2":16.9,"co":898.0,"o3":94.0,"so2":9.4,"mosquito_risk":7,"arthritis_risk":5,"migraine_risk":4,"frizz_risk":1,"updated_at":"2026-06-13T23:39:37.791566+05:30"},{"city":"Rourkela","state":"Odisha","latitude":22.2604,"longitude":84.8536,"temp":26.8,"humidity":93,"rain":0.0,"pressure":982.0,"uv_index":9.0,"wind_gusts":46.8,"aqi":145,"pm10":82.4,"pm2_5":72.2,"no2":29.6,"co":908.0,"o3":57.0,"so2":21.0,"mosquito_risk":7,"arthritis_risk":5,"migraine_risk":7,"frizz_risk":1,"updated_at":"2026-06-13T23:39:37.791573+05:30"},{"city":"Raipur","state":"Chhattisgarh","latitude":21.2514,"longitude":81.6296,"temp":31.4,"humidity":53,"rain":0.0,"pressure":971.9,"uv_index":8.95,"wind_gusts":40.0,"aqi":136,"pm10":83.6,"pm2_5":56.8,"no2":41.3,"co":533.0,"o3":53.0,"so2":58.9,"mosquito_risk":0,"arthritis_risk":5,"migraine_risk":7,"frizz_risk":1,"updated_at":"2026-06-13T23:39:37.791579+05:30"},{"city":"Bhilai","state":"Chhattisgarh","latitude":21.1938,"longitude":81.3509,"temp":30.0,"humidity":60,"rain":0.0,"pressure":972.4,"uv_index":8.95,"wind_gusts":43.2,"aqi":128,"pm10":77.5,"pm2_5":51.0,"no2":30.0,"co":665.0,"o3":67.0,"so2":41.8,"mosquito_risk":4,"arthritis_risk":5,"migraine_risk":7,"frizz_risk":1,"updated_at":"2026-06-13T23:39:37.791587+05:30"},{"city":"Guwahati","state":"Assam","latitude":26.1158,"longitude":91.7086,"temp":25.0,"humidity":97,"rain":0.0,"pressure":998.7,"uv_index":8.8,"wind_gusts":26.6,"aqi":75,"pm10":28.1,"pm2_5":24.0,"no2":10.0,"co":370.0,"o3":60.0,"so2":2.2,"mosquito_risk":7,"arthritis_risk":5,"migraine_risk":7,"frizz_risk":1,"updated_at":"2026-06-13T23:39:37.791595+05:30"},{"city":"Agartala","state":"Tripura","latitude":23.8315,"longitude":91.2868,"temp":26.3,"humidity":92,"rain":0.0,"pressure":1003.5,"uv_index":8.85,"wind_gusts":27.7,"aqi":76,"pm10":25.1,"pm2_5":21.5,"no2":15.1,"co":227.0,"o3":43.0,"so2":2.4,"mosquito_risk":7,"arthritis_risk":5,"migraine_risk":4,"frizz_risk":1,"updated_at":"2026-06-13T23:39:37.791603+05:30"},{"city":"Shillong","state":"Meghalaya","latitude":25.5788,"longitude":91.8933,"temp":19.4,"humidity":95,"rain":0.0,"pressure":855.3,"uv_index":6.75,"wind_gusts":19.1,"aqi":56,"pm10":6.0,"pm2_5":5.0,"no2":5.8,"co":234.0,"o3":87.0,"so2":2.4,"mosquito_risk":3,"arthritis_risk":10,"migraine_risk":7,"frizz_risk":1,"updated_at":"2026-06-13T23:39:37.791611+05:30"},{"city":"Imphal","state":"Manipur","latitude":24.817,"longitude":93.9368,"temp":22.1,"humidity":98,"rain":0.0,"pressure":920.9,"uv_index":7.95,"wind_gusts":27.0,"aqi":32,"pm10":19.9,"pm2_5":16.9,"no2":11.5,"co":490.0,"o3":56.0,"so2":2.6,"mosquito_risk":3,"arthritis_risk":5,"migraine_risk":7,"frizz_risk":1,"updated_at":"2026-06-13T23:39:37.791618+05:30"},{"city":"Aizawl","state":"Mizoram","latitude":23.7271,"longitude":92.7176,"temp":19.2,"humidity":97,"rain":0.0,"pressure":890.4,"uv_index":8.85,"wind_gusts":25.2,"aqi":33,"pm10":4.8,"pm2_5":3.8,"no2":3.8,"co":180.0,"o3":55.0,"so2":0.6,"mosquito_risk":3,"arthritis_risk":10,"migraine_risk":7,"frizz_risk":1,"updated_at":"2026-06-13T23:39:37.791626+05:30"},{"city":"Kohima","state":"Nagaland","latitude":25.6701,"longitude":94.1077,"temp":19.2,"humidity":95,"rain":0.0,"pressure":853.0,"uv_index":2.8,"wind_gusts":21.2,"aqi":30,"pm10":5.7,"pm2_5":4.8,"no2":5.9,"co":329.0,"o3":63.0,"so2":0.9,"mosquito_risk":3,"arthritis_risk":10,"migraine_risk":3,"frizz_risk":1,"updated_at":"2026-06-13T23:39:37.791632+05:30"},{"city":"Gangtok","state":"Sikkim","latitude":27.3314,"longitude":88.6138,"temp":16.7,"humidity":98,"rain":0.2,"pressure":835.7,"uv_index":8.6,"wind_gusts":38.5,"aqi":69,"pm10":14.7,"pm2_5":11.6,"no2":9.5,"co":437.0,"o3":108.0,"so2":1.6,"mosquito_risk":6,"arthritis_risk":10,"migraine_risk":7,"frizz_risk":1,"updated_at":"2026-06-13T23:39:37.791639+05:30"},{"city":"Siliguri","state":"West Bengal","latitude":26.7271,"longitude":88.3953,"temp":25.7,"humidity":90,"rain":0.0,"pressure":990.0,"uv_index":8.65,"wind_gusts":20.5,"aqi":144,"pm10":54.0,"pm2_5":42.1,"no2":8.9,"co":643.0,"o3":120.0,"so2":5.1,"mosquito_risk":7,"arthritis_risk":5,"migraine_risk":7,"frizz_risk":1,"updated_at":"2026-06-13T23:39:41.047087+05:30"},{"city":"Durgapur","state":"West Bengal","latitude":23.5204,"longitude":87.3119,"temp":27.0,"humidity":90,"rain":0.0,"pressure":991.6,"uv_index":8.85,"wind_gusts":27.4,"aqi":157,"pm10":88.2,"pm2_5":83.1,"no2":35.2,"co":1071.0,"o3":65.0,"so2":44.7,"mosquito_risk":7,"arthritis_risk":5,"migraine_risk":7,"frizz_risk":1,"updated_at":"2026-06-13T23:39:41.047124+05:30"},{"city":"Asansol","state":"West Bengal","latitude":23.6739,"longitude":86.9524,"temp":28.3,"humidity":86,"rain":0.0,"pressure":990.2,"uv_index":8.85,"wind_gusts":29.9,"aqi":157,"pm10":88.0,"pm2_5":80.1,"no2":37.3,"co":520.0,"o3":62.0,"so2":53.1,"mosquito_risk":7,"arthritis_risk":5,"migraine_risk":7,"frizz_risk":1,"updated_at":"2026-06-13T23:39:41.047135+05:30"},{"city":"Pondicherry","state":"Puducherry","latitude":11.9139,"longitude":79.8145,"temp":27.0,"humidity":86,"rain":0.0,"pressure":1009.0,"uv_index":8.35,"wind_gusts":41.0,"aqi":56,"pm10":16.6,"pm2_5":13.2,"no2":14.3,"co":291.0,"o3":61.0,"so2":10.0,"mosquito_risk":7,"arthritis_risk":0,"migraine_risk":4,"frizz_risk":1,"updated_at":"2026-06-13T23:39:41.047144+05:30"},{"city":"Port Blair","state":"Andaman and Nicobar Islands","latitude":11.6234,"longitude":92.7265,"temp":27.0,"humidity":84,"rain":0.0,"pressure":1008.4,"uv_index":8.8,"wind_gusts":39.6,"aqi":20,"pm10":8.1,"pm2_5":4.9,"no2":0.3,"co":88.0,"o3":42.0,"so2":0.3,"mosquito_risk":7,"arthritis_risk":0,"migraine_risk":4,"frizz_risk":1,"updated_at":"2026-06-13T23:39:41.047153+05:30"},{"city":"Haridwar","state":"Uttarakhand","latitude":29.9457,"longitude":78.1642,"temp":25.0,"humidity":85,"rain":0.0,"pressure":970.7,"uv_index":7.65,"wind_gusts":29.5,"aqi":104,"pm10":130.4,"pm2_5":74.7,"no2":45.3,"co":441.0,"o3":51.0,"so2":14.7,"mosquito_risk":7,"arthritis_risk":5,"migraine_risk":7,"frizz_risk":1,"updated_at":"2026-06-13T23:39:41.047162+05:30"},{"city":"Rishikesh","state":"Uttarakhand","latitude":30.0869,"longitude":78.2676,"temp":23.7,"humidity":80,"rain":0.0,"pressure":963.4,"uv_index":7.7,"wind_gusts":20.5,"aqi":110,"pm10":88.7,"pm2_5":40.4,"no2":13.2,"co":427.0,"o3":116.0,"so2":6.8,"mosquito_risk":3,"arthritis_risk":5,"migraine_risk":7,"frizz_risk":1,"updated_at":"2026-06-13T23:39:41.047169+05:30"},{"city":"Nainital","state":"Uttarakhand","latitude":29.3919,"longitude":79.4542,"temp":15.0,"humidity":76,"rain":0.0,"pressure":802.5,"uv_index":8.25,"wind_gusts":25.9,"aqi":96,"pm10":71.0,"pm2_5":41.8,"no2":19.1,"co":323.0,"o3":92.0,"so2":7.3,"mosquito_risk":3,"arthritis_risk":5,"migraine_risk":7,"frizz_risk":0,"updated_at":"2026-06-13T23:39:41.047176+05:30"},{"city":"Mussoorie","state":"Uttarakhand","latitude":30.4599,"longitude":78.0664,"temp":15.2,"humidity":68,"rain":0.0,"pressure":800.4,"uv_index":8.0,"wind_gusts":25.9,"aqi":91,"pm10":55.3,"pm2_5":32.0,"no2":35.8,"co":260.0,"o3":61.0,"so2":7.6,"mosquito_risk":3,"arthritis_risk":5,"migraine_risk":7,"frizz_risk":0,"updated_at":"2026-06-13T23:39:41.047184+05:30"},{"city":"Dharamshala","state":"Himachal Pradesh","latitude":32.219,"longitude":76.3234,"temp":18.8,"humidity":68,"rain":0.0,"pressure":866.1,"uv_index":7.85,"wind_gusts":31.0,"aqi":43,"pm10":17.7,"pm2_5":11.6,"no2":19.3,"co":404.0,"o3":38.0,"so2":0.2,"mosquito_risk":3,"arthritis_risk":5,"migraine_risk":7,"frizz_risk":0,"updated_at":"2026-06-13T23:39:41.047192+05:30"},{"city":"Dalhousie","state":"Himachal Pradesh","latitude":32.5387,"longitude":75.971,"temp":11.1,"humidity":90,"rain":0.0,"pressure":799.1,"uv_index":7.95,"wind_gusts":26.3,"aqi":79,"pm10":33.3,"pm2_5":24.5,"no2":52.5,"co":464.0,"o3":24.0,"so2":2.4,"mosquito_risk":3,"arthritis_risk":10,"migraine_risk":7,"frizz_risk":0,"updated_at":"2026-06-13T23:39:41.047200+05:30"},{"city":"Patiala","state":"Punjab","latitude":30.3398,"longitude":76.3869,"temp":26.0,"humidity":80,"rain":0.0,"pressure":974.8,"uv_index":7.7,"wind_gusts":38.5,"aqi":177,"pm10":207.2,"pm2_5":67.8,"no2":19.4,"co":541.0,"o3":68.0,"so2":12.1,"mosquito_risk":7,"arthritis_risk":5,"migraine_risk":7,"frizz_risk":1,"updated_at":"2026-06-13T23:39:41.047207+05:30"},{"city":"Bhatinda","state":"Punjab","latitude":30.211,"longitude":74.9455,"temp":28.3,"humidity":67,"rain":0.0,"pressure":980.1,"uv_index":8.3,"wind_gusts":30.6,"aqi":435,"pm10":118.3,"pm2_5":55.5,"no2":26.3,"co":365.0,"o3":55.0,"so2":6.5,"mosquito_risk":7,"arthritis_risk":5,"migraine_risk":7,"frizz_risk":1,"updated_at":"2026-06-13T23:39:41.047214+05:30"},{"city":"Rohtak","state":"Haryana","latitude":28.8955,"longitude":76.6066,"temp":27.3,"humidity":79,"rain":0.0,"pressure":978.5,"uv_index":7.8,"wind_gusts":26.6,"aqi":579,"pm10":249.6,"pm2_5":118.5,"no2":81.8,"co":616.0,"o3":28.0,"so2":33.0,"mosquito_risk":7,"arthritis_risk":5,"migraine_risk":7,"frizz_risk":1,"updated_at":"2026-06-13T23:39:41.047222+05:30"},{"city":"Panipat","state":"Haryana","latitude":29.3909,"longitude":76.9635,"temp":26.4,"humidity":84,"rain":0.0,"pressure":977.1,"uv_index":7.65,"wind_gusts":34.6,"aqi":818,"pm10":352.0,"pm2_5":133.2,"no2":67.3,"co":750.0,"o3":34.0,"so2":24.6,"mosquito_risk":7,"arthritis_risk":5,"migraine_risk":7,"frizz_risk":1,"updated_at":"2026-06-13T23:39:41.047229+05:30"},{"city":"Mathura","state":"Uttar Pradesh","latitude":27.4924,"longitude":77.6737,"temp":28.5,"humidity":68,"rain":0.0,"pressure":983.5,"uv_index":8.05,"wind_gusts":25.9,"aqi":471,"pm10":410.7,"pm2_5":122.5,"no2":93.0,"co":715.0,"o3":14.0,"so2":16.2,"mosquito_risk":7,"arthritis_risk":5,"migraine_risk":7,"frizz_risk":1,"updated_at":"2026-06-13T23:39:41.047235+05:30"},{"city":"Vrindavan","state":"Uttar Pradesh","latitude":27.5823,"longitude":77.7027,"temp":29.0,"humidity":62,"rain":0.0,"pressure":983.9,"uv_index":8.05,"wind_gusts":25.2,"aqi":471,"pm10":410.7,"pm2_5":122.5,"no2":93.0,"co":642.0,"o3":14.0,"so2":16.2,"mosquito_risk":7,"arthritis_risk":5,"migraine_risk":7,"frizz_risk":1,"updated_at":"2026-06-13T23:39:41.047242+05:30"},{"city":"Ayodhya","state":"Uttar Pradesh","latitude":26.7922,"longitude":82.1998,"temp":25.9,"humidity":86,"rain":0.0,"pressure":992.2,"uv_index":8.35,"wind_gusts":42.5,"aqi":131,"pm10":102.4,"pm2_5":76.8,"no2":44.9,"co":537.0,"o3":40.0,"so2":12.3,"mosquito_risk":7,"arthritis_risk":5,"migraine_risk":7,"frizz_risk":1,"updated_at":"2026-06-13T23:39:41.047249+05:30"},{"city":"Ratlam","state":"Madhya Pradesh","latitude":23.3315,"longitude":75.0367,"temp":30.1,"humidity":61,"rain":0.0,"pressure":953.0,"uv_index":8.5,"wind_gusts":40.0,"aqi":77,"pm10":48.3,"pm2_5":27.1,"no2":3.7,"co":152.0,"o3":84.0,"so2":7.3,"mosquito_risk":3,"arthritis_risk":5,"migraine_risk":7,"frizz_risk":1,"updated_at":"2026-06-13T23:39:41.047257+05:30"},{"city":"Sagar","state":"Madhya Pradesh","latitude":23.8388,"longitude":78.7378,"temp":26.9,"humidity":67,"rain":0.0,"pressure":947.9,"uv_index":8.75,"wind_gusts":41.4,"aqi":84,"pm10":33.2,"pm2_5":23.3,"no2":10.1,"co":229.0,"o3":67.0,"so2":2.7,"mosquito_risk":7,"arthritis_risk":5,"migraine_risk":7,"frizz_risk":1,"updated_at":"2026-06-13T23:39:41.047263+05:30"},{"city":"Satna","state":"Madhya Pradesh","latitude":24.6005,"longitude":80.8322,"temp":29.1,"humidity":64,"rain":0.0,"pressure":968.3,"uv_index":8.65,"wind_gusts":35.3,"aqi":111,"pm10":77.8,"pm2_5":52.7,"no2":22.4,"co":322.0,"o3":68.0,"so2":5.9,"mosquito_risk":7,"arthritis_risk":5,"migraine_risk":7,"frizz_risk":1,"updated_at":"2026-06-13T23:39:41.047270+05:30"},{"city":"Akola","state":"Maharashtra","latitude":20.7002,"longitude":77.0082,"temp":33.4,"humidity":43,"rain":0.0,"pressure":973.4,"uv_index":8.8,"wind_gusts":41.0,"aqi":79,"pm10":38.2,"pm2_5":22.1,"no2":6.5,"co":135.0,"o3":87.0,"so2":9.0,"mosquito_risk":0,"arthritis_risk":5,"migraine_risk":7,"frizz_risk":1,"updated_at":"2026-06-13T23:39:41.047278+05:30"},{"city":"Amravati","state":"Maharashtra","latitude":20.9374,"longitude":77.7796,"temp":32.7,"humidity":41,"rain":0.0,"pressure":965.5,"uv_index":8.7,"wind_gusts":39.6,"aqi":82,"pm10":46.1,"pm2_5":24.0,"no2":7.7,"co":182.0,"o3":86.0,"so2":8.3,"mosquito_risk":0,"arthritis_risk":5,"migraine_risk":7,"frizz_risk":1,"updated_at":"2026-06-13T23:39:41.047285+05:30"},{"city":"Latur","state":"Maharashtra","latitude":18.4088,"longitude":76.5604,"temp":29.3,"humidity":48,"rain":0.0,"pressure":939.2,"uv_index":8.85,"wind_gusts":35.6,"aqi":76,"pm10":34.1,"pm2_5":21.2,"no2":4.5,"co":169.0,"o3":96.0,"so2":5.5,"mosquito_risk":4,"arthritis_risk":5,"migraine_risk":7,"frizz_risk":1,"updated_at":"2026-06-13T23:39:41.047292+05:30"},{"city":"Nanded","state":"Maharashtra","latitude":19.1383,"longitude":77.3091,"temp":28.5,"humidity":70,"rain":0.0,"pressure":966.7,"uv_index":8.9,"wind_gusts":36.4,"aqi":91,"pm10":53.3,"pm2_5":27.6,"no2":8.8,"co":189.0,"o3":78.0,"so2":3.7,"mosquito_risk":7,"arthritis_risk":5,"migraine_risk":7,"frizz_risk":1,"updated_at":"2026-06-13T23:39:41.047299+05:30"},{"city":"Gulbarga","state":"Karnataka","latitude":17.3297,"longitude":76.8343,"temp":25.5,"humidity":81,"rain":0.0,"pressure":958.7,"uv_index":8.7,"wind_gusts":34.9,"aqi":64,"pm10":23.7,"pm2_5":14.3,"no2":6.2,"co":164.0,"o3":57.0,"so2":2.4,"mosquito_risk":7,"arthritis_risk":5,"migraine_risk":7,"frizz_risk":1,"updated_at":"2026-06-13T23:39:41.047305+05:30"},{"city":"Bidar","state":"Karnataka","latitude":17.9104,"longitude":77.5199,"temp":26.1,"humidity":74,"rain":0.0,"pressure":934.1,"uv_index":7.2,"wind_gusts":37.4,"aqi":85,"pm10":55.2,"pm2_5":29.7,"no2":17.3,"co":269.0,"o3":60.0,"so2":3.5,"mosquito_risk":7,"arthritis_risk":5,"migraine_risk":7,"frizz_risk":1,"updated_at":"2026-06-13T23:39:41.047312+05:30"},{"city":"Hospet","state":"Karnataka","latitude":15.2689,"longitude":76.3909,"temp":26.0,"humidity":78,"rain":0.0,"pressure":957.0,"uv_index":7.6,"wind_gusts":41.0,"aqi":41,"pm10":11.9,"pm2_5":7.8,"no2":6.1,"co":152.0,"o3":47.0,"so2":1.8,"mosquito_risk":7,"arthritis_risk":5,"migraine_risk":7,"frizz_risk":1,"updated_at":"2026-06-13T23:39:41.047318+05:30"},{"city":"Tirupur","state":"Tamil Nadu","latitude":11.1085,"longitude":77.3411,"temp":24.3,"humidity":89,"rain":0.0,"pressure":977.4,"uv_index":8.8,"wind_gusts":51.5,"aqi":52,"pm10":21.2,"pm2_5":16.1,"no2":19.2,"co":152.0,"o3":33.0,"so2":4.5,"mosquito_risk":3,"arthritis_risk":5,"migraine_risk":7,"frizz_risk":1,"updated_at":"2026-06-13T23:39:41.047324+05:30"},{"city":"Alappuzha","state":"Kerala","latitude":9.4981,"longitude":76.3388,"temp":24.9,"humidity":99,"rain":0.0,"pressure":1012.7,"uv_index":7.5,"wind_gusts":32.4,"aqi":52,"pm10":23.6,"pm2_5":15.2,"no2":13.3,"co":95.0,"o3":43.0,"so2":3.6,"mosquito_risk":3,"arthritis_risk":0,"migraine_risk":4,"frizz_risk":1,"updated_at":"2026-06-13T23:39:41.047331+05:30"},{"city":"Munnar","state":"Kerala","latitude":10.0889,"longitude":77.0595,"temp":16.8,"humidity":100,"rain":0.0,"pressure":859.0,"uv_index":7.9,"wind_gusts":38.2,"aqi":38,"pm10":13.2,"pm2_5":8.1,"no2":6.6,"co":105.0,"o3":44.0,"so2":2.0,"mosquito_risk":3,"arthritis_risk":10,"migraine_risk":7,"frizz_risk":1,"updated_at":"2026-06-13T23:39:41.047338+05:30"},{"city":"Silchar","state":"Assam","latitude":24.8333,"longitude":92.7789,"temp":25.5,"humidity":98,"rain":0.0,"pressure":1002.9,"uv_index":8.6,"wind_gusts":22.7,"aqi":61,"pm10":29.3,"pm2_5":22.0,"no2":8.4,"co":243.0,"o3":80.0,"so2":3.4,"mosquito_risk":7,"arthritis_risk":5,"migraine_risk":4,"frizz_risk":1,"updated_at":"2026-06-13T23:39:41.047345+05:30"},{"city":"Dibrugarh","state":"Assam","latitude":27.4728,"longitude":94.912,"temp":24.8,"humidity":98,"rain":0.0,"pressure":992.3,"uv_index":8.1,"wind_gusts":24.8,"aqi":76,"pm10":14.8,"pm2_5":14.3,"no2":10.2,"co":245.0,"o3":60.0,"so2":1.2,"mosquito_risk":3,"arthritis_risk":5,"migraine_risk":7,"frizz_risk":1,"updated_at":"2026-06-13T23:39:41.047351+05:30"}]