[{"city":"Delhi","state":"Delhi","latitude":28.6139,"longitude":77.209,"temp":34.4,"humidity":26,"rain":0.0,"pressure":988.2,"uv_index":6.15,"wind_gusts":23.8,"aqi":176,"pm10":243.1,"pm2_5":54.6,"mosquito_risk":0,"arthritis_risk":5,"migraine_risk":7,"frizz_risk":0,"updated_at":"2026-03-11T13:19:55.262686+05:30"},{"city":"Mumbai","state":"Maharashtra","latitude":19.076,"longitude":72.8777,"temp":27.7,"humidity":87,"rain":0.0,"pressure":1011.6,"uv_index":7.6,"wind_gusts":19.4,"aqi":153,"pm10":91.5,"pm2_5":84.3,"mosquito_risk":7,"arthritis_risk":0,"migraine_risk":4,"frizz_risk":1,"updated_at":"2026-03-11T13:19:55.262740+05:30"},{"city":"Bangalore","state":"Karnataka","latitude":12.9716,"longitude":77.5946,"temp":30.4,"humidity":27,"rain":0.0,"pressure":915.4,"uv_index":9.25,"wind_gusts":27.7,"aqi":67,"pm10":12.8,"pm2_5":11.1,"mosquito_risk":0,"arthritis_risk":5,"migraine_risk":7,"frizz_risk":0,"updated_at":"2026-03-11T13:19:55.262755+05:30"},{"city":"Hyderabad","state":"Telangana","latitude":17.385,"longitude":78.4867,"temp":34.8,"humidity":17,"rain":0.0,"pressure":957.9,"uv_index":8.6,"wind_gusts":22.0,"aqi":94,"pm10":28.1,"pm2_5":20.0,"mosquito_risk":0,"arthritis_risk":5,"migraine_risk":7,"frizz_risk":0,"updated_at":"2026-03-11T13:19:55.262765+05:30"},{"city":"Chennai","state":"Tamil Nadu","latitude":13.0827,"longitude":80.2707,"temp":32.5,"humidity":48,"rain":0.0,"pressure":1011.1,"uv_index":9.0,"wind_gusts":30.6,"aqi":67,"pm10":21.1,"pm2_5":17.1,"mosquito_risk":0,"arthritis_risk":0,"migraine_risk":4,"frizz_risk":1,"updated_at":"2026-03-11T13:19:55.262773+05:30"},{"city":"Kolkata","state":"West Bengal","latitude":22.5726,"longitude":88.3639,"temp":29.4,"humidity":65,"rain":0.0,"pressure":1009.2,"uv_index":6.85,"wind_gusts":21.6,"aqi":146,"pm10":67.8,"pm2_5":56.6,"mosquito_risk":7,"arthritis_risk":0,"migraine_risk":4,"frizz_risk":1,"updated_at":"2026-03-11T13:19:55.262781+05:30"},{"city":"Pune","state":"Maharashtra","latitude":18.5204,"longitude":73.8567,"temp":37.4,"humidity":20,"rain":0.0,"pressure":952.4,"uv_index":8.15,"wind_gusts":30.2,"aqi":121,"pm10":33.6,"pm2_5":27.0,"mosquito_risk":0,"arthritis_risk":5,"migraine_risk":10,"frizz_risk":0,"updated_at":"2026-03-11T13:19:55.262793+05:30"},{"city":"Ahmedabad","state":"Gujarat","latitude":23.0225,"longitude":72.5714,"temp":39.5,"humidity":15,"rain":0.0,"pressure":1006.3,"uv_index":7.4,"wind_gusts":26.3,"aqi":69,"pm10":20.5,"pm2_5":17.9,"mosquito_risk":0,"arthritis_risk":5,"migraine_risk":7,"frizz_risk":0,"updated_at":"2026-03-11T13:19:55.262799+05:30"},{"city":"Jaipur","state":"Rajasthan","latitude":26.9124,"longitude":75.7873,"temp":36.9,"humidity":11,"rain":0.0,"pressure":965.5,"uv_index":6.8,"wind_gusts":38.5,"aqi":98,"pm10":209.1,"pm2_5":35.2,"mosquito_risk":0,"arthritis_risk":5,"migraine_risk":10,"frizz_risk":0,"updated_at":"2026-03-11T13:19:55.262806+05:30"},{"city":"Lucknow","state":"Uttar Pradesh","latitude":26.8467,"longitude":80.9462,"temp":33.0,"humidity":42,"rain":0.0,"pressure":997.9,"uv_index":6.6,"wind_gusts":31.0,"aqi":192,"pm10":141.6,"pm2_5":67.1,"mosquito_risk":0,"arthritis_risk":5,"migraine_risk":7,"frizz_risk":1,"updated_at":"2026-03-11T13:19:55.262813+05:30"},{"city":"Kanpur","state":"Uttar Pradesh","latitude":26.4499,"longitude":80.3319,"temp":33.2,"humidity":43,"rain":0.0,"pressure":996.5,"uv_index":6.65,"wind_gusts":24.1,"aqi":178,"pm10":231.9,"pm2_5":67.8,"mosquito_risk":0,"arthritis_risk":5,"migraine_risk":7,"frizz_risk":1,"updated_at":"2026-03-11T13:19:55.262820+05:30"},{"city":"Chandigarh","state":"Chandigarh","latitude":30.7333,"longitude":76.7794,"temp":31.8,"humidity":41,"rain":0.0,"pressure":974.2,"uv_index":5.35,"wind_gusts":24.5,"aqi":153,"pm10":47.7,"pm2_5":29.6,"mosquito_risk":0,"arthritis_risk":5,"migraine_risk":3,"frizz_risk":1,"updated_at":"2026-03-11T13:19:55.262826+05:30"},{"city":"Srinagar","state":"Jammu and Kashmir","latitude":34.0837,"longitude":74.7973,"temp":9.7,"humidity":93,"rain":1.0,"pressure":847.3,"uv_index":4.1,"wind_gusts":28.1,"aqi":127,"pm10":34.6,"pm2_5":22.7,"mosquito_risk":6,"arthritis_risk":10,"migraine_risk":3,"frizz_risk":0,"updated_at":"2026-03-11T13:19:55.262833+05:30"},{"city":"Jammu","state":"Jammu and Kashmir","latitude":32.7266,"longitude":74.857,"temp":25.3,"humidity":59,"rain":0.0,"pressure":979.3,"uv_index":5.6,"wind_gusts":43.6,"aqi":114,"pm10":45.6,"pm2_5":23.6,"mosquito_risk":4,"arthritis_risk":5,"migraine_risk":3,"frizz_risk":1,"updated_at":"2026-03-11T13:19:55.262840+05:30"},{"city":"Amritsar","state":"Punjab","latitude":31.634,"longitude":74.8723,"temp":29.8,"humidity":56,"rain":0.0,"pressure":986.4,"uv_index":6.45,"wind_gusts":28.1,"aqi":158,"pm10":89.9,"pm2_5":53.1,"mosquito_risk":4,"arthritis_risk":5,"migraine_risk":7,"frizz_risk":1,"updated_at":"2026-03-11T13:19:55.262846+05:30"},{"city":"Ludhiana","state":"Punjab","latitude":30.901,"longitude":75.8573,"temp":32.1,"humidity":39,"rain":0.0,"pressure":984.1,"uv_index":6.3,"wind_gusts":15.5,"aqi":177,"pm10":99.4,"pm2_5":68.7,"mosquito_risk":0,"arthritis_risk":5,"migraine_risk":7,"frizz_risk":1,"updated_at":"2026-03-11T13:19:55.262852+05:30"},{"city":"Jalandhar","state":"Punjab","latitude":31.326,"longitude":75.5762,"temp":31.7,"humidity":42,"rain":0.0,"pressure":985.2,"uv_index":6.5,"wind_gusts":18.4,"aqi":169,"pm10":93.1,"pm2_5":54.4,"mosquito_risk":0,"arthritis_risk":5,"migraine_risk":7,"frizz_risk":1,"updated_at":"2026-03-11T13:19:55.262859+05:30"},{"city":"Dehradun","state":"Uttarakhand","latitude":30.6284,"longitude":78.0322,"temp":23.4,"humidity":45,"rain":0.0,"pressure":836.8,"uv_index":5.9,"wind_gusts":28.8,"aqi":85,"pm10":23.9,"pm2_5":14.4,"mosquito_risk":0,"arthritis_risk":5,"migraine_risk":3,"frizz_risk":0,"updated_at":"2026-03-11T13:19:55.262865+05:30"},{"city":"Shimla","state":"Himachal Pradesh","latitude":31.1048,"longitude":77.1734,"temp":20.7,"humidity":42,"rain":0.0,"pressure":791.8,"uv_index":5.85,"wind_gusts":45.0,"aqi":113,"pm10":20.3,"pm2_5":13.3,"mosquito_risk":0,"arthritis_risk":5,"migraine_risk":3,"frizz_risk":0,"updated_at":"2026-03-11T13:19:55.262871+05:30"},{"city":"Manali","state":"Himachal Pradesh","latitude":32.2396,"longitude":77.1887,"temp":20.3,"humidity":28,"rain":0.0,"pressure":826.8,"uv_index":6.7,"wind_gusts":42.5,"aqi":55,"pm10":24.6,"pm2_5":9.5,"mosquito_risk":0,"arthritis_risk":5,"migraine_risk":7,"frizz_risk":0,"updated_at":"2026-03-11T13:19:55.262876+05:30"},{"city":"Gurgaon","state":"Haryana","latitude":28.4595,"longitude":77.0266,"temp":34.4,"humidity":31,"rain":0.0,"pressure":986.7,"uv_index":6.15,"wind_gusts":23.4,"aqi":331,"pm10":828.9,"pm2_5":96.4,"mosquito_risk":0,"arthritis_risk":5,"migraine_risk":7,"frizz_risk":0,"updated_at":"2026-03-11T13:19:55.262881+05:30"},{"city":"Noida","state":"Uttar Pradesh","latitude":28.5355,"longitude":77.391,"temp":34.9,"humidity":25,"rain":0.0,"pressure":989.6,"uv_index":6.15,"wind_gusts":23.8,"aqi":331,"pm10":828.9,"pm2_5":96.4,"mosquito_risk":0,"arthritis_risk":5,"migraine_risk":7,"frizz_risk":0,"updated_at":"2026-03-11T13:19:55.262887+05:30"},{"city":"Ghaziabad","state":"Uttar Pradesh","latitude":28.6692,"longitude":77.4538,"temp":33.9,"humidity":31,"rain":0.0,"pressure":987.8,"uv_index":6.1,"wind_gusts":23.0,"aqi":171,"pm10":196.5,"pm2_5":61.7,"mosquito_risk":0,"arthritis_risk":5,"migraine_risk":7,"frizz_risk":0,"updated_at":"2026-03-11T13:19:55.262892+05:30"},{"city":"Faridabad","state":"Haryana","latitude":28.4089,"longitude":77.3178,"temp":34.4,"humidity":31,"rain":0.0,"pressure":988.9,"uv_index":6.15,"wind_gusts":22.0,"aqi":331,"pm10":828.9,"pm2_5":96.4,"mosquito_risk":0,"arthritis_risk":5,"migraine_risk":7,"frizz_risk":0,"updated_at":"2026-03-11T13:19:55.262898+05:30"},{"city":"Meerut","state":"Uttar Pradesh","latitude":28.9845,"longitude":77.7064,"temp":33.5,"humidity":34,"rain":0.0,"pressure":986.6,"uv_index":5.5,"wind_gusts":28.4,"aqi":171,"pm10":196.5,"pm2_5":61.7,"mosquito_risk":0,"arthritis_risk":5,"migraine_risk":3,"frizz_risk":0,"updated_at":"2026-03-11T13:19:55.262903+05:30"},{"city":"Agra","state":"Uttar Pradesh","latitude":27.1767,"longitude":78.0081,"temp":37.1,"humidity":24,"rain":0.0,"pressure":992.5,"uv_index":6.5,"wind_gusts":19.4,"aqi":239,"pm10":475.0,"pm2_5":68.7,"mosquito_risk":0,"arthritis_risk":5,"migraine_risk":10,"frizz_risk":0,"updated_at":"2026-03-11T13:19:55.262909+05:30"},{"city":"Varanasi","state":"Uttar Pradesh","latitude":25.3176,"longitude":82.9739,"temp":32.3,"humidity":46,"rain":0.0,"pressure":1001.9,"uv_index":7.3,"wind_gusts":23.0,"aqi":192,"pm10":159.3,"pm2_5":108.0,"mosquito_risk":0,"arthritis_risk":5,"migraine_risk":4,"frizz_risk":1,"updated_at":"2026-03-11T13:19:55.262918+05:30"},{"city":"Prayagraj","state":"Uttar Pradesh","latitude":25.4358,"longitude":81.8463,"temp":32.9,"humidity":41,"rain":0.0,"pressure":1000.6,"uv_index":7.15,"wind_gusts":23.0,"aqi":191,"pm10":151.8,"pm2_5":96.6,"mosquito_risk":0,"arthritis_risk":5,"migraine_risk":4,"frizz_risk":1,"updated_at":"2026-03-11T13:19:55.262925+05:30"},{"city":"Gorakhpur","state":"Uttar Pradesh","latitude":26.7606,"longitude":83.3732,"temp":30.1,"humidity":66,"rain":0.0,"pressure":1001.6,"uv_index":7.0,"wind_gusts":25.9,"aqi":210,"pm10":150.9,"pm2_5":129.0,"mosquito_risk":3,"arthritis_risk":5,"migraine_risk":4,"frizz_risk":1,"updated_at":"2026-03-11T13:19:55.262933+05:30"},{"city":"Bareilly","state":"Uttar Pradesh","latitude":28.367,"longitude":79.4304,"temp":32.6,"humidity":42,"rain":0.0,"pressure":991.4,"uv_index":6.35,"wind_gusts":32.4,"aqi":209,"pm10":140.6,"pm2_5":98.7,"mosquito_risk":0,"arthritis_risk":5,"migraine_risk":7,"frizz_risk":1,"updated_at":"2026-03-11T13:19:55.262938+05:30"},{"city":"Aligarh","state":"Uttar Pradesh","latitude":27.8974,"longitude":78.088,"temp":35.4,"humidity":28,"rain":0.0,"pressure":990.5,"uv_index":6.25,"wind_gusts":23.8,"aqi":176,"pm10":385.6,"pm2_5":74.5,"mosquito_risk":0,"arthritis_risk":5,"migraine_risk":10,"frizz_risk":0,"updated_at":"2026-03-11T13:19:55.262944+05:30"},{"city":"Moradabad","state":"Uttar Pradesh","latitude":28.8386,"longitude":78.7733,"temp":32.9,"humidity":36,"rain":0.0,"pressure":988.4,"uv_index":6.15,"wind_gusts":34.9,"aqi":198,"pm10":139.2,"pm2_5":101.7,"mosquito_risk":0,"arthritis_risk":5,"migraine_risk":7,"frizz_risk":0,"updated_at":"2026-03-11T13:19:55.262950+05:30"},{"city":"Saharanpur","state":"Uttar Pradesh","latitude":29.9637,"longitude":77.546,"temp":32.4,"humidity":37,"rain":0.0,"pressure":980.6,"uv_index":5.4,"wind_gusts":37.1,"aqi":171,"pm10":80.8,"pm2_5":59.1,"mosquito_risk":0,"arthritis_risk":5,"migraine_risk":3,"frizz_risk":0,"updated_at":"2026-03-11T13:19:55.262956+05:30"},{"city":"Jhansi","state":"Uttar Pradesh","latitude":25.4484,"longitude":78.5685,"temp":37.4,"humidity":18,"rain":0.0,"pressure":982.9,"uv_index":7.1,"wind_gusts":27.4,"aqi":98,"pm10":75.2,"pm2_5":19.7,"mosquito_risk":0,"arthritis_risk":5,"migraine_risk":10,"frizz_risk":0,"updated_at":"2026-03-11T13:19:58.523110+05:30"},{"city":"Surat","state":"Gujarat","latitude":21.1702,"longitude":72.8311,"temp":38.6,"humidity":18,"rain":0.0,"pressure":1009.8,"uv_index":7.3,"wind_gusts":25.9,"aqi":113,"pm10":45.8,"pm2_5":41.7,"mosquito_risk":0,"arthritis_risk":0,"migraine_risk":7,"frizz_risk":0,"updated_at":"2026-03-11T13:19:58.523142+05:30"},{"city":"Vadodara","state":"Gujarat","latitude":22.3072,"longitude":73.1812,"temp":41.1,"humidity":15,"rain":0.0,"pressure":1008.0,"uv_index":7.45,"wind_gusts":20.2,"aqi":71,"pm10":26.7,"pm2_5":15.7,"mosquito_risk":0,"arthritis_risk":0,"migraine_risk":7,"frizz_risk":0,"updated_at":"2026-03-11T13:19:58.523151+05:30"},{"city":"Rajkot","state":"Gujarat","latitude":22.3039,"longitude":70.8022,"temp":37.0,"humidity":19,"rain":0.0,"pressure":999.2,"uv_index":7.25,"wind_gusts":29.9,"aqi":69,"pm10":19.7,"pm2_5":18.2,"mosquito_risk":0,"arthritis_risk":5,"migraine_risk":10,"frizz_risk":0,"updated_at":"2026-03-11T13:19:58.523159+05:30"},{"city":"Thane","state":"Maharashtra","latitude":19.2183,"longitude":72.9781,"temp":34.0,"humidity":47,"rain":0.0,"pressure":1011.2,"uv_index":7.6,"wind_gusts":36.7,"aqi":153,"pm10":91.5,"pm2_5":84.3,"mosquito_risk":0,"arthritis_risk":0,"migraine_risk":4,"frizz_risk":1,"updated_at":"2026-03-11T13:19:58.523167+05:30"},{"city":"Nagpur","state":"Maharashtra","latitude":21.1458,"longitude":79.0882,"temp":36.6,"humidity":22,"rain":0.0,"pressure":977.4,"uv_index":8.0,"wind_gusts":11.9,"aqi":83,"pm10":53.0,"pm2_5":24.6,"mosquito_risk":0,"arthritis_risk":5,"migraine_risk":10,"frizz_risk":0,"updated_at":"2026-03-11T13:19:58.523174+05:30"},{"city":"Nashik","state":"Maharashtra","latitude":19.9975,"longitude":73.7898,"temp":36.2,"humidity":19,"rain":0.0,"pressure":950.1,"uv_index":7.75,"wind_gusts":25.6,"aqi":75,"pm10":32.7,"pm2_5":26.3,"mosquito_risk":0,"arthritis_risk":5,"migraine_risk":10,"frizz_risk":0,"updated_at":"2026-03-11T13:19:58.523182+05:30"},{"city":"Aurangabad","state":"Maharashtra","latitude":19.8762,"longitude":75.3433,"temp":35.2,"humidity":23,"rain":0.0,"pressure":948.7,"uv_index":8.3,"wind_gusts":18.4,"aqi":91,"pm10":39.2,"pm2_5":31.0,"mosquito_risk":0,"arthritis_risk":5,"migraine_risk":10,"frizz_risk":0,"updated_at":"2026-03-11T13:19:58.523189+05:30"},{"city":"Solapur","state":"Maharashtra","latitude":17.6599,"longitude":75.9064,"temp":34.1,"humidity":28,"rain":0.0,"pressure":961.6,"uv_index":8.5,"wind_gusts":20.5,"aqi":121,"pm10":36.3,"pm2_5":28.9,"mosquito_risk":0,"arthritis_risk":5,"migraine_risk":7,"frizz_risk":0,"updated_at":"2026-03-11T13:19:58.523197+05:30"},{"city":"Kolhapur","state":"Maharashtra","latitude":16.705,"longitude":74.2433,"temp":33.8,"humidity":29,"rain":0.0,"pressure":952.0,"uv_index":8.65,"wind_gusts":30.2,"aqi":153,"pm10":41.1,"pm2_5":33.5,"mosquito_risk":0,"arthritis_risk":5,"migraine_risk":7,"frizz_risk":0,"updated_at":"2026-03-11T13:19:58.523204+05:30"},{"city":"Goa","state":"Goa","latitude":15.2993,"longitude":74.124,"temp":32.4,"humidity":59,"rain":0.0,"pressure":1001.1,"uv_index":8.7,"wind_gusts":37.8,"aqi":153,"pm10":54.0,"pm2_5":46.7,"mosquito_risk":0,"arthritis_risk":5,"migraine_risk":4,"frizz_risk":1,"updated_at":"2026-03-11T13:19:58.523211+05:30"},{"city":"Jodhpur","state":"Rajasthan","latitude":26.2389,"longitude":73.0243,"temp":36.3,"humidity":17,"rain":0.0,"pressure":988.8,"uv_index":7.2,"wind_gusts":32.8,"aqi":85,"pm10":62.9,"pm2_5":23.6,"mosquito_risk":0,"arthritis_risk":5,"migraine_risk":10,"frizz_risk":0,"updated_at":"2026-03-11T13:19:58.523217+05:30"},{"city":"Udaipur","state":"Rajasthan","latitude":24.5854,"longitude":73.7125,"temp":35.9,"humidity":15,"rain":0.0,"pressure":952.8,"uv_index":7.8,"wind_gusts":26.3,"aqi":53,"pm10":21.0,"pm2_5":10.3,"mosquito_risk":0,"arthritis_risk":5,"migraine_risk":10,"frizz_risk":0,"updated_at":"2026-03-11T13:19:58.523224+05:30"},{"city":"Kota","state":"Rajasthan","latitude":25.2138,"longitude":75.8648,"temp":37.6,"humidity":16,"rain":0.0,"pressure":984.4,"uv_index":7.2,"wind_gusts":19.1,"aqi":74,"pm10":71.9,"pm2_5":21.1,"mosquito_risk":0,"arthritis_risk":5,"migraine_risk":10,"frizz_risk":0,"updated_at":"2026-03-11T13:19:58.523231+05:30"},{"city":"Bikaner","state":"Rajasthan","latitude":28.0229,"longitude":73.3119,"temp":34.9,"humidity":16,"rain":0.0,"pressure":987.5,"uv_index":6.2,"wind_gusts":29.9,"aqi":69,"pm10":16.4,"pm2_5":11.8,"mosquito_risk":0,"arthritis_risk":5,"migraine_risk":7,"frizz_risk":0,"updated_at":"2026-03-11T13:19:58.523278+05:30"},{"city":"Ajmer","state":"Rajasthan","latitude":26.4499,"longitude":74.6399,"temp":34.8,"humidity":17,"rain":0.0,"pressure":960.9,"uv_index":7.15,"wind_gusts":31.3,"aqi":84,"pm10":81.3,"pm2_5":21.7,"mosquito_risk":0,"arthritis_risk":5,"migraine_risk":7,"frizz_risk":0,"updated_at":"2026-03-11T13:19:58.523286+05:30"},{"city":"Gwalior","state":"Madhya Pradesh","latitude":26.2183,"longitude":78.1828,"temp":36.2,"humidity":22,"rain":0.0,"pressure":988.1,"uv_index":6.8,"wind_gusts":30.2,"aqi":113,"pm10":74.7,"pm2_5":20.3,"mosquito_risk":0,"arthritis_risk":5,"migraine_risk":10,"frizz_risk":0,"updated_at":"2026-03-11T13:19:58.523293+05:30"},{"city":"Indore","state":"Madhya Pradesh","latitude":22.7196,"longitude":75.8577,"temp":36.3,"humidity":13,"rain":0.0,"pressure":953.7,"uv_index":7.7,"wind_gusts":22.0,"aqi":65,"pm10":28.9,"pm2_5":13.3,"mosquito_risk":0,"arthritis_risk":5,"migraine_risk":10,"frizz_risk":0,"updated_at":"2026-03-11T13:19:58.523300+05:30"},{"city":"Bhopal","state":"Madhya Pradesh","latitude":23.2599,"longitude":77.4126,"temp":36.4,"humidity":19,"rain":0.0,"pressure":959.1,"uv_index":7.55,"wind_gusts":24.8,"aqi":61,"pm10":47.5,"pm2_5":16.4,"mosquito_risk":0,"arthritis_risk":5,"migraine_risk":10,"frizz_risk":0,"updated_at":"2026-03-11T13:19:58.523307+05:30"},{"city":"Jabalpur","state":"Madhya Pradesh","latitude":23.1815,"longitude":79.9864,"temp":34.9,"humidity":23,"rain":0.0,"pressure":966.6,"uv_index":7.7,"wind_gusts":24.8,"aqi":84,"pm10":88.0,"pm2_5":25.8,"mosquito_risk":0,"arthritis_risk":5,"migraine_risk":7,"frizz_risk":0,"updated_at":"2026-03-11T13:19:58.523314+05:30"},{"city":"Ujjain","state":"Madhya Pradesh","latitude":23.1765,"longitude":75.7885,"temp":35.3,"humidity":17,"rain":0.0,"pressure":959.4,"uv_index":7.65,"wind_gusts":15.1,"aqi":76,"pm10":26.3,"pm2_5":11.7,"mosquito_risk":0,"arthritis_risk":5,"migraine_risk":10,"frizz_risk":0,"updated_at":"2026-03-11T13:19:58.523322+05:30"},{"city":"Visakhapatnam","state":"Andhra Pradesh","latitude":17.6868,"longitude":83.2185,"temp":33.9,"humidity":37,"rain":0.0,"pressure":1006.8,"uv_index":8.6,"wind_gusts":38.5,"aqi":102,"pm10":33.4,"pm2_5":28.3,"mosquito_risk":0,"arthritis_risk":5,"migraine_risk":4,"frizz_risk":1,"updated_at":"2026-03-11T13:19:58.523329+05:30"},{"city":"Vijayawada","state":"Andhra Pradesh","latitude":16.5062,"longitude":80.648,"temp":33.8,"humidity":35,"rain":0.0,"pressure":1006.7,"uv_index":8.7,"wind_gusts":16.6,"aqi":94,"pm10":19.9,"pm2_5":16.8,"mosquito_risk":0,"arthritis_risk":5,"migraine_risk":4,"frizz_risk":1,"updated_at":"2026-03-11T13:19:58.523336+05:30"},{"city":"Guntur","state":"Andhra Pradesh","latitude":16.3067,"longitude":80.4365,"temp":33.9,"humidity":36,"rain":0.0,"pressure":1007.8,"uv_index":8.7,"wind_gusts":18.7,"aqi":80,"pm10":17.2,"pm2_5":14.1,"mosquito_risk":0,"arthritis_risk":5,"migraine_risk":4,"frizz_risk":1,"updated_at":"2026-03-11T13:19:58.523343+05:30"},{"city":"Nellore","state":"Andhra Pradesh","latitude":14.4426,"longitude":79.9865,"temp":34.3,"humidity":42,"rain":0.0,"pressure":1009.5,"uv_index":8.9,"wind_gusts":27.4,"aqi":69,"pm10":17.6,"pm2_5":14.9,"mosquito_risk":0,"arthritis_risk":0,"migraine_risk":4,"frizz_risk":1,"updated_at":"2026-03-11T13:19:58.523352+05:30"},{"city":"Kurnool","state":"Andhra Pradesh","latitude":15.8281,"longitude":78.0373,"temp":35.5,"humidity":19,"rain":0.0,"pressure":981.1,"uv_index":8.7,"wind_gusts":23.4,"aqi":69,"pm10":14.0,"pm2_5":11.6,"mosquito_risk":0,"arthritis_risk":5,"migraine_risk":10,"frizz_risk":0,"updated_at":"2026-03-11T13:19:58.523360+05:30"},{"city":"Kakinada","state":"Andhra Pradesh","latitude":16.9891,"longitude":82.2475,"temp":35.4,"humidity":32,"rain":0.0,"pressure":1010.7,"uv_index":8.65,"wind_gusts":20.5,"aqi":92,"pm10":27.8,"pm2_5":24.4,"mosquito_risk":0,"arthritis_risk":0,"migraine_risk":7,"frizz_risk":1,"updated_at":"2026-03-11T13:19:58.523366+05:30"},{"city":"Tirupati","state":"Andhra Pradesh","latitude":13.6288,"longitude":79.4192,"temp":33.6,"humidity":33,"rain":0.0,"pressure":995.2,"uv_index":9.0,"wind_gusts":32.8,"aqi":83,"pm10":17.5,"pm2_5":15.3,"mosquito_risk":0,"arthritis_risk":5,"migraine_risk":7,"frizz_risk":0,"updated_at":"2026-03-11T13:19:58.523373+05:30"},{"city":"Warangal","state":"Telangana","latitude":17.9689,"longitude":79.5941,"temp":34.0,"humidity":26,"rain":0.0,"pressure":983.2,"uv_index":8.45,"wind_gusts":23.4,"aqi":100,"pm10":17.9,"pm2_5":13.8,"mosquito_risk":0,"arthritis_risk":5,"migraine_risk":7,"frizz_risk":0,"updated_at":"2026-03-11T13:19:58.523380+05:30"},{"city":"Nizamabad","state":"Telangana","latitude":18.6725,"longitude":78.0941,"temp":35.4,"humidity":26,"rain":0.0,"pressure":969.3,"uv_index":8.35,"wind_gusts":24.5,"aqi":124,"pm10":49.4,"pm2_5":39.1,"mosquito_risk":0,"arthritis_risk":5,"migraine_risk":10,"frizz_risk":0,"updated_at":"2026-03-11T13:19:58.523386+05:30"},{"city":"Mysore","state":"Karnataka","latitude":12.2958,"longitude":76.6396,"temp":31.0,"humidity":30,"rain":0.0,"pressure":931.7,"uv_index":9.25,"wind_gusts":28.8,"aqi":66,"pm10":15.0,"pm2_5":12.4,"mosquito_risk":0,"arthritis_risk":5,"migraine_risk":7,"frizz_risk":0,"updated_at":"2026-03-11T13:19:58.523393+05:30"},{"city":"Mangalore","state":"Karnataka","latitude":12.9141,"longitude":74.856,"temp":28.4,"humidity":81,"rain":0.0,"pressure":1008.8,"uv_index":8.9,"wind_gusts":27.7,"aqi":115,"pm10":31.9,"pm2_5":28.3,"mosquito_risk":7,"arthritis_risk":0,"migraine_risk":4,"frizz_risk":1,"updated_at":"2026-03-11T13:19:58.523400+05:30"},{"city":"Hubli-Dharwad","state":"Karnataka","latitude":15.3647,"longitude":75.124,"temp":34.2,"humidity":20,"rain":0.0,"pressure":944.7,"uv_index":8.85,"wind_gusts":35.6,"aqi":101,"pm10":24.9,"pm2_5":19.2,"mosquito_risk":0,"arthritis_risk":5,"migraine_risk":7,"frizz_risk":0,"updated_at":"2026-03-11T13:19:58.523407+05:30"},{"city":"Belgaum","state":"Karnataka","latitude":15.8497,"longitude":74.4977,"temp":33.8,"humidity":20,"rain":0.0,"pressure":929.9,"uv_index":8.9,"wind_gusts":40.3,"aqi":122,"pm10":39.9,"pm2_5":31.5,"mosquito_risk":0,"arthritis_risk":5,"migraine_risk":7,"frizz_risk":0,"updated_at":"2026-03-11T13:20:14.772534+05:30"},{"city":"Coimbatore","state":"Tamil Nadu","latitude":11.0168,"longitude":76.9558,"temp":32.3,"humidity":36,"rain":0.0,"pressure":964.8,"uv_index":9.25,"wind_gusts":38.9,"aqi":73,"pm10":17.8,"pm2_5":15.3,"mosquito_risk":0,"arthritis_risk":5,"migraine_risk":7,"frizz_risk":0,"updated_at":"2026-03-11T13:20:14.772573+05:30"},{"city":"Madurai","state":"Tamil Nadu","latitude":9.9252,"longitude":78.1198,"temp":33.0,"humidity":44,"rain":0.0,"pressure":995.5,"uv_index":8.3,"wind_gusts":29.5,"aqi":68,"pm10":18.4,"pm2_5":15.9,"mosquito_risk":0,"arthritis_risk":5,"migraine_risk":7,"frizz_risk":1,"updated_at":"2026-03-11T13:20:14.772585+05:30"},{"city":"Trichy","state":"Tamil Nadu","latitude":10.7905,"longitude":78.7047,"temp":33.1,"humidity":45,"rain":0.0,"pressure":1002.6,"uv_index":9.15,"wind_gusts":28.1,"aqi":67,"pm10":19.6,"pm2_5":17.6,"mosquito_risk":0,"arthritis_risk":5,"migraine_risk":4,"frizz_risk":1,"updated_at":"2026-03-11T13:20:14.772597+05:30"},{"city":"Salem","state":"Tamil Nadu","latitude":11.6643,"longitude":78.146,"temp":32.8,"humidity":37,"rain":0.0,"pressure":980.5,"uv_index":9.15,"wind_gusts":25.2,"aqi":74,"pm10":20.1,"pm2_5":17.4,"mosquito_risk":0,"arthritis_risk":5,"migraine_risk":7,"frizz_risk":1,"updated_at":"2026-03-11T13:20:14.772608+05:30"},{"city":"Tirunelveli","state":"Tamil Nadu","latitude":8.7139,"longitude":77.7567,"temp":32.1,"humidity":50,"rain":0.0,"pressure":1006.1,"uv_index":6.2,"wind_gusts":25.9,"aqi":58,"pm10":11.8,"pm2_5":10.5,"mosquito_risk":0,"arthritis_risk":5,"migraine_risk":4,"frizz_risk":1,"updated_at":"2026-03-11T13:20:14.772618+05:30"},{"city":"Vellore","state":"Tamil Nadu","latitude":12.9165,"longitude":79.1325,"temp":32.3,"humidity":41,"rain":0.0,"pressure":988.3,"uv_index":9.1,"wind_gusts":33.1,"aqi":92,"pm10":19.2,"pm2_5":17.0,"mosquito_risk":0,"arthritis_risk":5,"migraine_risk":7,"frizz_risk":1,"updated_at":"2026-03-11T13:20:14.772629+05:30"},{"city":"Erode","state":"Tamil Nadu","latitude":11.341,"longitude":77.7172,"temp":33.8,"humidity":33,"rain":0.0,"pressure":992.1,"uv_index":9.15,"wind_gusts":20.5,"aqi":78,"pm10":22.6,"pm2_5":19.8,"mosquito_risk":0,"arthritis_risk":5,"migraine_risk":7,"frizz_risk":0,"updated_at":"2026-03-11T13:20:14.772640+05:30"},{"city":"Kochi","state":"Kerala","latitude":9.9312,"longitude":76.2673,"temp":28.5,"humidity":73,"rain":0.0,"pressure":1010.4,"uv_index":8.25,"wind_gusts":40.0,"aqi":123,"pm10":41.0,"pm2_5":34.8,"mosquito_risk":7,"arthritis_risk":0,"migraine_risk":4,"frizz_risk":1,"updated_at":"2026-03-11T13:20:14.772651+05:30"},{"city":"Thiruvananthapuram","state":"Kerala","latitude":8.5241,"longitude":76.9366,"temp":28.8,"humidity":72,"rain":0.0,"pressure":1009.3,"uv_index":7.3,"wind_gusts":29.2,"aqi":70,"pm10":16.6,"pm2_5":15.1,"mosquito_risk":7,"arthritis_risk":0,"migraine_risk":4,"frizz_risk":1,"updated_at":"2026-03-11T13:20:14.772662+05:30"},{"city":"Kozhikode","state":"Kerala","latitude":11.2588,"longitude":75.7804,"temp":29.4,"humidity":70,"rain":0.0,"pressure":1009.9,"uv_index":8.95,"wind_gusts":30.6,"aqi":125,"pm10":50.3,"pm2_5":42.1,"mosquito_risk":7,"arthritis_risk":0,"migraine_risk":4,"frizz_risk":1,"updated_at":"2026-03-11T13:20:14.772672+05:30"},{"city":"Thrissur","state":"Kerala","latitude":10.5276,"longitude":76.2144,"temp":37.6,"humidity":30,"rain":0.0,"pressure":1007.9,"uv_index":9.05,"wind_gusts":38.2,"aqi":93,"pm10":16.2,"pm2_5":14.4,"mosquito_risk":0,"arthritis_risk":5,"migraine_risk":7,"frizz_risk":1,"updated_at":"2026-03-11T13:20:14.772684+05:30"},{"city":"Kannur","state":"Kerala","latitude":11.8745,"longitude":75.3704,"temp":30.0,"humidity":71,"rain":0.0,"pressure":1009.7,"uv_index":8.95,"wind_gusts":36.7,"aqi":138,"pm10":45.5,"pm2_5":38.8,"mosquito_risk":7,"arthritis_risk":0,"migraine_risk":4,"frizz_risk":1,"updated_at":"2026-03-11T13:20:14.772695+05:30"},{"city":"Patna","state":"Bihar","latitude":25.5941,"longitude":85.1376,"temp":30.8,"humidity":58,"rain":0.0,"pressure":1004.4,"uv_index":6.85,"wind_gusts":24.1,"aqi":195,"pm10":147.6,"pm2_5":129.5,"mosquito_risk":0,"arthritis_risk":5,"migraine_risk":4,"frizz_risk":1,"updated_at":"2026-03-11T13:20:14.772705+05:30"},{"city":"Gaya","state":"Bihar","latitude":24.7914,"longitude":85.0002,"temp":30.2,"humidity":63,"rain":0.0,"pressure":997.7,"uv_index":7.5,"wind_gusts":21.2,"aqi":171,"pm10":104.3,"pm2_5":91.5,"mosquito_risk":3,"arthritis_risk":5,"migraine_risk":7,"frizz_risk":1,"updated_at":"2026-03-11T13:20:14.772715+05:30"},{"city":"Muzaffarpur","state":"Bihar","latitude":26.1209,"longitude":85.3647,"temp":30.9,"humidity":57,"rain":0.0,"pressure":1004.3,"uv_index":7.4,"wind_gusts":30.6,"aqi":209,"pm10":158.3,"pm2_5":137.4,"mosquito_risk":0,"arthritis_risk":5,"migraine_risk":4,"frizz_risk":1,"updated_at":"2026-03-11T13:20:14.772724+05:30"},{"city":"Bhagalpur","state":"Bihar","latitude":25.2425,"longitude":87.0117,"temp":30.0,"humidity":61,"rain":0.0,"pressure":1004.8,"uv_index":7.15,"wind_gusts":25.9,"aqi":172,"pm10":88.9,"pm2_5":77.1,"mosquito_risk":7,"arthritis_risk":5,"migraine_risk":4,"frizz_risk":1,"updated_at":"2026-03-11T13:20:14.772733+05:30"},{"city":"Ranchi","state":"Jharkhand","latitude":23.3441,"longitude":85.3096,"temp":31.0,"humidity":39,"rain":0.0,"pressure":941.1,"uv_index":8.15,"wind_gusts":29.9,"aqi":170,"pm10":106.4,"pm2_5":83.8,"mosquito_risk":0,"arthritis_risk":5,"migraine_risk":7,"frizz_risk":0,"updated_at":"2026-03-11T13:20:14.772742+05:30"},{"city":"Jamshedpur","state":"Jharkhand","latitude":22.8046,"longitude":86.2029,"temp":32.4,"humidity":53,"rain":0.0,"pressure":993.2,"uv_index":8.05,"wind_gusts":29.5,"aqi":158,"pm10":98.0,"pm2_5":81.5,"mosquito_risk":0,"arthritis_risk":5,"migraine_risk":7,"frizz_risk":1,"updated_at":"2026-03-11T13:20:14.772752+05:30"},{"city":"Dhanbad","state":"Jharkhand","latitude":23.7957,"longitude":86.4304,"temp":31.4,"humidity":54,"rain":0.0,"pressure":982.7,"uv_index":7.6,"wind_gusts":27.7,"aqi":189,"pm10":105.2,"pm2_5":91.7,"mosquito_risk":0,"arthritis_risk":5,"migraine_risk":7,"frizz_risk":1,"updated_at":"2026-03-11T13:20:14.772762+05:30"},{"city":"Bokaro","state":"Jharkhand","latitude":23.6693,"longitude":86.1511,"temp":31.2,"humidity":52,"rain":0.0,"pressure":986.7,"uv_index":7.75,"wind_gusts":40.7,"aqi":191,"pm10":125.7,"pm2_5":110.4,"mosquito_risk":0,"arthritis_risk":5,"migraine_risk":7,"frizz_risk":1,"updated_at":"2026-03-11T13:20:14.772771+05:30"},{"city":"Bhubaneswar","state":"Odisha","latitude":20.2961,"longitude":85.8245,"temp":33.2,"humidity":56,"rain":0.0,"pressure":1005.1,"uv_index":8.35,"wind_gusts":26.6,"aqi":122,"pm10":37.1,"pm2_5":31.0,"mosquito_risk":0,"arthritis_risk":5,"migraine_risk":4,"frizz_risk":1,"updated_at":"2026-03-11T13:20:14.772777+05:30"},{"city":"Cuttack","state":"Odisha","latitude":20.4625,"longitude":85.8828,"temp":34.6,"humidity":49,"rain":0.0,"pressure":1006.6,"uv_index":8.4,"wind_gusts":29.5,"aqi":122,"pm10":37.1,"pm2_5":31.0,"mosquito_risk":0,"arthritis_risk":5,"migraine_risk":4,"frizz_risk":1,"updated_at":"2026-03-11T13:20:14.772784+05:30"},{"city":"Rourkela","state":"Odisha","latitude":22.2604,"longitude":84.8536,"temp":34.6,"humidity":33,"rain":0.0,"pressure":987.6,"uv_index":7.95,"wind_gusts":27.4,"aqi":163,"pm10":104.5,"pm2_5":77.3,"mosquito_risk":0,"arthritis_risk":5,"migraine_risk":7,"frizz_risk":0,"updated_at":"2026-03-11T13:20:14.772790+05:30"},{"city":"Raipur","state":"Chhattisgarh","latitude":21.2514,"longitude":81.6296,"temp":36.5,"humidity":24,"rain":0.0,"pressure":978.3,"uv_index":8.05,"wind_gusts":24.8,"aqi":153,"pm10":102.2,"pm2_5":68.5,"mosquito_risk":0,"arthritis_risk":5,"migraine_risk":10,"frizz_risk":0,"updated_at":"2026-03-11T13:20:14.772796+05:30"},{"city":"Bhilai","state":"Chhattisgarh","latitude":21.1938,"longitude":81.3509,"temp":37.1,"humidity":23,"rain":0.0,"pressure":978.7,"uv_index":8.05,"wind_gusts":19.8,"aqi":150,"pm10":96.6,"pm2_5":62.4,"mosquito_risk":0,"arthritis_risk":5,"migraine_risk":10,"frizz_risk":0,"updated_at":"2026-03-11T13:20:14.772802+05:30"},{"city":"Guwahati","state":"Assam","latitude":26.1158,"longitude":91.7086,"temp":31.4,"humidity":50,"rain":0.0,"pressure":1003.5,"uv_index":7.35,"wind_gusts":23.8,"aqi":155,"pm10":69.8,"pm2_5":60.8,"mosquito_risk":0,"arthritis_risk":5,"migraine_risk":4,"frizz_risk":1,"updated_at":"2026-03-11T13:20:14.772807+05:30"},{"city":"Agartala","state":"Tripura","latitude":23.8315,"longitude":91.2868,"temp":31.2,"humidity":54,"rain":0.0,"pressure":1008.9,"uv_index":7.75,"wind_gusts":19.8,"aqi":169,"pm10":87.8,"pm2_5":75.7,"mosquito_risk":0,"arthritis_risk":0,"migraine_risk":4,"frizz_risk":1,"updated_at":"2026-03-11T13:20:14.772812+05:30"},{"city":"Shillong","state":"Meghalaya","latitude":25.5788,"longitude":91.8933,"temp":20.7,"humidity":48,"rain":0.0,"pressure":859.8,"uv_index":6.65,"wind_gusts":18.4,"aqi":138,"pm10":43.3,"pm2_5":38.5,"mosquito_risk":0,"arthritis_risk":5,"migraine_risk":7,"frizz_risk":0,"updated_at":"2026-03-11T13:20:14.772818+05:30"},{"city":"Imphal","state":"Manipur","latitude":24.817,"longitude":93.9368,"temp":24.4,"humidity":50,"rain":0.0,"pressure":925.5,"uv_index":7.95,"wind_gusts":36.4,"aqi":154,"pm10":53.7,"pm2_5":46.2,"mosquito_risk":0,"arthritis_risk":5,"migraine_risk":7,"frizz_risk":0,"updated_at":"2026-03-11T13:20:14.772824+05:30"},{"city":"Aizawl","state":"Mizoram","latitude":23.7271,"longitude":92.7176,"temp":25.1,"humidity":50,"rain":0.0,"pressure":896.0,"uv_index":7.9,"wind_gusts":28.8,"aqi":178,"pm10":89.6,"pm2_5":78.7,"mosquito_risk":4,"arthritis_risk":5,"migraine_risk":7,"frizz_risk":0,"updated_at":"2026-03-11T13:20:14.772831+05:30"},{"city":"Kohima","state":"Nagaland","latitude":25.6701,"longitude":94.1077,"temp":18.7,"humidity":73,"rain":0.0,"pressure":857.7,"uv_index":7.05,"wind_gusts":34.2,"aqi":140,"pm10":55.4,"pm2_5":49.0,"mosquito_risk":3,"arthritis_risk":5,"migraine_risk":7,"frizz_risk":0,"updated_at":"2026-03-11T13:20:14.772837+05:30"},{"city":"Gangtok","state":"Sikkim","latitude":27.3314,"longitude":88.6138,"temp":21.9,"humidity":56,"rain":0.0,"pressure":841.5,"uv_index":6.3,"wind_gusts":20.9,"aqi":133,"pm10":57.3,"pm2_5":49.6,"mosquito_risk":0,"arthritis_risk":5,"migraine_risk":7,"frizz_risk":0,"updated_at":"2026-03-11T13:20:14.772842+05:30"},{"city":"Siliguri","state":"West Bengal","latitude":26.7271,"longitude":88.3953,"temp":24.8,"humidity":72,"rain":0.0,"pressure":997.4,"uv_index":5.75,"wind_gusts":21.2,"aqi":164,"pm10":97.8,"pm2_5":83.8,"mosquito_risk":3,"arthritis_risk":5,"migraine_risk":3,"frizz_risk":1,"updated_at":"2026-03-11T13:20:18.032018+05:30"},{"city":"Durgapur","state":"West Bengal","latitude":23.5204,"longitude":87.3119,"temp":30.9,"humidity":58,"rain":0.0,"pressure":998.1,"uv_index":7.6,"wind_gusts":30.2,"aqi":162,"pm10":82.4,"pm2_5":71.2,"mosquito_risk":0,"arthritis_risk":5,"migraine_risk":7,"frizz_risk":1,"updated_at":"2026-03-11T13:20:18.032049+05:30"},{"city":"Asansol","state":"West Bengal","latitude":23.6739,"longitude":86.9524,"temp":30.1,"humidity":60,"rain":0.0,"pressure":996.8,"uv_index":7.85,"wind_gusts":22.3,"aqi":168,"pm10":83.4,"pm2_5":70.8,"mosquito_risk":0,"arthritis_risk":5,"migraine_risk":7,"frizz_risk":1,"updated_at":"2026-03-11T13:20:18.032059+05:30"},{"city":"Pondicherry","state":"Puducherry","latitude":11.9139,"longitude":79.8145,"temp":32.5,"humidity":51,"rain":0.0,"pressure":1011.7,"uv_index":9.0,"wind_gusts":31.7,"aqi":59,"pm10":21.2,"pm2_5":16.4,"mosquito_risk":0,"arthritis_risk":0,"migraine_risk":4,"frizz_risk":1,"updated_at":"2026-03-11T13:20:18.032068+05:30"},{"city":"Port Blair","state":"Andaman and Nicobar Islands","latitude":11.6234,"longitude":92.7265,"temp":28.3,"humidity":78,"rain":0.0,"pressure":1008.8,"uv_index":8.95,"wind_gusts":20.2,"aqi":62,"pm10":21.2,"pm2_5":18.1,"mosquito_risk":7,"arthritis_risk":0,"migraine_risk":4,"frizz_risk":1,"updated_at":"2026-03-11T13:20:18.032075+05:30"},{"city":"Haridwar","state":"Uttarakhand","latitude":29.9457,"longitude":78.1642,"temp":31.7,"humidity":46,"rain":0.0,"pressure":979.1,"uv_index":5.9,"wind_gusts":38.5,"aqi":159,"pm10":74.3,"pm2_5":50.6,"mosquito_risk":0,"arthritis_risk":5,"migraine_risk":3,"frizz_risk":1,"updated_at":"2026-03-11T13:20:18.032083+05:30"},{"city":"Rishikesh","state":"Uttarakhand","latitude":30.0869,"longitude":78.2676,"temp":31.3,"humidity":46,"rain":0.0,"pressure":971.9,"uv_index":5.9,"wind_gusts":34.2,"aqi":155,"pm10":60.1,"pm2_5":37.5,"mosquito_risk":0,"arthritis_risk":5,"migraine_risk":3,"frizz_risk":1,"updated_at":"2026-03-11T13:20:18.032091+05:30"},{"city":"Nainital","state":"Uttarakhand","latitude":29.3919,"longitude":79.4542,"temp":23.3,"humidity":68,"rain":0.0,"pressure":812.1,"uv_index":6.8,"wind_gusts":67.3,"aqi":175,"pm10":99.4,"pm2_5":70.8,"mosquito_risk":3,"arthritis_risk":5,"migraine_risk":7,"frizz_risk":1,"updated_at":"2026-03-11T13:20:18.032098+05:30"},{"city":"Mussoorie","state":"Uttarakhand","latitude":30.4599,"longitude":78.0664,"temp":23.1,"humidity":51,"rain":0.0,"pressure":809.6,"uv_index":5.6,"wind_gusts":40.7,"aqi":152,"pm10":45.5,"pm2_5":29.9,"mosquito_risk":0,"arthritis_risk":5,"migraine_risk":3,"frizz_risk":0,"updated_at":"2026-03-11T13:20:18.032106+05:30"},{"city":"Dharamshala","state":"Himachal Pradesh","latitude":32.219,"longitude":76.3234,"temp":24.7,"humidity":36,"rain":0.0,"pressure":875.5,"uv_index":5.5,"wind_gusts":25.9,"aqi":62,"pm10":42.6,"pm2_5":19.7,"mosquito_risk":0,"arthritis_risk":5,"migraine_risk":3,"frizz_risk":0,"updated_at":"2026-03-11T13:20:18.032113+05:30"},{"city":"Dalhousie","state":"Himachal Pradesh","latitude":32.5387,"longitude":75.971,"temp":23.1,"humidity":26,"rain":0.0,"pressure":810.8,"uv_index":4.75,"wind_gusts":19.8,"aqi":96,"pm10":19.4,"pm2_5":14.7,"mosquito_risk":0,"arthritis_risk":5,"migraine_risk":3,"frizz_risk":0,"updated_at":"2026-03-11T13:20:18.032119+05:30"},{"city":"Patiala","state":"Punjab","latitude":30.3398,"longitude":76.3869,"temp":32.5,"humidity":39,"rain":0.0,"pressure":983.5,"uv_index":5.3,"wind_gusts":17.6,"aqi":171,"pm10":76.6,"pm2_5":54.6,"mosquito_risk":0,"arthritis_risk":5,"migraine_risk":3,"frizz_risk":1,"updated_at":"2026-03-11T13:20:18.032125+05:30"},{"city":"Bhatinda","state":"Punjab","latitude":30.211,"longitude":74.9455,"temp":32.4,"humidity":40,"rain":0.0,"pressure":988.9,"uv_index":6.6,"wind_gusts":21.6,"aqi":152,"pm10":101.5,"pm2_5":42.5,"mosquito_risk":0,"arthritis_risk":5,"migraine_risk":7,"frizz_risk":1,"updated_at":"2026-03-11T13:20:18.032130+05:30"},{"city":"Rohtak","state":"Haryana","latitude":28.8955,"longitude":76.6066,"temp":34.0,"humidity":33,"rain":0.0,"pressure":987.0,"uv_index":6.1,"wind_gusts":25.6,"aqi":175,"pm10":285.9,"pm2_5":49.2,"mosquito_risk":0,"arthritis_risk":5,"migraine_risk":7,"frizz_risk":0,"updated_at":"2026-03-11T13:20:18.032136+05:30"},{"city":"Panipat","state":"Haryana","latitude":29.3909,"longitude":76.9635,"temp":33.4,"humidity":34,"rain":0.0,"pressure":985.6,"uv_index":5.35,"wind_gusts":22.7,"aqi":189,"pm10":299.9,"pm2_5":53.6,"mosquito_risk":0,"arthritis_risk":5,"migraine_risk":3,"frizz_risk":0,"updated_at":"2026-03-11T13:20:18.032141+05:30"},{"city":"Mathura","state":"Uttar Pradesh","latitude":27.4924,"longitude":77.6737,"temp":36.9,"humidity":26,"rain":0.0,"pressure":991.5,"uv_index":6.4,"wind_gusts":23.4,"aqi":199,"pm10":411.6,"pm2_5":64.5,"mosquito_risk":0,"arthritis_risk":5,"migraine_risk":10,"frizz_risk":0,"updated_at":"2026-03-11T13:20:18.032147+05:30"},{"city":"Vrindavan","state":"Uttar Pradesh","latitude":27.5823,"longitude":77.7027,"temp":36.3,"humidity":27,"rain":0.0,"pressure":992.1,"uv_index":6.4,"wind_gusts":24.1,"aqi":199,"pm10":411.6,"pm2_5":64.5,"mosquito_risk":0,"arthritis_risk":5,"migraine_risk":10,"frizz_risk":0,"updated_at":"2026-03-11T13:20:18.032152+05:30"},{"city":"Ayodhya","state":"Uttar Pradesh","latitude":26.7922,"longitude":82.1998,"temp":32.3,"humidity":48,"rain":0.0,"pressure":999.4,"uv_index":6.8,"wind_gusts":28.4,"aqi":197,"pm10":168.1,"pm2_5":121.5,"mosquito_risk":0,"arthritis_risk":5,"migraine_risk":7,"frizz_risk":1,"updated_at":"2026-03-11T13:20:18.032157+05:30"},{"city":"Ratlam","state":"Madhya Pradesh","latitude":23.3315,"longitude":75.0367,"temp":36.0,"humidity":17,"rain":0.0,"pressure":960.2,"uv_index":7.6,"wind_gusts":19.8,"aqi":69,"pm10":23.2,"pm2_5":10.6,"mosquito_risk":0,"arthritis_risk":5,"migraine_risk":10,"frizz_risk":0,"updated_at":"2026-03-11T13:20:18.032163+05:30"},{"city":"Sagar","state":"Madhya Pradesh","latitude":23.8388,"longitude":78.7378,"temp":36.1,"humidity":15,"rain":0.0,"pressure":955.7,"uv_index":7.55,"wind_gusts":25.2,"aqi":69,"pm10":72.4,"pm2_5":19.4,"mosquito_risk":0,"arthritis_risk":5,"migraine_risk":10,"frizz_risk":0,"updated_at":"2026-03-11T13:20:18.032168+05:30"},{"city":"Satna","state":"Madhya Pradesh","latitude":24.6005,"longitude":80.8322,"temp":35.8,"humidity":21,"rain":0.0,"pressure":976.1,"uv_index":7.55,"wind_gusts":34.2,"aqi":151,"pm10":78.5,"pm2_5":27.4,"mosquito_risk":0,"arthritis_risk":5,"migraine_risk":10,"frizz_risk":0,"updated_at":"2026-03-11T13:20:18.032174+05:30"},{"city":"Akola","state":"Maharashtra","latitude":20.7002,"longitude":77.0082,"temp":38.6,"humidity":18,"rain":0.0,"pressure":979.1,"uv_index":8.0,"wind_gusts":16.2,"aqi":69,"pm10":32.1,"pm2_5":18.7,"mosquito_risk":0,"arthritis_risk":5,"migraine_risk":10,"frizz_risk":0,"updated_at":"2026-03-11T13:20:18.032180+05:30"},{"city":"Amravati","state":"Maharashtra","latitude":20.9374,"longitude":77.7796,"temp":38.1,"humidity":18,"rain":0.0,"pressure":971.3,"uv_index":8.0,"wind_gusts":9.7,"aqi":71,"pm10":37.7,"pm2_5":19.7,"mosquito_risk":0,"arthritis_risk":5,"migraine_risk":10,"frizz_risk":0,"updated_at":"2026-03-11T13:20:18.032186+05:30"},{"city":"Latur","state":"Maharashtra","latitude":18.4088,"longitude":76.5604,"temp":34.0,"humidity":28,"rain":0.0,"pressure":944.5,"uv_index":8.45,"wind_gusts":24.1,"aqi":111,"pm10":29.3,"pm2_5":23.1,"mosquito_risk":0,"arthritis_risk":5,"migraine_risk":7,"frizz_risk":0,"updated_at":"2026-03-11T13:20:18.032192+05:30"},{"city":"Nanded","state":"Maharashtra","latitude":19.1383,"longitude":77.3091,"temp":36.8,"humidity":25,"rain":0.0,"pressure":973.0,"uv_index":8.25,"wind_gusts":18.0,"aqi":125,"pm10":46.8,"pm2_5":38.5,"mosquito_risk":0,"arthritis_risk":5,"migraine_risk":10,"frizz_risk":0,"updated_at":"2026-03-11T13:20:18.032197+05:30"},{"city":"Gulbarga","state":"Karnataka","latitude":17.3297,"longitude":76.8343,"temp":35.4,"humidity":21,"rain":0.0,"pressure":963.3,"uv_index":8.5,"wind_gusts":21.6,"aqi":108,"pm10":37.7,"pm2_5":29.5,"mosquito_risk":0,"arthritis_risk":5,"migraine_risk":10,"frizz_risk":0,"updated_at":"2026-03-11T13:20:18.032202+05:30"},{"city":"Bidar","state":"Karnataka","latitude":17.9104,"longitude":77.5199,"temp":34.1,"humidity":23,"rain":0.0,"pressure":940.3,"uv_index":8.5,"wind_gusts":22.7,"aqi":110,"pm10":41.4,"pm2_5":32.1,"mosquito_risk":0,"arthritis_risk":5,"migraine_risk":7,"frizz_risk":0,"updated_at":"2026-03-11T13:20:18.032207+05:30"},{"city":"Hospet","state":"Karnataka","latitude":15.2689,"longitude":76.3909,"temp":33.3,"humidity":23,"rain":0.0,"pressure":959.8,"uv_index":8.8,"wind_gusts":25.6,"aqi":84,"pm10":14.7,"pm2_5":12.6,"mosquito_risk":0,"arthritis_risk":5,"migraine_risk":7,"frizz_risk":0,"updated_at":"2026-03-11T13:20:18.032212+05:30"},{"city":"Tirupur","state":"Tamil Nadu","latitude":11.1085,"longitude":77.3411,"temp":33.3,"humidity":35,"rain":0.0,"pressure":978.4,"uv_index":9.3,"wind_gusts":31.0,"aqi":87,"pm10":24.0,"pm2_5":21.3,"mosquito_risk":0,"arthritis_risk":5,"migraine_risk":7,"frizz_risk":0,"updated_at":"2026-03-11T13:20:18.032217+05:30"},{"city":"Alappuzha","state":"Kerala","latitude":9.4981,"longitude":76.3388,"temp":28.3,"humidity":76,"rain":0.0,"pressure":1010.5,"uv_index":8.6,"wind_gusts":37.4,"aqi":123,"pm10":42.0,"pm2_5":35.6,"mosquito_risk":7,"arthritis_risk":0,"migraine_risk":4,"frizz_risk":1,"updated_at":"2026-03-11T13:20:18.032222+05:30"},{"city":"Munnar","state":"Kerala","latitude":10.0889,"longitude":77.0595,"temp":29.9,"humidity":37,"rain":0.0,"pressure":860.9,"uv_index":8.0,"wind_gusts":27.4,"aqi":64,"pm10":13.9,"pm2_5":11.8,"mosquito_risk":4,"arthritis_risk":5,"migraine_risk":7,"frizz_risk":0,"updated_at":"2026-03-11T13:20:18.032228+05:30"},{"city":"Silchar","state":"Assam","latitude":24.8333,"longitude":92.7789,"temp":31.0,"humidity":56,"rain":0.0,"pressure":1007.3,"uv_index":7.65,"wind_gusts":16.6,"aqi":168,"pm10":86.6,"pm2_5":74.5,"mosquito_risk":0,"arthritis_risk":5,"migraine_risk":4,"frizz_risk":1,"updated_at":"2026-03-11T13:20:18.032234+05:30"},{"city":"Dibrugarh","state":"Assam","latitude":27.4728,"longitude":94.912,"temp":28.7,"humidity":60,"rain":0.0,"pressure":997.9,"uv_index":7.45,"wind_gusts":21.6,"aqi":163,"pm10":86.1,"pm2_5":76.8,"mosquito_risk":4,"arthritis_risk":5,"migraine_risk":7,"frizz_risk":1,"updated_at":"2026-03-11T13:20:18.032263+05:30"}]