[{"city":"Delhi","state":"Delhi","latitude":28.6139,"longitude":77.209,"temp":20.2,"humidity":67,"rain":0.0,"pressure":984.4,"uv_index":5.8,"wind_gusts":24.5,"aqi":186,"pm10":270.1,"pm2_5":91.7,"mosquito_risk":3,"arthritis_risk":5,"migraine_risk":3,"frizz_risk":0,"updated_at":"2026-03-12T07:56:54.998677+05:30"},{"city":"Mumbai","state":"Maharashtra","latitude":19.076,"longitude":72.8777,"temp":26.4,"humidity":96,"rain":0.0,"pressure":1010.1,"uv_index":7.6,"wind_gusts":28.1,"aqi":154,"pm10":81.3,"pm2_5":75.9,"mosquito_risk":7,"arthritis_risk":0,"migraine_risk":4,"frizz_risk":1,"updated_at":"2026-03-12T07:56:54.998709+05:30"},{"city":"Bangalore","state":"Karnataka","latitude":12.9716,"longitude":77.5946,"temp":19.0,"humidity":90,"rain":0.0,"pressure":913.5,"uv_index":9.3,"wind_gusts":32.4,"aqi":64,"pm10":49.4,"pm2_5":48.1,"mosquito_risk":3,"arthritis_risk":10,"migraine_risk":7,"frizz_risk":1,"updated_at":"2026-03-12T07:56:54.998724+05:30"},{"city":"Hyderabad","state":"Telangana","latitude":17.385,"longitude":78.4867,"temp":22.1,"humidity":65,"rain":0.0,"pressure":955.9,"uv_index":8.65,"wind_gusts":22.0,"aqi":93,"pm10":52.9,"pm2_5":43.2,"mosquito_risk":3,"arthritis_risk":5,"migraine_risk":7,"frizz_risk":0,"updated_at":"2026-03-12T07:56:54.998733+05:30"},{"city":"Chennai","state":"Tamil Nadu","latitude":13.0827,"longitude":80.2707,"temp":24.6,"humidity":85,"rain":0.0,"pressure":1010.7,"uv_index":9.05,"wind_gusts":28.8,"aqi":71,"pm10":34.2,"pm2_5":30.6,"mosquito_risk":3,"arthritis_risk":0,"migraine_risk":4,"frizz_risk":1,"updated_at":"2026-03-12T07:56:54.998740+05:30"},{"city":"Kolkata","state":"West Bengal","latitude":22.5726,"longitude":88.3639,"temp":25.9,"humidity":89,"rain":0.0,"pressure":1009.6,"uv_index":8.0,"wind_gusts":19.4,"aqi":137,"pm10":50.8,"pm2_5":46.0,"mosquito_risk":7,"arthritis_risk":0,"migraine_risk":4,"frizz_risk":1,"updated_at":"2026-03-12T07:56:54.998748+05:30"},{"city":"Pune","state":"Maharashtra","latitude":18.5204,"longitude":73.8567,"temp":21.3,"humidity":64,"rain":0.0,"pressure":949.9,"uv_index":8.15,"wind_gusts":27.0,"aqi":139,"pm10":114.3,"pm2_5":107.3,"mosquito_risk":3,"arthritis_risk":5,"migraine_risk":7,"frizz_risk":0,"updated_at":"2026-03-12T07:56:54.998759+05:30"},{"city":"Ahmedabad","state":"Gujarat","latitude":23.0225,"longitude":72.5714,"temp":21.4,"humidity":52,"rain":0.0,"pressure":1005.4,"uv_index":7.45,"wind_gusts":30.2,"aqi":71,"pm10":24.2,"pm2_5":23.6,"mosquito_risk":0,"arthritis_risk":5,"migraine_risk":4,"frizz_risk":0,"updated_at":"2026-03-12T07:56:54.998765+05:30"},{"city":"Jaipur","state":"Rajasthan","latitude":26.9124,"longitude":75.7873,"temp":23.2,"humidity":35,"rain":0.0,"pressure":961.7,"uv_index":6.1,"wind_gusts":37.8,"aqi":97,"pm10":192.3,"pm2_5":34.5,"mosquito_risk":0,"arthritis_risk":5,"migraine_risk":7,"frizz_risk":0,"updated_at":"2026-03-12T07:56:54.998772+05:30"},{"city":"Lucknow","state":"Uttar Pradesh","latitude":26.8467,"longitude":80.9462,"temp":22.1,"humidity":77,"rain":0.0,"pressure":995.3,"uv_index":6.1,"wind_gusts":25.9,"aqi":158,"pm10":286.8,"pm2_5":74.3,"mosquito_risk":3,"arthritis_risk":5,"migraine_risk":7,"frizz_risk":1,"updated_at":"2026-03-12T07:56:54.998778+05:30"},{"city":"Kanpur","state":"Uttar Pradesh","latitude":26.4499,"longitude":80.3319,"temp":21.3,"humidity":81,"rain":0.0,"pressure":993.5,"uv_index":6.5,"wind_gusts":20.9,"aqi":168,"pm10":266.4,"pm2_5":62.4,"mosquito_risk":3,"arthritis_risk":5,"migraine_risk":7,"frizz_risk":1,"updated_at":"2026-03-12T07:56:54.998785+05:30"},{"city":"Chandigarh","state":"Chandigarh","latitude":30.7333,"longitude":76.7794,"temp":21.1,"humidity":66,"rain":0.0,"pressure":969.7,"uv_index":5.85,"wind_gusts":25.6,"aqi":104,"pm10":43.9,"pm2_5":36.4,"mosquito_risk":3,"arthritis_risk":5,"migraine_risk":3,"frizz_risk":0,"updated_at":"2026-03-12T07:56:54.998791+05:30"},{"city":"Srinagar","state":"Jammu and Kashmir","latitude":34.0837,"longitude":74.7973,"temp":7.9,"humidity":97,"rain":0.1,"pressure":841.5,"uv_index":6.9,"wind_gusts":22.7,"aqi":111,"pm10":40.3,"pm2_5":37.4,"mosquito_risk":6,"arthritis_risk":10,"migraine_risk":7,"frizz_risk":0,"updated_at":"2026-03-12T07:56:54.998798+05:30"},{"city":"Jammu","state":"Jammu and Kashmir","latitude":32.7266,"longitude":74.857,"temp":20.2,"humidity":67,"rain":0.0,"pressure":975.3,"uv_index":6.65,"wind_gusts":34.6,"aqi":81,"pm10":27.4,"pm2_5":22.7,"mosquito_risk":3,"arthritis_risk":5,"migraine_risk":7,"frizz_risk":0,"updated_at":"2026-03-12T07:56:54.998803+05:30"},{"city":"Amritsar","state":"Punjab","latitude":31.634,"longitude":74.8723,"temp":18.8,"humidity":81,"rain":0.0,"pressure":983.3,"uv_index":6.65,"wind_gusts":57.2,"aqi":159,"pm10":94.1,"pm2_5":75.9,"mosquito_risk":3,"arthritis_risk":10,"migraine_risk":7,"frizz_risk":0,"updated_at":"2026-03-12T07:56:54.998809+05:30"},{"city":"Ludhiana","state":"Punjab","latitude":30.901,"longitude":75.8573,"temp":21.5,"humidity":63,"rain":0.0,"pressure":980.3,"uv_index":6.15,"wind_gusts":31.3,"aqi":164,"pm10":96.2,"pm2_5":80.6,"mosquito_risk":3,"arthritis_risk":5,"migraine_risk":7,"frizz_risk":0,"updated_at":"2026-03-12T07:56:54.998814+05:30"},{"city":"Jalandhar","state":"Punjab","latitude":31.326,"longitude":75.5762,"temp":20.1,"humidity":78,"rain":0.0,"pressure":982.1,"uv_index":6.25,"wind_gusts":53.3,"aqi":158,"pm10":93.8,"pm2_5":77.1,"mosquito_risk":3,"arthritis_risk":5,"migraine_risk":7,"frizz_risk":1,"updated_at":"2026-03-12T07:56:54.998822+05:30"},{"city":"Dehradun","state":"Uttarakhand","latitude":30.6284,"longitude":78.0322,"temp":15.1,"humidity":59,"rain":0.0,"pressure":830.6,"uv_index":5.9,"wind_gusts":31.7,"aqi":60,"pm10":18.7,"pm2_5":11.5,"mosquito_risk":0,"arthritis_risk":5,"migraine_risk":3,"frizz_risk":0,"updated_at":"2026-03-12T07:56:54.998830+05:30"},{"city":"Shimla","state":"Himachal Pradesh","latitude":31.1048,"longitude":77.1734,"temp":12.5,"humidity":72,"rain":0.0,"pressure":784.3,"uv_index":6.5,"wind_gusts":40.3,"aqi":76,"pm10":37.4,"pm2_5":20.5,"mosquito_risk":3,"arthritis_risk":5,"migraine_risk":7,"frizz_risk":0,"updated_at":"2026-03-12T07:56:54.998836+05:30"},{"city":"Manali","state":"Himachal Pradesh","latitude":32.2396,"longitude":77.1887,"temp":14.5,"humidity":69,"rain":0.0,"pressure":821.1,"uv_index":4.45,"wind_gusts":43.6,"aqi":46,"pm10":7.3,"pm2_5":3.1,"mosquito_risk":3,"arthritis_risk":5,"migraine_risk":3,"frizz_risk":0,"updated_at":"2026-03-12T07:56:54.998842+05:30"},{"city":"Gurgaon","state":"Haryana","latitude":28.4595,"longitude":77.0266,"temp":17.9,"humidity":77,"rain":0.0,"pressure":982.7,"uv_index":5.95,"wind_gusts":22.3,"aqi":693,"pm10":987.2,"pm2_5":148.5,"mosquito_risk":3,"arthritis_risk":5,"migraine_risk":3,"frizz_risk":0,"updated_at":"2026-03-12T07:56:54.998848+05:30"},{"city":"Noida","state":"Uttar Pradesh","latitude":28.5355,"longitude":77.391,"temp":19.5,"humidity":73,"rain":0.0,"pressure":985.9,"uv_index":6.0,"wind_gusts":24.5,"aqi":693,"pm10":987.2,"pm2_5":148.5,"mosquito_risk":3,"arthritis_risk":5,"migraine_risk":3,"frizz_risk":0,"updated_at":"2026-03-12T07:56:54.998853+05:30"},{"city":"Ghaziabad","state":"Uttar Pradesh","latitude":28.6692,"longitude":77.4538,"temp":19.5,"humidity":76,"rain":0.0,"pressure":984.0,"uv_index":5.95,"wind_gusts":24.1,"aqi":157,"pm10":174.6,"pm2_5":79.4,"mosquito_risk":3,"arthritis_risk":5,"migraine_risk":3,"frizz_risk":0,"updated_at":"2026-03-12T07:56:54.998858+05:30"},{"city":"Faridabad","state":"Haryana","latitude":28.4089,"longitude":77.3178,"temp":21.0,"humidity":59,"rain":0.0,"pressure":985.2,"uv_index":6.1,"wind_gusts":23.4,"aqi":693,"pm10":987.2,"pm2_5":148.5,"mosquito_risk":0,"arthritis_risk":5,"migraine_risk":7,"frizz_risk":0,"updated_at":"2026-03-12T07:56:54.998864+05:30"},{"city":"Meerut","state":"Uttar Pradesh","latitude":28.9845,"longitude":77.7064,"temp":18.5,"humidity":82,"rain":0.0,"pressure":982.8,"uv_index":6.05,"wind_gusts":27.7,"aqi":157,"pm10":174.6,"pm2_5":79.4,"mosquito_risk":3,"arthritis_risk":10,"migraine_risk":7,"frizz_risk":0,"updated_at":"2026-03-12T07:56:54.998870+05:30"},{"city":"Agra","state":"Uttar Pradesh","latitude":27.1767,"longitude":78.0081,"temp":18.3,"humidity":79,"rain":0.0,"pressure":989.6,"uv_index":6.0,"wind_gusts":20.5,"aqi":401,"pm10":453.6,"pm2_5":75.4,"mosquito_risk":3,"arthritis_risk":5,"migraine_risk":3,"frizz_risk":0,"updated_at":"2026-03-12T07:56:54.998876+05:30"},{"city":"Varanasi","state":"Uttar Pradesh","latitude":25.3176,"longitude":82.9739,"temp":22.8,"humidity":76,"rain":0.0,"pressure":999.6,"uv_index":7.3,"wind_gusts":21.6,"aqi":162,"pm10":82.7,"pm2_5":45.2,"mosquito_risk":3,"arthritis_risk":5,"migraine_risk":7,"frizz_risk":1,"updated_at":"2026-03-12T07:56:54.998884+05:30"},{"city":"Prayagraj","state":"Uttar Pradesh","latitude":25.4358,"longitude":81.8463,"temp":22.2,"humidity":71,"rain":0.0,"pressure":998.0,"uv_index":6.7,"wind_gusts":22.3,"aqi":162,"pm10":82.0,"pm2_5":42.7,"mosquito_risk":3,"arthritis_risk":5,"migraine_risk":7,"frizz_risk":1,"updated_at":"2026-03-12T07:56:54.998890+05:30"},{"city":"Gorakhpur","state":"Uttar Pradesh","latitude":26.7606,"longitude":83.3732,"temp":22.0,"humidity":95,"rain":0.0,"pressure":999.3,"uv_index":6.6,"wind_gusts":18.0,"aqi":229,"pm10":220.7,"pm2_5":200.2,"mosquito_risk":3,"arthritis_risk":5,"migraine_risk":7,"frizz_risk":1,"updated_at":"2026-03-12T07:56:54.998896+05:30"},{"city":"Bareilly","state":"Uttar Pradesh","latitude":28.367,"longitude":79.4304,"temp":19.0,"humidity":88,"rain":0.0,"pressure":988.3,"uv_index":5.95,"wind_gusts":28.4,"aqi":161,"pm10":72.2,"pm2_5":49.4,"mosquito_risk":3,"arthritis_risk":10,"migraine_risk":3,"frizz_risk":1,"updated_at":"2026-03-12T07:56:54.998901+05:30"},{"city":"Aligarh","state":"Uttar Pradesh","latitude":27.8974,"longitude":78.088,"temp":19.0,"humidity":71,"rain":0.0,"pressure":987.1,"uv_index":5.7,"wind_gusts":27.0,"aqi":429,"pm10":379.0,"pm2_5":108.5,"mosquito_risk":3,"arthritis_risk":5,"migraine_risk":3,"frizz_risk":0,"updated_at":"2026-03-12T07:56:54.998909+05:30"},{"city":"Moradabad","state":"Uttar Pradesh","latitude":28.8386,"longitude":78.7733,"temp":19.3,"humidity":82,"rain":0.0,"pressure":985.0,"uv_index":5.9,"wind_gusts":32.8,"aqi":158,"pm10":83.4,"pm2_5":54.2,"mosquito_risk":3,"arthritis_risk":10,"migraine_risk":3,"frizz_risk":1,"updated_at":"2026-03-12T07:56:54.998915+05:30"},{"city":"Saharanpur","state":"Uttar Pradesh","latitude":29.9637,"longitude":77.546,"temp":18.8,"humidity":81,"rain":0.0,"pressure":976.6,"uv_index":5.15,"wind_gusts":29.2,"aqi":152,"pm10":102.0,"pm2_5":84.8,"mosquito_risk":3,"arthritis_risk":10,"migraine_risk":3,"frizz_risk":0,"updated_at":"2026-03-12T07:56:54.998921+05:30"},{"city":"Jhansi","state":"Uttar Pradesh","latitude":25.4484,"longitude":78.5685,"temp":21.7,"humidity":50,"rain":0.0,"pressure":980.0,"uv_index":6.65,"wind_gusts":28.1,"aqi":76,"pm10":24.0,"pm2_5":13.2,"mosquito_risk":0,"arthritis_risk":5,"migraine_risk":7,"frizz_risk":0,"updated_at":"2026-03-12T07:56:58.310502+05:30"},{"city":"Surat","state":"Gujarat","latitude":21.1702,"longitude":72.8311,"temp":25.2,"humidity":49,"rain":0.0,"pressure":1009.1,"uv_index":7.3,"wind_gusts":27.4,"aqi":150,"pm10":51.2,"pm2_5":49.9,"mosquito_risk":4,"arthritis_risk":0,"migraine_risk":4,"frizz_risk":0,"updated_at":"2026-03-12T07:56:58.310527+05:30"},{"city":"Vadodara","state":"Gujarat","latitude":22.3072,"longitude":73.1812,"temp":23.4,"humidity":43,"rain":0.0,"pressure":1007.2,"uv_index":7.45,"wind_gusts":23.8,"aqi":74,"pm10":30.2,"pm2_5":29.5,"mosquito_risk":0,"arthritis_risk":5,"migraine_risk":4,"frizz_risk":0,"updated_at":"2026-03-12T07:56:58.310539+05:30"},{"city":"Rajkot","state":"Gujarat","latitude":22.3039,"longitude":70.8022,"temp":21.2,"humidity":76,"rain":0.0,"pressure":997.5,"uv_index":7.3,"wind_gusts":32.0,"aqi":61,"pm10":26.3,"pm2_5":16.4,"mosquito_risk":3,"arthritis_risk":5,"migraine_risk":7,"frizz_risk":1,"updated_at":"2026-03-12T07:56:58.310548+05:30"},{"city":"Thane","state":"Maharashtra","latitude":19.2183,"longitude":72.9781,"temp":23.9,"humidity":98,"rain":0.0,"pressure":1009.7,"uv_index":7.6,"wind_gusts":39.6,"aqi":154,"pm10":81.3,"pm2_5":75.9,"mosquito_risk":3,"arthritis_risk":0,"migraine_risk":4,"frizz_risk":1,"updated_at":"2026-03-12T07:56:58.310556+05:30"},{"city":"Nagpur","state":"Maharashtra","latitude":21.1458,"longitude":79.0882,"temp":20.8,"humidity":72,"rain":0.0,"pressure":976.0,"uv_index":8.05,"wind_gusts":16.2,"aqi":91,"pm10":41.0,"pm2_5":26.1,"mosquito_risk":3,"arthritis_risk":5,"migraine_risk":7,"frizz_risk":0,"updated_at":"2026-03-12T07:56:58.310564+05:30"},{"city":"Nashik","state":"Maharashtra","latitude":19.9975,"longitude":73.7898,"temp":23.8,"humidity":43,"rain":0.0,"pressure":947.6,"uv_index":7.8,"wind_gusts":33.1,"aqi":110,"pm10":35.7,"pm2_5":32.9,"mosquito_risk":0,"arthritis_risk":5,"migraine_risk":7,"frizz_risk":0,"updated_at":"2026-03-12T07:56:58.310572+05:30"},{"city":"Aurangabad","state":"Maharashtra","latitude":19.8762,"longitude":75.3433,"temp":20.5,"humidity":67,"rain":0.0,"pressure":945.8,"uv_index":8.35,"wind_gusts":24.8,"aqi":105,"pm10":41.9,"pm2_5":35.6,"mosquito_risk":3,"arthritis_risk":5,"migraine_risk":7,"frizz_risk":0,"updated_at":"2026-03-12T07:56:58.310580+05:30"},{"city":"Solapur","state":"Maharashtra","latitude":17.6599,"longitude":75.9064,"temp":23.5,"humidity":70,"rain":0.0,"pressure":959.2,"uv_index":8.55,"wind_gusts":16.9,"aqi":97,"pm10":61.0,"pm2_5":53.2,"mosquito_risk":3,"arthritis_risk":5,"migraine_risk":7,"frizz_risk":1,"updated_at":"2026-03-12T07:56:58.310588+05:30"},{"city":"Kolhapur","state":"Maharashtra","latitude":16.705,"longitude":74.2433,"temp":22.2,"humidity":85,"rain":0.0,"pressure":949.7,"uv_index":8.65,"wind_gusts":25.9,"aqi":150,"pm10":113.4,"pm2_5":107.6,"mosquito_risk":3,"arthritis_risk":5,"migraine_risk":7,"frizz_risk":1,"updated_at":"2026-03-12T07:56:58.310596+05:30"},{"city":"Goa","state":"Goa","latitude":15.2993,"longitude":74.124,"temp":26.2,"humidity":92,"rain":0.0,"pressure":999.9,"uv_index":8.7,"wind_gusts":34.9,"aqi":148,"pm10":74.5,"pm2_5":66.6,"mosquito_risk":7,"arthritis_risk":5,"migraine_risk":7,"frizz_risk":1,"updated_at":"2026-03-12T07:56:58.310604+05:30"},{"city":"Jodhpur","state":"Rajasthan","latitude":26.2389,"longitude":73.0243,"temp":22.3,"humidity":31,"rain":0.0,"pressure":985.6,"uv_index":6.3,"wind_gusts":25.2,"aqi":78,"pm10":66.8,"pm2_5":20.5,"mosquito_risk":0,"arthritis_risk":5,"migraine_risk":7,"frizz_risk":0,"updated_at":"2026-03-12T07:56:58.310612+05:30"},{"city":"Udaipur","state":"Rajasthan","latitude":24.5854,"longitude":73.7125,"temp":19.0,"humidity":39,"rain":0.0,"pressure":949.2,"uv_index":7.45,"wind_gusts":29.5,"aqi":51,"pm10":15.4,"pm2_5":14.8,"mosquito_risk":0,"arthritis_risk":5,"migraine_risk":7,"frizz_risk":0,"updated_at":"2026-03-12T07:56:58.310620+05:30"},{"city":"Kota","state":"Rajasthan","latitude":25.2138,"longitude":75.8648,"temp":20.0,"humidity":55,"rain":0.0,"pressure":981.2,"uv_index":6.7,"wind_gusts":29.5,"aqi":82,"pm10":33.1,"pm2_5":23.3,"mosquito_risk":0,"arthritis_risk":5,"migraine_risk":7,"frizz_risk":0,"updated_at":"2026-03-12T07:56:58.310628+05:30"},{"city":"Bikaner","state":"Rajasthan","latitude":28.0229,"longitude":73.3119,"temp":21.7,"humidity":33,"rain":0.0,"pressure":983.6,"uv_index":6.3,"wind_gusts":20.2,"aqi":85,"pm10":136.0,"pm2_5":49.8,"mosquito_risk":0,"arthritis_risk":5,"migraine_risk":7,"frizz_risk":0,"updated_at":"2026-03-12T07:56:58.310635+05:30"},{"city":"Ajmer","state":"Rajasthan","latitude":26.4499,"longitude":74.6399,"temp":19.7,"humidity":51,"rain":0.0,"pressure":956.7,"uv_index":6.4,"wind_gusts":34.9,"aqi":62,"pm10":36.0,"pm2_5":15.6,"mosquito_risk":0,"arthritis_risk":5,"migraine_risk":7,"frizz_risk":0,"updated_at":"2026-03-12T07:56:58.310642+05:30"},{"city":"Gwalior","state":"Madhya Pradesh","latitude":26.2183,"longitude":78.1828,"temp":22.7,"humidity":52,"rain":0.0,"pressure":985.2,"uv_index":6.4,"wind_gusts":31.3,"aqi":75,"pm10":27.4,"pm2_5":15.5,"mosquito_risk":0,"arthritis_risk":5,"migraine_risk":7,"frizz_risk":0,"updated_at":"2026-03-12T07:56:58.310649+05:30"},{"city":"Indore","state":"Madhya Pradesh","latitude":22.7196,"longitude":75.8577,"temp":20.2,"humidity":47,"rain":0.0,"pressure":950.2,"uv_index":7.75,"wind_gusts":22.7,"aqi":68,"pm10":52.2,"pm2_5":41.3,"mosquito_risk":0,"arthritis_risk":5,"migraine_risk":7,"frizz_risk":0,"updated_at":"2026-03-12T07:56:58.310657+05:30"},{"city":"Bhopal","state":"Madhya Pradesh","latitude":23.2599,"longitude":77.4126,"temp":20.1,"humidity":52,"rain":0.0,"pressure":955.9,"uv_index":7.6,"wind_gusts":28.1,"aqi":66,"pm10":45.4,"pm2_5":25.5,"mosquito_risk":0,"arthritis_risk":5,"migraine_risk":7,"frizz_risk":0,"updated_at":"2026-03-12T07:56:58.310664+05:30"},{"city":"Jabalpur","state":"Madhya Pradesh","latitude":23.1815,"longitude":79.9864,"temp":21.6,"humidity":56,"rain":0.0,"pressure":964.2,"uv_index":7.7,"wind_gusts":19.8,"aqi":98,"pm10":75.7,"pm2_5":43.1,"mosquito_risk":0,"arthritis_risk":5,"migraine_risk":7,"frizz_risk":0,"updated_at":"2026-03-12T07:56:58.310671+05:30"},{"city":"Ujjain","state":"Madhya Pradesh","latitude":23.1765,"longitude":75.7885,"temp":19.7,"humidity":53,"rain":0.0,"pressure":956.1,"uv_index":7.65,"wind_gusts":18.7,"aqi":88,"pm10":61.9,"pm2_5":54.0,"mosquito_risk":0,"arthritis_risk":5,"migraine_risk":7,"frizz_risk":0,"updated_at":"2026-03-12T07:56:58.310679+05:30"},{"city":"Visakhapatnam","state":"Andhra Pradesh","latitude":17.6868,"longitude":83.2185,"temp":25.7,"humidity":69,"rain":0.0,"pressure":1006.8,"uv_index":8.65,"wind_gusts":39.6,"aqi":87,"pm10":34.5,"pm2_5":32.9,"mosquito_risk":7,"arthritis_risk":5,"migraine_risk":4,"frizz_risk":1,"updated_at":"2026-03-12T07:56:58.310686+05:30"},{"city":"Vijayawada","state":"Andhra Pradesh","latitude":16.5062,"longitude":80.648,"temp":24.6,"humidity":80,"rain":0.0,"pressure":1006.3,"uv_index":8.7,"wind_gusts":27.0,"aqi":72,"pm10":27.1,"pm2_5":26.1,"mosquito_risk":3,"arthritis_risk":5,"migraine_risk":4,"frizz_risk":1,"updated_at":"2026-03-12T07:56:58.310694+05:30"},{"city":"Guntur","state":"Andhra Pradesh","latitude":16.3067,"longitude":80.4365,"temp":24.1,"humidity":78,"rain":0.0,"pressure":1007.4,"uv_index":8.7,"wind_gusts":30.2,"aqi":67,"pm10":22.2,"pm2_5":21.6,"mosquito_risk":3,"arthritis_risk":5,"migraine_risk":4,"frizz_risk":1,"updated_at":"2026-03-12T07:56:58.310701+05:30"},{"city":"Nellore","state":"Andhra Pradesh","latitude":14.4426,"longitude":79.9865,"temp":24.2,"humidity":86,"rain":0.0,"pressure":1009.3,"uv_index":8.9,"wind_gusts":27.4,"aqi":63,"pm10":28.1,"pm2_5":26.0,"mosquito_risk":3,"arthritis_risk":0,"migraine_risk":4,"frizz_risk":1,"updated_at":"2026-03-12T07:56:58.310710+05:30"},{"city":"Kurnool","state":"Andhra Pradesh","latitude":15.8281,"longitude":78.0373,"temp":25.1,"humidity":57,"rain":0.0,"pressure":979.9,"uv_index":8.7,"wind_gusts":22.3,"aqi":72,"pm10":23.1,"pm2_5":22.5,"mosquito_risk":4,"arthritis_risk":5,"migraine_risk":7,"frizz_risk":0,"updated_at":"2026-03-12T07:56:58.310718+05:30"},{"city":"Kakinada","state":"Andhra Pradesh","latitude":16.9891,"longitude":82.2475,"temp":24.7,"humidity":83,"rain":0.0,"pressure":1011.1,"uv_index":8.65,"wind_gusts":34.6,"aqi":75,"pm10":25.3,"pm2_5":23.0,"mosquito_risk":3,"arthritis_risk":0,"migraine_risk":4,"frizz_risk":1,"updated_at":"2026-03-12T07:56:58.310726+05:30"},{"city":"Tirupati","state":"Andhra Pradesh","latitude":13.6288,"longitude":79.4192,"temp":21.9,"humidity":88,"rain":0.0,"pressure":995.1,"uv_index":9.05,"wind_gusts":34.6,"aqi":83,"pm10":58.1,"pm2_5":56.3,"mosquito_risk":3,"arthritis_risk":5,"migraine_risk":7,"frizz_risk":1,"updated_at":"2026-03-12T07:56:58.310733+05:30"},{"city":"Warangal","state":"Telangana","latitude":17.9689,"longitude":79.5941,"temp":23.7,"humidity":64,"rain":0.0,"pressure":981.2,"uv_index":8.5,"wind_gusts":17.3,"aqi":94,"pm10":44.4,"pm2_5":39.9,"mosquito_risk":3,"arthritis_risk":5,"migraine_risk":7,"frizz_risk":1,"updated_at":"2026-03-12T07:56:58.310739+05:30"},{"city":"Nizamabad","state":"Telangana","latitude":18.6725,"longitude":78.0941,"temp":24.0,"humidity":64,"rain":0.0,"pressure":967.5,"uv_index":8.35,"wind_gusts":22.0,"aqi":112,"pm10":49.5,"pm2_5":44.0,"mosquito_risk":3,"arthritis_risk":5,"migraine_risk":7,"frizz_risk":1,"updated_at":"2026-03-12T07:56:58.310744+05:30"},{"city":"Mysore","state":"Karnataka","latitude":12.2958,"longitude":76.6396,"temp":20.4,"humidity":75,"rain":0.0,"pressure":930.1,"uv_index":9.3,"wind_gusts":34.6,"aqi":63,"pm10":34.1,"pm2_5":32.7,"mosquito_risk":3,"arthritis_risk":5,"migraine_risk":7,"frizz_risk":0,"updated_at":"2026-03-12T07:56:58.310750+05:30"},{"city":"Mangalore","state":"Karnataka","latitude":12.9141,"longitude":74.856,"temp":28.2,"humidity":84,"rain":0.0,"pressure":1008.7,"uv_index":8.95,"wind_gusts":33.8,"aqi":98,"pm10":46.2,"pm2_5":43.0,"mosquito_risk":7,"arthritis_risk":0,"migraine_risk":4,"frizz_risk":1,"updated_at":"2026-03-12T07:56:58.310755+05:30"},{"city":"Hubli-Dharwad","state":"Karnataka","latitude":15.3647,"longitude":75.124,"temp":21.0,"humidity":82,"rain":0.0,"pressure":942.7,"uv_index":8.85,"wind_gusts":32.0,"aqi":63,"pm10":40.6,"pm2_5":36.8,"mosquito_risk":3,"arthritis_risk":5,"migraine_risk":7,"frizz_risk":1,"updated_at":"2026-03-12T07:56:58.310761+05:30"},{"city":"Belgaum","state":"Karnataka","latitude":15.8497,"longitude":74.4977,"temp":21.3,"humidity":82,"rain":0.0,"pressure":927.1,"uv_index":8.95,"wind_gusts":33.1,"aqi":109,"pm10":69.8,"pm2_5":62.2,"mosquito_risk":3,"arthritis_risk":5,"migraine_risk":7,"frizz_risk":1,"updated_at":"2026-03-12T07:57:01.628080+05:30"},{"city":"Coimbatore","state":"Tamil Nadu","latitude":11.0168,"longitude":76.9558,"temp":23.9,"humidity":81,"rain":0.0,"pressure":964.4,"uv_index":9.3,"wind_gusts":43.2,"aqi":74,"pm10":29.7,"pm2_5":28.6,"mosquito_risk":3,"arthritis_risk":5,"migraine_risk":7,"frizz_risk":1,"updated_at":"2026-03-12T07:57:01.628101+05:30"},{"city":"Madurai","state":"Tamil Nadu","latitude":9.9252,"longitude":78.1198,"temp":25.4,"humidity":85,"rain":0.0,"pressure":996.1,"uv_index":9.25,"wind_gusts":29.2,"aqi":70,"pm10":37.3,"pm2_5":35.6,"mosquito_risk":7,"arthritis_risk":5,"migraine_risk":7,"frizz_risk":1,"updated_at":"2026-03-12T07:57:01.628110+05:30"},{"city":"Trichy","state":"Tamil Nadu","latitude":10.7905,"longitude":78.7047,"temp":25.4,"humidity":87,"rain":0.0,"pressure":1003.3,"uv_index":9.15,"wind_gusts":26.3,"aqi":73,"pm10":43.4,"pm2_5":40.3,"mosquito_risk":7,"arthritis_risk":5,"migraine_risk":4,"frizz_risk":1,"updated_at":"2026-03-12T07:57:01.628117+05:30"},{"city":"Salem","state":"Tamil Nadu","latitude":11.6643,"longitude":78.146,"temp":23.3,"humidity":91,"rain":0.0,"pressure":980.6,"uv_index":9.2,"wind_gusts":28.8,"aqi":70,"pm10":42.7,"pm2_5":40.7,"mosquito_risk":3,"arthritis_risk":5,"migraine_risk":7,"frizz_risk":1,"updated_at":"2026-03-12T07:57:01.628124+05:30"},{"city":"Tirunelveli","state":"Tamil Nadu","latitude":8.7139,"longitude":77.7567,"temp":25.5,"humidity":80,"rain":0.0,"pressure":1006.3,"uv_index":8.8,"wind_gusts":40.0,"aqi":60,"pm10":22.4,"pm2_5":20.4,"mosquito_risk":7,"arthritis_risk":5,"migraine_risk":4,"frizz_risk":1,"updated_at":"2026-03-12T07:57:01.628130+05:30"},{"city":"Vellore","state":"Tamil Nadu","latitude":12.9165,"longitude":79.1325,"temp":21.9,"humidity":95,"rain":0.0,"pressure":988.2,"uv_index":9.1,"wind_gusts":33.8,"aqi":91,"pm10":57.0,"pm2_5":55.1,"mosquito_risk":3,"arthritis_risk":5,"migraine_risk":7,"frizz_risk":1,"updated_at":"2026-03-12T07:57:01.628136+05:30"},{"city":"Erode","state":"Tamil Nadu","latitude":11.341,"longitude":77.7172,"temp":24.8,"humidity":90,"rain":0.0,"pressure":992.4,"uv_index":9.15,"wind_gusts":23.0,"aqi":73,"pm10":32.2,"pm2_5":30.2,"mosquito_risk":3,"arthritis_risk":5,"migraine_risk":7,"frizz_risk":1,"updated_at":"2026-03-12T07:57:01.628142+05:30"},{"city":"Kochi","state":"Kerala","latitude":9.9312,"longitude":76.2673,"temp":26.9,"humidity":83,"rain":0.0,"pressure":1010.7,"uv_index":9.05,"wind_gusts":35.3,"aqi":99,"pm10":32.8,"pm2_5":31.9,"mosquito_risk":7,"arthritis_risk":0,"migraine_risk":4,"frizz_risk":1,"updated_at":"2026-03-12T07:57:01.628148+05:30"},{"city":"Thiruvananthapuram","state":"Kerala","latitude":8.5241,"longitude":76.9366,"temp":26.7,"humidity":81,"rain":0.0,"pressure":1010.0,"uv_index":9.05,"wind_gusts":26.6,"aqi":67,"pm10":12.5,"pm2_5":11.4,"mosquito_risk":7,"arthritis_risk":0,"migraine_risk":4,"frizz_risk":1,"updated_at":"2026-03-12T07:57:01.628154+05:30"},{"city":"Kozhikode","state":"Kerala","latitude":11.2588,"longitude":75.7804,"temp":27.3,"humidity":87,"rain":0.0,"pressure":1009.8,"uv_index":9.0,"wind_gusts":31.3,"aqi":100,"pm10":44.1,"pm2_5":40.2,"mosquito_risk":7,"arthritis_risk":0,"migraine_risk":4,"frizz_risk":1,"updated_at":"2026-03-12T07:57:01.628160+05:30"},{"city":"Thrissur","state":"Kerala","latitude":10.5276,"longitude":76.2144,"temp":26.1,"humidity":89,"rain":0.0,"pressure":1009.2,"uv_index":9.05,"wind_gusts":36.7,"aqi":91,"pm10":54.4,"pm2_5":52.5,"mosquito_risk":7,"arthritis_risk":0,"migraine_risk":4,"frizz_risk":1,"updated_at":"2026-03-12T07:57:01.628167+05:30"},{"city":"Kannur","state":"Kerala","latitude":11.8745,"longitude":75.3704,"temp":26.7,"humidity":82,"rain":0.0,"pressure":1008.9,"uv_index":9.0,"wind_gusts":31.7,"aqi":103,"pm10":42.6,"pm2_5":39.7,"mosquito_risk":7,"arthritis_risk":0,"migraine_risk":4,"frizz_risk":1,"updated_at":"2026-03-12T07:57:01.628202+05:30"},{"city":"Patna","state":"Bihar","latitude":25.5941,"longitude":85.1376,"temp":25.1,"humidity":89,"rain":0.0,"pressure":1003.3,"uv_index":7.45,"wind_gusts":22.3,"aqi":230,"pm10":220.3,"pm2_5":210.0,"mosquito_risk":7,"arthritis_risk":5,"migraine_risk":4,"frizz_risk":1,"updated_at":"2026-03-12T07:57:01.628209+05:30"},{"city":"Gaya","state":"Bihar","latitude":24.7914,"longitude":85.0002,"temp":25.1,"humidity":86,"rain":0.0,"pressure":996.6,"uv_index":7.3,"wind_gusts":21.2,"aqi":194,"pm10":144.8,"pm2_5":128.5,"mosquito_risk":7,"arthritis_risk":5,"migraine_risk":7,"frizz_risk":1,"updated_at":"2026-03-12T07:57:01.628215+05:30"},{"city":"Muzaffarpur","state":"Bihar","latitude":26.1209,"longitude":85.3647,"temp":24.0,"humidity":86,"rain":0.0,"pressure":1003.4,"uv_index":7.45,"wind_gusts":23.4,"aqi":236,"pm10":227.2,"pm2_5":214.7,"mosquito_risk":3,"arthritis_risk":5,"migraine_risk":4,"frizz_risk":1,"updated_at":"2026-03-12T07:57:01.628221+05:30"},{"city":"Bhagalpur","state":"Bihar","latitude":25.2425,"longitude":87.0117,"temp":22.2,"humidity":92,"rain":0.0,"pressure":1005.1,"uv_index":7.2,"wind_gusts":33.5,"aqi":186,"pm10":134.1,"pm2_5":121.1,"mosquito_risk":3,"arthritis_risk":5,"migraine_risk":4,"frizz_risk":1,"updated_at":"2026-03-12T07:57:01.628227+05:30"},{"city":"Ranchi","state":"Jharkhand","latitude":23.3441,"longitude":85.3096,"temp":22.0,"humidity":79,"rain":0.0,"pressure":940.7,"uv_index":8.2,"wind_gusts":35.6,"aqi":170,"pm10":136.4,"pm2_5":110.1,"mosquito_risk":3,"arthritis_risk":5,"migraine_risk":7,"frizz_risk":1,"updated_at":"2026-03-12T07:57:01.628232+05:30"},{"city":"Jamshedpur","state":"Jharkhand","latitude":22.8046,"longitude":86.2029,"temp":25.2,"humidity":87,"rain":0.0,"pressure":994.4,"uv_index":8.1,"wind_gusts":32.0,"aqi":168,"pm10":124.8,"pm2_5":112.7,"mosquito_risk":7,"arthritis_risk":5,"migraine_risk":7,"frizz_risk":1,"updated_at":"2026-03-12T07:57:01.628238+05:30"},{"city":"Dhanbad","state":"Jharkhand","latitude":23.7957,"longitude":86.4304,"temp":24.9,"humidity":81,"rain":0.0,"pressure":983.0,"uv_index":8.0,"wind_gusts":31.3,"aqi":198,"pm10":196.0,"pm2_5":185.8,"mosquito_risk":3,"arthritis_risk":5,"migraine_risk":7,"frizz_risk":1,"updated_at":"2026-03-12T07:57:01.628243+05:30"},{"city":"Bokaro","state":"Jharkhand","latitude":23.6693,"longitude":86.1511,"temp":25.1,"humidity":83,"rain":0.0,"pressure":987.1,"uv_index":8.0,"wind_gusts":22.3,"aqi":194,"pm10":171.8,"pm2_5":162.1,"mosquito_risk":7,"arthritis_risk":5,"migraine_risk":7,"frizz_risk":1,"updated_at":"2026-03-12T07:57:01.628249+05:30"},{"city":"Bhubaneswar","state":"Odisha","latitude":20.2961,"longitude":85.8245,"temp":26.0,"humidity":87,"rain":0.0,"pressure":1005.8,"uv_index":8.35,"wind_gusts":33.8,"aqi":97,"pm10":51.8,"pm2_5":48.2,"mosquito_risk":7,"arthritis_risk":5,"migraine_risk":4,"frizz_risk":1,"updated_at":"2026-03-12T07:57:01.628254+05:30"},{"city":"Cuttack","state":"Odisha","latitude":20.4625,"longitude":85.8828,"temp":26.2,"humidity":84,"rain":0.0,"pressure":1007.9,"uv_index":8.35,"wind_gusts":33.5,"aqi":97,"pm10":51.8,"pm2_5":48.2,"mosquito_risk":7,"arthritis_risk":5,"migraine_risk":4,"frizz_risk":1,"updated_at":"2026-03-12T07:57:01.628260+05:30"},{"city":"Rourkela","state":"Odisha","latitude":22.2604,"longitude":84.8536,"temp":24.1,"humidity":84,"rain":0.0,"pressure":988.5,"uv_index":8.0,"wind_gusts":18.4,"aqi":160,"pm10":104.3,"pm2_5":92.9,"mosquito_risk":3,"arthritis_risk":5,"migraine_risk":7,"frizz_risk":1,"updated_at":"2026-03-12T07:57:01.628265+05:30"},{"city":"Raipur","state":"Chhattisgarh","latitude":21.2514,"longitude":81.6296,"temp":22.5,"humidity":49,"rain":0.0,"pressure":977.9,"uv_index":8.1,"wind_gusts":18.0,"aqi":165,"pm10":147.6,"pm2_5":131.8,"mosquito_risk":0,"arthritis_risk":5,"migraine_risk":7,"frizz_risk":0,"updated_at":"2026-03-12T07:57:01.628271+05:30"},{"city":"Bhilai","state":"Chhattisgarh","latitude":21.1938,"longitude":81.3509,"temp":22.6,"humidity":48,"rain":0.0,"pressure":978.3,"uv_index":8.1,"wind_gusts":14.4,"aqi":159,"pm10":122.5,"pm2_5":101.5,"mosquito_risk":0,"arthritis_risk":5,"migraine_risk":7,"frizz_risk":0,"updated_at":"2026-03-12T07:57:01.628277+05:30"},{"city":"Guwahati","state":"Assam","latitude":26.1158,"longitude":91.7086,"temp":22.9,"humidity":92,"rain":0.0,"pressure":1007.0,"uv_index":7.3,"wind_gusts":18.7,"aqi":153,"pm10":58.2,"pm2_5":53.2,"mosquito_risk":3,"arthritis_risk":5,"migraine_risk":4,"frizz_risk":1,"updated_at":"2026-03-12T07:57:01.628282+05:30"},{"city":"Agartala","state":"Tripura","latitude":23.8315,"longitude":91.2868,"temp":22.8,"humidity":89,"rain":0.0,"pressure":1011.3,"uv_index":7.75,"wind_gusts":20.5,"aqi":167,"pm10":58.7,"pm2_5":54.8,"mosquito_risk":3,"arthritis_risk":0,"migraine_risk":4,"frizz_risk":1,"updated_at":"2026-03-12T07:57:01.628288+05:30"},{"city":"Shillong","state":"Meghalaya","latitude":25.5788,"longitude":91.8933,"temp":16.2,"humidity":75,"rain":0.0,"pressure":859.4,"uv_index":6.85,"wind_gusts":27.7,"aqi":117,"pm10":56.7,"pm2_5":50.1,"mosquito_risk":3,"arthritis_risk":5,"migraine_risk":7,"frizz_risk":0,"updated_at":"2026-03-12T07:57:01.628294+05:30"},{"city":"Imphal","state":"Manipur","latitude":24.817,"longitude":93.9368,"temp":20.3,"humidity":77,"rain":0.0,"pressure":927.6,"uv_index":8.0,"wind_gusts":31.0,"aqi":169,"pm10":122.0,"pm2_5":116.4,"mosquito_risk":3,"arthritis_risk":5,"migraine_risk":7,"frizz_risk":1,"updated_at":"2026-03-12T07:57:01.628299+05:30"},{"city":"Aizawl","state":"Mizoram","latitude":23.7271,"longitude":92.7176,"temp":19.8,"humidity":79,"rain":0.0,"pressure":896.5,"uv_index":7.9,"wind_gusts":31.3,"aqi":188,"pm10":177.0,"pm2_5":170.0,"mosquito_risk":3,"arthritis_risk":5,"migraine_risk":7,"frizz_risk":1,"updated_at":"2026-03-12T07:57:01.628305+05:30"},{"city":"Kohima","state":"Nagaland","latitude":25.6701,"longitude":94.1077,"temp":16.8,"humidity":79,"rain":0.0,"pressure":858.8,"uv_index":7.1,"wind_gusts":45.4,"aqi":152,"pm10":67.3,"pm2_5":62.4,"mosquito_risk":3,"arthritis_risk":5,"migraine_risk":7,"frizz_risk":0,"updated_at":"2026-03-12T07:57:01.628310+05:30"},{"city":"Gangtok","state":"Sikkim","latitude":27.3314,"longitude":88.6138,"temp":15.9,"humidity":74,"rain":0.0,"pressure":839.7,"uv_index":6.35,"wind_gusts":23.0,"aqi":129,"pm10":53.4,"pm2_5":47.7,"mosquito_risk":3,"arthritis_risk":5,"migraine_risk":7,"frizz_risk":0,"updated_at":"2026-03-12T07:57:01.628316+05:30"},{"city":"Siliguri","state":"West Bengal","latitude":26.7271,"longitude":88.3953,"temp":23.3,"humidity":73,"rain":0.0,"pressure":997.3,"uv_index":7.0,"wind_gusts":20.5,"aqi":177,"pm10":124.8,"pm2_5":114.6,"mosquito_risk":3,"arthritis_risk":5,"migraine_risk":7,"frizz_risk":1,"updated_at":"2026-03-12T07:57:04.946026+05:30"},{"city":"Durgapur","state":"West Bengal","latitude":23.5204,"longitude":87.3119,"temp":24.3,"humidity":85,"rain":0.0,"pressure":998.6,"uv_index":7.95,"wind_gusts":28.4,"aqi":182,"pm10":133.6,"pm2_5":123.9,"mosquito_risk":3,"arthritis_risk":5,"migraine_risk":7,"frizz_risk":1,"updated_at":"2026-03-12T07:57:04.946058+05:30"},{"city":"Asansol","state":"West Bengal","latitude":23.6739,"longitude":86.9524,"temp":24.7,"humidity":83,"rain":0.0,"pressure":997.1,"uv_index":7.65,"wind_gusts":27.7,"aqi":182,"pm10":154.6,"pm2_5":143.4,"mosquito_risk":3,"arthritis_risk":5,"migraine_risk":7,"frizz_risk":1,"updated_at":"2026-03-12T07:57:04.946070+05:30"},{"city":"Pondicherry","state":"Puducherry","latitude":11.9139,"longitude":79.8145,"temp":25.3,"humidity":90,"rain":0.0,"pressure":1012.0,"uv_index":9.0,"wind_gusts":27.7,"aqi":66,"pm10":33.2,"pm2_5":28.3,"mosquito_risk":7,"arthritis_risk":0,"migraine_risk":4,"frizz_risk":1,"updated_at":"2026-03-12T07:57:04.946080+05:30"},{"city":"Port Blair","state":"Andaman and Nicobar Islands","latitude":11.6234,"longitude":92.7265,"temp":27.3,"humidity":81,"rain":0.0,"pressure":1010.0,"uv_index":8.95,"wind_gusts":22.0,"aqi":48,"pm10":11.9,"pm2_5":9.3,"mosquito_risk":7,"arthritis_risk":0,"migraine_risk":4,"frizz_risk":1,"updated_at":"2026-03-12T07:57:04.946088+05:30"},{"city":"Haridwar","state":"Uttarakhand","latitude":29.9457,"longitude":78.1642,"temp":19.9,"humidity":82,"rain":0.0,"pressure":975.1,"uv_index":5.6,"wind_gusts":24.5,"aqi":114,"pm10":38.3,"pm2_5":33.5,"mosquito_risk":3,"arthritis_risk":10,"migraine_risk":3,"frizz_risk":1,"updated_at":"2026-03-12T07:57:04.946097+05:30"},{"city":"Rishikesh","state":"Uttarakhand","latitude":30.0869,"longitude":78.2676,"temp":20.2,"humidity":67,"rain":0.0,"pressure":968.0,"uv_index":5.6,"wind_gusts":19.4,"aqi":92,"pm10":26.0,"pm2_5":21.1,"mosquito_risk":3,"arthritis_risk":5,"migraine_risk":3,"frizz_risk":0,"updated_at":"2026-03-12T07:57:04.946105+05:30"},{"city":"Nainital","state":"Uttarakhand","latitude":29.3919,"longitude":79.4542,"temp":19.9,"humidity":44,"rain":0.0,"pressure":807.3,"uv_index":6.65,"wind_gusts":55.1,"aqi":110,"pm10":33.8,"pm2_5":27.2,"mosquito_risk":0,"arthritis_risk":5,"migraine_risk":7,"frizz_risk":0,"updated_at":"2026-03-12T07:57:04.946114+05:30"},{"city":"Mussoorie","state":"Uttarakhand","latitude":30.4599,"longitude":78.0664,"temp":17.3,"humidity":43,"rain":0.0,"pressure":803.5,"uv_index":5.75,"wind_gusts":38.9,"aqi":90,"pm10":24.3,"pm2_5":21.9,"mosquito_risk":0,"arthritis_risk":5,"migraine_risk":3,"frizz_risk":0,"updated_at":"2026-03-12T07:57:04.946123+05:30"},{"city":"Dharamshala","state":"Himachal Pradesh","latitude":32.219,"longitude":76.3234,"temp":20.0,"humidity":43,"rain":0.0,"pressure":870.7,"uv_index":6.2,"wind_gusts":27.7,"aqi":57,"pm10":20.4,"pm2_5":10.0,"mosquito_risk":0,"arthritis_risk":5,"migraine_risk":7,"frizz_risk":0,"updated_at":"2026-03-12T07:57:04.946131+05:30"},{"city":"Dalhousie","state":"Himachal Pradesh","latitude":32.5387,"longitude":75.971,"temp":16.4,"humidity":45,"rain":0.0,"pressure":805.4,"uv_index":5.0,"wind_gusts":31.3,"aqi":82,"pm10":21.4,"pm2_5":16.3,"mosquito_risk":0,"arthritis_risk":5,"migraine_risk":3,"frizz_risk":0,"updated_at":"2026-03-12T07:57:04.946139+05:30"},{"city":"Patiala","state":"Punjab","latitude":30.3398,"longitude":76.3869,"temp":21.1,"humidity":63,"rain":0.0,"pressure":979.3,"uv_index":5.75,"wind_gusts":32.0,"aqi":160,"pm10":132.2,"pm2_5":98.0,"mosquito_risk":3,"arthritis_risk":5,"migraine_risk":3,"frizz_risk":0,"updated_at":"2026-03-12T07:57:04.946147+05:30"},{"city":"Bhatinda","state":"Punjab","latitude":30.211,"longitude":74.9455,"temp":21.2,"humidity":74,"rain":0.0,"pressure":985.6,"uv_index":6.65,"wind_gusts":33.1,"aqi":153,"pm10":110.8,"pm2_5":92.4,"mosquito_risk":3,"arthritis_risk":5,"migraine_risk":7,"frizz_risk":1,"updated_at":"2026-03-12T07:57:04.946155+05:30"},{"city":"Rohtak","state":"Haryana","latitude":28.8955,"longitude":76.6066,"temp":19.1,"humidity":74,"rain":0.0,"pressure":983.1,"uv_index":6.05,"wind_gusts":22.7,"aqi":257,"pm10":373.5,"pm2_5":92.7,"mosquito_risk":3,"arthritis_risk":5,"migraine_risk":7,"frizz_risk":0,"updated_at":"2026-03-12T07:57:04.946162+05:30"},{"city":"Panipat","state":"Haryana","latitude":29.3909,"longitude":76.9635,"temp":19.4,"humidity":74,"rain":0.0,"pressure":981.7,"uv_index":5.85,"wind_gusts":24.5,"aqi":338,"pm10":443.3,"pm2_5":98.7,"mosquito_risk":3,"arthritis_risk":5,"migraine_risk":3,"frizz_risk":0,"updated_at":"2026-03-12T07:57:04.946196+05:30"},{"city":"Mathura","state":"Uttar Pradesh","latitude":27.4924,"longitude":77.6737,"temp":19.7,"humidity":68,"rain":0.0,"pressure":988.6,"uv_index":5.65,"wind_gusts":26.3,"aqi":390,"pm10":258.0,"pm2_5":61.2,"mosquito_risk":3,"arthritis_risk":5,"migraine_risk":3,"frizz_risk":0,"updated_at":"2026-03-12T07:57:04.946204+05:30"},{"city":"Vrindavan","state":"Uttar Pradesh","latitude":27.5823,"longitude":77.7027,"temp":19.0,"humidity":71,"rain":0.0,"pressure":988.9,"uv_index":5.7,"wind_gusts":28.1,"aqi":390,"pm10":258.0,"pm2_5":61.2,"mosquito_risk":3,"arthritis_risk":5,"migraine_risk":3,"frizz_risk":0,"updated_at":"2026-03-12T07:57:04.946209+05:30"},{"city":"Ayodhya","state":"Uttar Pradesh","latitude":26.7922,"longitude":82.1998,"temp":21.9,"humidity":84,"rain":0.0,"pressure":997.1,"uv_index":6.8,"wind_gusts":25.2,"aqi":168,"pm10":183.5,"pm2_5":76.8,"mosquito_risk":3,"arthritis_risk":5,"migraine_risk":7,"frizz_risk":1,"updated_at":"2026-03-12T07:57:04.946215+05:30"},{"city":"Ratlam","state":"Madhya Pradesh","latitude":23.3315,"longitude":75.0367,"temp":23.0,"humidity":40,"rain":0.0,"pressure":956.9,"uv_index":7.6,"wind_gusts":29.9,"aqi":80,"pm10":41.1,"pm2_5":36.4,"mosquito_risk":0,"arthritis_risk":5,"migraine_risk":7,"frizz_risk":0,"updated_at":"2026-03-12T07:57:04.946221+05:30"},{"city":"Sagar","state":"Madhya Pradesh","latitude":23.8388,"longitude":78.7378,"temp":20.9,"humidity":48,"rain":0.0,"pressure":952.3,"uv_index":7.35,"wind_gusts":26.6,"aqi":70,"pm10":41.1,"pm2_5":21.1,"mosquito_risk":0,"arthritis_risk":5,"migraine_risk":7,"frizz_risk":0,"updated_at":"2026-03-12T07:57:04.946226+05:30"},{"city":"Satna","state":"Madhya Pradesh","latitude":24.6005,"longitude":80.8322,"temp":22.8,"humidity":54,"rain":0.0,"pressure":973.7,"uv_index":7.55,"wind_gusts":31.0,"aqi":91,"pm10":41.4,"pm2_5":21.9,"mosquito_risk":0,"arthritis_risk":5,"migraine_risk":7,"frizz_risk":0,"updated_at":"2026-03-12T07:57:04.946232+05:30"},{"city":"Akola","state":"Maharashtra","latitude":20.7002,"longitude":77.0082,"temp":23.3,"humidity":56,"rain":0.0,"pressure":977.8,"uv_index":8.05,"wind_gusts":20.5,"aqi":97,"pm10":50.5,"pm2_5":40.9,"mosquito_risk":0,"arthritis_risk":5,"migraine_risk":7,"frizz_risk":0,"updated_at":"2026-03-12T07:57:04.946239+05:30"},{"city":"Amravati","state":"Maharashtra","latitude":20.9374,"longitude":77.7796,"temp":21.9,"humidity":62,"rain":0.0,"pressure":969.7,"uv_index":8.0,"wind_gusts":16.6,"aqi":96,"pm10":57.6,"pm2_5":47.3,"mosquito_risk":3,"arthritis_risk":5,"migraine_risk":7,"frizz_risk":0,"updated_at":"2026-03-12T07:57:04.946245+05:30"},{"city":"Latur","state":"Maharashtra","latitude":18.4088,"longitude":76.5604,"temp":22.2,"humidity":61,"rain":0.0,"pressure":941.7,"uv_index":8.45,"wind_gusts":18.4,"aqi":94,"pm10":48.2,"pm2_5":40.5,"mosquito_risk":3,"arthritis_risk":5,"migraine_risk":7,"frizz_risk":0,"updated_at":"2026-03-12T07:57:04.946251+05:30"},{"city":"Nanded","state":"Maharashtra","latitude":19.1383,"longitude":77.3091,"temp":22.9,"humidity":69,"rain":0.0,"pressure":971.1,"uv_index":8.25,"wind_gusts":17.6,"aqi":104,"pm10":46.6,"pm2_5":42.7,"mosquito_risk":3,"arthritis_risk":5,"migraine_risk":7,"frizz_risk":1,"updated_at":"2026-03-12T07:57:04.946259+05:30"},{"city":"Gulbarga","state":"Karnataka","latitude":17.3297,"longitude":76.8343,"temp":24.5,"humidity":60,"rain":0.0,"pressure":961.4,"uv_index":8.55,"wind_gusts":22.0,"aqi":96,"pm10":61.7,"pm2_5":52.0,"mosquito_risk":0,"arthritis_risk":5,"migraine_risk":7,"frizz_risk":1,"updated_at":"2026-03-12T07:57:04.946265+05:30"},{"city":"Bidar","state":"Karnataka","latitude":17.9104,"longitude":77.5199,"temp":24.0,"humidity":56,"rain":0.0,"pressure":937.8,"uv_index":8.5,"wind_gusts":23.8,"aqi":100,"pm10":50.3,"pm2_5":42.5,"mosquito_risk":0,"arthritis_risk":5,"migraine_risk":7,"frizz_risk":0,"updated_at":"2026-03-12T07:57:04.946270+05:30"},{"city":"Hospet","state":"Karnataka","latitude":15.2689,"longitude":76.3909,"temp":23.6,"humidity":68,"rain":0.0,"pressure":958.2,"uv_index":8.85,"wind_gusts":32.4,"aqi":71,"pm10":49.5,"pm2_5":44.9,"mosquito_risk":3,"arthritis_risk":5,"migraine_risk":7,"frizz_risk":1,"updated_at":"2026-03-12T07:57:04.946276+05:30"},{"city":"Tirupur","state":"Tamil Nadu","latitude":11.1085,"longitude":77.3411,"temp":24.2,"humidity":83,"rain":0.0,"pressure":978.3,"uv_index":9.3,"wind_gusts":32.8,"aqi":79,"pm10":36.0,"pm2_5":34.3,"mosquito_risk":3,"arthritis_risk":5,"migraine_risk":7,"frizz_risk":1,"updated_at":"2026-03-12T07:57:04.946282+05:30"},{"city":"Alappuzha","state":"Kerala","latitude":9.4981,"longitude":76.3388,"temp":26.5,"humidity":83,"rain":0.0,"pressure":1010.9,"uv_index":8.85,"wind_gusts":30.2,"aqi":90,"pm10":26.0,"pm2_5":24.7,"mosquito_risk":7,"arthritis_risk":0,"migraine_risk":4,"frizz_risk":1,"updated_at":"2026-03-12T07:57:04.946287+05:30"},{"city":"Munnar","state":"Kerala","latitude":10.0889,"longitude":77.0595,"temp":19.5,"humidity":76,"rain":0.0,"pressure":857.6,"uv_index":9.55,"wind_gusts":21.2,"aqi":70,"pm10":33.3,"pm2_5":32.5,"mosquito_risk":3,"arthritis_risk":5,"migraine_risk":7,"frizz_risk":0,"updated_at":"2026-03-12T07:57:04.946294+05:30"},{"city":"Silchar","state":"Assam","latitude":24.8333,"longitude":92.7789,"temp":23.6,"humidity":86,"rain":0.0,"pressure":1010.2,"uv_index":7.7,"wind_gusts":23.8,"aqi":182,"pm10":165.3,"pm2_5":156.5,"mosquito_risk":3,"arthritis_risk":0,"migraine_risk":4,"frizz_risk":1,"updated_at":"2026-03-12T07:57:04.946299+05:30"},{"city":"Dibrugarh","state":"Assam","latitude":27.4728,"longitude":94.912,"temp":22.7,"humidity":83,"rain":0.0,"pressure":1001.3,"uv_index":7.45,"wind_gusts":20.2,"aqi":155,"pm10":64.3,"pm2_5":57.7,"mosquito_risk":3,"arthritis_risk":5,"migraine_risk":4,"frizz_risk":1,"updated_at":"2026-03-12T07:57:04.946305+05:30"}]