[{"city":"Delhi","state":"Delhi","latitude":28.6139,"longitude":77.209,"temp":28.4,"humidity":85,"rain":0.0,"pressure":972.2,"uv_index":7.7,"wind_gusts":25.9,"aqi":446,"pm10":362.3,"pm2_5":137.8,"no2":74.1,"co":233.0,"o3":2.0,"so2":30.2,"mosquito_risk":7,"arthritis_risk":5,"migraine_risk":7,"frizz_risk":1,"updated_at":"2026-07-12T05:27:42.473317+05:30"},{"city":"Mumbai","state":"Maharashtra","latitude":19.076,"longitude":72.8777,"temp":27.6,"humidity":85,"rain":0.0,"pressure":1004.8,"uv_index":7.7,"wind_gusts":53.3,"aqi":53,"pm10":26.4,"pm2_5":10.3,"no2":3.2,"co":101.0,"o3":43.0,"so2":2.9,"mosquito_risk":7,"arthritis_risk":5,"migraine_risk":4,"frizz_risk":1,"updated_at":"2026-07-12T05:27:42.473368+05:30"},{"city":"Bangalore","state":"Karnataka","latitude":12.9716,"longitude":77.5946,"temp":20.3,"humidity":93,"rain":0.0,"pressure":909.5,"uv_index":8.9,"wind_gusts":47.9,"aqi":51,"pm10":14.8,"pm2_5":8.4,"no2":10.9,"co":155.0,"o3":26.0,"so2":4.0,"mosquito_risk":3,"arthritis_risk":5,"migraine_risk":7,"frizz_risk":1,"updated_at":"2026-07-12T05:27:42.473383+05:30"},{"city":"Hyderabad","state":"Telangana","latitude":17.385,"longitude":78.4867,"temp":25.0,"humidity":74,"rain":0.0,"pressure":949.8,"uv_index":8.55,"wind_gusts":53.6,"aqi":59,"pm10":24.3,"pm2_5":12.9,"no2":7.3,"co":125.0,"o3":37.0,"so2":4.2,"mosquito_risk":7,"arthritis_risk":5,"migraine_risk":7,"frizz_risk":1,"updated_at":"2026-07-12T05:27:42.473393+05:30"},{"city":"Chennai","state":"Tamil Nadu","latitude":13.0827,"longitude":80.2707,"temp":29.2,"humidity":62,"rain":0.0,"pressure":1002.7,"uv_index":8.45,"wind_gusts":40.0,"aqi":73,"pm10":32.2,"pm2_5":23.3,"no2":20.3,"co":280.0,"o3":36.0,"so2":9.0,"mosquito_risk":7,"arthritis_risk":5,"migraine_risk":4,"frizz_risk":1,"updated_at":"2026-07-12T05:27:42.473400+05:30"},{"city":"Kolkata","state":"West Bengal","latitude":22.5726,"longitude":88.3639,"temp":27.9,"humidity":92,"rain":0.0,"pressure":996.6,"uv_index":6.7,"wind_gusts":24.1,"aqi":132,"pm10":66.4,"pm2_5":50.2,"no2":12.1,"co":433.0,"o3":70.0,"so2":13.2,"mosquito_risk":7,"arthritis_risk":5,"migraine_risk":7,"frizz_risk":1,"updated_at":"2026-07-12T05:27:42.473406+05:30"},{"city":"Pune","state":"Maharashtra","latitude":18.5204,"longitude":73.8567,"temp":23.1,"humidity":91,"rain":0.0,"pressure":944.0,"uv_index":8.4,"wind_gusts":55.4,"aqi":35,"pm10":7.5,"pm2_5":3.8,"no2":3.8,"co":94.0,"o3":38.0,"so2":3.8,"mosquito_risk":3,"arthritis_risk":5,"migraine_risk":7,"frizz_risk":1,"updated_at":"2026-07-12T05:27:42.473412+05:30"},{"city":"Ahmedabad","state":"Gujarat","latitude":23.0225,"longitude":72.5714,"temp":27.1,"humidity":83,"rain":0.0,"pressure":995.1,"uv_index":8.1,"wind_gusts":52.2,"aqi":64,"pm10":27.2,"pm2_5":13.5,"no2":6.4,"co":106.0,"o3":36.0,"so2":4.0,"mosquito_risk":7,"arthritis_risk":5,"migraine_risk":7,"frizz_risk":1,"updated_at":"2026-07-12T05:27:42.473419+05:30"},{"city":"Jaipur","state":"Rajasthan","latitude":26.9124,"longitude":75.7873,"temp":27.0,"humidity":74,"rain":0.0,"pressure":950.3,"uv_index":8.2,"wind_gusts":38.5,"aqi":376,"pm10":527.1,"pm2_5":91.3,"no2":7.4,"co":140.0,"o3":52.0,"so2":4.0,"mosquito_risk":7,"arthritis_risk":5,"migraine_risk":7,"frizz_risk":1,"updated_at":"2026-07-12T05:27:42.473427+05:30"},{"city":"Lucknow","state":"Uttar Pradesh","latitude":26.8467,"longitude":80.9462,"temp":26.7,"humidity":93,"rain":0.0,"pressure":983.4,"uv_index":8.2,"wind_gusts":36.0,"aqi":153,"pm10":96.9,"pm2_5":50.2,"no2":29.5,"co":478.0,"o3":18.0,"so2":6.2,"mosquito_risk":7,"arthritis_risk":5,"migraine_risk":7,"frizz_risk":1,"updated_at":"2026-07-12T05:27:42.473434+05:30"},{"city":"Kanpur","state":"Uttar Pradesh","latitude":26.4499,"longitude":80.3319,"temp":28.4,"humidity":77,"rain":0.0,"pressure":981.6,"uv_index":8.2,"wind_gusts":36.7,"aqi":139,"pm10":79.2,"pm2_5":41.2,"no2":24.0,"co":185.0,"o3":31.0,"so2":7.9,"mosquito_risk":7,"arthritis_risk":5,"migraine_risk":7,"frizz_risk":1,"updated_at":"2026-07-12T05:27:42.473440+05:30"},{"city":"Chandigarh","state":"Chandigarh","latitude":30.7333,"longitude":76.7794,"temp":23.7,"humidity":99,"rain":0.4,"pressure":958.6,"uv_index":7.7,"wind_gusts":40.0,"aqi":152,"pm10":61.7,"pm2_5":59.8,"no2":48.0,"co":619.0,"o3":18.0,"so2":5.4,"mosquito_risk":6,"arthritis_risk":5,"migraine_risk":7,"frizz_risk":1,"updated_at":"2026-07-12T05:27:42.473446+05:30"},{"city":"Srinagar","state":"Jammu and Kashmir","latitude":34.0837,"longitude":74.7973,"temp":18.6,"humidity":95,"rain":0.0,"pressure":834.2,"uv_index":8.4,"wind_gusts":23.4,"aqi":57,"pm10":8.5,"pm2_5":8.1,"no2":7.9,"co":396.0,"o3":94.0,"so2":2.2,"mosquito_risk":3,"arthritis_risk":10,"migraine_risk":7,"frizz_risk":1,"updated_at":"2026-07-12T05:27:42.473452+05:30"},{"city":"Jammu","state":"Jammu and Kashmir","latitude":32.7266,"longitude":74.857,"temp":23.6,"humidity":97,"rain":0.0,"pressure":962.3,"uv_index":8.6,"wind_gusts":33.5,"aqi":106,"pm10":55.9,"pm2_5":47.0,"no2":45.8,"co":454.0,"o3":11.0,"so2":3.1,"mosquito_risk":3,"arthritis_risk":5,"migraine_risk":7,"frizz_risk":1,"updated_at":"2026-07-12T05:27:42.473458+05:30"},{"city":"Amritsar","state":"Punjab","latitude":31.634,"longitude":74.8723,"temp":25.2,"humidity":89,"rain":0.0,"pressure":969.0,"uv_index":8.45,"wind_gusts":45.0,"aqi":162,"pm10":91.7,"pm2_5":63.6,"no2":21.2,"co":300.0,"o3":60.0,"so2":8.4,"mosquito_risk":7,"arthritis_risk":5,"migraine_risk":7,"frizz_risk":1,"updated_at":"2026-07-12T05:27:42.473463+05:30"},{"city":"Ludhiana","state":"Punjab","latitude":30.901,"longitude":75.8573,"temp":24.0,"humidity":94,"rain":0.1,"pressure":967.2,"uv_index":7.95,"wind_gusts":46.1,"aqi":162,"pm10":121.1,"pm2_5":83.8,"no2":37.0,"co":387.0,"o3":44.0,"so2":16.3,"mosquito_risk":6,"arthritis_risk":5,"migraine_risk":7,"frizz_risk":1,"updated_at":"2026-07-12T05:27:42.473468+05:30"},{"city":"Jalandhar","state":"Punjab","latitude":31.326,"longitude":75.5762,"temp":24.5,"humidity":95,"rain":0.1,"pressure":968.4,"uv_index":8.15,"wind_gusts":45.4,"aqi":163,"pm10":85.9,"pm2_5":73.6,"no2":31.5,"co":364.0,"o3":51.0,"so2":16.3,"mosquito_risk":6,"arthritis_risk":5,"migraine_risk":7,"frizz_risk":1,"updated_at":"2026-07-12T05:27:42.473473+05:30"},{"city":"Dehradun","state":"Uttarakhand","latitude":30.6284,"longitude":78.0322,"temp":15.8,"humidity":100,"rain":0.0,"pressure":821.5,"uv_index":7.95,"wind_gusts":29.2,"aqi":53,"pm10":11.2,"pm2_5":11.2,"no2":23.8,"co":265.0,"o3":19.0,"so2":0.0,"mosquito_risk":3,"arthritis_risk":10,"migraine_risk":7,"frizz_risk":0,"updated_at":"2026-07-12T05:27:42.473478+05:30"},{"city":"Shimla","state":"Himachal Pradesh","latitude":31.1048,"longitude":77.1734,"temp":13.9,"humidity":97,"rain":0.1,"pressure":776.8,"uv_index":8.25,"wind_gusts":36.7,"aqi":98,"pm10":35.7,"pm2_5":35.6,"no2":10.2,"co":383.0,"o3":94.0,"so2":0.9,"mosquito_risk":6,"arthritis_risk":10,"migraine_risk":7,"frizz_risk":0,"updated_at":"2026-07-12T05:27:42.473483+05:30"},{"city":"Manali","state":"Himachal Pradesh","latitude":32.2396,"longitude":77.1887,"temp":14.9,"humidity":94,"rain":0.0,"pressure":809.5,"uv_index":9.3,"wind_gusts":28.4,"aqi":41,"pm10":4.3,"pm2_5":4.3,"no2":11.6,"co":239.0,"o3":91.0,"so2":0.0,"mosquito_risk":3,"arthritis_risk":10,"migraine_risk":7,"frizz_risk":0,"updated_at":"2026-07-12T05:27:42.473491+05:30"},{"city":"Gurgaon","state":"Haryana","latitude":28.4595,"longitude":77.0266,"temp":28.4,"humidity":78,"rain":0.0,"pressure":970.6,"uv_index":7.7,"wind_gusts":27.0,"aqi":518,"pm10":733.9,"pm2_5":153.7,"no2":29.5,"co":212.0,"o3":28.0,"so2":11.8,"mosquito_risk":7,"arthritis_risk":5,"migraine_risk":7,"frizz_risk":1,"updated_at":"2026-07-12T05:27:42.473496+05:30"},{"city":"Noida","state":"Uttar Pradesh","latitude":28.5355,"longitude":77.391,"temp":26.9,"humidity":94,"rain":0.0,"pressure":973.7,"uv_index":7.7,"wind_gusts":24.5,"aqi":518,"pm10":733.9,"pm2_5":153.7,"no2":29.5,"co":288.0,"o3":28.0,"so2":11.8,"mosquito_risk":7,"arthritis_risk":5,"migraine_risk":7,"frizz_risk":1,"updated_at":"2026-07-12T05:27:42.473503+05:30"},{"city":"Ghaziabad","state":"Uttar Pradesh","latitude":28.6692,"longitude":77.4538,"temp":26.3,"humidity":91,"rain":0.0,"pressure":972.0,"uv_index":7.7,"wind_gusts":26.6,"aqi":349,"pm10":413.5,"pm2_5":163.0,"no2":60.6,"co":703.0,"o3":5.0,"so2":17.7,"mosquito_risk":7,"arthritis_risk":5,"migraine_risk":7,"frizz_risk":1,"updated_at":"2026-07-12T05:27:42.473508+05:30"},{"city":"Faridabad","state":"Haryana","latitude":28.4089,"longitude":77.3178,"temp":27.4,"humidity":95,"rain":0.0,"pressure":972.9,"uv_index":7.75,"wind_gusts":26.6,"aqi":518,"pm10":733.9,"pm2_5":153.7,"no2":29.5,"co":229.0,"o3":28.0,"so2":11.8,"mosquito_risk":7,"arthritis_risk":5,"migraine_risk":7,"frizz_risk":1,"updated_at":"2026-07-12T05:27:42.473513+05:30"},{"city":"Meerut","state":"Uttar Pradesh","latitude":28.9845,"longitude":77.7064,"temp":25.7,"humidity":96,"rain":0.0,"pressure":970.8,"uv_index":7.55,"wind_gusts":29.2,"aqi":349,"pm10":413.5,"pm2_5":163.0,"no2":60.6,"co":377.0,"o3":5.0,"so2":17.7,"mosquito_risk":7,"arthritis_risk":5,"migraine_risk":7,"frizz_risk":1,"updated_at":"2026-07-12T05:27:42.473519+05:30"},{"city":"Agra","state":"Uttar Pradesh","latitude":27.1767,"longitude":78.0081,"temp":28.9,"humidity":71,"rain":0.0,"pressure":977.3,"uv_index":8.0,"wind_gusts":36.7,"aqi":150,"pm10":215.1,"pm2_5":43.7,"no2":16.5,"co":192.0,"o3":39.0,"so2":4.9,"mosquito_risk":7,"arthritis_risk":5,"migraine_risk":7,"frizz_risk":1,"updated_at":"2026-07-12T05:27:42.473524+05:30"},{"city":"Varanasi","state":"Uttar Pradesh","latitude":25.3176,"longitude":82.9739,"temp":28.4,"humidity":72,"rain":0.0,"pressure":987.9,"uv_index":8.55,"wind_gusts":42.1,"aqi":104,"pm10":45.2,"pm2_5":30.2,"no2":11.8,"co":211.0,"o3":50.0,"so2":6.8,"mosquito_risk":7,"arthritis_risk":5,"migraine_risk":7,"frizz_risk":1,"updated_at":"2026-07-12T05:27:42.473530+05:30"},{"city":"Prayagraj","state":"Uttar Pradesh","latitude":25.4358,"longitude":81.8463,"temp":29.2,"humidity":71,"rain":0.0,"pressure":986.3,"uv_index":8.6,"wind_gusts":43.6,"aqi":108,"pm10":51.5,"pm2_5":35.2,"no2":16.6,"co":170.0,"o3":41.0,"so2":5.4,"mosquito_risk":7,"arthritis_risk":5,"migraine_risk":7,"frizz_risk":1,"updated_at":"2026-07-12T05:27:42.473535+05:30"},{"city":"Gorakhpur","state":"Uttar Pradesh","latitude":26.7606,"longitude":83.3732,"temp":26.0,"humidity":96,"rain":0.0,"pressure":986.8,"uv_index":4.1,"wind_gusts":35.3,"aqi":118,"pm10":86.8,"pm2_5":45.3,"no2":15.0,"co":346.0,"o3":63.0,"so2":5.0,"mosquito_risk":7,"arthritis_risk":5,"migraine_risk":3,"frizz_risk":1,"updated_at":"2026-07-12T05:27:42.473553+05:30"},{"city":"Bareilly","state":"Uttar Pradesh","latitude":28.367,"longitude":79.4304,"temp":26.2,"humidity":97,"rain":0.0,"pressure":976.3,"uv_index":8.0,"wind_gusts":30.6,"aqi":156,"pm10":116.4,"pm2_5":54.7,"no2":22.5,"co":376.0,"o3":60.0,"so2":5.9,"mosquito_risk":7,"arthritis_risk":5,"migraine_risk":7,"frizz_risk":1,"updated_at":"2026-07-12T05:27:42.473562+05:30"},{"city":"Aligarh","state":"Uttar Pradesh","latitude":27.8974,"longitude":78.088,"temp":28.0,"humidity":87,"rain":0.0,"pressure":975.0,"uv_index":7.85,"wind_gusts":29.2,"aqi":433,"pm10":489.9,"pm2_5":120.1,"no2":21.4,"co":220.0,"o3":34.0,"so2":5.0,"mosquito_risk":7,"arthritis_risk":5,"migraine_risk":7,"frizz_risk":1,"updated_at":"2026-07-12T05:27:42.473568+05:30"},{"city":"Moradabad","state":"Uttar Pradesh","latitude":28.8386,"longitude":78.7733,"temp":25.6,"humidity":98,"rain":0.1,"pressure":973.1,"uv_index":7.8,"wind_gusts":36.0,"aqi":161,"pm10":258.0,"pm2_5":115.7,"no2":42.5,"co":411.0,"o3":36.0,"so2":11.0,"mosquito_risk":10,"arthritis_risk":5,"migraine_risk":7,"frizz_risk":1,"updated_at":"2026-07-12T05:27:42.473574+05:30"},{"city":"Saharanpur","state":"Uttar Pradesh","latitude":29.9637,"longitude":77.546,"temp":24.9,"humidity":95,"rain":0.0,"pressure":965.0,"uv_index":7.35,"wind_gusts":39.2,"aqi":157,"pm10":83.1,"pm2_5":78.7,"no2":35.1,"co":412.0,"o3":33.0,"so2":10.3,"mosquito_risk":3,"arthritis_risk":5,"migraine_risk":7,"frizz_risk":1,"updated_at":"2026-07-12T05:27:42.473579+05:30"},{"city":"Jhansi","state":"Uttar Pradesh","latitude":25.4484,"longitude":78.5685,"temp":28.6,"humidity":69,"rain":0.0,"pressure":969.1,"uv_index":8.4,"wind_gusts":44.6,"aqi":91,"pm10":37.1,"pm2_5":22.6,"no2":8.5,"co":148.0,"o3":64.0,"so2":9.4,"mosquito_risk":7,"arthritis_risk":5,"migraine_risk":7,"frizz_risk":1,"updated_at":"2026-07-12T05:27:45.838531+05:30"},{"city":"Surat","state":"Gujarat","latitude":21.1702,"longitude":72.8311,"temp":28.1,"humidity":85,"rain":0.0,"pressure":1000.8,"uv_index":6.05,"wind_gusts":65.5,"aqi":57,"pm10":25.1,"pm2_5":13.6,"no2":12.6,"co":206.0,"o3":34.0,"so2":21.6,"mosquito_risk":7,"arthritis_risk":5,"migraine_risk":4,"frizz_risk":1,"updated_at":"2026-07-12T05:27:45.838580+05:30"},{"city":"Vadodara","state":"Gujarat","latitude":22.3072,"longitude":73.1812,"temp":27.1,"humidity":85,"rain":0.0,"pressure":997.9,"uv_index":8.05,"wind_gusts":58.3,"aqi":56,"pm10":20.8,"pm2_5":10.1,"no2":5.8,"co":103.0,"o3":36.0,"so2":4.4,"mosquito_risk":7,"arthritis_risk":5,"migraine_risk":7,"frizz_risk":1,"updated_at":"2026-07-12T05:27:45.838588+05:30"},{"city":"Rajkot","state":"Gujarat","latitude":22.3039,"longitude":70.8022,"temp":26.6,"humidity":85,"rain":0.0,"pressure":986.8,"uv_index":7.75,"wind_gusts":61.2,"aqi":58,"pm10":24.5,"pm2_5":10.2,"no2":3.0,"co":89.0,"o3":42.0,"so2":2.5,"mosquito_risk":7,"arthritis_risk":5,"migraine_risk":7,"frizz_risk":1,"updated_at":"2026-07-12T05:27:45.838595+05:30"},{"city":"Thane","state":"Maharashtra","latitude":19.2183,"longitude":72.9781,"temp":26.5,"humidity":92,"rain":0.0,"pressure":1003.9,"uv_index":7.8,"wind_gusts":49.0,"aqi":53,"pm10":26.4,"pm2_5":10.3,"no2":3.2,"co":113.0,"o3":43.0,"so2":2.9,"mosquito_risk":7,"arthritis_risk":5,"migraine_risk":4,"frizz_risk":1,"updated_at":"2026-07-12T05:27:45.838601+05:30"},{"city":"Nagpur","state":"Maharashtra","latitude":21.1458,"longitude":79.0882,"temp":26.2,"humidity":75,"rain":0.0,"pressure":967.7,"uv_index":7.7,"wind_gusts":41.8,"aqi":80,"pm10":31.3,"pm2_5":18.3,"no2":10.5,"co":137.0,"o3":40.0,"so2":7.0,"mosquito_risk":7,"arthritis_risk":5,"migraine_risk":7,"frizz_risk":1,"updated_at":"2026-07-12T05:27:45.838607+05:30"},{"city":"Nashik","state":"Maharashtra","latitude":19.9975,"longitude":73.7898,"temp":23.2,"humidity":93,"rain":0.0,"pressure":940.3,"uv_index":8.1,"wind_gusts":64.4,"aqi":35,"pm10":8.5,"pm2_5":4.8,"no2":5.4,"co":88.0,"o3":34.0,"so2":3.3,"mosquito_risk":3,"arthritis_risk":5,"migraine_risk":7,"frizz_risk":1,"updated_at":"2026-07-12T05:27:45.838613+05:30"},{"city":"Aurangabad","state":"Maharashtra","latitude":19.8762,"longitude":75.3433,"temp":23.2,"humidity":88,"rain":0.0,"pressure":939.0,"uv_index":8.95,"wind_gusts":54.7,"aqi":49,"pm10":18.6,"pm2_5":7.8,"no2":6.2,"co":115.0,"o3":35.0,"so2":7.5,"mosquito_risk":3,"arthritis_risk":5,"migraine_risk":7,"frizz_risk":1,"updated_at":"2026-07-12T05:27:45.838619+05:30"},{"city":"Solapur","state":"Maharashtra","latitude":17.6599,"longitude":75.9064,"temp":23.4,"humidity":85,"rain":0.0,"pressure":953.9,"uv_index":8.9,"wind_gusts":50.0,"aqi":50,"pm10":15.5,"pm2_5":8.8,"no2":6.3,"co":114.0,"o3":30.0,"so2":2.5,"mosquito_risk":3,"arthritis_risk":5,"migraine_risk":7,"frizz_risk":1,"updated_at":"2026-07-12T05:27:45.838625+05:30"},{"city":"Kolhapur","state":"Maharashtra","latitude":16.705,"longitude":74.2433,"temp":22.4,"humidity":95,"rain":0.0,"pressure":945.1,"uv_index":8.4,"wind_gusts":52.2,"aqi":41,"pm10":8.4,"pm2_5":4.0,"no2":2.7,"co":104.0,"o3":38.0,"so2":1.8,"mosquito_risk":3,"arthritis_risk":5,"migraine_risk":7,"frizz_risk":1,"updated_at":"2026-07-12T05:27:45.838630+05:30"},{"city":"Goa","state":"Goa","latitude":15.2993,"longitude":74.124,"temp":25.1,"humidity":99,"rain":0.0,"pressure":996.6,"uv_index":6.75,"wind_gusts":38.9,"aqi":55,"pm10":37.4,"pm2_5":23.2,"no2":7.6,"co":215.0,"o3":31.0,"so2":1.7,"mosquito_risk":7,"arthritis_risk":5,"migraine_risk":7,"frizz_risk":1,"updated_at":"2026-07-12T05:27:45.838636+05:30"},{"city":"Jodhpur","state":"Rajasthan","latitude":26.2389,"longitude":73.0243,"temp":26.9,"humidity":76,"rain":0.0,"pressure":972.8,"uv_index":8.45,"wind_gusts":53.3,"aqi":199,"pm10":393.0,"pm2_5":90.3,"no2":2.7,"co":96.0,"o3":49.0,"so2":2.4,"mosquito_risk":7,"arthritis_risk":5,"migraine_risk":7,"frizz_risk":1,"updated_at":"2026-07-12T05:27:45.838641+05:30"},{"city":"Udaipur","state":"Rajasthan","latitude":24.5854,"longitude":73.7125,"temp":23.4,"humidity":89,"rain":0.0,"pressure":937.4,"uv_index":8.8,"wind_gusts":52.9,"aqi":68,"pm10":35.4,"pm2_5":17.6,"no2":4.4,"co":95.0,"o3":43.0,"so2":4.1,"mosquito_risk":3,"arthritis_risk":5,"migraine_risk":7,"frizz_risk":1,"updated_at":"2026-07-12T05:27:45.838647+05:30"},{"city":"Kota","state":"Rajasthan","latitude":25.2138,"longitude":75.8648,"temp":27.4,"humidity":76,"rain":0.0,"pressure":970.3,"uv_index":8.25,"wind_gusts":42.5,"aqi":78,"pm10":36.2,"pm2_5":22.6,"no2":8.5,"co":132.0,"o3":52.0,"so2":7.0,"mosquito_risk":7,"arthritis_risk":5,"migraine_risk":7,"frizz_risk":1,"updated_at":"2026-07-12T05:27:45.838651+05:30"},{"city":"Bikaner","state":"Rajasthan","latitude":28.0229,"longitude":73.3119,"temp":28.6,"humidity":71,"rain":0.0,"pressure":970.9,"uv_index":8.45,"wind_gusts":41.8,"aqi":159,"pm10":219.8,"pm2_5":84.8,"no2":2.6,"co":94.0,"o3":52.0,"so2":4.9,"mosquito_risk":7,"arthritis_risk":5,"migraine_risk":7,"frizz_risk":1,"updated_at":"2026-07-12T05:27:45.838656+05:30"},{"city":"Ajmer","state":"Rajasthan","latitude":26.4499,"longitude":74.6399,"temp":25.4,"humidity":81,"rain":0.0,"pressure":945.5,"uv_index":8.35,"wind_gusts":49.0,"aqi":75,"pm10":37.3,"pm2_5":20.9,"no2":4.6,"co":104.0,"o3":52.0,"so2":3.4,"mosquito_risk":7,"arthritis_risk":5,"migraine_risk":7,"frizz_risk":1,"updated_at":"2026-07-12T05:27:45.838661+05:30"},{"city":"Gwalior","state":"Madhya Pradesh","latitude":26.2183,"longitude":78.1828,"temp":27.9,"humidity":72,"rain":0.0,"pressure":973.6,"uv_index":8.15,"wind_gusts":43.2,"aqi":87,"pm10":31.4,"pm2_5":20.3,"no2":8.1,"co":136.0,"o3":56.0,"so2":6.0,"mosquito_risk":7,"arthritis_risk":5,"migraine_risk":7,"frizz_risk":1,"updated_at":"2026-07-12T05:27:45.838667+05:30"},{"city":"Indore","state":"Madhya Pradesh","latitude":22.7196,"longitude":75.8577,"temp":23.8,"humidity":89,"rain":0.0,"pressure":941.2,"uv_index":8.55,"wind_gusts":52.6,"aqi":62,"pm10":18.4,"pm2_5":10.3,"no2":7.8,"co":142.0,"o3":34.0,"so2":8.7,"mosquito_risk":3,"arthritis_risk":5,"migraine_risk":7,"frizz_risk":1,"updated_at":"2026-07-12T05:27:45.838671+05:30"},{"city":"Bhopal","state":"Madhya Pradesh","latitude":23.2599,"longitude":77.4126,"temp":25.2,"humidity":86,"rain":0.0,"pressure":947.1,"uv_index":8.6,"wind_gusts":42.1,"aqi":70,"pm10":21.4,"pm2_5":12.7,"no2":6.4,"co":161.0,"o3":46.0,"so2":6.1,"mosquito_risk":7,"arthritis_risk":5,"migraine_risk":7,"frizz_risk":1,"updated_at":"2026-07-12T05:27:45.838676+05:30"},{"city":"Jabalpur","state":"Madhya Pradesh","latitude":23.1815,"longitude":79.9864,"temp":25.6,"humidity":81,"rain":0.0,"pressure":954.6,"uv_index":7.05,"wind_gusts":36.7,"aqi":81,"pm10":34.9,"pm2_5":23.1,"no2":7.6,"co":193.0,"o3":55.0,"so2":4.5,"mosquito_risk":7,"arthritis_risk":5,"migraine_risk":7,"frizz_risk":1,"updated_at":"2026-07-12T05:27:45.838681+05:30"},{"city":"Ujjain","state":"Madhya Pradesh","latitude":23.1765,"longitude":75.7885,"temp":24.4,"humidity":88,"rain":0.0,"pressure":946.6,"uv_index":8.45,"wind_gusts":51.8,"aqi":61,"pm10":19.9,"pm2_5":10.9,"no2":7.0,"co":144.0,"o3":35.0,"so2":7.3,"mosquito_risk":3,"arthritis_risk":5,"migraine_risk":7,"frizz_risk":1,"updated_at":"2026-07-12T05:27:45.838687+05:30"},{"city":"Visakhapatnam","state":"Andhra Pradesh","latitude":17.6868,"longitude":83.2185,"temp":27.5,"humidity":80,"rain":0.0,"pressure":997.9,"uv_index":9.0,"wind_gusts":40.3,"aqi":101,"pm10":58.7,"pm2_5":35.3,"no2":23.1,"co":319.0,"o3":35.0,"so2":33.3,"mosquito_risk":7,"arthritis_risk":5,"migraine_risk":7,"frizz_risk":1,"updated_at":"2026-07-12T05:27:45.838691+05:30"},{"city":"Vijayawada","state":"Andhra Pradesh","latitude":16.5062,"longitude":80.648,"temp":30.0,"humidity":55,"rain":0.0,"pressure":997.6,"uv_index":8.1,"wind_gusts":44.3,"aqi":92,"pm10":50.3,"pm2_5":35.0,"no2":18.6,"co":256.0,"o3":34.0,"so2":5.1,"mosquito_risk":4,"arthritis_risk":5,"migraine_risk":7,"frizz_risk":1,"updated_at":"2026-07-12T05:27:45.838696+05:30"},{"city":"Guntur","state":"Andhra Pradesh","latitude":16.3067,"longitude":80.4365,"temp":30.8,"humidity":51,"rain":0.0,"pressure":998.9,"uv_index":8.55,"wind_gusts":45.4,"aqi":84,"pm10":41.4,"pm2_5":27.4,"no2":16.6,"co":235.0,"o3":31.0,"so2":6.1,"mosquito_risk":0,"arthritis_risk":5,"migraine_risk":7,"frizz_risk":1,"updated_at":"2026-07-12T05:27:45.838701+05:30"},{"city":"Nellore","state":"Andhra Pradesh","latitude":14.4426,"longitude":79.9865,"temp":30.1,"humidity":57,"rain":0.0,"pressure":1001.5,"uv_index":8.35,"wind_gusts":46.4,"aqi":72,"pm10":28.2,"pm2_5":16.0,"no2":8.9,"co":164.0,"o3":43.0,"so2":5.8,"mosquito_risk":0,"arthritis_risk":5,"migraine_risk":4,"frizz_risk":1,"updated_at":"2026-07-12T05:27:45.838707+05:30"},{"city":"Kurnool","state":"Andhra Pradesh","latitude":15.8281,"longitude":78.0373,"temp":26.1,"humidity":72,"rain":0.0,"pressure":974.3,"uv_index":8.2,"wind_gusts":49.3,"aqi":56,"pm10":19.0,"pm2_5":11.2,"no2":8.2,"co":130.0,"o3":33.0,"so2":2.5,"mosquito_risk":7,"arthritis_risk":5,"migraine_risk":7,"frizz_risk":1,"updated_at":"2026-07-12T05:27:45.838713+05:30"},{"city":"Kakinada","state":"Andhra Pradesh","latitude":16.9891,"longitude":82.2475,"temp":28.3,"humidity":80,"rain":0.0,"pressure":1001.8,"uv_index":8.25,"wind_gusts":49.0,"aqi":90,"pm10":53.6,"pm2_5":31.8,"no2":7.2,"co":236.0,"o3":81.0,"so2":4.0,"mosquito_risk":7,"arthritis_risk":5,"migraine_risk":4,"frizz_risk":1,"updated_at":"2026-07-12T05:27:45.838718+05:30"},{"city":"Tirupati","state":"Andhra Pradesh","latitude":13.6288,"longitude":79.4192,"temp":27.7,"humidity":64,"rain":0.0,"pressure":987.1,"uv_index":8.75,"wind_gusts":38.5,"aqi":80,"pm10":22.6,"pm2_5":13.3,"no2":11.8,"co":99.0,"o3":31.0,"so2":1.8,"mosquito_risk":7,"arthritis_risk":5,"migraine_risk":7,"frizz_risk":1,"updated_at":"2026-07-12T05:27:45.838723+05:30"},{"city":"Warangal","state":"Telangana","latitude":17.9689,"longitude":79.5941,"temp":27.0,"humidity":65,"rain":0.0,"pressure":974.4,"uv_index":8.85,"wind_gusts":43.6,"aqi":75,"pm10":28.8,"pm2_5":16.3,"no2":7.9,"co":147.0,"o3":41.0,"so2":3.0,"mosquito_risk":7,"arthritis_risk":5,"migraine_risk":7,"frizz_risk":1,"updated_at":"2026-07-12T05:27:45.838728+05:30"},{"city":"Nizamabad","state":"Telangana","latitude":18.6725,"longitude":78.0941,"temp":25.0,"humidity":75,"rain":0.0,"pressure":960.8,"uv_index":8.95,"wind_gusts":45.4,"aqi":64,"pm10":18.6,"pm2_5":11.1,"no2":8.1,"co":127.0,"o3":35.0,"so2":5.6,"mosquito_risk":7,"arthritis_risk":5,"migraine_risk":7,"frizz_risk":1,"updated_at":"2026-07-12T05:27:45.838732+05:30"},{"city":"Mysore","state":"Karnataka","latitude":12.2958,"longitude":76.6396,"temp":20.5,"humidity":97,"rain":0.0,"pressure":926.8,"uv_index":8.5,"wind_gusts":46.8,"aqi":36,"pm10":14.4,"pm2_5":10.2,"no2":12.3,"co":106.0,"o3":17.0,"so2":0.9,"mosquito_risk":3,"arthritis_risk":5,"migraine_risk":7,"frizz_risk":1,"updated_at":"2026-07-12T05:27:45.838737+05:30"},{"city":"Mangalore","state":"Karnataka","latitude":12.9141,"longitude":74.856,"temp":24.8,"humidity":97,"rain":0.0,"pressure":1006.5,"uv_index":6.6,"wind_gusts":49.0,"aqi":46,"pm10":16.3,"pm2_5":9.5,"no2":6.4,"co":113.0,"o3":26.0,"so2":2.4,"mosquito_risk":3,"arthritis_risk":5,"migraine_risk":4,"frizz_risk":1,"updated_at":"2026-07-12T05:27:45.838742+05:30"},{"city":"Hubli-Dharwad","state":"Karnataka","latitude":15.3647,"longitude":75.124,"temp":21.8,"humidity":95,"rain":0.0,"pressure":938.5,"uv_index":8.85,"wind_gusts":52.2,"aqi":32,"pm10":13.7,"pm2_5":6.1,"no2":2.9,"co":100.0,"o3":38.0,"so2":1.6,"mosquito_risk":3,"arthritis_risk":5,"migraine_risk":7,"frizz_risk":1,"updated_at":"2026-07-12T05:27:45.838748+05:30"},{"city":"Belgaum","state":"Karnataka","latitude":15.8497,"longitude":74.4977,"temp":21.0,"humidity":96,"rain":0.0,"pressure":923.0,"uv_index":9.0,"wind_gusts":50.4,"aqi":35,"pm10":10.9,"pm2_5":5.5,"no2":3.1,"co":90.0,"o3":38.0,"so2":1.7,"mosquito_risk":3,"arthritis_risk":5,"migraine_risk":7,"frizz_risk":1,"updated_at":"2026-07-12T05:27:49.191193+05:30"},{"city":"Coimbatore","state":"Tamil Nadu","latitude":11.0168,"longitude":76.9558,"temp":23.2,"humidity":96,"rain":0.0,"pressure":959.9,"uv_index":8.15,"wind_gusts":55.1,"aqi":41,"pm10":15.0,"pm2_5":9.6,"no2":10.0,"co":163.0,"o3":19.0,"so2":2.7,"mosquito_risk":3,"arthritis_risk":5,"migraine_risk":7,"frizz_risk":1,"updated_at":"2026-07-12T05:27:49.191225+05:30"},{"city":"Madurai","state":"Tamil Nadu","latitude":9.9252,"longitude":78.1198,"temp":27.6,"humidity":70,"rain":0.0,"pressure":990.9,"uv_index":7.95,"wind_gusts":42.5,"aqi":62,"pm10":28.2,"pm2_5":24.5,"no2":30.6,"co":137.0,"o3":0.0,"so2":6.1,"mosquito_risk":7,"arthritis_risk":5,"migraine_risk":7,"frizz_risk":1,"updated_at":"2026-07-12T05:27:49.191234+05:30"},{"city":"Trichy","state":"Tamil Nadu","latitude":10.7905,"longitude":78.7047,"temp":27.8,"humidity":72,"rain":0.0,"pressure":997.2,"uv_index":8.1,"wind_gusts":56.9,"aqi":47,"pm10":20.9,"pm2_5":10.7,"no2":6.9,"co":101.0,"o3":33.0,"so2":3.2,"mosquito_risk":7,"arthritis_risk":5,"migraine_risk":7,"frizz_risk":1,"updated_at":"2026-07-12T05:27:49.191242+05:30"},{"city":"Salem","state":"Tamil Nadu","latitude":11.6643,"longitude":78.146,"temp":24.9,"humidity":91,"rain":0.0,"pressure":975.4,"uv_index":8.65,"wind_gusts":22.3,"aqi":61,"pm10":31.8,"pm2_5":21.2,"no2":26.7,"co":154.0,"o3":10.0,"so2":6.0,"mosquito_risk":3,"arthritis_risk":5,"migraine_risk":7,"frizz_risk":1,"updated_at":"2026-07-12T05:27:49.191249+05:30"},{"city":"Tirunelveli","state":"Tamil Nadu","latitude":8.7139,"longitude":77.7567,"temp":27.9,"humidity":73,"rain":0.0,"pressure":1001.3,"uv_index":8.05,"wind_gusts":40.3,"aqi":29,"pm10":10.6,"pm2_5":6.7,"no2":7.2,"co":112.0,"o3":28.0,"so2":2.4,"mosquito_risk":7,"arthritis_risk":5,"migraine_risk":4,"frizz_risk":1,"updated_at":"2026-07-12T05:27:49.191256+05:30"},{"city":"Vellore","state":"Tamil Nadu","latitude":12.9165,"longitude":79.1325,"temp":27.9,"humidity":63,"rain":0.0,"pressure":981.3,"uv_index":8.15,"wind_gusts":39.6,"aqi":71,"pm10":18.6,"pm2_5":11.1,"no2":10.6,"co":206.0,"o3":32.0,"so2":4.1,"mosquito_risk":7,"arthritis_risk":5,"migraine_risk":7,"frizz_risk":1,"updated_at":"2026-07-12T05:27:49.191263+05:30"},{"city":"Erode","state":"Tamil Nadu","latitude":11.341,"longitude":77.7172,"temp":25.7,"humidity":82,"rain":0.0,"pressure":987.4,"uv_index":8.5,"wind_gusts":52.6,"aqi":55,"pm10":17.9,"pm2_5":13.1,"no2":15.6,"co":155.0,"o3":20.0,"so2":3.6,"mosquito_risk":7,"arthritis_risk":5,"migraine_risk":7,"frizz_risk":1,"updated_at":"2026-07-12T05:27:49.191268+05:30"},{"city":"Kochi","state":"Kerala","latitude":9.9312,"longitude":76.2673,"temp":26.1,"humidity":96,"rain":0.0,"pressure":1008.5,"uv_index":7.95,"wind_gusts":43.2,"aqi":47,"pm10":16.6,"pm2_5":11.4,"no2":10.2,"co":96.0,"o3":22.0,"so2":3.0,"mosquito_risk":7,"arthritis_risk":0,"migraine_risk":4,"frizz_risk":1,"updated_at":"2026-07-12T05:27:49.191274+05:30"},{"city":"Thiruvananthapuram","state":"Kerala","latitude":8.5241,"longitude":76.9366,"temp":25.1,"humidity":95,"rain":0.0,"pressure":1008.1,"uv_index":7.7,"wind_gusts":49.3,"aqi":34,"pm10":12.4,"pm2_5":6.6,"no2":3.6,"co":107.0,"o3":42.0,"so2":1.7,"mosquito_risk":7,"arthritis_risk":0,"migraine_risk":4,"frizz_risk":1,"updated_at":"2026-07-12T05:27:49.191280+05:30"},{"city":"Kozhikode","state":"Kerala","latitude":11.2588,"longitude":75.7804,"temp":25.0,"humidity":95,"rain":0.0,"pressure":1007.4,"uv_index":8.15,"wind_gusts":46.8,"aqi":37,"pm10":17.1,"pm2_5":8.2,"no2":2.7,"co":159.0,"o3":44.0,"so2":1.5,"mosquito_risk":7,"arthritis_risk":5,"migraine_risk":4,"frizz_risk":1,"updated_at":"2026-07-12T05:27:49.191286+05:30"},{"city":"Thrissur","state":"Kerala","latitude":10.5276,"longitude":76.2144,"temp":25.0,"humidity":95,"rain":0.0,"pressure":1006.7,"uv_index":7.65,"wind_gusts":41.0,"aqi":43,"pm10":13.1,"pm2_5":8.5,"no2":5.6,"co":128.0,"o3":31.0,"so2":2.8,"mosquito_risk":7,"arthritis_risk":5,"migraine_risk":4,"frizz_risk":1,"updated_at":"2026-07-12T05:27:49.191292+05:30"},{"city":"Kannur","state":"Kerala","latitude":11.8745,"longitude":75.3704,"temp":25.6,"humidity":92,"rain":0.0,"pressure":1006.7,"uv_index":8.35,"wind_gusts":44.6,"aqi":41,"pm10":14.2,"pm2_5":8.9,"no2":8.6,"co":146.0,"o3":21.0,"so2":2.4,"mosquito_risk":7,"arthritis_risk":5,"migraine_risk":4,"frizz_risk":1,"updated_at":"2026-07-12T05:27:49.191297+05:30"},{"city":"Patna","state":"Bihar","latitude":25.5941,"longitude":85.1376,"temp":26.8,"humidity":95,"rain":0.0,"pressure":990.6,"uv_index":8.05,"wind_gusts":37.4,"aqi":121,"pm10":68.9,"pm2_5":49.0,"no2":19.3,"co":405.0,"o3":49.0,"so2":8.2,"mosquito_risk":7,"arthritis_risk":5,"migraine_risk":7,"frizz_risk":1,"updated_at":"2026-07-12T05:27:49.191303+05:30"},{"city":"Gaya","state":"Bihar","latitude":24.7914,"longitude":85.0002,"temp":28.3,"humidity":77,"rain":0.0,"pressure":984.5,"uv_index":8.65,"wind_gusts":38.2,"aqi":101,"pm10":54.4,"pm2_5":41.3,"no2":21.4,"co":210.0,"o3":39.0,"so2":27.5,"mosquito_risk":7,"arthritis_risk":5,"migraine_risk":7,"frizz_risk":1,"updated_at":"2026-07-12T05:27:49.191309+05:30"},{"city":"Muzaffarpur","state":"Bihar","latitude":26.1209,"longitude":85.3647,"temp":26.3,"humidity":97,"rain":0.1,"pressure":990.6,"uv_index":7.0,"wind_gusts":35.6,"aqi":114,"pm10":65.9,"pm2_5":44.0,"no2":15.8,"co":349.0,"o3":60.0,"so2":6.9,"mosquito_risk":10,"arthritis_risk":5,"migraine_risk":7,"frizz_risk":1,"updated_at":"2026-07-12T05:27:49.191314+05:30"},{"city":"Bhagalpur","state":"Bihar","latitude":25.2425,"longitude":87.0117,"temp":27.0,"humidity":98,"rain":0.1,"pressure":991.7,"uv_index":7.55,"wind_gusts":32.0,"aqi":90,"pm10":58.0,"pm2_5":43.3,"no2":15.1,"co":227.0,"o3":58.0,"so2":6.2,"mosquito_risk":10,"arthritis_risk":5,"migraine_risk":7,"frizz_risk":1,"updated_at":"2026-07-12T05:27:49.191319+05:30"},{"city":"Ranchi","state":"Jharkhand","latitude":23.3441,"longitude":85.3096,"temp":23.7,"humidity":87,"rain":0.0,"pressure":929.7,"uv_index":9.05,"wind_gusts":31.0,"aqi":96,"pm10":49.8,"pm2_5":34.6,"no2":10.3,"co":220.0,"o3":54.0,"so2":8.6,"mosquito_risk":3,"arthritis_risk":5,"migraine_risk":7,"frizz_risk":1,"updated_at":"2026-07-12T05:27:49.191324+05:30"},{"city":"Jamshedpur","state":"Jharkhand","latitude":22.8046,"longitude":86.2029,"temp":26.4,"humidity":87,"rain":0.0,"pressure":982.5,"uv_index":9.05,"wind_gusts":28.4,"aqi":118,"pm10":63.3,"pm2_5":46.2,"no2":16.6,"co":240.0,"o3":60.0,"so2":36.7,"mosquito_risk":7,"arthritis_risk":5,"migraine_risk":7,"frizz_risk":1,"updated_at":"2026-07-12T05:27:49.191329+05:30"},{"city":"Dhanbad","state":"Jharkhand","latitude":23.7957,"longitude":86.4304,"temp":26.2,"humidity":89,"rain":0.0,"pressure":971.0,"uv_index":9.0,"wind_gusts":30.2,"aqi":143,"pm10":89.2,"pm2_5":70.5,"no2":49.5,"co":254.0,"o3":19.0,"so2":113.0,"mosquito_risk":7,"arthritis_risk":5,"migraine_risk":7,"frizz_risk":1,"updated_at":"2026-07-12T05:27:49.191334+05:30"},{"city":"Bokaro","state":"Jharkhand","latitude":23.6693,"longitude":86.1511,"temp":26.7,"humidity":83,"rain":0.0,"pressure":974.9,"uv_index":9.05,"wind_gusts":32.0,"aqi":136,"pm10":79.9,"pm2_5":60.8,"no2":31.9,"co":252.0,"o3":37.0,"so2":80.7,"mosquito_risk":7,"arthritis_risk":5,"migraine_risk":7,"frizz_risk":1,"updated_at":"2026-07-12T05:27:49.191339+05:30"},{"city":"Bhubaneswar","state":"Odisha","latitude":20.2961,"longitude":85.8245,"temp":27.5,"humidity":82,"rain":0.0,"pressure":995.1,"uv_index":9.0,"wind_gusts":36.4,"aqi":112,"pm10":78.9,"pm2_5":49.5,"no2":14.8,"co":266.0,"o3":48.0,"so2":7.7,"mosquito_risk":7,"arthritis_risk":5,"migraine_risk":7,"frizz_risk":1,"updated_at":"2026-07-12T05:27:49.191345+05:30"},{"city":"Cuttack","state":"Odisha","latitude":20.4625,"longitude":85.8828,"temp":27.6,"humidity":87,"rain":0.0,"pressure":996.7,"uv_index":9.05,"wind_gusts":37.1,"aqi":112,"pm10":78.9,"pm2_5":49.5,"no2":14.8,"co":342.0,"o3":48.0,"so2":7.7,"mosquito_risk":7,"arthritis_risk":5,"migraine_risk":7,"frizz_risk":1,"updated_at":"2026-07-12T05:27:49.191349+05:30"},{"city":"Rourkela","state":"Odisha","latitude":22.2604,"longitude":84.8536,"temp":26.0,"humidity":88,"rain":0.0,"pressure":977.7,"uv_index":8.9,"wind_gusts":30.6,"aqi":127,"pm10":62.4,"pm2_5":42.4,"no2":15.2,"co":303.0,"o3":46.0,"so2":18.3,"mosquito_risk":7,"arthritis_risk":5,"migraine_risk":7,"frizz_risk":1,"updated_at":"2026-07-12T05:27:49.191355+05:30"},{"city":"Raipur","state":"Chhattisgarh","latitude":21.2514,"longitude":81.6296,"temp":26.6,"humidity":77,"rain":0.0,"pressure":968.3,"uv_index":7.1,"wind_gusts":43.6,"aqi":112,"pm10":49.7,"pm2_5":33.2,"no2":27.1,"co":495.0,"o3":36.0,"so2":41.2,"mosquito_risk":7,"arthritis_risk":5,"migraine_risk":7,"frizz_risk":1,"updated_at":"2026-07-12T05:27:49.191360+05:30"},{"city":"Bhilai","state":"Chhattisgarh","latitude":21.1938,"longitude":81.3509,"temp":26.3,"humidity":78,"rain":0.0,"pressure":968.9,"uv_index":7.2,"wind_gusts":47.9,"aqi":104,"pm10":47.7,"pm2_5":31.0,"no2":22.5,"co":586.0,"o3":38.0,"so2":33.4,"mosquito_risk":7,"arthritis_risk":5,"migraine_risk":7,"frizz_risk":1,"updated_at":"2026-07-12T05:27:49.191365+05:30"},{"city":"Guwahati","state":"Assam","latitude":26.1158,"longitude":91.7086,"temp":25.8,"humidity":99,"rain":0.2,"pressure":991.8,"uv_index":4.55,"wind_gusts":19.1,"aqi":36,"pm10":6.7,"pm2_5":6.6,"no2":5.8,"co":269.0,"o3":71.0,"so2":1.1,"mosquito_risk":10,"arthritis_risk":5,"migraine_risk":3,"frizz_risk":1,"updated_at":"2026-07-12T05:27:49.191370+05:30"},{"city":"Agartala","state":"Tripura","latitude":23.8315,"longitude":91.2868,"temp":25.9,"humidity":99,"rain":0.2,"pressure":997.0,"uv_index":8.05,"wind_gusts":31.0,"aqi":87,"pm10":20.1,"pm2_5":17.6,"no2":6.0,"co":221.0,"o3":80.0,"so2":1.7,"mosquito_risk":10,"arthritis_risk":5,"migraine_risk":7,"frizz_risk":1,"updated_at":"2026-07-12T05:27:49.191376+05:30"},{"city":"Shillong","state":"Meghalaya","latitude":25.5788,"longitude":91.8933,"temp":20.9,"humidity":97,"rain":0.0,"pressure":850.0,"uv_index":2.45,"wind_gusts":19.8,"aqi":41,"pm10":0.6,"pm2_5":0.6,"no2":3.8,"co":279.0,"o3":75.0,"so2":3.9,"mosquito_risk":3,"arthritis_risk":5,"migraine_risk":3,"frizz_risk":1,"updated_at":"2026-07-12T05:27:49.191381+05:30"},{"city":"Imphal","state":"Manipur","latitude":24.817,"longitude":93.9368,"temp":23.2,"humidity":99,"rain":0.0,"pressure":915.3,"uv_index":4.15,"wind_gusts":31.0,"aqi":28,"pm10":11.0,"pm2_5":9.3,"no2":6.7,"co":331.0,"o3":40.0,"so2":2.3,"mosquito_risk":3,"arthritis_risk":5,"migraine_risk":3,"frizz_risk":1,"updated_at":"2026-07-12T05:27:49.191385+05:30"},{"city":"Aizawl","state":"Mizoram","latitude":23.7271,"longitude":92.7176,"temp":19.9,"humidity":97,"rain":0.0,"pressure":884.9,"uv_index":8.55,"wind_gusts":36.4,"aqi":33,"pm10":14.4,"pm2_5":9.1,"no2":2.2,"co":152.0,"o3":63.0,"so2":1.8,"mosquito_risk":3,"arthritis_risk":10,"migraine_risk":7,"frizz_risk":1,"updated_at":"2026-07-12T05:27:49.191391+05:30"},{"city":"Kohima","state":"Nagaland","latitude":25.6701,"longitude":94.1077,"temp":21.0,"humidity":92,"rain":0.0,"pressure":848.6,"uv_index":7.4,"wind_gusts":19.4,"aqi":25,"pm10":3.7,"pm2_5":3.2,"no2":4.3,"co":300.0,"o3":53.0,"so2":1.3,"mosquito_risk":3,"arthritis_risk":5,"migraine_risk":7,"frizz_risk":1,"updated_at":"2026-07-12T05:27:49.191397+05:30"},{"city":"Gangtok","state":"Sikkim","latitude":27.3314,"longitude":88.6138,"temp":19.2,"humidity":95,"rain":0.1,"pressure":830.0,"uv_index":6.75,"wind_gusts":28.4,"aqi":52,"pm10":1.5,"pm2_5":1.5,"no2":3.6,"co":344.0,"o3":107.0,"so2":1.6,"mosquito_risk":6,"arthritis_risk":10,"migraine_risk":7,"frizz_risk":1,"updated_at":"2026-07-12T05:27:49.191403+05:30"},{"city":"Siliguri","state":"West Bengal","latitude":26.7271,"longitude":88.3953,"temp":25.1,"humidity":99,"rain":0.0,"pressure":982.8,"uv_index":6.6,"wind_gusts":19.8,"aqi":68,"pm10":6.3,"pm2_5":6.2,"no2":8.3,"co":393.0,"o3":94.0,"so2":2.9,"mosquito_risk":7,"arthritis_risk":5,"migraine_risk":7,"frizz_risk":1,"updated_at":"2026-07-12T05:27:52.571412+05:30"},{"city":"Durgapur","state":"West Bengal","latitude":23.5204,"longitude":87.3119,"temp":27.2,"humidity":88,"rain":0.0,"pressure":985.7,"uv_index":9.0,"wind_gusts":28.1,"aqi":140,"pm10":77.5,"pm2_5":66.1,"no2":52.9,"co":230.0,"o3":14.0,"so2":60.6,"mosquito_risk":7,"arthritis_risk":5,"migraine_risk":7,"frizz_risk":1,"updated_at":"2026-07-12T05:27:52.571446+05:30"},{"city":"Asansol","state":"West Bengal","latitude":23.6739,"longitude":86.9524,"temp":26.8,"humidity":88,"rain":0.0,"pressure":984.5,"uv_index":5.5,"wind_gusts":30.6,"aqi":123,"pm10":72.9,"pm2_5":57.9,"no2":48.8,"co":1309.0,"o3":17.0,"so2":62.8,"mosquito_risk":7,"arthritis_risk":5,"migraine_risk":3,"frizz_risk":1,"updated_at":"2026-07-12T05:27:52.571454+05:30"},{"city":"Pondicherry","state":"Puducherry","latitude":11.9139,"longitude":79.8145,"temp":28.6,"humidity":72,"rain":0.0,"pressure":1004.7,"uv_index":8.6,"wind_gusts":46.1,"aqi":70,"pm10":16.2,"pm2_5":12.5,"no2":12.6,"co":221.0,"o3":45.0,"so2":6.5,"mosquito_risk":7,"arthritis_risk":5,"migraine_risk":4,"frizz_risk":1,"updated_at":"2026-07-12T05:27:52.571462+05:30"},{"city":"Port Blair","state":"Andaman and Nicobar Islands","latitude":11.6234,"longitude":92.7265,"temp":25.5,"humidity":96,"rain":0.1,"pressure":1004.7,"uv_index":8.5,"wind_gusts":58.0,"aqi":43,"pm10":26.8,"pm2_5":13.6,"no2":0.2,"co":88.0,"o3":51.0,"so2":0.3,"mosquito_risk":10,"arthritis_risk":5,"migraine_risk":4,"frizz_risk":1,"updated_at":"2026-07-12T05:27:52.571469+05:30"},{"city":"Haridwar","state":"Uttarakhand","latitude":29.9457,"longitude":78.1642,"temp":24.4,"humidity":99,"rain":0.0,"pressure":963.9,"uv_index":7.45,"wind_gusts":32.4,"aqi":117,"pm10":51.3,"pm2_5":49.0,"no2":29.0,"co":388.0,"o3":28.0,"so2":6.2,"mosquito_risk":3,"arthritis_risk":5,"migraine_risk":7,"frizz_risk":1,"updated_at":"2026-07-12T05:27:52.571476+05:30"},{"city":"Rishikesh","state":"Uttarakhand","latitude":30.0869,"longitude":78.2676,"temp":24.5,"humidity":93,"rain":0.0,"pressure":956.6,"uv_index":7.5,"wind_gusts":32.8,"aqi":66,"pm10":21.4,"pm2_5":18.9,"no2":12.4,"co":294.0,"o3":70.0,"so2":3.6,"mosquito_risk":3,"arthritis_risk":5,"migraine_risk":7,"frizz_risk":1,"updated_at":"2026-07-12T05:27:52.571483+05:30"},{"city":"Nainital","state":"Uttarakhand","latitude":29.3919,"longitude":79.4542,"temp":15.8,"humidity":99,"rain":0.0,"pressure":797.9,"uv_index":6.65,"wind_gusts":33.1,"aqi":86,"pm10":66.1,"pm2_5":43.1,"no2":14.0,"co":334.0,"o3":89.0,"so2":8.5,"mosquito_risk":3,"arthritis_risk":10,"migraine_risk":7,"frizz_risk":0,"updated_at":"2026-07-12T05:27:52.571489+05:30"},{"city":"Mussoorie","state":"Uttarakhand","latitude":30.4599,"longitude":78.0664,"temp":15.1,"humidity":100,"rain":0.0,"pressure":794.6,"uv_index":7.9,"wind_gusts":41.0,"aqi":79,"pm10":26.3,"pm2_5":25.3,"no2":22.3,"co":335.0,"o3":41.0,"so2":3.3,"mosquito_risk":3,"arthritis_risk":10,"migraine_risk":7,"frizz_risk":0,"updated_at":"2026-07-12T05:27:52.571494+05:30"},{"city":"Dharamshala","state":"Himachal Pradesh","latitude":32.219,"longitude":76.3234,"temp":20.8,"humidity":88,"rain":0.0,"pressure":860.3,"uv_index":8.45,"wind_gusts":36.4,"aqi":52,"pm10":8.5,"pm2_5":8.4,"no2":9.8,"co":428.0,"o3":46.0,"so2":0.1,"mosquito_risk":3,"arthritis_risk":5,"migraine_risk":7,"frizz_risk":1,"updated_at":"2026-07-12T05:27:52.571499+05:30"},{"city":"Dalhousie","state":"Himachal Pradesh","latitude":32.5387,"longitude":75.971,"temp":15.0,"humidity":97,"rain":0.0,"pressure":795.5,"uv_index":8.65,"wind_gusts":28.4,"aqi":95,"pm10":36.6,"pm2_5":32.9,"no2":20.6,"co":379.0,"o3":75.0,"so2":3.1,"mosquito_risk":3,"arthritis_risk":10,"migraine_risk":7,"frizz_risk":0,"updated_at":"2026-07-12T05:27:52.571505+05:30"},{"city":"Patiala","state":"Punjab","latitude":30.3398,"longitude":76.3869,"temp":26.0,"humidity":92,"rain":0.0,"pressure":968.0,"uv_index":7.5,"wind_gusts":36.7,"aqi":156,"pm10":90.6,"pm2_5":67.5,"no2":31.0,"co":463.0,"o3":60.0,"so2":10.4,"mosquito_risk":7,"arthritis_risk":5,"migraine_risk":7,"frizz_risk":1,"updated_at":"2026-07-12T05:27:52.571510+05:30"},{"city":"Bhatinda","state":"Punjab","latitude":30.211,"longitude":74.9455,"temp":29.6,"humidity":78,"rain":0.0,"pressure":971.3,"uv_index":8.25,"wind_gusts":37.4,"aqi":190,"pm10":681.7,"pm2_5":199.3,"no2":20.7,"co":420.0,"o3":49.0,"so2":8.1,"mosquito_risk":7,"arthritis_risk":5,"migraine_risk":7,"frizz_risk":1,"updated_at":"2026-07-12T05:27:52.571515+05:30"},{"city":"Rohtak","state":"Haryana","latitude":28.8955,"longitude":76.6066,"temp":28.4,"humidity":82,"rain":0.0,"pressure":970.4,"uv_index":7.6,"wind_gusts":27.7,"aqi":631,"pm10":665.0,"pm2_5":136.0,"no2":29.2,"co":218.0,"o3":25.0,"so2":3.3,"mosquito_risk":7,"arthritis_risk":5,"migraine_risk":7,"frizz_risk":1,"updated_at":"2026-07-12T05:27:52.571520+05:30"},{"city":"Panipat","state":"Haryana","latitude":29.3909,"longitude":76.9635,"temp":25.7,"humidity":92,"rain":0.0,"pressure":969.3,"uv_index":7.45,"wind_gusts":26.6,"aqi":684,"pm10":430.3,"pm2_5":140.2,"no2":52.7,"co":711.0,"o3":9.0,"so2":9.5,"mosquito_risk":7,"arthritis_risk":5,"migraine_risk":7,"frizz_risk":1,"updated_at":"2026-07-12T05:27:52.571525+05:30"},{"city":"Mathura","state":"Uttar Pradesh","latitude":27.4924,"longitude":77.6737,"temp":29.1,"humidity":70,"rain":0.0,"pressure":976.2,"uv_index":7.95,"wind_gusts":33.5,"aqi":607,"pm10":810.3,"pm2_5":118.0,"no2":19.1,"co":201.0,"o3":35.0,"so2":4.5,"mosquito_risk":7,"arthritis_risk":5,"migraine_risk":7,"frizz_risk":1,"updated_at":"2026-07-12T05:27:52.571531+05:30"},{"city":"Vrindavan","state":"Uttar Pradesh","latitude":27.5823,"longitude":77.7027,"temp":29.2,"humidity":69,"rain":0.0,"pressure":976.6,"uv_index":7.9,"wind_gusts":32.4,"aqi":607,"pm10":810.3,"pm2_5":118.0,"no2":19.1,"co":205.0,"o3":35.0,"so2":4.5,"mosquito_risk":7,"arthritis_risk":5,"migraine_risk":7,"frizz_risk":1,"updated_at":"2026-07-12T05:27:52.571535+05:30"},{"city":"Ayodhya","state":"Uttar Pradesh","latitude":26.7922,"longitude":82.1998,"temp":26.5,"humidity":96,"rain":0.0,"pressure":985.0,"uv_index":8.35,"wind_gusts":31.7,"aqi":151,"pm10":91.3,"pm2_5":43.5,"no2":14.8,"co":303.0,"o3":56.0,"so2":2.8,"mosquito_risk":7,"arthritis_risk":5,"migraine_risk":7,"frizz_risk":1,"updated_at":"2026-07-12T05:27:52.571554+05:30"},{"city":"Ratlam","state":"Madhya Pradesh","latitude":23.3315,"longitude":75.0367,"temp":23.7,"humidity":96,"rain":0.0,"pressure":947.4,"uv_index":8.45,"wind_gusts":52.2,"aqi":60,"pm10":20.3,"pm2_5":11.0,"no2":6.7,"co":128.0,"o3":35.0,"so2":6.7,"mosquito_risk":3,"arthritis_risk":5,"migraine_risk":7,"frizz_risk":1,"updated_at":"2026-07-12T05:27:52.571562+05:30"},{"city":"Sagar","state":"Madhya Pradesh","latitude":23.8388,"longitude":78.7378,"temp":25.1,"humidity":83,"rain":0.0,"pressure":942.9,"uv_index":7.9,"wind_gusts":46.4,"aqi":79,"pm10":31.8,"pm2_5":20.5,"no2":6.0,"co":168.0,"o3":59.0,"so2":4.6,"mosquito_risk":7,"arthritis_risk":5,"migraine_risk":7,"frizz_risk":1,"updated_at":"2026-07-12T05:27:52.571567+05:30"},{"city":"Satna","state":"Madhya Pradesh","latitude":24.6005,"longitude":80.8322,"temp":27.3,"humidity":76,"rain":0.0,"pressure":963.0,"uv_index":8.45,"wind_gusts":42.1,"aqi":90,"pm10":34.3,"pm2_5":21.2,"no2":5.4,"co":171.0,"o3":66.0,"so2":4.1,"mosquito_risk":7,"arthritis_risk":5,"migraine_risk":7,"frizz_risk":1,"updated_at":"2026-07-12T05:27:52.571573+05:30"},{"city":"Akola","state":"Maharashtra","latitude":20.7002,"longitude":77.0082,"temp":25.9,"humidity":79,"rain":0.0,"pressure":970.1,"uv_index":7.1,"wind_gusts":47.2,"aqi":59,"pm10":19.8,"pm2_5":10.6,"no2":8.1,"co":110.0,"o3":33.0,"so2":6.8,"mosquito_risk":7,"arthritis_risk":5,"migraine_risk":7,"frizz_risk":1,"updated_at":"2026-07-12T05:27:52.571580+05:30"},{"city":"Amravati","state":"Maharashtra","latitude":20.9374,"longitude":77.7796,"temp":25.3,"humidity":78,"rain":0.0,"pressure":962.4,"uv_index":6.1,"wind_gusts":46.1,"aqi":61,"pm10":19.3,"pm2_5":10.8,"no2":8.5,"co":114.0,"o3":32.0,"so2":7.6,"mosquito_risk":7,"arthritis_risk":5,"migraine_risk":7,"frizz_risk":1,"updated_at":"2026-07-12T05:27:52.571586+05:30"},{"city":"Latur","state":"Maharashtra","latitude":18.4088,"longitude":76.5604,"temp":22.6,"humidity":86,"rain":0.0,"pressure":935.9,"uv_index":8.65,"wind_gusts":49.7,"aqi":52,"pm10":16.0,"pm2_5":8.3,"no2":5.5,"co":121.0,"o3":34.0,"so2":3.1,"mosquito_risk":3,"arthritis_risk":5,"migraine_risk":7,"frizz_risk":1,"updated_at":"2026-07-12T05:27:52.571593+05:30"},{"city":"Nanded","state":"Maharashtra","latitude":19.1383,"longitude":77.3091,"temp":25.1,"humidity":78,"rain":0.0,"pressure":964.6,"uv_index":8.85,"wind_gusts":42.8,"aqi":59,"pm10":16.8,"pm2_5":9.7,"no2":7.1,"co":124.0,"o3":34.0,"so2":4.0,"mosquito_risk":7,"arthritis_risk":5,"migraine_risk":7,"frizz_risk":1,"updated_at":"2026-07-12T05:27:52.571598+05:30"},{"city":"Gulbarga","state":"Karnataka","latitude":17.3297,"longitude":76.8343,"temp":23.5,"humidity":83,"rain":0.0,"pressure":955.7,"uv_index":8.6,"wind_gusts":54.7,"aqi":51,"pm10":21.1,"pm2_5":10.7,"no2":7.0,"co":115.0,"o3":31.0,"so2":3.1,"mosquito_risk":3,"arthritis_risk":5,"migraine_risk":7,"frizz_risk":1,"updated_at":"2026-07-12T05:27:52.571604+05:30"},{"city":"Bidar","state":"Karnataka","latitude":17.9104,"longitude":77.5199,"temp":22.9,"humidity":81,"rain":0.0,"pressure":931.7,"uv_index":8.9,"wind_gusts":48.2,"aqi":55,"pm10":21.4,"pm2_5":11.8,"no2":6.4,"co":120.0,"o3":35.0,"so2":2.3,"mosquito_risk":3,"arthritis_risk":5,"migraine_risk":7,"frizz_risk":1,"updated_at":"2026-07-12T05:27:52.571610+05:30"},{"city":"Hospet","state":"Karnataka","latitude":15.2689,"longitude":76.3909,"temp":22.5,"humidity":92,"rain":0.0,"pressure":953.7,"uv_index":8.2,"wind_gusts":55.4,"aqi":41,"pm10":12.8,"pm2_5":6.2,"no2":4.5,"co":109.0,"o3":35.0,"so2":1.7,"mosquito_risk":3,"arthritis_risk":5,"migraine_risk":7,"frizz_risk":1,"updated_at":"2026-07-12T05:27:52.571615+05:30"},{"city":"Tirupur","state":"Tamil Nadu","latitude":11.1085,"longitude":77.3411,"temp":24.5,"humidity":89,"rain":0.0,"pressure":973.6,"uv_index":8.35,"wind_gusts":64.8,"aqi":58,"pm10":19.7,"pm2_5":15.4,"no2":19.6,"co":147.0,"o3":10.0,"so2":3.9,"mosquito_risk":3,"arthritis_risk":5,"migraine_risk":7,"frizz_risk":1,"updated_at":"2026-07-12T05:27:52.571620+05:30"},{"city":"Alappuzha","state":"Kerala","latitude":9.4981,"longitude":76.3388,"temp":26.2,"humidity":94,"rain":0.0,"pressure":1008.6,"uv_index":7.8,"wind_gusts":45.4,"aqi":42,"pm10":17.1,"pm2_5":9.5,"no2":5.8,"co":80.0,"o3":37.0,"so2":2.6,"mosquito_risk":7,"arthritis_risk":0,"migraine_risk":4,"frizz_risk":1,"updated_at":"2026-07-12T05:27:52.571626+05:30"},{"city":"Munnar","state":"Kerala","latitude":10.0889,"longitude":77.0595,"temp":15.8,"humidity":96,"rain":0.0,"pressure":855.2,"uv_index":8.05,"wind_gusts":38.5,"aqi":26,"pm10":11.1,"pm2_5":7.4,"no2":8.1,"co":88.0,"o3":19.0,"so2":1.6,"mosquito_risk":3,"arthritis_risk":10,"migraine_risk":7,"frizz_risk":0,"updated_at":"2026-07-12T05:27:52.571631+05:30"},{"city":"Silchar","state":"Assam","latitude":24.8333,"longitude":92.7789,"temp":26.3,"humidity":97,"rain":0.6,"pressure":995.8,"uv_index":2.7,"wind_gusts":21.2,"aqi":50,"pm10":39.1,"pm2_5":25.9,"no2":8.4,"co":237.0,"o3":65.0,"so2":5.5,"mosquito_risk":10,"arthritis_risk":5,"migraine_risk":3,"frizz_risk":1,"updated_at":"2026-07-12T05:27:52.571637+05:30"},{"city":"Dibrugarh","state":"Assam","latitude":27.4728,"longitude":94.912,"temp":26.0,"humidity":97,"rain":0.1,"pressure":986.4,"uv_index":1.7,"wind_gusts":24.1,"aqi":37,"pm10":6.8,"pm2_5":6.7,"no2":11.3,"co":231.0,"o3":52.0,"so2":1.0,"mosquito_risk":10,"arthritis_risk":5,"migraine_risk":3,"frizz_risk":1,"updated_at":"2026-07-12T05:27:52.571642+05:30"}]