[{"city":"Delhi","state":"Delhi","latitude":28.6139,"longitude":77.209,"temp":29.8,"humidity":44,"rain":0.0,"pressure":981.7,"uv_index":7.55,"wind_gusts":46.8,"aqi":359,"pm10":953.7,"pm2_5":116.6,"no2":9.4,"co":441.0,"o3":185.0,"so2":18.8,"mosquito_risk":4,"arthritis_risk":5,"migraine_risk":7,"frizz_risk":1,"updated_at":"2026-05-07T17:20:24.616671+05:30"},{"city":"Mumbai","state":"Maharashtra","latitude":19.076,"longitude":72.8777,"temp":32.0,"humidity":66,"rain":0.0,"pressure":1004.4,"uv_index":7.9,"wind_gusts":44.3,"aqi":99,"pm10":84.5,"pm2_5":28.2,"no2":7.7,"co":240.0,"o3":95.0,"so2":10.0,"mosquito_risk":3,"arthritis_risk":5,"migraine_risk":4,"frizz_risk":1,"updated_at":"2026-05-07T17:20:24.616726+05:30"},{"city":"Bangalore","state":"Karnataka","latitude":12.9716,"longitude":77.5946,"temp":31.6,"humidity":34,"rain":0.1,"pressure":908.8,"uv_index":9.35,"wind_gusts":29.5,"aqi":77,"pm10":19.3,"pm2_5":14.5,"no2":6.0,"co":355.0,"o3":117.0,"so2":5.6,"mosquito_risk":3,"arthritis_risk":5,"migraine_risk":7,"frizz_risk":0,"updated_at":"2026-05-07T17:20:24.616743+05:30"},{"city":"Hyderabad","state":"Telangana","latitude":17.385,"longitude":78.4867,"temp":34.8,"humidity":30,"rain":0.0,"pressure":950.8,"uv_index":9.25,"wind_gusts":29.5,"aqi":70,"pm10":28.2,"pm2_5":16.2,"no2":3.0,"co":293.0,"o3":142.0,"so2":3.9,"mosquito_risk":0,"arthritis_risk":5,"migraine_risk":7,"frizz_risk":0,"updated_at":"2026-05-07T17:20:24.616754+05:30"},{"city":"Chennai","state":"Tamil Nadu","latitude":13.0827,"longitude":80.2707,"temp":30.6,"humidity":68,"rain":0.0,"pressure":1003.3,"uv_index":9.25,"wind_gusts":40.0,"aqi":31,"pm10":7.7,"pm2_5":5.9,"no2":3.0,"co":141.0,"o3":50.0,"so2":5.3,"mosquito_risk":3,"arthritis_risk":5,"migraine_risk":4,"frizz_risk":1,"updated_at":"2026-05-07T17:20:24.616768+05:30"},{"city":"Kolkata","state":"West Bengal","latitude":22.5726,"longitude":88.3639,"temp":28.8,"humidity":76,"rain":0.0,"pressure":1005.5,"uv_index":8.9,"wind_gusts":37.8,"aqi":86,"pm10":22.9,"pm2_5":19.2,"no2":7.0,"co":370.0,"o3":102.0,"so2":9.3,"mosquito_risk":7,"arthritis_risk":5,"migraine_risk":4,"frizz_risk":1,"updated_at":"2026-05-07T17:20:24.616778+05:30"},{"city":"Pune","state":"Maharashtra","latitude":18.5204,"longitude":73.8567,"temp":36.5,"humidity":19,"rain":0.0,"pressure":944.9,"uv_index":8.45,"wind_gusts":32.0,"aqi":114,"pm10":59.8,"pm2_5":22.2,"no2":2.2,"co":238.0,"o3":161.0,"so2":5.0,"mosquito_risk":0,"arthritis_risk":5,"migraine_risk":10,"frizz_risk":0,"updated_at":"2026-05-07T17:20:24.616787+05:30"},{"city":"Ahmedabad","state":"Gujarat","latitude":23.0225,"longitude":72.5714,"temp":41.1,"humidity":14,"rain":0.0,"pressure":997.2,"uv_index":8.1,"wind_gusts":29.5,"aqi":89,"pm10":69.8,"pm2_5":19.2,"no2":0.4,"co":171.0,"o3":140.0,"so2":3.2,"mosquito_risk":0,"arthritis_risk":5,"migraine_risk":10,"frizz_risk":0,"updated_at":"2026-05-07T17:20:24.616796+05:30"},{"city":"Jaipur","state":"Rajasthan","latitude":26.9124,"longitude":75.7873,"temp":37.5,"humidity":12,"rain":0.0,"pressure":956.7,"uv_index":8.1,"wind_gusts":45.0,"aqi":108,"pm10":256.1,"pm2_5":37.6,"no2":0.0,"co":160.0,"o3":147.0,"so2":2.9,"mosquito_risk":0,"arthritis_risk":5,"migraine_risk":10,"frizz_risk":0,"updated_at":"2026-05-07T17:20:24.616805+05:30"},{"city":"Lucknow","state":"Uttar Pradesh","latitude":26.8467,"longitude":80.9462,"temp":30.1,"humidity":48,"rain":0.0,"pressure":993.9,"uv_index":8.05,"wind_gusts":32.4,"aqi":145,"pm10":92.2,"pm2_5":33.2,"no2":2.1,"co":270.0,"o3":177.0,"so2":8.2,"mosquito_risk":0,"arthritis_risk":5,"migraine_risk":7,"frizz_risk":1,"updated_at":"2026-05-07T17:20:24.616813+05:30"},{"city":"Kanpur","state":"Uttar Pradesh","latitude":26.4499,"longitude":80.3319,"temp":30.0,"humidity":38,"rain":0.0,"pressure":991.8,"uv_index":8.05,"wind_gusts":38.9,"aqi":146,"pm10":217.0,"pm2_5":39.9,"no2":2.8,"co":223.0,"o3":176.0,"so2":7.5,"mosquito_risk":4,"arthritis_risk":5,"migraine_risk":7,"frizz_risk":0,"updated_at":"2026-05-07T17:20:24.616821+05:30"},{"city":"Chandigarh","state":"Chandigarh","latitude":30.7333,"longitude":76.7794,"temp":28.7,"humidity":38,"rain":0.0,"pressure":969.3,"uv_index":5.55,"wind_gusts":44.6,"aqi":160,"pm10":119.2,"pm2_5":30.6,"no2":0.9,"co":305.0,"o3":186.0,"so2":6.1,"mosquito_risk":4,"arthritis_risk":5,"migraine_risk":3,"frizz_risk":0,"updated_at":"2026-05-07T17:20:24.616830+05:30"},{"city":"Srinagar","state":"Jammu and Kashmir","latitude":34.0837,"longitude":74.7973,"temp":23.1,"humidity":41,"rain":0.0,"pressure":840.1,"uv_index":8.7,"wind_gusts":35.3,"aqi":94,"pm10":44.1,"pm2_5":9.5,"no2":0.0,"co":299.0,"o3":136.0,"so2":1.2,"mosquito_risk":0,"arthritis_risk":5,"migraine_risk":7,"frizz_risk":0,"updated_at":"2026-05-07T17:20:24.616838+05:30"},{"city":"Jammu","state":"Jammu and Kashmir","latitude":32.7266,"longitude":74.857,"temp":31.8,"humidity":27,"rain":0.0,"pressure":971.7,"uv_index":8.3,"wind_gusts":30.6,"aqi":165,"pm10":33.5,"pm2_5":16.2,"no2":0.5,"co":239.0,"o3":183.0,"so2":5.5,"mosquito_risk":0,"arthritis_risk":5,"migraine_risk":7,"frizz_risk":0,"updated_at":"2026-05-07T17:20:24.616846+05:30"},{"city":"Amritsar","state":"Punjab","latitude":31.634,"longitude":74.8723,"temp":33.5,"humidity":25,"rain":0.0,"pressure":979.2,"uv_index":8.2,"wind_gusts":32.0,"aqi":146,"pm10":204.9,"pm2_5":41.0,"no2":1.5,"co":289.0,"o3":178.0,"so2":7.4,"mosquito_risk":0,"arthritis_risk":5,"migraine_risk":7,"frizz_risk":0,"updated_at":"2026-05-07T17:20:24.616855+05:30"},{"city":"Ludhiana","state":"Punjab","latitude":30.901,"longitude":75.8573,"temp":31.6,"humidity":34,"rain":0.0,"pressure":977.6,"uv_index":7.8,"wind_gusts":34.6,"aqi":155,"pm10":741.3,"pm2_5":94.1,"no2":1.9,"co":288.0,"o3":184.0,"so2":7.7,"mosquito_risk":0,"arthritis_risk":5,"migraine_risk":7,"frizz_risk":0,"updated_at":"2026-05-07T17:20:24.616863+05:30"},{"city":"Jalandhar","state":"Punjab","latitude":31.326,"longitude":75.5762,"temp":31.7,"humidity":32,"rain":0.0,"pressure":978.7,"uv_index":7.95,"wind_gusts":29.2,"aqi":156,"pm10":475.9,"pm2_5":70.5,"no2":1.8,"co":298.0,"o3":184.0,"so2":8.6,"mosquito_risk":0,"arthritis_risk":5,"migraine_risk":7,"frizz_risk":0,"updated_at":"2026-05-07T17:20:24.616870+05:30"},{"city":"Dehradun","state":"Uttarakhand","latitude":30.6284,"longitude":78.0322,"temp":16.1,"humidity":66,"rain":0.0,"pressure":830.9,"uv_index":6.05,"wind_gusts":28.4,"aqi":145,"pm10":32.7,"pm2_5":17.8,"no2":2.5,"co":200.0,"o3":165.0,"so2":1.8,"mosquito_risk":3,"arthritis_risk":5,"migraine_risk":7,"frizz_risk":0,"updated_at":"2026-05-07T17:20:24.616877+05:30"},{"city":"Shimla","state":"Himachal Pradesh","latitude":31.1048,"longitude":77.1734,"temp":12.6,"humidity":73,"rain":0.0,"pressure":784.0,"uv_index":5.5,"wind_gusts":33.5,"aqi":150,"pm10":32.8,"pm2_5":19.0,"no2":0.9,"co":193.0,"o3":172.0,"so2":2.4,"mosquito_risk":3,"arthritis_risk":5,"migraine_risk":3,"frizz_risk":0,"updated_at":"2026-05-07T17:20:24.616885+05:30"},{"city":"Manali","state":"Himachal Pradesh","latitude":32.2396,"longitude":77.1887,"temp":13.8,"humidity":75,"rain":0.0,"pressure":816.9,"uv_index":9.15,"wind_gusts":28.8,"aqi":105,"pm10":43.9,"pm2_5":8.8,"no2":0.8,"co":159.0,"o3":142.0,"so2":0.3,"mosquito_risk":3,"arthritis_risk":5,"migraine_risk":7,"frizz_risk":0,"updated_at":"2026-05-07T17:20:24.616892+05:30"},{"city":"Gurgaon","state":"Haryana","latitude":28.4595,"longitude":77.0266,"temp":29.2,"humidity":43,"rain":0.0,"pressure":979.7,"uv_index":7.65,"wind_gusts":51.5,"aqi":1283,"pm10":1717.4,"pm2_5":175.1,"no2":6.9,"co":357.0,"o3":173.0,"so2":13.0,"mosquito_risk":4,"arthritis_risk":5,"migraine_risk":7,"frizz_risk":0,"updated_at":"2026-05-07T17:20:24.616900+05:30"},{"city":"Noida","state":"Uttar Pradesh","latitude":28.5355,"longitude":77.391,"temp":29.5,"humidity":44,"rain":0.0,"pressure":983.3,"uv_index":7.55,"wind_gusts":45.7,"aqi":1283,"pm10":1717.4,"pm2_5":175.1,"no2":6.9,"co":418.0,"o3":173.0,"so2":13.0,"mosquito_risk":4,"arthritis_risk":5,"migraine_risk":7,"frizz_risk":0,"updated_at":"2026-05-07T17:20:24.616910+05:30"},{"city":"Ghaziabad","state":"Uttar Pradesh","latitude":28.6692,"longitude":77.4538,"temp":28.7,"humidity":46,"rain":0.0,"pressure":982.1,"uv_index":7.55,"wind_gusts":46.1,"aqi":166,"pm10":532.7,"pm2_5":67.1,"no2":3.7,"co":257.0,"o3":172.0,"so2":7.0,"mosquito_risk":4,"arthritis_risk":5,"migraine_risk":7,"frizz_risk":0,"updated_at":"2026-05-07T17:20:24.616917+05:30"},{"city":"Faridabad","state":"Haryana","latitude":28.4089,"longitude":77.3178,"temp":29.8,"humidity":45,"rain":0.0,"pressure":982.4,"uv_index":7.6,"wind_gusts":48.6,"aqi":1283,"pm10":1717.4,"pm2_5":175.1,"no2":6.9,"co":369.0,"o3":173.0,"so2":13.0,"mosquito_risk":4,"arthritis_risk":5,"migraine_risk":7,"frizz_risk":1,"updated_at":"2026-05-07T17:20:24.616925+05:30"},{"city":"Meerut","state":"Uttar Pradesh","latitude":28.9845,"longitude":77.7064,"temp":27.4,"humidity":55,"rain":0.0,"pressure":981.5,"uv_index":6.95,"wind_gusts":37.8,"aqi":166,"pm10":532.7,"pm2_5":67.1,"no2":3.7,"co":278.0,"o3":172.0,"so2":7.0,"mosquito_risk":4,"arthritis_risk":5,"migraine_risk":7,"frizz_risk":1,"updated_at":"2026-05-07T17:20:24.616934+05:30"},{"city":"Agra","state":"Uttar Pradesh","latitude":27.1767,"longitude":78.0081,"temp":31.9,"humidity":38,"rain":0.0,"pressure":986.1,"uv_index":7.9,"wind_gusts":51.1,"aqi":889,"pm10":438.7,"pm2_5":51.5,"no2":8.7,"co":246.0,"o3":148.0,"so2":9.2,"mosquito_risk":0,"arthritis_risk":5,"migraine_risk":7,"frizz_risk":0,"updated_at":"2026-05-07T17:20:24.616941+05:30"},{"city":"Varanasi","state":"Uttar Pradesh","latitude":25.3176,"longitude":82.9739,"temp":32.1,"humidity":40,"rain":0.0,"pressure":997.4,"uv_index":8.6,"wind_gusts":28.8,"aqi":162,"pm10":70.1,"pm2_5":28.1,"no2":1.4,"co":386.0,"o3":178.0,"so2":7.8,"mosquito_risk":0,"arthritis_risk":5,"migraine_risk":7,"frizz_risk":1,"updated_at":"2026-05-07T17:20:24.616948+05:30"},{"city":"Prayagraj","state":"Uttar Pradesh","latitude":25.4358,"longitude":81.8463,"temp":32.9,"humidity":30,"rain":0.0,"pressure":996.0,"uv_index":8.45,"wind_gusts":33.1,"aqi":158,"pm10":80.8,"pm2_5":29.2,"no2":1.5,"co":268.0,"o3":175.0,"so2":7.1,"mosquito_risk":0,"arthritis_risk":5,"migraine_risk":7,"frizz_risk":0,"updated_at":"2026-05-07T17:20:24.616956+05:30"},{"city":"Gorakhpur","state":"Uttar Pradesh","latitude":26.7606,"longitude":83.3732,"temp":27.5,"humidity":60,"rain":0.0,"pressure":998.4,"uv_index":8.4,"wind_gusts":33.5,"aqi":147,"pm10":60.1,"pm2_5":28.2,"no2":2.2,"co":263.0,"o3":172.0,"so2":4.6,"mosquito_risk":4,"arthritis_risk":5,"migraine_risk":7,"frizz_risk":1,"updated_at":"2026-05-07T17:20:24.616963+05:30"},{"city":"Bareilly","state":"Uttar Pradesh","latitude":28.367,"longitude":79.4304,"temp":26.4,"humidity":62,"rain":0.0,"pressure":987.8,"uv_index":7.45,"wind_gusts":41.8,"aqi":143,"pm10":77.8,"pm2_5":27.1,"no2":1.8,"co":287.0,"o3":170.0,"so2":7.8,"mosquito_risk":7,"arthritis_risk":5,"migraine_risk":7,"frizz_risk":1,"updated_at":"2026-05-07T17:20:24.616970+05:30"},{"city":"Aligarh","state":"Uttar Pradesh","latitude":27.8974,"longitude":78.088,"temp":30.5,"humidity":39,"rain":0.0,"pressure":984.7,"uv_index":7.7,"wind_gusts":47.5,"aqi":556,"pm10":810.3,"pm2_5":88.0,"no2":3.2,"co":219.0,"o3":168.0,"so2":10.2,"mosquito_risk":0,"arthritis_risk":5,"migraine_risk":7,"frizz_risk":0,"updated_at":"2026-05-07T17:20:24.616977+05:30"},{"city":"Moradabad","state":"Uttar Pradesh","latitude":28.8386,"longitude":78.7733,"temp":27.9,"humidity":56,"rain":0.0,"pressure":984.7,"uv_index":7.5,"wind_gusts":35.6,"aqi":157,"pm10":70.1,"pm2_5":28.4,"no2":4.3,"co":264.0,"o3":173.0,"so2":13.6,"mosquito_risk":4,"arthritis_risk":5,"migraine_risk":7,"frizz_risk":1,"updated_at":"2026-05-07T17:20:24.616984+05:30"},{"city":"Saharanpur","state":"Uttar Pradesh","latitude":29.9637,"longitude":77.546,"temp":25.8,"humidity":63,"rain":0.0,"pressure":976.6,"uv_index":6.95,"wind_gusts":39.6,"aqi":146,"pm10":117.8,"pm2_5":30.5,"no2":2.1,"co":259.0,"o3":166.0,"so2":6.9,"mosquito_risk":7,"arthritis_risk":5,"migraine_risk":7,"frizz_risk":1,"updated_at":"2026-05-07T17:20:24.616991+05:30"},{"city":"Jhansi","state":"Uttar Pradesh","latitude":25.4484,"longitude":78.5685,"temp":34.5,"humidity":24,"rain":0.0,"pressure":976.5,"uv_index":8.3,"wind_gusts":42.1,"aqi":139,"pm10":45.8,"pm2_5":15.7,"no2":2.1,"co":188.0,"o3":152.0,"so2":8.8,"mosquito_risk":0,"arthritis_risk":5,"migraine_risk":7,"frizz_risk":0,"updated_at":"2026-05-07T17:20:27.916700+05:30"},{"city":"Surat","state":"Gujarat","latitude":21.1702,"longitude":72.8311,"temp":38.8,"humidity":22,"rain":0.0,"pressure":1002.2,"uv_index":7.7,"wind_gusts":33.8,"aqi":128,"pm10":93.8,"pm2_5":58.2,"no2":64.1,"co":718.0,"o3":93.0,"so2":100.9,"mosquito_risk":0,"arthritis_risk":5,"migraine_risk":7,"frizz_risk":0,"updated_at":"2026-05-07T17:20:27.916732+05:30"},{"city":"Vadodara","state":"Gujarat","latitude":22.3072,"longitude":73.1812,"temp":40.5,"humidity":14,"rain":0.0,"pressure":999.5,"uv_index":8.05,"wind_gusts":38.9,"aqi":143,"pm10":67.1,"pm2_5":23.2,"no2":1.2,"co":202.0,"o3":161.0,"so2":6.3,"mosquito_risk":0,"arthritis_risk":5,"migraine_risk":10,"frizz_risk":0,"updated_at":"2026-05-07T17:20:27.916742+05:30"},{"city":"Rajkot","state":"Gujarat","latitude":22.3039,"longitude":70.8022,"temp":39.5,"humidity":19,"rain":0.0,"pressure":989.9,"uv_index":7.7,"wind_gusts":47.2,"aqi":81,"pm10":67.8,"pm2_5":18.7,"no2":1.0,"co":154.0,"o3":149.0,"so2":4.3,"mosquito_risk":0,"arthritis_risk":5,"migraine_risk":10,"frizz_risk":0,"updated_at":"2026-05-07T17:20:27.916751+05:30"},{"city":"Thane","state":"Maharashtra","latitude":19.2183,"longitude":72.9781,"temp":35.2,"humidity":49,"rain":0.0,"pressure":1003.3,"uv_index":7.9,"wind_gusts":35.6,"aqi":99,"pm10":84.5,"pm2_5":28.2,"no2":7.7,"co":215.0,"o3":95.0,"so2":10.0,"mosquito_risk":0,"arthritis_risk":5,"migraine_risk":7,"frizz_risk":1,"updated_at":"2026-05-07T17:20:27.916758+05:30"},{"city":"Nagpur","state":"Maharashtra","latitude":21.1458,"longitude":79.0882,"temp":36.3,"humidity":21,"rain":0.0,"pressure":971.0,"uv_index":8.9,"wind_gusts":49.7,"aqi":197,"pm10":53.4,"pm2_5":33.9,"no2":6.8,"co":201.0,"o3":229.0,"so2":28.0,"mosquito_risk":0,"arthritis_risk":5,"migraine_risk":10,"frizz_risk":0,"updated_at":"2026-05-07T17:20:27.916766+05:30"},{"city":"Nashik","state":"Maharashtra","latitude":19.9975,"longitude":73.7898,"temp":32.0,"humidity":31,"rain":0.0,"pressure":943.7,"uv_index":8.15,"wind_gusts":45.4,"aqi":125,"pm10":61.5,"pm2_5":21.6,"no2":0.9,"co":168.0,"o3":149.0,"so2":3.4,"mosquito_risk":0,"arthritis_risk":5,"migraine_risk":7,"frizz_risk":0,"updated_at":"2026-05-07T17:20:27.916773+05:30"},{"city":"Aurangabad","state":"Maharashtra","latitude":19.8762,"longitude":75.3433,"temp":35.9,"humidity":16,"rain":0.0,"pressure":941.5,"uv_index":9.05,"wind_gusts":32.0,"aqi":143,"pm10":54.6,"pm2_5":21.5,"no2":0.9,"co":185.0,"o3":171.0,"so2":8.0,"mosquito_risk":0,"arthritis_risk":5,"migraine_risk":10,"frizz_risk":0,"updated_at":"2026-05-07T17:20:27.916780+05:30"},{"city":"Solapur","state":"Maharashtra","latitude":17.6599,"longitude":75.9064,"temp":36.4,"humidity":25,"rain":0.0,"pressure":953.4,"uv_index":9.05,"wind_gusts":43.9,"aqi":114,"pm10":40.7,"pm2_5":22.9,"no2":2.0,"co":184.0,"o3":153.0,"so2":4.1,"mosquito_risk":0,"arthritis_risk":5,"migraine_risk":10,"frizz_risk":0,"updated_at":"2026-05-07T17:20:27.916787+05:30"},{"city":"Kolhapur","state":"Maharashtra","latitude":16.705,"longitude":74.2433,"temp":31.8,"humidity":41,"rain":0.0,"pressure":945.1,"uv_index":8.95,"wind_gusts":48.2,"aqi":124,"pm10":48.0,"pm2_5":28.2,"no2":5.8,"co":193.0,"o3":162.0,"so2":6.2,"mosquito_risk":0,"arthritis_risk":5,"migraine_risk":7,"frizz_risk":1,"updated_at":"2026-05-07T17:20:27.916794+05:30"},{"city":"Goa","state":"Goa","latitude":15.2993,"longitude":74.124,"temp":33.2,"humidity":55,"rain":0.0,"pressure":994.1,"uv_index":8.9,"wind_gusts":35.6,"aqi":87,"pm10":50.1,"pm2_5":26.7,"no2":1.1,"co":157.0,"o3":130.0,"so2":3.7,"mosquito_risk":0,"arthritis_risk":5,"migraine_risk":7,"frizz_risk":1,"updated_at":"2026-05-07T17:20:27.916801+05:30"},{"city":"Jodhpur","state":"Rajasthan","latitude":26.2389,"longitude":73.0243,"temp":40.2,"humidity":12,"rain":0.0,"pressure":978.7,"uv_index":8.3,"wind_gusts":38.5,"aqi":109,"pm10":228.6,"pm2_5":31.8,"no2":0.7,"co":160.0,"o3":147.0,"so2":3.0,"mosquito_risk":0,"arthritis_risk":5,"migraine_risk":10,"frizz_risk":0,"updated_at":"2026-05-07T17:20:27.916808+05:30"},{"city":"Udaipur","state":"Rajasthan","latitude":24.5854,"longitude":73.7125,"temp":35.8,"humidity":16,"rain":0.0,"pressure":944.2,"uv_index":8.75,"wind_gusts":31.3,"aqi":96,"pm10":98.3,"pm2_5":20.4,"no2":0.4,"co":141.0,"o3":138.0,"so2":2.2,"mosquito_risk":0,"arthritis_risk":5,"migraine_risk":10,"frizz_risk":0,"updated_at":"2026-05-07T17:20:27.916815+05:30"},{"city":"Kota","state":"Rajasthan","latitude":25.2138,"longitude":75.8648,"temp":38.8,"humidity":15,"rain":0.0,"pressure":975.6,"uv_index":8.3,"wind_gusts":39.6,"aqi":122,"pm10":71.5,"pm2_5":17.2,"no2":0.3,"co":167.0,"o3":158.0,"so2":3.4,"mosquito_risk":0,"arthritis_risk":5,"migraine_risk":10,"frizz_risk":0,"updated_at":"2026-05-07T17:20:27.916822+05:30"},{"city":"Bikaner","state":"Rajasthan","latitude":28.0229,"longitude":73.3119,"temp":41.3,"humidity":9,"rain":0.0,"pressure":976.4,"uv_index":8.25,"wind_gusts":37.1,"aqi":116,"pm10":57.9,"pm2_5":15.1,"no2":0.1,"co":167.0,"o3":139.0,"so2":4.6,"mosquito_risk":0,"arthritis_risk":5,"migraine_risk":10,"frizz_risk":0,"updated_at":"2026-05-07T17:20:27.916829+05:30"},{"city":"Ajmer","state":"Rajasthan","latitude":26.4499,"longitude":74.6399,"temp":36.8,"humidity":13,"rain":0.0,"pressure":951.8,"uv_index":8.25,"wind_gusts":46.4,"aqi":98,"pm10":84.3,"pm2_5":20.4,"no2":0.2,"co":159.0,"o3":148.0,"so2":3.2,"mosquito_risk":0,"arthritis_risk":5,"migraine_risk":10,"frizz_risk":0,"updated_at":"2026-05-07T17:20:27.916836+05:30"},{"city":"Gwalior","state":"Madhya Pradesh","latitude":26.2183,"longitude":78.1828,"temp":31.5,"humidity":43,"rain":0.0,"pressure":981.7,"uv_index":7.9,"wind_gusts":44.6,"aqi":131,"pm10":105.0,"pm2_5":22.9,"no2":1.1,"co":268.0,"o3":148.0,"so2":4.8,"mosquito_risk":0,"arthritis_risk":5,"migraine_risk":7,"frizz_risk":1,"updated_at":"2026-05-07T17:20:27.916843+05:30"},{"city":"Indore","state":"Madhya Pradesh","latitude":22.7196,"longitude":75.8577,"temp":36.8,"humidity":13,"rain":0.0,"pressure":945.9,"uv_index":8.65,"wind_gusts":37.1,"aqi":144,"pm10":27.6,"pm2_5":13.3,"no2":0.7,"co":209.0,"o3":170.0,"so2":5.1,"mosquito_risk":0,"arthritis_risk":5,"migraine_risk":10,"frizz_risk":0,"updated_at":"2026-05-07T17:20:27.916850+05:30"},{"city":"Bhopal","state":"Madhya Pradesh","latitude":23.2599,"longitude":77.4126,"temp":37.5,"humidity":12,"rain":0.0,"pressure":951.4,"uv_index":8.65,"wind_gusts":34.2,"aqi":136,"pm10":21.0,"pm2_5":9.9,"no2":0.3,"co":184.0,"o3":167.0,"so2":4.5,"mosquito_risk":0,"arthritis_risk":5,"migraine_risk":10,"frizz_risk":0,"updated_at":"2026-05-07T17:20:27.916857+05:30"},{"city":"Jabalpur","state":"Madhya Pradesh","latitude":23.1815,"longitude":79.9864,"temp":37.2,"humidity":12,"rain":0.0,"pressure":959.3,"uv_index":8.8,"wind_gusts":24.8,"aqi":127,"pm10":24.7,"pm2_5":7.9,"no2":1.5,"co":175.0,"o3":153.0,"so2":2.6,"mosquito_risk":0,"arthritis_risk":5,"migraine_risk":10,"frizz_risk":0,"updated_at":"2026-05-07T17:20:27.916863+05:30"},{"city":"Ujjain","state":"Madhya Pradesh","latitude":23.1765,"longitude":75.7885,"temp":38.8,"humidity":9,"rain":0.0,"pressure":950.7,"uv_index":8.55,"wind_gusts":33.5,"aqi":135,"pm10":30.2,"pm2_5":12.0,"no2":0.8,"co":198.0,"o3":156.0,"so2":3.8,"mosquito_risk":0,"arthritis_risk":5,"migraine_risk":10,"frizz_risk":0,"updated_at":"2026-05-07T17:20:27.916871+05:30"},{"city":"Visakhapatnam","state":"Andhra Pradesh","latitude":17.6868,"longitude":83.2185,"temp":31.0,"humidity":66,"rain":0.0,"pressure":1001.3,"uv_index":8.85,"wind_gusts":31.7,"aqi":73,"pm10":17.1,"pm2_5":13.8,"no2":17.5,"co":322.0,"o3":40.0,"so2":14.9,"mosquito_risk":3,"arthritis_risk":5,"migraine_risk":4,"frizz_risk":1,"updated_at":"2026-05-07T17:20:27.916878+05:30"},{"city":"Vijayawada","state":"Andhra Pradesh","latitude":16.5062,"longitude":80.648,"temp":33.6,"humidity":50,"rain":0.0,"pressure":999.4,"uv_index":9.15,"wind_gusts":42.1,"aqi":51,"pm10":20.9,"pm2_5":15.7,"no2":3.2,"co":189.0,"o3":88.0,"so2":5.3,"mosquito_risk":0,"arthritis_risk":5,"migraine_risk":7,"frizz_risk":1,"updated_at":"2026-05-07T17:20:27.916885+05:30"},{"city":"Guntur","state":"Andhra Pradesh","latitude":16.3067,"longitude":80.4365,"temp":33.7,"humidity":52,"rain":0.0,"pressure":1000.5,"uv_index":9.2,"wind_gusts":44.3,"aqi":53,"pm10":26.4,"pm2_5":20.0,"no2":2.9,"co":159.0,"o3":109.0,"so2":3.7,"mosquito_risk":0,"arthritis_risk":5,"migraine_risk":4,"frizz_risk":1,"updated_at":"2026-05-07T17:20:27.916891+05:30"},{"city":"Nellore","state":"Andhra Pradesh","latitude":14.4426,"longitude":79.9865,"temp":31.2,"humidity":65,"rain":0.0,"pressure":1002.3,"uv_index":9.2,"wind_gusts":40.3,"aqi":36,"pm10":8.2,"pm2_5":5.7,"no2":1.3,"co":114.0,"o3":54.0,"so2":1.7,"mosquito_risk":3,"arthritis_risk":5,"migraine_risk":4,"frizz_risk":1,"updated_at":"2026-05-07T17:20:27.916899+05:30"},{"city":"Kurnool","state":"Andhra Pradesh","latitude":15.8281,"longitude":78.0373,"temp":37.3,"humidity":25,"rain":0.0,"pressure":972.5,"uv_index":9.2,"wind_gusts":45.4,"aqi":68,"pm10":25.6,"pm2_5":13.8,"no2":0.9,"co":205.0,"o3":132.0,"so2":2.7,"mosquito_risk":0,"arthritis_risk":5,"migraine_risk":10,"frizz_risk":0,"updated_at":"2026-05-07T17:20:27.916906+05:30"},{"city":"Kakinada","state":"Andhra Pradesh","latitude":16.9891,"longitude":82.2475,"temp":30.1,"humidity":73,"rain":0.0,"pressure":1004.9,"uv_index":8.9,"wind_gusts":33.5,"aqi":33,"pm10":9.6,"pm2_5":6.3,"no2":1.1,"co":139.0,"o3":55.0,"so2":0.7,"mosquito_risk":3,"arthritis_risk":5,"migraine_risk":4,"frizz_risk":1,"updated_at":"2026-05-07T17:20:27.916913+05:30"},{"city":"Tirupati","state":"Andhra Pradesh","latitude":13.6288,"longitude":79.4192,"temp":33.0,"humidity":49,"rain":0.0,"pressure":987.1,"uv_index":9.25,"wind_gusts":39.6,"aqi":55,"pm10":13.4,"pm2_5":11.7,"no2":3.4,"co":165.0,"o3":94.0,"so2":5.2,"mosquito_risk":0,"arthritis_risk":5,"migraine_risk":7,"frizz_risk":1,"updated_at":"2026-05-07T17:20:27.916920+05:30"},{"city":"Warangal","state":"Telangana","latitude":17.9689,"longitude":79.5941,"temp":35.3,"humidity":35,"rain":0.0,"pressure":976.0,"uv_index":9.1,"wind_gusts":36.7,"aqi":75,"pm10":31.4,"pm2_5":18.9,"no2":0.9,"co":199.0,"o3":140.0,"so2":3.8,"mosquito_risk":0,"arthritis_risk":5,"migraine_risk":10,"frizz_risk":1,"updated_at":"2026-05-07T17:20:27.916927+05:30"},{"city":"Nizamabad","state":"Telangana","latitude":18.6725,"longitude":78.0941,"temp":32.0,"humidity":41,"rain":0.0,"pressure":963.0,"uv_index":9.1,"wind_gusts":47.2,"aqi":109,"pm10":38.4,"pm2_5":21.8,"no2":1.5,"co":201.0,"o3":154.0,"so2":3.0,"mosquito_risk":0,"arthritis_risk":5,"migraine_risk":7,"frizz_risk":1,"updated_at":"2026-05-07T17:20:27.916934+05:30"},{"city":"Mysore","state":"Karnataka","latitude":12.2958,"longitude":76.6396,"temp":31.9,"humidity":38,"rain":0.0,"pressure":924.9,"uv_index":9.2,"wind_gusts":27.7,"aqi":85,"pm10":27.2,"pm2_5":18.3,"no2":0.7,"co":238.0,"o3":140.0,"so2":4.7,"mosquito_risk":0,"arthritis_risk":5,"migraine_risk":7,"frizz_risk":0,"updated_at":"2026-05-07T17:20:27.916940+05:30"},{"city":"Mangalore","state":"Karnataka","latitude":12.9141,"longitude":74.856,"temp":29.1,"humidity":80,"rain":0.0,"pressure":1003.3,"uv_index":8.2,"wind_gusts":36.0,"aqi":60,"pm10":34.1,"pm2_5":17.1,"no2":1.6,"co":148.0,"o3":105.0,"so2":1.7,"mosquito_risk":7,"arthritis_risk":5,"migraine_risk":4,"frizz_risk":1,"updated_at":"2026-05-07T17:20:27.916947+05:30"},{"city":"Hubli-Dharwad","state":"Karnataka","latitude":15.3647,"longitude":75.124,"temp":31.0,"humidity":43,"rain":0.0,"pressure":937.9,"uv_index":9.2,"wind_gusts":50.8,"aqi":139,"pm10":43.8,"pm2_5":27.5,"no2":2.6,"co":199.0,"o3":162.0,"so2":2.9,"mosquito_risk":0,"arthritis_risk":5,"migraine_risk":7,"frizz_risk":1,"updated_at":"2026-05-07T17:20:27.916954+05:30"},{"city":"Belgaum","state":"Karnataka","latitude":15.8497,"longitude":74.4977,"temp":28.9,"humidity":48,"rain":0.0,"pressure":923.3,"uv_index":8.35,"wind_gusts":48.2,"aqi":124,"pm10":48.1,"pm2_5":29.3,"no2":2.9,"co":205.0,"o3":159.0,"so2":5.4,"mosquito_risk":4,"arthritis_risk":5,"migraine_risk":7,"frizz_risk":1,"updated_at":"2026-05-07T17:20:31.215485+05:30"},{"city":"Coimbatore","state":"Tamil Nadu","latitude":11.0168,"longitude":76.9558,"temp":31.8,"humidity":50,"rain":0.0,"pressure":957.5,"uv_index":7.2,"wind_gusts":29.2,"aqi":65,"pm10":20.5,"pm2_5":13.3,"no2":2.6,"co":256.0,"o3":123.0,"so2":2.5,"mosquito_risk":0,"arthritis_risk":5,"migraine_risk":7,"frizz_risk":1,"updated_at":"2026-05-07T17:20:31.215521+05:30"},{"city":"Madurai","state":"Tamil Nadu","latitude":9.9252,"longitude":78.1198,"temp":34.2,"humidity":45,"rain":0.0,"pressure":988.1,"uv_index":6.0,"wind_gusts":34.9,"aqi":80,"pm10":36.3,"pm2_5":28.0,"no2":3.9,"co":202.0,"o3":121.0,"so2":2.0,"mosquito_risk":0,"arthritis_risk":5,"migraine_risk":3,"frizz_risk":1,"updated_at":"2026-05-07T17:20:31.215534+05:30"},{"city":"Trichy","state":"Tamil Nadu","latitude":10.7905,"longitude":78.7047,"temp":33.0,"humidity":53,"rain":0.0,"pressure":994.9,"uv_index":8.5,"wind_gusts":29.2,"aqi":58,"pm10":13.3,"pm2_5":11.5,"no2":3.7,"co":197.0,"o3":132.0,"so2":5.5,"mosquito_risk":0,"arthritis_risk":5,"migraine_risk":7,"frizz_risk":1,"updated_at":"2026-05-07T17:20:31.215544+05:30"},{"city":"Salem","state":"Tamil Nadu","latitude":11.6643,"longitude":78.146,"temp":31.8,"humidity":58,"rain":0.0,"pressure":972.9,"uv_index":8.75,"wind_gusts":34.6,"aqi":85,"pm10":21.9,"pm2_5":18.6,"no2":3.5,"co":196.0,"o3":138.0,"so2":10.3,"mosquito_risk":0,"arthritis_risk":5,"migraine_risk":7,"frizz_risk":1,"updated_at":"2026-05-07T17:20:31.215555+05:30"},{"city":"Tirunelveli","state":"Tamil Nadu","latitude":8.7139,"longitude":77.7567,"temp":30.9,"humidity":62,"rain":0.0,"pressure":998.8,"uv_index":4.75,"wind_gusts":30.2,"aqi":77,"pm10":22.8,"pm2_5":18.6,"no2":4.2,"co":209.0,"o3":122.0,"so2":4.3,"mosquito_risk":3,"arthritis_risk":5,"migraine_risk":3,"frizz_risk":1,"updated_at":"2026-05-07T17:20:31.215565+05:30"},{"city":"Vellore","state":"Tamil Nadu","latitude":12.9165,"longitude":79.1325,"temp":33.4,"humidity":49,"rain":0.0,"pressure":980.1,"uv_index":9.25,"wind_gusts":29.2,"aqi":65,"pm10":8.8,"pm2_5":7.1,"no2":2.1,"co":197.0,"o3":92.0,"so2":1.4,"mosquito_risk":0,"arthritis_risk":5,"migraine_risk":7,"frizz_risk":1,"updated_at":"2026-05-07T17:20:31.215573+05:30"},{"city":"Erode","state":"Tamil Nadu","latitude":11.341,"longitude":77.7172,"temp":33.0,"humidity":49,"rain":0.0,"pressure":984.2,"uv_index":7.9,"wind_gusts":35.6,"aqi":68,"pm10":15.1,"pm2_5":10.7,"no2":3.0,"co":244.0,"o3":125.0,"so2":1.9,"mosquito_risk":0,"arthritis_risk":5,"migraine_risk":7,"frizz_risk":1,"updated_at":"2026-05-07T17:20:31.215581+05:30"},{"city":"Kochi","state":"Kerala","latitude":9.9312,"longitude":76.2673,"temp":28.6,"humidity":79,"rain":0.1,"pressure":1004.8,"uv_index":5.45,"wind_gusts":24.1,"aqi":67,"pm10":19.3,"pm2_5":13.9,"no2":7.7,"co":231.0,"o3":95.0,"so2":2.7,"mosquito_risk":10,"arthritis_risk":5,"migraine_risk":0,"frizz_risk":1,"updated_at":"2026-05-07T17:20:31.215589+05:30"},{"city":"Thiruvananthapuram","state":"Kerala","latitude":8.5241,"longitude":76.9366,"temp":27.9,"humidity":85,"rain":0.0,"pressure":1004.0,"uv_index":7.4,"wind_gusts":28.4,"aqi":86,"pm10":18.5,"pm2_5":12.4,"no2":1.8,"co":239.0,"o3":122.0,"so2":1.2,"mosquito_risk":7,"arthritis_risk":5,"migraine_risk":4,"frizz_risk":1,"updated_at":"2026-05-07T17:20:31.215597+05:30"},{"city":"Kozhikode","state":"Kerala","latitude":11.2588,"longitude":75.7804,"temp":29.4,"humidity":78,"rain":0.0,"pressure":1003.9,"uv_index":6.6,"wind_gusts":36.0,"aqi":86,"pm10":15.5,"pm2_5":11.0,"no2":1.4,"co":189.0,"o3":125.0,"so2":2.2,"mosquito_risk":7,"arthritis_risk":5,"migraine_risk":4,"frizz_risk":1,"updated_at":"2026-05-07T17:20:31.215605+05:30"},{"city":"Thrissur","state":"Kerala","latitude":10.5276,"longitude":76.2144,"temp":29.1,"humidity":72,"rain":0.0,"pressure":1002.9,"uv_index":4.2,"wind_gusts":27.0,"aqi":69,"pm10":16.6,"pm2_5":12.5,"no2":4.2,"co":197.0,"o3":101.0,"so2":1.7,"mosquito_risk":7,"arthritis_risk":5,"migraine_risk":0,"frizz_risk":1,"updated_at":"2026-05-07T17:20:31.215613+05:30"},{"city":"Kannur","state":"Kerala","latitude":11.8745,"longitude":75.3704,"temp":30.0,"humidity":73,"rain":0.0,"pressure":1003.5,"uv_index":7.9,"wind_gusts":41.0,"aqi":102,"pm10":20.5,"pm2_5":13.7,"no2":1.7,"co":188.0,"o3":136.0,"so2":1.7,"mosquito_risk":7,"arthritis_risk":5,"migraine_risk":4,"frizz_risk":1,"updated_at":"2026-05-07T17:20:31.215620+05:30"},{"city":"Patna","state":"Bihar","latitude":25.5941,"longitude":85.1376,"temp":28.8,"humidity":66,"rain":0.0,"pressure":1000.5,"uv_index":8.7,"wind_gusts":40.7,"aqi":177,"pm10":49.5,"pm2_5":38.3,"no2":3.6,"co":396.0,"o3":201.0,"so2":7.7,"mosquito_risk":7,"arthritis_risk":5,"migraine_risk":4,"frizz_risk":1,"updated_at":"2026-05-07T17:20:31.215628+05:30"},{"city":"Gaya","state":"Bihar","latitude":24.7914,"longitude":85.0002,"temp":30.0,"humidity":53,"rain":0.0,"pressure":993.3,"uv_index":8.75,"wind_gusts":32.4,"aqi":196,"pm10":53.9,"pm2_5":44.8,"no2":2.6,"co":318.0,"o3":215.0,"so2":11.6,"mosquito_risk":4,"arthritis_risk":5,"migraine_risk":7,"frizz_risk":1,"updated_at":"2026-05-07T17:20:31.215636+05:30"},{"city":"Muzaffarpur","state":"Bihar","latitude":26.1209,"longitude":85.3647,"temp":28.9,"humidity":64,"rain":0.0,"pressure":1000.7,"uv_index":8.65,"wind_gusts":39.2,"aqi":156,"pm10":46.3,"pm2_5":34.0,"no2":5.0,"co":349.0,"o3":179.0,"so2":8.1,"mosquito_risk":7,"arthritis_risk":5,"migraine_risk":4,"frizz_risk":1,"updated_at":"2026-05-07T17:20:31.215643+05:30"},{"city":"Bhagalpur","state":"Bihar","latitude":25.2425,"longitude":87.0117,"temp":27.5,"humidity":64,"rain":0.0,"pressure":1001.4,"uv_index":8.7,"wind_gusts":38.5,"aqi":185,"pm10":61.0,"pm2_5":54.6,"no2":9.2,"co":417.0,"o3":182.0,"so2":9.5,"mosquito_risk":7,"arthritis_risk":5,"migraine_risk":4,"frizz_risk":1,"updated_at":"2026-05-07T17:20:31.215650+05:30"},{"city":"Ranchi","state":"Jharkhand","latitude":23.3441,"longitude":85.3096,"temp":30.0,"humidity":29,"rain":0.0,"pressure":937.1,"uv_index":9.2,"wind_gusts":34.2,"aqi":173,"pm10":31.3,"pm2_5":14.9,"no2":3.4,"co":232.0,"o3":165.0,"so2":7.0,"mosquito_risk":4,"arthritis_risk":5,"migraine_risk":7,"frizz_risk":0,"updated_at":"2026-05-07T17:20:31.215658+05:30"},{"city":"Jamshedpur","state":"Jharkhand","latitude":22.8046,"longitude":86.2029,"temp":30.0,"humidity":50,"rain":0.0,"pressure":989.7,"uv_index":9.05,"wind_gusts":42.5,"aqi":188,"pm10":56.0,"pm2_5":39.9,"no2":8.6,"co":299.0,"o3":196.0,"so2":19.7,"mosquito_risk":4,"arthritis_risk":5,"migraine_risk":7,"frizz_risk":1,"updated_at":"2026-05-07T17:20:31.215665+05:30"},{"city":"Dhanbad","state":"Jharkhand","latitude":23.7957,"longitude":86.4304,"temp":29.3,"humidity":61,"rain":0.0,"pressure":979.3,"uv_index":8.95,"wind_gusts":39.2,"aqi":167,"pm10":62.4,"pm2_5":52.0,"no2":22.0,"co":515.0,"o3":199.0,"so2":40.2,"mosquito_risk":7,"arthritis_risk":5,"migraine_risk":7,"frizz_risk":1,"updated_at":"2026-05-07T17:20:31.215673+05:30"},{"city":"Bokaro","state":"Jharkhand","latitude":23.6693,"longitude":86.1511,"temp":30.5,"humidity":53,"rain":0.0,"pressure":982.9,"uv_index":8.95,"wind_gusts":47.2,"aqi":175,"pm10":45.8,"pm2_5":33.1,"no2":18.6,"co":254.0,"o3":185.0,"so2":31.2,"mosquito_risk":0,"arthritis_risk":5,"migraine_risk":7,"frizz_risk":1,"updated_at":"2026-05-07T17:20:31.215680+05:30"},{"city":"Bhubaneswar","state":"Odisha","latitude":20.2961,"longitude":85.8245,"temp":31.8,"humidity":61,"rain":0.0,"pressure":1001.0,"uv_index":9.1,"wind_gusts":50.4,"aqi":48,"pm10":19.8,"pm2_5":13.4,"no2":5.3,"co":229.0,"o3":99.0,"so2":4.0,"mosquito_risk":3,"arthritis_risk":5,"migraine_risk":4,"frizz_risk":1,"updated_at":"2026-05-07T17:20:31.215688+05:30"},{"city":"Cuttack","state":"Odisha","latitude":20.4625,"longitude":85.8828,"temp":32.0,"humidity":62,"rain":0.0,"pressure":1002.7,"uv_index":9.15,"wind_gusts":43.6,"aqi":48,"pm10":19.8,"pm2_5":13.4,"no2":5.3,"co":265.0,"o3":99.0,"so2":4.0,"mosquito_risk":3,"arthritis_risk":5,"migraine_risk":4,"frizz_risk":1,"updated_at":"2026-05-07T17:20:31.215695+05:30"},{"city":"Rourkela","state":"Odisha","latitude":22.2604,"longitude":84.8536,"temp":35.2,"humidity":25,"rain":0.0,"pressure":982.7,"uv_index":8.95,"wind_gusts":36.7,"aqi":208,"pm10":37.8,"pm2_5":23.2,"no2":6.7,"co":285.0,"o3":201.0,"so2":19.2,"mosquito_risk":0,"arthritis_risk":5,"migraine_risk":10,"frizz_risk":0,"updated_at":"2026-05-07T17:20:31.215702+05:30"},{"city":"Raipur","state":"Chhattisgarh","latitude":21.2514,"longitude":81.6296,"temp":37.4,"humidity":15,"rain":0.0,"pressure":972.4,"uv_index":8.95,"wind_gusts":32.8,"aqi":204,"pm10":37.7,"pm2_5":25.1,"no2":7.8,"co":170.0,"o3":252.0,"so2":5.8,"mosquito_risk":0,"arthritis_risk":5,"migraine_risk":10,"frizz_risk":0,"updated_at":"2026-05-07T17:20:31.215709+05:30"},{"city":"Bhilai","state":"Chhattisgarh","latitude":21.1938,"longitude":81.3509,"temp":36.8,"humidity":17,"rain":0.0,"pressure":972.9,"uv_index":9.0,"wind_gusts":26.6,"aqi":190,"pm10":39.1,"pm2_5":25.1,"no2":8.8,"co":187.0,"o3":236.0,"so2":5.1,"mosquito_risk":0,"arthritis_risk":5,"migraine_risk":10,"frizz_risk":0,"updated_at":"2026-05-07T17:20:31.215717+05:30"},{"city":"Guwahati","state":"Assam","latitude":26.1158,"longitude":91.7086,"temp":23.8,"humidity":85,"rain":0.0,"pressure":1001.7,"uv_index":8.65,"wind_gusts":32.8,"aqi":122,"pm10":47.5,"pm2_5":37.4,"no2":2.6,"co":269.0,"o3":143.0,"so2":2.9,"mosquito_risk":3,"arthritis_risk":5,"migraine_risk":4,"frizz_risk":1,"updated_at":"2026-05-07T17:20:31.215724+05:30"},{"city":"Agartala","state":"Tripura","latitude":23.8315,"longitude":91.2868,"temp":28.8,"humidity":78,"rain":0.0,"pressure":1005.3,"uv_index":8.85,"wind_gusts":32.0,"aqi":113,"pm10":23.5,"pm2_5":20.9,"no2":10.3,"co":249.0,"o3":156.0,"so2":4.4,"mosquito_risk":7,"arthritis_risk":5,"migraine_risk":4,"frizz_risk":1,"updated_at":"2026-05-07T17:20:31.215731+05:30"},{"city":"Shillong","state":"Meghalaya","latitude":25.5788,"longitude":91.8933,"temp":18.5,"humidity":74,"rain":0.0,"pressure":857.2,"uv_index":7.75,"wind_gusts":24.8,"aqi":123,"pm10":39.6,"pm2_5":30.2,"no2":2.8,"co":257.0,"o3":149.0,"so2":2.3,"mosquito_risk":3,"arthritis_risk":5,"migraine_risk":7,"frizz_risk":0,"updated_at":"2026-05-07T17:20:31.215738+05:30"},{"city":"Imphal","state":"Manipur","latitude":24.817,"longitude":93.9368,"temp":24.8,"humidity":64,"rain":0.0,"pressure":922.7,"uv_index":9.1,"wind_gusts":31.0,"aqi":104,"pm10":34.5,"pm2_5":23.2,"no2":3.0,"co":232.0,"o3":114.0,"so2":2.2,"mosquito_risk":3,"arthritis_risk":5,"migraine_risk":7,"frizz_risk":1,"updated_at":"2026-05-07T17:20:31.215745+05:30"},{"city":"Aizawl","state":"Mizoram","latitude":23.7271,"longitude":92.7176,"temp":23.0,"humidity":69,"rain":0.0,"pressure":892.5,"uv_index":9.05,"wind_gusts":23.4,"aqi":70,"pm10":19.5,"pm2_5":14.3,"no2":2.3,"co":175.0,"o3":90.0,"so2":0.7,"mosquito_risk":3,"arthritis_risk":5,"migraine_risk":7,"frizz_risk":1,"updated_at":"2026-05-07T17:20:31.215753+05:30"},{"city":"Kohima","state":"Nagaland","latitude":25.6701,"longitude":94.1077,"temp":18.4,"humidity":90,"rain":0.0,"pressure":855.2,"uv_index":9.15,"wind_gusts":27.4,"aqi":71,"pm10":39.5,"pm2_5":25.5,"no2":3.5,"co":269.0,"o3":113.0,"so2":1.2,"mosquito_risk":3,"arthritis_risk":10,"migraine_risk":7,"frizz_risk":1,"updated_at":"2026-05-07T17:20:31.215760+05:30"},{"city":"Gangtok","state":"Sikkim","latitude":27.3314,"longitude":88.6138,"temp":16.8,"humidity":73,"rain":0.0,"pressure":836.6,"uv_index":8.55,"wind_gusts":39.2,"aqi":99,"pm10":28.3,"pm2_5":17.9,"no2":3.3,"co":263.0,"o3":128.0,"so2":1.2,"mosquito_risk":3,"arthritis_risk":5,"migraine_risk":7,"frizz_risk":0,"updated_at":"2026-05-07T17:20:31.215767+05:30"},{"city":"Siliguri","state":"West Bengal","latitude":26.7271,"longitude":88.3953,"temp":27.2,"humidity":67,"rain":0.0,"pressure":992.3,"uv_index":8.6,"wind_gusts":23.8,"aqi":115,"pm10":46.0,"pm2_5":27.5,"no2":7.8,"co":577.0,"o3":135.0,"so2":2.3,"mosquito_risk":7,"arthritis_risk":5,"migraine_risk":7,"frizz_risk":1,"updated_at":"2026-05-07T17:20:34.536620+05:30"},{"city":"Durgapur","state":"West Bengal","latitude":23.5204,"longitude":87.3119,"temp":28.4,"humidity":76,"rain":0.0,"pressure":995.2,"uv_index":8.9,"wind_gusts":45.4,"aqi":157,"pm10":52.0,"pm2_5":46.0,"no2":19.4,"co":1040.0,"o3":182.0,"so2":43.3,"mosquito_risk":7,"arthritis_risk":5,"migraine_risk":7,"frizz_risk":1,"updated_at":"2026-05-07T17:20:34.536657+05:30"},{"city":"Asansol","state":"West Bengal","latitude":23.6739,"longitude":86.9524,"temp":28.0,"humidity":70,"rain":0.0,"pressure":993.6,"uv_index":8.95,"wind_gusts":34.2,"aqi":168,"pm10":60.8,"pm2_5":54.7,"no2":18.8,"co":507.0,"o3":198.0,"so2":48.6,"mosquito_risk":7,"arthritis_risk":5,"migraine_risk":7,"frizz_risk":1,"updated_at":"2026-05-07T17:20:34.536670+05:30"},{"city":"Pondicherry","state":"Puducherry","latitude":11.9139,"longitude":79.8145,"temp":29.7,"humidity":72,"rain":0.0,"pressure":1004.2,"uv_index":7.15,"wind_gusts":32.0,"aqi":29,"pm10":5.8,"pm2_5":3.9,"no2":1.4,"co":138.0,"o3":47.0,"so2":0.4,"mosquito_risk":7,"arthritis_risk":5,"migraine_risk":4,"frizz_risk":1,"updated_at":"2026-05-07T17:20:34.536680+05:30"},{"city":"Port Blair","state":"Andaman and Nicobar Islands","latitude":11.6234,"longitude":92.7265,"temp":27.8,"humidity":84,"rain":0.0,"pressure":1004.9,"uv_index":8.45,"wind_gusts":34.2,"aqi":32,"pm10":7.9,"pm2_5":6.1,"no2":0.6,"co":175.0,"o3":63.0,"so2":0.7,"mosquito_risk":7,"arthritis_risk":5,"migraine_risk":4,"frizz_risk":1,"updated_at":"2026-05-07T17:20:34.536691+05:30"},{"city":"Haridwar","state":"Uttarakhand","latitude":29.9457,"longitude":78.1642,"temp":28.0,"humidity":50,"rain":0.0,"pressure":974.9,"uv_index":6.9,"wind_gusts":40.0,"aqi":156,"pm10":108.0,"pm2_5":28.3,"no2":0.8,"co":245.0,"o3":175.0,"so2":6.0,"mosquito_risk":4,"arthritis_risk":5,"migraine_risk":7,"frizz_risk":1,"updated_at":"2026-05-07T17:20:34.536699+05:30"},{"city":"Rishikesh","state":"Uttarakhand","latitude":30.0869,"longitude":78.2676,"temp":26.8,"humidity":52,"rain":0.0,"pressure":967.6,"uv_index":6.45,"wind_gusts":35.3,"aqi":160,"pm10":93.4,"pm2_5":24.7,"no2":0.5,"co":217.0,"o3":177.0,"so2":5.9,"mosquito_risk":4,"arthritis_risk":5,"migraine_risk":7,"frizz_risk":1,"updated_at":"2026-05-07T17:20:34.536708+05:30"},{"city":"Nainital","state":"Uttarakhand","latitude":29.3919,"longitude":79.4542,"temp":14.6,"humidity":67,"rain":0.0,"pressure":805.9,"uv_index":7.4,"wind_gusts":29.5,"aqi":136,"pm10":59.5,"pm2_5":20.7,"no2":0.5,"co":199.0,"o3":161.0,"so2":3.6,"mosquito_risk":3,"arthritis_risk":5,"migraine_risk":7,"frizz_risk":0,"updated_at":"2026-05-07T17:20:34.536717+05:30"},{"city":"Mussoorie","state":"Uttarakhand","latitude":30.4599,"longitude":78.0664,"temp":13.9,"humidity":71,"rain":0.0,"pressure":803.0,"uv_index":5.95,"wind_gusts":32.8,"aqi":157,"pm10":71.2,"pm2_5":23.6,"no2":1.3,"co":200.0,"o3":175.0,"so2":6.1,"mosquito_risk":3,"arthritis_risk":5,"migraine_risk":3,"frizz_risk":0,"updated_at":"2026-05-07T17:20:34.536726+05:30"},{"city":"Dharamshala","state":"Himachal Pradesh","latitude":32.219,"longitude":76.3234,"temp":20.2,"humidity":51,"rain":0.0,"pressure":869.0,"uv_index":6.7,"wind_gusts":37.1,"aqi":129,"pm10":22.9,"pm2_5":12.7,"no2":0.6,"co":206.0,"o3":149.0,"so2":1.3,"mosquito_risk":0,"arthritis_risk":5,"migraine_risk":7,"frizz_risk":0,"updated_at":"2026-05-07T17:20:34.536735+05:30"},{"city":"Dalhousie","state":"Himachal Pradesh","latitude":32.5387,"longitude":75.971,"temp":17.1,"humidity":52,"rain":0.0,"pressure":804.9,"uv_index":7.7,"wind_gusts":32.4,"aqi":157,"pm10":29.0,"pm2_5":16.9,"no2":1.4,"co":175.0,"o3":173.0,"so2":5.9,"mosquito_risk":0,"arthritis_risk":5,"migraine_risk":7,"frizz_risk":0,"updated_at":"2026-05-07T17:20:34.536743+05:30"},{"city":"Patiala","state":"Punjab","latitude":30.3398,"longitude":76.3869,"temp":29.3,"humidity":44,"rain":0.0,"pressure":978.0,"uv_index":7.4,"wind_gusts":44.6,"aqi":426,"pm10":1013.3,"pm2_5":106.4,"no2":2.3,"co":264.0,"o3":183.0,"so2":8.0,"mosquito_risk":4,"arthritis_risk":5,"migraine_risk":7,"frizz_risk":0,"updated_at":"2026-05-07T17:20:34.536752+05:30"},{"city":"Bhatinda","state":"Punjab","latitude":30.211,"longitude":74.9455,"temp":35.9,"humidity":22,"rain":0.0,"pressure":981.1,"uv_index":8.1,"wind_gusts":39.2,"aqi":321,"pm10":1136.2,"pm2_5":143.4,"no2":3.1,"co":213.0,"o3":203.0,"so2":15.2,"mosquito_risk":0,"arthritis_risk":5,"migraine_risk":10,"frizz_risk":0,"updated_at":"2026-05-07T17:20:34.536760+05:30"},{"city":"Rohtak","state":"Haryana","latitude":28.8955,"longitude":76.6066,"temp":29.8,"humidity":43,"rain":0.0,"pressure":980.6,"uv_index":7.6,"wind_gusts":49.7,"aqi":711,"pm10":1128.8,"pm2_5":134.6,"no2":5.6,"co":266.0,"o3":186.0,"so2":14.3,"mosquito_risk":4,"arthritis_risk":5,"migraine_risk":7,"frizz_risk":0,"updated_at":"2026-05-07T17:20:34.536768+05:30"},{"city":"Panipat","state":"Haryana","latitude":29.3909,"longitude":76.9635,"temp":28.1,"humidity":53,"rain":0.0,"pressure":980.5,"uv_index":7.2,"wind_gusts":43.6,"aqi":1233,"pm10":1505.0,"pm2_5":155.5,"no2":4.9,"co":262.0,"o3":196.0,"so2":16.7,"mosquito_risk":4,"arthritis_risk":5,"migraine_risk":7,"frizz_risk":1,"updated_at":"2026-05-07T17:20:34.536777+05:30"},{"city":"Mathura","state":"Uttar Pradesh","latitude":27.4924,"longitude":77.6737,"temp":32.8,"humidity":33,"rain":0.0,"pressure":985.2,"uv_index":7.85,"wind_gusts":47.5,"aqi":942,"pm10":560.7,"pm2_5":64.5,"no2":3.6,"co":275.0,"o3":163.0,"so2":7.5,"mosquito_risk":0,"arthritis_risk":5,"migraine_risk":7,"frizz_risk":0,"updated_at":"2026-05-07T17:20:34.536785+05:30"},{"city":"Vrindavan","state":"Uttar Pradesh","latitude":27.5823,"longitude":77.7027,"temp":32.5,"humidity":31,"rain":0.0,"pressure":985.7,"uv_index":7.8,"wind_gusts":47.9,"aqi":942,"pm10":560.7,"pm2_5":64.5,"no2":3.6,"co":256.0,"o3":163.0,"so2":7.5,"mosquito_risk":0,"arthritis_risk":5,"migraine_risk":7,"frizz_risk":0,"updated_at":"2026-05-07T17:20:34.536794+05:30"},{"city":"Ayodhya","state":"Uttar Pradesh","latitude":26.7922,"longitude":82.1998,"temp":29.9,"humidity":50,"rain":0.0,"pressure":995.8,"uv_index":7.95,"wind_gusts":31.0,"aqi":141,"pm10":71.7,"pm2_5":29.6,"no2":0.4,"co":279.0,"o3":173.0,"so2":5.8,"mosquito_risk":4,"arthritis_risk":5,"migraine_risk":7,"frizz_risk":1,"updated_at":"2026-05-07T17:20:34.536803+05:30"},{"city":"Ratlam","state":"Madhya Pradesh","latitude":23.3315,"longitude":75.0367,"temp":37.0,"humidity":17,"rain":0.0,"pressure":952.3,"uv_index":8.45,"wind_gusts":33.5,"aqi":124,"pm10":42.6,"pm2_5":14.0,"no2":0.5,"co":161.0,"o3":154.0,"so2":3.5,"mosquito_risk":0,"arthritis_risk":5,"migraine_risk":10,"frizz_risk":0,"updated_at":"2026-05-07T17:20:34.536812+05:30"},{"city":"Sagar","state":"Madhya Pradesh","latitude":23.8388,"longitude":78.7378,"temp":36.2,"humidity":13,"rain":0.0,"pressure":948.6,"uv_index":8.65,"wind_gusts":35.3,"aqi":127,"pm10":18.3,"pm2_5":6.4,"no2":0.1,"co":153.0,"o3":156.0,"so2":2.4,"mosquito_risk":0,"arthritis_risk":5,"migraine_risk":10,"frizz_risk":0,"updated_at":"2026-05-07T17:20:34.536819+05:30"},{"city":"Satna","state":"Madhya Pradesh","latitude":24.6005,"longitude":80.8322,"temp":33.7,"humidity":24,"rain":0.0,"pressure":970.8,"uv_index":8.65,"wind_gusts":40.3,"aqi":158,"pm10":65.9,"pm2_5":18.5,"no2":0.8,"co":213.0,"o3":171.0,"so2":5.5,"mosquito_risk":0,"arthritis_risk":5,"migraine_risk":7,"frizz_risk":0,"updated_at":"2026-05-07T17:20:34.536826+05:30"},{"city":"Akola","state":"Maharashtra","latitude":20.7002,"longitude":77.0082,"temp":36.8,"humidity":23,"rain":0.0,"pressure":972.0,"uv_index":8.85,"wind_gusts":41.0,"aqi":132,"pm10":45.4,"pm2_5":22.3,"no2":2.4,"co":199.0,"o3":169.0,"so2":8.5,"mosquito_risk":0,"arthritis_risk":5,"migraine_risk":10,"frizz_risk":0,"updated_at":"2026-05-07T17:20:34.536834+05:30"},{"city":"Amravati","state":"Maharashtra","latitude":20.9374,"longitude":77.7796,"temp":37.5,"humidity":20,"rain":0.0,"pressure":964.5,"uv_index":6.4,"wind_gusts":33.5,"aqi":131,"pm10":46.6,"pm2_5":23.4,"no2":2.6,"co":184.0,"o3":170.0,"so2":4.3,"mosquito_risk":0,"arthritis_risk":5,"migraine_risk":10,"frizz_risk":0,"updated_at":"2026-05-07T17:20:34.536842+05:30"},{"city":"Latur","state":"Maharashtra","latitude":18.4088,"longitude":76.5604,"temp":34.3,"humidity":26,"rain":0.0,"pressure":937.6,"uv_index":8.4,"wind_gusts":35.3,"aqi":114,"pm10":59.5,"pm2_5":35.7,"no2":1.5,"co":179.0,"o3":152.0,"so2":6.4,"mosquito_risk":0,"arthritis_risk":5,"migraine_risk":7,"frizz_risk":0,"updated_at":"2026-05-07T17:20:34.536849+05:30"},{"city":"Nanded","state":"Maharashtra","latitude":19.1383,"longitude":77.3091,"temp":36.6,"humidity":23,"rain":0.0,"pressure":965.9,"uv_index":8.3,"wind_gusts":42.1,"aqi":112,"pm10":37.7,"pm2_5":19.6,"no2":0.8,"co":177.0,"o3":155.0,"so2":2.5,"mosquito_risk":0,"arthritis_risk":5,"migraine_risk":10,"frizz_risk":0,"updated_at":"2026-05-07T17:20:34.536857+05:30"},{"city":"Gulbarga","state":"Karnataka","latitude":17.3297,"longitude":76.8343,"temp":36.2,"humidity":25,"rain":0.0,"pressure":955.3,"uv_index":9.1,"wind_gusts":36.0,"aqi":117,"pm10":34.0,"pm2_5":19.7,"no2":1.9,"co":198.0,"o3":162.0,"so2":5.5,"mosquito_risk":0,"arthritis_risk":5,"migraine_risk":10,"frizz_risk":0,"updated_at":"2026-05-07T17:20:34.536865+05:30"},{"city":"Bidar","state":"Karnataka","latitude":17.9104,"longitude":77.5199,"temp":27.2,"humidity":58,"rain":0.1,"pressure":932.9,"uv_index":8.45,"wind_gusts":41.8,"aqi":99,"pm10":33.6,"pm2_5":18.6,"no2":0.4,"co":171.0,"o3":152.0,"so2":2.6,"mosquito_risk":7,"arthritis_risk":5,"migraine_risk":7,"frizz_risk":1,"updated_at":"2026-05-07T17:20:34.536872+05:30"},{"city":"Hospet","state":"Karnataka","latitude":15.2689,"longitude":76.3909,"temp":35.0,"humidity":28,"rain":0.0,"pressure":951.8,"uv_index":9.2,"wind_gusts":33.5,"aqi":125,"pm10":32.5,"pm2_5":20.5,"no2":2.6,"co":208.0,"o3":173.0,"so2":6.6,"mosquito_risk":0,"arthritis_risk":5,"migraine_risk":7,"frizz_risk":0,"updated_at":"2026-05-07T17:20:34.536880+05:30"},{"city":"Tirupur","state":"Tamil Nadu","latitude":11.1085,"longitude":77.3411,"temp":34.1,"humidity":42,"rain":0.0,"pressure":970.6,"uv_index":6.65,"wind_gusts":28.1,"aqi":76,"pm10":18.0,"pm2_5":12.1,"no2":3.0,"co":218.0,"o3":135.0,"so2":2.2,"mosquito_risk":0,"arthritis_risk":5,"migraine_risk":7,"frizz_risk":1,"updated_at":"2026-05-07T17:20:34.536887+05:30"},{"city":"Alappuzha","state":"Kerala","latitude":9.4981,"longitude":76.3388,"temp":28.5,"humidity":80,"rain":0.0,"pressure":1004.7,"uv_index":6.85,"wind_gusts":17.3,"aqi":66,"pm10":18.2,"pm2_5":12.0,"no2":5.6,"co":189.0,"o3":100.0,"so2":2.8,"mosquito_risk":7,"arthritis_risk":5,"migraine_risk":4,"frizz_risk":1,"updated_at":"2026-05-07T17:20:34.536893+05:30"},{"city":"Munnar","state":"Kerala","latitude":10.0889,"longitude":77.0595,"temp":20.2,"humidity":89,"rain":0.0,"pressure":854.2,"uv_index":6.5,"wind_gusts":24.8,"aqi":72,"pm10":18.9,"pm2_5":13.6,"no2":4.3,"co":206.0,"o3":98.0,"so2":1.7,"mosquito_risk":3,"arthritis_risk":5,"migraine_risk":7,"frizz_risk":1,"updated_at":"2026-05-07T17:20:34.536901+05:30"},{"city":"Silchar","state":"Assam","latitude":24.8333,"longitude":92.7789,"temp":28.9,"humidity":73,"rain":0.0,"pressure":1004.0,"uv_index":8.85,"wind_gusts":21.6,"aqi":137,"pm10":39.6,"pm2_5":29.3,"no2":5.0,"co":292.0,"o3":140.0,"so2":5.2,"mosquito_risk":7,"arthritis_risk":5,"migraine_risk":4,"frizz_risk":1,"updated_at":"2026-05-07T17:20:34.536908+05:30"},{"city":"Dibrugarh","state":"Assam","latitude":27.4728,"longitude":94.912,"temp":26.7,"humidity":74,"rain":0.0,"pressure":995.2,"uv_index":8.8,"wind_gusts":27.0,"aqi":101,"pm10":36.8,"pm2_5":24.0,"no2":4.1,"co":285.0,"o3":124.0,"so2":1.8,"mosquito_risk":7,"arthritis_risk":5,"migraine_risk":7,"frizz_risk":1,"updated_at":"2026-05-07T17:20:34.536914+05:30"}]