[{"city":"Delhi","state":"Delhi","latitude":28.6139,"longitude":77.209,"temp":19.6,"humidity":67,"rain":0.0,"pressure":987.5,"uv_index":5.75,"wind_gusts":37.4,"aqi":232,"pm10":428.4,"pm2_5":98.7,"mosquito_risk":3,"arthritis_risk":5,"migraine_risk":3,"frizz_risk":0,"updated_at":"2026-03-02T23:19:15.962188+05:30"},{"city":"Mumbai","state":"Maharashtra","latitude":19.076,"longitude":72.8777,"temp":26.7,"humidity":77,"rain":0.0,"pressure":1011.6,"uv_index":7.3,"wind_gusts":25.6,"aqi":89,"pm10":36.4,"pm2_5":28.9,"mosquito_risk":7,"arthritis_risk":0,"migraine_risk":4,"frizz_risk":1,"updated_at":"2026-03-02T23:19:15.962225+05:30"},{"city":"Bangalore","state":"Karnataka","latitude":12.9716,"longitude":77.5946,"temp":23.3,"humidity":51,"rain":0.0,"pressure":913.5,"uv_index":9.05,"wind_gusts":28.8,"aqi":131,"pm10":46.4,"pm2_5":45.9,"mosquito_risk":0,"arthritis_risk":5,"migraine_risk":7,"frizz_risk":0,"updated_at":"2026-03-02T23:19:15.962241+05:30"},{"city":"Hyderabad","state":"Telangana","latitude":17.385,"longitude":78.4867,"temp":25.2,"humidity":64,"rain":0.0,"pressure":956.2,"uv_index":8.3,"wind_gusts":14.8,"aqi":143,"pm10":58.2,"pm2_5":57.6,"mosquito_risk":7,"arthritis_risk":5,"migraine_risk":7,"frizz_risk":1,"updated_at":"2026-03-02T23:19:15.962251+05:30"},{"city":"Chennai","state":"Tamil Nadu","latitude":13.0827,"longitude":80.2707,"temp":25.1,"humidity":81,"rain":0.0,"pressure":1010.3,"uv_index":8.8,"wind_gusts":30.2,"aqi":125,"pm10":44.6,"pm2_5":40.5,"mosquito_risk":7,"arthritis_risk":0,"migraine_risk":4,"frizz_risk":1,"updated_at":"2026-03-02T23:19:15.962259+05:30"},{"city":"Kolkata","state":"West Bengal","latitude":22.5726,"longitude":88.3639,"temp":25.3,"humidity":66,"rain":0.0,"pressure":1008.8,"uv_index":7.65,"wind_gusts":16.6,"aqi":155,"pm10":148.5,"pm2_5":134.6,"mosquito_risk":7,"arthritis_risk":0,"migraine_risk":4,"frizz_risk":1,"updated_at":"2026-03-02T23:19:15.962268+05:30"},{"city":"Pune","state":"Maharashtra","latitude":18.5204,"longitude":73.8567,"temp":23.9,"humidity":69,"rain":0.0,"pressure":951.1,"uv_index":7.85,"wind_gusts":26.3,"aqi":120,"pm10":40.3,"pm2_5":38.5,"mosquito_risk":3,"arthritis_risk":5,"migraine_risk":7,"frizz_risk":1,"updated_at":"2026-03-02T23:19:15.962280+05:30"},{"city":"Ahmedabad","state":"Gujarat","latitude":23.0225,"longitude":72.5714,"temp":25.5,"humidity":56,"rain":0.0,"pressure":1006.6,"uv_index":7.1,"wind_gusts":15.5,"aqi":100,"pm10":61.9,"pm2_5":51.3,"mosquito_risk":4,"arthritis_risk":5,"migraine_risk":4,"frizz_risk":1,"updated_at":"2026-03-02T23:19:15.962288+05:30"},{"city":"Jaipur","state":"Rajasthan","latitude":26.9124,"longitude":75.7873,"temp":23.7,"humidity":39,"rain":0.0,"pressure":964.2,"uv_index":6.5,"wind_gusts":30.2,"aqi":100,"pm10":82.7,"pm2_5":44.9,"mosquito_risk":0,"arthritis_risk":5,"migraine_risk":7,"frizz_risk":0,"updated_at":"2026-03-02T23:19:15.962295+05:30"},{"city":"Lucknow","state":"Uttar Pradesh","latitude":26.8467,"longitude":80.9462,"temp":20.7,"humidity":65,"rain":0.0,"pressure":997.4,"uv_index":6.25,"wind_gusts":37.4,"aqi":151,"pm10":260.8,"pm2_5":71.2,"mosquito_risk":3,"arthritis_risk":5,"migraine_risk":7,"frizz_risk":0,"updated_at":"2026-03-02T23:19:15.962302+05:30"},{"city":"Kanpur","state":"Uttar Pradesh","latitude":26.4499,"longitude":80.3319,"temp":19.5,"humidity":79,"rain":0.0,"pressure":995.7,"uv_index":6.25,"wind_gusts":32.0,"aqi":156,"pm10":318.5,"pm2_5":67.5,"mosquito_risk":3,"arthritis_risk":5,"migraine_risk":7,"frizz_risk":0,"updated_at":"2026-03-02T23:19:15.962309+05:30"},{"city":"Chandigarh","state":"Chandigarh","latitude":30.7333,"longitude":76.7794,"temp":18.3,"humidity":60,"rain":0.0,"pressure":972.6,"uv_index":5.65,"wind_gusts":38.9,"aqi":83,"pm10":31.8,"pm2_5":30.0,"mosquito_risk":0,"arthritis_risk":5,"migraine_risk":3,"frizz_risk":0,"updated_at":"2026-03-02T23:19:15.962316+05:30"},{"city":"Srinagar","state":"Jammu and Kashmir","latitude":34.0837,"longitude":74.7973,"temp":5.1,"humidity":61,"rain":0.0,"pressure":840.9,"uv_index":6.55,"wind_gusts":18.4,"aqi":146,"pm10":103.6,"pm2_5":91.5,"mosquito_risk":3,"arthritis_risk":5,"migraine_risk":7,"frizz_risk":1,"updated_at":"2026-03-02T23:19:15.962322+05:30"},{"city":"Jammu","state":"Jammu and Kashmir","latitude":32.7266,"longitude":74.857,"temp":19.9,"humidity":60,"rain":0.0,"pressure":976.7,"uv_index":6.25,"wind_gusts":26.3,"aqi":99,"pm10":53.6,"pm2_5":49.0,"mosquito_risk":0,"arthritis_risk":5,"migraine_risk":7,"frizz_risk":0,"updated_at":"2026-03-02T23:19:15.962329+05:30"},{"city":"Amritsar","state":"Punjab","latitude":31.634,"longitude":74.8723,"temp":17.4,"humidity":71,"rain":0.0,"pressure":985.2,"uv_index":6.1,"wind_gusts":25.2,"aqi":138,"pm10":34.6,"pm2_5":28.2,"mosquito_risk":3,"arthritis_risk":5,"migraine_risk":7,"frizz_risk":0,"updated_at":"2026-03-02T23:19:15.962336+05:30"},{"city":"Ludhiana","state":"Punjab","latitude":30.901,"longitude":75.8573,"temp":19.5,"humidity":60,"rain":0.0,"pressure":983.3,"uv_index":5.85,"wind_gusts":32.4,"aqi":157,"pm10":69.8,"pm2_5":57.2,"mosquito_risk":0,"arthritis_risk":5,"migraine_risk":3,"frizz_risk":0,"updated_at":"2026-03-02T23:19:15.962342+05:30"},{"city":"Jalandhar","state":"Punjab","latitude":31.326,"longitude":75.5762,"temp":20.0,"humidity":60,"rain":0.0,"pressure":984.4,"uv_index":6.0,"wind_gusts":30.2,"aqi":158,"pm10":78.5,"pm2_5":52.6,"mosquito_risk":0,"arthritis_risk":5,"migraine_risk":3,"frizz_risk":0,"updated_at":"2026-03-02T23:19:15.962350+05:30"},{"city":"Dehradun","state":"Uttarakhand","latitude":30.6284,"longitude":78.0322,"temp":11.6,"humidity":70,"rain":0.0,"pressure":830.0,"uv_index":6.0,"wind_gusts":27.0,"aqi":69,"pm10":30.9,"pm2_5":26.0,"mosquito_risk":3,"arthritis_risk":5,"migraine_risk":3,"frizz_risk":0,"updated_at":"2026-03-02T23:19:15.962357+05:30"},{"city":"Shimla","state":"Himachal Pradesh","latitude":31.1048,"longitude":77.1734,"temp":8.5,"humidity":58,"rain":0.0,"pressure":783.6,"uv_index":6.0,"wind_gusts":56.5,"aqi":76,"pm10":36.3,"pm2_5":28.9,"mosquito_risk":0,"arthritis_risk":5,"migraine_risk":3,"frizz_risk":0,"updated_at":"2026-03-02T23:19:15.962364+05:30"},{"city":"Manali","state":"Himachal Pradesh","latitude":32.2396,"longitude":77.1887,"temp":13.7,"humidity":22,"rain":0.0,"pressure":820.0,"uv_index":7.7,"wind_gusts":36.7,"aqi":87,"pm10":20.1,"pm2_5":16.5,"mosquito_risk":0,"arthritis_risk":5,"migraine_risk":7,"frizz_risk":1,"updated_at":"2026-03-02T23:19:15.962372+05:30"},{"city":"Gurgaon","state":"Haryana","latitude":28.4595,"longitude":77.0266,"temp":17.0,"humidity":78,"rain":0.0,"pressure":985.9,"uv_index":5.85,"wind_gusts":35.3,"aqi":902,"pm10":1005.8,"pm2_5":150.4,"mosquito_risk":3,"arthritis_risk":5,"migraine_risk":3,"frizz_risk":0,"updated_at":"2026-03-02T23:19:15.962379+05:30"},{"city":"Noida","state":"Uttar Pradesh","latitude":28.5355,"longitude":77.391,"temp":19.8,"humidity":66,"rain":0.0,"pressure":989.0,"uv_index":5.75,"wind_gusts":37.1,"aqi":902,"pm10":1005.8,"pm2_5":150.4,"mosquito_risk":3,"arthritis_risk":5,"migraine_risk":3,"frizz_risk":0,"updated_at":"2026-03-02T23:19:15.962385+05:30"},{"city":"Ghaziabad","state":"Uttar Pradesh","latitude":28.6692,"longitude":77.4538,"temp":19.5,"humidity":67,"rain":0.0,"pressure":987.1,"uv_index":5.75,"wind_gusts":36.0,"aqi":188,"pm10":444.2,"pm2_5":98.3,"mosquito_risk":3,"arthritis_risk":5,"migraine_risk":3,"frizz_risk":0,"updated_at":"2026-03-02T23:19:15.962391+05:30"},{"city":"Faridabad","state":"Haryana","latitude":28.4089,"longitude":77.3178,"temp":20.0,"humidity":60,"rain":0.0,"pressure":988.3,"uv_index":5.8,"wind_gusts":33.1,"aqi":902,"pm10":1005.8,"pm2_5":150.4,"mosquito_risk":0,"arthritis_risk":5,"migraine_risk":3,"frizz_risk":0,"updated_at":"2026-03-02T23:19:15.962398+05:30"},{"city":"Meerut","state":"Uttar Pradesh","latitude":28.9845,"longitude":77.7064,"temp":17.4,"humidity":71,"rain":0.0,"pressure":985.5,"uv_index":5.6,"wind_gusts":38.9,"aqi":188,"pm10":444.2,"pm2_5":98.3,"mosquito_risk":3,"arthritis_risk":5,"migraine_risk":3,"frizz_risk":0,"updated_at":"2026-03-02T23:19:15.962404+05:30"},{"city":"Agra","state":"Uttar Pradesh","latitude":27.1767,"longitude":78.0081,"temp":19.8,"humidity":71,"rain":0.0,"pressure":992.3,"uv_index":6.1,"wind_gusts":35.3,"aqi":363,"pm10":698.5,"pm2_5":113.2,"mosquito_risk":3,"arthritis_risk":5,"migraine_risk":7,"frizz_risk":0,"updated_at":"2026-03-02T23:19:15.962410+05:30"},{"city":"Varanasi","state":"Uttar Pradesh","latitude":25.3176,"longitude":82.9739,"temp":19.7,"humidity":63,"rain":0.0,"pressure":1001.4,"uv_index":6.9,"wind_gusts":31.7,"aqi":92,"pm10":52.9,"pm2_5":35.9,"mosquito_risk":3,"arthritis_risk":5,"migraine_risk":4,"frizz_risk":0,"updated_at":"2026-03-02T23:19:15.962419+05:30"},{"city":"Prayagraj","state":"Uttar Pradesh","latitude":25.4358,"longitude":81.8463,"temp":19.9,"humidity":63,"rain":0.0,"pressure":1000.2,"uv_index":6.75,"wind_gusts":29.9,"aqi":101,"pm10":68.5,"pm2_5":40.2,"mosquito_risk":3,"arthritis_risk":5,"migraine_risk":4,"frizz_risk":0,"updated_at":"2026-03-02T23:19:15.962426+05:30"},{"city":"Gorakhpur","state":"Uttar Pradesh","latitude":26.7606,"longitude":83.3732,"temp":17.8,"humidity":60,"rain":0.0,"pressure":1000.6,"uv_index":6.6,"wind_gusts":25.2,"aqi":123,"pm10":61.5,"pm2_5":45.2,"mosquito_risk":0,"arthritis_risk":5,"migraine_risk":4,"frizz_risk":0,"updated_at":"2026-03-02T23:19:15.962431+05:30"},{"city":"Bareilly","state":"Uttar Pradesh","latitude":28.367,"longitude":79.4304,"temp":17.7,"humidity":68,"rain":0.0,"pressure":990.3,"uv_index":5.9,"wind_gusts":31.3,"aqi":133,"pm10":170.4,"pm2_5":52.7,"mosquito_risk":3,"arthritis_risk":5,"migraine_risk":3,"frizz_risk":0,"updated_at":"2026-03-02T23:19:15.962437+05:30"},{"city":"Aligarh","state":"Uttar Pradesh","latitude":27.8974,"longitude":78.088,"temp":18.2,"humidity":72,"rain":0.0,"pressure":989.8,"uv_index":5.85,"wind_gusts":34.2,"aqi":543,"pm10":769.3,"pm2_5":134.1,"mosquito_risk":3,"arthritis_risk":5,"migraine_risk":3,"frizz_risk":0,"updated_at":"2026-03-02T23:19:15.962443+05:30"},{"city":"Moradabad","state":"Uttar Pradesh","latitude":28.8386,"longitude":78.7733,"temp":17.4,"humidity":67,"rain":0.0,"pressure":987.2,"uv_index":5.75,"wind_gusts":35.6,"aqi":143,"pm10":201.2,"pm2_5":61.9,"mosquito_risk":3,"arthritis_risk":5,"migraine_risk":3,"frizz_risk":0,"updated_at":"2026-03-02T23:19:15.962449+05:30"},{"city":"Saharanpur","state":"Uttar Pradesh","latitude":29.9637,"longitude":77.546,"temp":17.2,"humidity":69,"rain":0.0,"pressure":979.0,"uv_index":5.4,"wind_gusts":52.9,"aqi":113,"pm10":74.7,"pm2_5":40.2,"mosquito_risk":3,"arthritis_risk":5,"migraine_risk":3,"frizz_risk":0,"updated_at":"2026-03-02T23:19:15.962455+05:30"},{"city":"Jhansi","state":"Uttar Pradesh","latitude":25.4484,"longitude":78.5685,"temp":21.7,"humidity":56,"rain":0.0,"pressure":982.1,"uv_index":6.7,"wind_gusts":29.2,"aqi":76,"pm10":47.6,"pm2_5":33.1,"mosquito_risk":0,"arthritis_risk":5,"migraine_risk":7,"frizz_risk":0,"updated_at":"2026-03-02T23:19:19.252742+05:30"},{"city":"Surat","state":"Gujarat","latitude":21.1702,"longitude":72.8311,"temp":24.3,"humidity":73,"rain":0.0,"pressure":1010.3,"uv_index":7.0,"wind_gusts":23.0,"aqi":152,"pm10":97.8,"pm2_5":89.9,"mosquito_risk":3,"arthritis_risk":0,"migraine_risk":4,"frizz_risk":1,"updated_at":"2026-03-02T23:19:19.252774+05:30"},{"city":"Vadodara","state":"Gujarat","latitude":22.3072,"longitude":73.1812,"temp":25.4,"humidity":50,"rain":0.0,"pressure":1008.3,"uv_index":7.1,"wind_gusts":13.0,"aqi":150,"pm10":78.9,"pm2_5":71.2,"mosquito_risk":4,"arthritis_risk":0,"migraine_risk":4,"frizz_risk":0,"updated_at":"2026-03-02T23:19:19.252787+05:30"},{"city":"Rajkot","state":"Gujarat","latitude":22.3039,"longitude":70.8022,"temp":24.5,"humidity":60,"rain":0.0,"pressure":998.9,"uv_index":6.9,"wind_gusts":21.2,"aqi":69,"pm10":39.2,"pm2_5":27.6,"mosquito_risk":0,"arthritis_risk":5,"migraine_risk":7,"frizz_risk":1,"updated_at":"2026-03-02T23:19:19.252796+05:30"},{"city":"Thane","state":"Maharashtra","latitude":19.2183,"longitude":72.9781,"temp":24.8,"humidity":83,"rain":0.0,"pressure":1011.0,"uv_index":7.3,"wind_gusts":35.6,"aqi":89,"pm10":36.4,"pm2_5":28.9,"mosquito_risk":3,"arthritis_risk":0,"migraine_risk":4,"frizz_risk":1,"updated_at":"2026-03-02T23:19:19.252805+05:30"},{"city":"Nagpur","state":"Maharashtra","latitude":21.1458,"longitude":79.0882,"temp":24.3,"humidity":57,"rain":0.0,"pressure":976.6,"uv_index":7.7,"wind_gusts":20.9,"aqi":70,"pm10":32.8,"pm2_5":29.7,"mosquito_risk":0,"arthritis_risk":5,"migraine_risk":7,"frizz_risk":0,"updated_at":"2026-03-02T23:19:19.252813+05:30"},{"city":"Nashik","state":"Maharashtra","latitude":19.9975,"longitude":73.7898,"temp":24.0,"humidity":63,"rain":0.0,"pressure":948.9,"uv_index":7.5,"wind_gusts":28.1,"aqi":94,"pm10":34.1,"pm2_5":30.4,"mosquito_risk":3,"arthritis_risk":5,"migraine_risk":7,"frizz_risk":1,"updated_at":"2026-03-02T23:19:19.252821+05:30"},{"city":"Aurangabad","state":"Maharashtra","latitude":19.8762,"longitude":75.3433,"temp":25.6,"humidity":52,"rain":0.0,"pressure":947.0,"uv_index":8.0,"wind_gusts":21.2,"aqi":108,"pm10":37.1,"pm2_5":36.3,"mosquito_risk":4,"arthritis_risk":5,"migraine_risk":7,"frizz_risk":0,"updated_at":"2026-03-02T23:19:19.252830+05:30"},{"city":"Solapur","state":"Maharashtra","latitude":17.6599,"longitude":75.9064,"temp":26.2,"humidity":60,"rain":0.0,"pressure":958.9,"uv_index":8.25,"wind_gusts":14.0,"aqi":143,"pm10":51.9,"pm2_5":51.6,"mosquito_risk":4,"arthritis_risk":5,"migraine_risk":7,"frizz_risk":1,"updated_at":"2026-03-02T23:19:19.252839+05:30"},{"city":"Kolhapur","state":"Maharashtra","latitude":16.705,"longitude":74.2433,"temp":21.6,"humidity":81,"rain":0.0,"pressure":950.3,"uv_index":8.35,"wind_gusts":37.4,"aqi":104,"pm10":55.1,"pm2_5":54.1,"mosquito_risk":3,"arthritis_risk":5,"migraine_risk":7,"frizz_risk":1,"updated_at":"2026-03-02T23:19:19.252847+05:30"},{"city":"Goa","state":"Goa","latitude":15.2993,"longitude":74.124,"temp":26.9,"humidity":78,"rain":0.0,"pressure":1000.7,"uv_index":8.4,"wind_gusts":29.9,"aqi":73,"pm10":36.1,"pm2_5":25.8,"mosquito_risk":7,"arthritis_risk":5,"migraine_risk":4,"frizz_risk":1,"updated_at":"2026-03-02T23:19:19.252856+05:30"},{"city":"Jodhpur","state":"Rajasthan","latitude":26.2389,"longitude":73.0243,"temp":25.5,"humidity":44,"rain":0.0,"pressure":988.0,"uv_index":6.75,"wind_gusts":12.6,"aqi":89,"pm10":77.5,"pm2_5":35.7,"mosquito_risk":4,"arthritis_risk":5,"migraine_risk":7,"frizz_risk":0,"updated_at":"2026-03-02T23:19:19.252864+05:30"},{"city":"Udaipur","state":"Rajasthan","latitude":24.5854,"longitude":73.7125,"temp":22.8,"humidity":53,"rain":0.0,"pressure":951.3,"uv_index":7.4,"wind_gusts":15.5,"aqi":77,"pm10":37.1,"pm2_5":28.0,"mosquito_risk":0,"arthritis_risk":5,"migraine_risk":7,"frizz_risk":0,"updated_at":"2026-03-02T23:19:19.252872+05:30"},{"city":"Kota","state":"Rajasthan","latitude":25.2138,"longitude":75.8648,"temp":22.5,"humidity":60,"rain":0.0,"pressure":983.1,"uv_index":6.8,"wind_gusts":17.6,"aqi":90,"pm10":56.0,"pm2_5":39.8,"mosquito_risk":0,"arthritis_risk":5,"migraine_risk":7,"frizz_risk":0,"updated_at":"2026-03-02T23:19:19.252880+05:30"},{"city":"Bikaner","state":"Rajasthan","latitude":28.0229,"longitude":73.3119,"temp":24.3,"humidity":51,"rain":0.0,"pressure":987.1,"uv_index":6.5,"wind_gusts":20.2,"aqi":71,"pm10":45.3,"pm2_5":25.6,"mosquito_risk":0,"arthritis_risk":5,"migraine_risk":7,"frizz_risk":0,"updated_at":"2026-03-02T23:19:19.252888+05:30"},{"city":"Ajmer","state":"Rajasthan","latitude":26.4499,"longitude":74.6399,"temp":22.9,"humidity":43,"rain":0.0,"pressure":958.7,"uv_index":6.75,"wind_gusts":22.0,"aqi":82,"pm10":68.7,"pm2_5":29.3,"mosquito_risk":0,"arthritis_risk":5,"migraine_risk":7,"frizz_risk":0,"updated_at":"2026-03-02T23:19:19.252896+05:30"},{"city":"Gwalior","state":"Madhya Pradesh","latitude":26.2183,"longitude":78.1828,"temp":22.4,"humidity":63,"rain":0.0,"pressure":987.7,"uv_index":6.4,"wind_gusts":31.0,"aqi":94,"pm10":156.5,"pm2_5":50.9,"mosquito_risk":3,"arthritis_risk":5,"migraine_risk":7,"frizz_risk":0,"updated_at":"2026-03-02T23:19:19.252905+05:30"},{"city":"Indore","state":"Madhya Pradesh","latitude":22.7196,"longitude":75.8577,"temp":22.2,"humidity":53,"rain":0.0,"pressure":951.5,"uv_index":7.4,"wind_gusts":14.4,"aqi":92,"pm10":41.8,"pm2_5":34.3,"mosquito_risk":0,"arthritis_risk":5,"migraine_risk":7,"frizz_risk":0,"updated_at":"2026-03-02T23:19:19.252913+05:30"},{"city":"Bhopal","state":"Madhya Pradesh","latitude":23.2599,"longitude":77.4126,"temp":23.6,"humidity":50,"rain":0.0,"pressure":957.6,"uv_index":7.25,"wind_gusts":20.5,"aqi":79,"pm10":36.4,"pm2_5":27.1,"mosquito_risk":0,"arthritis_risk":5,"migraine_risk":7,"frizz_risk":0,"updated_at":"2026-03-02T23:19:19.252921+05:30"},{"city":"Jabalpur","state":"Madhya Pradesh","latitude":23.1815,"longitude":79.9864,"temp":23.1,"humidity":41,"rain":0.0,"pressure":965.1,"uv_index":7.35,"wind_gusts":20.9,"aqi":73,"pm10":35.6,"pm2_5":25.3,"mosquito_risk":0,"arthritis_risk":5,"migraine_risk":7,"frizz_risk":0,"updated_at":"2026-03-02T23:19:19.252929+05:30"},{"city":"Ujjain","state":"Madhya Pradesh","latitude":23.1765,"longitude":75.7885,"temp":22.9,"humidity":55,"rain":0.0,"pressure":957.4,"uv_index":7.25,"wind_gusts":11.5,"aqi":115,"pm10":44.8,"pm2_5":38.0,"mosquito_risk":0,"arthritis_risk":5,"migraine_risk":7,"frizz_risk":0,"updated_at":"2026-03-02T23:19:19.252937+05:30"},{"city":"Visakhapatnam","state":"Andhra Pradesh","latitude":17.6868,"longitude":83.2185,"temp":25.5,"humidity":77,"rain":0.0,"pressure":1006.5,"uv_index":8.35,"wind_gusts":37.8,"aqi":142,"pm10":42.0,"pm2_5":39.0,"mosquito_risk":7,"arthritis_risk":5,"migraine_risk":4,"frizz_risk":1,"updated_at":"2026-03-02T23:19:19.252945+05:30"},{"city":"Vijayawada","state":"Andhra Pradesh","latitude":16.5062,"longitude":80.648,"temp":24.8,"humidity":77,"rain":0.0,"pressure":1005.7,"uv_index":8.4,"wind_gusts":24.1,"aqi":143,"pm10":42.8,"pm2_5":41.2,"mosquito_risk":3,"arthritis_risk":5,"migraine_risk":4,"frizz_risk":1,"updated_at":"2026-03-02T23:19:19.252954+05:30"},{"city":"Guntur","state":"Andhra Pradesh","latitude":16.3067,"longitude":80.4365,"temp":24.3,"humidity":84,"rain":0.0,"pressure":1007.0,"uv_index":8.4,"wind_gusts":30.2,"aqi":137,"pm10":40.6,"pm2_5":39.2,"mosquito_risk":3,"arthritis_risk":5,"migraine_risk":4,"frizz_risk":1,"updated_at":"2026-03-02T23:19:19.252962+05:30"},{"city":"Nellore","state":"Andhra Pradesh","latitude":14.4426,"longitude":79.9865,"temp":24.3,"humidity":85,"rain":0.0,"pressure":1009.3,"uv_index":8.65,"wind_gusts":29.5,"aqi":124,"pm10":38.6,"pm2_5":36.0,"mosquito_risk":3,"arthritis_risk":0,"migraine_risk":4,"frizz_risk":1,"updated_at":"2026-03-02T23:19:19.252971+05:30"},{"city":"Kurnool","state":"Andhra Pradesh","latitude":15.8281,"longitude":78.0373,"temp":28.9,"humidity":48,"rain":0.0,"pressure":979.0,"uv_index":8.45,"wind_gusts":26.3,"aqi":127,"pm10":48.2,"pm2_5":47.7,"mosquito_risk":4,"arthritis_risk":5,"migraine_risk":7,"frizz_risk":1,"updated_at":"2026-03-02T23:19:19.252980+05:30"},{"city":"Kakinada","state":"Andhra Pradesh","latitude":16.9891,"longitude":82.2475,"temp":23.5,"humidity":88,"rain":0.0,"pressure":1010.6,"uv_index":8.35,"wind_gusts":29.2,"aqi":133,"pm10":43.3,"pm2_5":39.3,"mosquito_risk":3,"arthritis_risk":0,"migraine_risk":4,"frizz_risk":1,"updated_at":"2026-03-02T23:19:19.252989+05:30"},{"city":"Tirupati","state":"Andhra Pradesh","latitude":13.6288,"longitude":79.4192,"temp":24.8,"humidity":59,"rain":0.0,"pressure":995.0,"uv_index":8.75,"wind_gusts":32.4,"aqi":139,"pm10":62.9,"pm2_5":61.0,"mosquito_risk":0,"arthritis_risk":5,"migraine_risk":7,"frizz_risk":1,"updated_at":"2026-03-02T23:19:19.252997+05:30"},{"city":"Warangal","state":"Telangana","latitude":17.9689,"longitude":79.5941,"temp":27.7,"humidity":52,"rain":0.0,"pressure":981.3,"uv_index":8.15,"wind_gusts":17.3,"aqi":133,"pm10":52.3,"pm2_5":51.7,"mosquito_risk":4,"arthritis_risk":5,"migraine_risk":7,"frizz_risk":1,"updated_at":"2026-03-02T23:19:19.253005+05:30"},{"city":"Nizamabad","state":"Telangana","latitude":18.6725,"longitude":78.0941,"temp":24.8,"humidity":55,"rain":0.0,"pressure":967.4,"uv_index":8.05,"wind_gusts":25.6,"aqi":104,"pm10":51.2,"pm2_5":50.2,"mosquito_risk":0,"arthritis_risk":5,"migraine_risk":7,"frizz_risk":0,"updated_at":"2026-03-02T23:19:19.253013+05:30"},{"city":"Mysore","state":"Karnataka","latitude":12.2958,"longitude":76.6396,"temp":23.5,"humidity":77,"rain":0.0,"pressure":929.9,"uv_index":9.1,"wind_gusts":25.6,"aqi":148,"pm10":62.9,"pm2_5":61.9,"mosquito_risk":3,"arthritis_risk":5,"migraine_risk":7,"frizz_risk":1,"updated_at":"2026-03-02T23:19:19.253021+05:30"},{"city":"Mangalore","state":"Karnataka","latitude":12.9141,"longitude":74.856,"temp":28.5,"humidity":77,"rain":0.0,"pressure":1009.0,"uv_index":8.65,"wind_gusts":27.4,"aqi":57,"pm10":22.8,"pm2_5":16.0,"mosquito_risk":7,"arthritis_risk":0,"migraine_risk":4,"frizz_risk":1,"updated_at":"2026-03-02T23:19:19.253030+05:30"},{"city":"Hubli-Dharwad","state":"Karnataka","latitude":15.3647,"longitude":75.124,"temp":22.6,"humidity":82,"rain":0.0,"pressure":942.7,"uv_index":8.6,"wind_gusts":27.0,"aqi":108,"pm10":43.1,"pm2_5":41.7,"mosquito_risk":3,"arthritis_risk":5,"migraine_risk":7,"frizz_risk":1,"updated_at":"2026-03-02T23:19:19.253038+05:30"},{"city":"Belgaum","state":"Karnataka","latitude":15.8497,"longitude":74.4977,"temp":21.2,"humidity":84,"rain":0.0,"pressure":927.5,"uv_index":8.65,"wind_gusts":38.2,"aqi":112,"pm10":23.4,"pm2_5":19.4,"mosquito_risk":3,"arthritis_risk":5,"migraine_risk":7,"frizz_risk":1,"updated_at":"2026-03-02T23:19:22.539742+05:30"},{"city":"Coimbatore","state":"Tamil Nadu","latitude":11.0168,"longitude":76.9558,"temp":24.0,"humidity":88,"rain":0.0,"pressure":964.3,"uv_index":9.1,"wind_gusts":29.5,"aqi":144,"pm10":63.1,"pm2_5":61.9,"mosquito_risk":3,"arthritis_risk":5,"migraine_risk":7,"frizz_risk":1,"updated_at":"2026-03-02T23:19:22.539772+05:30"},{"city":"Madurai","state":"Tamil Nadu","latitude":9.9252,"longitude":78.1198,"temp":25.5,"humidity":74,"rain":0.0,"pressure":996.0,"uv_index":9.05,"wind_gusts":32.8,"aqi":122,"pm10":45.1,"pm2_5":44.0,"mosquito_risk":7,"arthritis_risk":5,"migraine_risk":7,"frizz_risk":1,"updated_at":"2026-03-02T23:19:22.539782+05:30"},{"city":"Trichy","state":"Tamil Nadu","latitude":10.7905,"longitude":78.7047,"temp":23.8,"humidity":81,"rain":0.0,"pressure":1002.5,"uv_index":8.95,"wind_gusts":32.0,"aqi":140,"pm10":45.3,"pm2_5":43.8,"mosquito_risk":3,"arthritis_risk":5,"migraine_risk":4,"frizz_risk":1,"updated_at":"2026-03-02T23:19:22.539790+05:30"},{"city":"Salem","state":"Tamil Nadu","latitude":11.6643,"longitude":78.146,"temp":26.6,"humidity":59,"rain":0.0,"pressure":979.6,"uv_index":9.0,"wind_gusts":31.0,"aqi":138,"pm10":56.5,"pm2_5":55.5,"mosquito_risk":4,"arthritis_risk":5,"migraine_risk":7,"frizz_risk":1,"updated_at":"2026-03-02T23:19:22.539798+05:30"},{"city":"Tirunelveli","state":"Tamil Nadu","latitude":8.7139,"longitude":77.7567,"temp":24.8,"humidity":84,"rain":0.0,"pressure":1006.1,"uv_index":9.05,"wind_gusts":38.2,"aqi":133,"pm10":45.4,"pm2_5":43.9,"mosquito_risk":3,"arthritis_risk":5,"migraine_risk":4,"frizz_risk":1,"updated_at":"2026-03-02T23:19:22.539806+05:30"},{"city":"Vellore","state":"Tamil Nadu","latitude":12.9165,"longitude":79.1325,"temp":23.6,"humidity":72,"rain":0.0,"pressure":987.9,"uv_index":8.85,"wind_gusts":36.7,"aqi":148,"pm10":63.8,"pm2_5":62.2,"mosquito_risk":3,"arthritis_risk":5,"migraine_risk":7,"frizz_risk":1,"updated_at":"2026-03-02T23:19:22.539813+05:30"},{"city":"Erode","state":"Tamil Nadu","latitude":11.341,"longitude":77.7172,"temp":27.3,"humidity":65,"rain":0.0,"pressure":991.3,"uv_index":9.0,"wind_gusts":23.0,"aqi":123,"pm10":47.1,"pm2_5":46.2,"mosquito_risk":7,"arthritis_risk":5,"migraine_risk":7,"frizz_risk":1,"updated_at":"2026-03-02T23:19:22.539820+05:30"},{"city":"Kochi","state":"Kerala","latitude":9.9312,"longitude":76.2673,"temp":28.1,"humidity":80,"rain":0.0,"pressure":1010.9,"uv_index":8.9,"wind_gusts":35.6,"aqi":94,"pm10":54.2,"pm2_5":53.4,"mosquito_risk":7,"arthritis_risk":0,"migraine_risk":4,"frizz_risk":1,"updated_at":"2026-03-02T23:19:22.539827+05:30"},{"city":"Thiruvananthapuram","state":"Kerala","latitude":8.5241,"longitude":76.9366,"temp":27.6,"humidity":79,"rain":0.0,"pressure":1010.4,"uv_index":8.85,"wind_gusts":27.7,"aqi":115,"pm10":32.0,"pm2_5":29.3,"mosquito_risk":7,"arthritis_risk":0,"migraine_risk":4,"frizz_risk":1,"updated_at":"2026-03-02T23:19:22.539834+05:30"},{"city":"Kozhikode","state":"Kerala","latitude":11.2588,"longitude":75.7804,"temp":28.5,"humidity":78,"rain":0.0,"pressure":1009.6,"uv_index":8.75,"wind_gusts":31.7,"aqi":58,"pm10":22.5,"pm2_5":17.6,"mosquito_risk":7,"arthritis_risk":0,"migraine_risk":4,"frizz_risk":1,"updated_at":"2026-03-02T23:19:22.539841+05:30"},{"city":"Thrissur","state":"Kerala","latitude":10.5276,"longitude":76.2144,"temp":26.4,"humidity":89,"rain":0.0,"pressure":1009.3,"uv_index":8.85,"wind_gusts":38.5,"aqi":93,"pm10":45.4,"pm2_5":43.0,"mosquito_risk":7,"arthritis_risk":0,"migraine_risk":4,"frizz_risk":1,"updated_at":"2026-03-02T23:19:22.539850+05:30"},{"city":"Kannur","state":"Kerala","latitude":11.8745,"longitude":75.3704,"temp":27.7,"humidity":78,"rain":0.0,"pressure":1009.1,"uv_index":8.75,"wind_gusts":34.9,"aqi":58,"pm10":19.9,"pm2_5":16.4,"mosquito_risk":7,"arthritis_risk":0,"migraine_risk":4,"frizz_risk":1,"updated_at":"2026-03-02T23:19:22.539858+05:30"},{"city":"Patna","state":"Bihar","latitude":25.5941,"longitude":85.1376,"temp":20.4,"humidity":54,"rain":0.0,"pressure":1004.1,"uv_index":7.05,"wind_gusts":28.8,"aqi":122,"pm10":67.8,"pm2_5":51.6,"mosquito_risk":0,"arthritis_risk":5,"migraine_risk":4,"frizz_risk":0,"updated_at":"2026-03-02T23:19:22.539865+05:30"},{"city":"Gaya","state":"Bihar","latitude":24.7914,"longitude":85.0002,"temp":19.4,"humidity":53,"rain":0.0,"pressure":997.8,"uv_index":7.15,"wind_gusts":23.8,"aqi":114,"pm10":56.3,"pm2_5":37.1,"mosquito_risk":0,"arthritis_risk":5,"migraine_risk":7,"frizz_risk":0,"updated_at":"2026-03-02T23:19:22.539872+05:30"},{"city":"Muzaffarpur","state":"Bihar","latitude":26.1209,"longitude":85.3647,"temp":18.9,"humidity":58,"rain":0.0,"pressure":1003.9,"uv_index":7.0,"wind_gusts":27.0,"aqi":119,"pm10":74.0,"pm2_5":58.3,"mosquito_risk":0,"arthritis_risk":5,"migraine_risk":4,"frizz_risk":0,"updated_at":"2026-03-02T23:19:22.539879+05:30"},{"city":"Bhagalpur","state":"Bihar","latitude":25.2425,"longitude":87.0117,"temp":20.9,"humidity":55,"rain":0.0,"pressure":1004.9,"uv_index":7.1,"wind_gusts":19.4,"aqi":136,"pm10":102.7,"pm2_5":53.3,"mosquito_risk":0,"arthritis_risk":5,"migraine_risk":4,"frizz_risk":0,"updated_at":"2026-03-02T23:19:22.539885+05:30"},{"city":"Ranchi","state":"Jharkhand","latitude":23.3441,"longitude":85.3096,"temp":18.6,"humidity":37,"rain":0.0,"pressure":940.8,"uv_index":7.8,"wind_gusts":40.3,"aqi":79,"pm10":42.7,"pm2_5":23.9,"mosquito_risk":0,"arthritis_risk":5,"migraine_risk":7,"frizz_risk":0,"updated_at":"2026-03-02T23:19:22.539892+05:30"},{"city":"Jamshedpur","state":"Jharkhand","latitude":22.8046,"longitude":86.2029,"temp":22.5,"humidity":48,"rain":0.0,"pressure":994.0,"uv_index":7.75,"wind_gusts":18.7,"aqi":121,"pm10":62.9,"pm2_5":38.5,"mosquito_risk":0,"arthritis_risk":5,"migraine_risk":7,"frizz_risk":0,"updated_at":"2026-03-02T23:19:22.539899+05:30"},{"city":"Dhanbad","state":"Jharkhand","latitude":23.7957,"longitude":86.4304,"temp":22.5,"humidity":34,"rain":0.0,"pressure":983.6,"uv_index":7.6,"wind_gusts":33.8,"aqi":118,"pm10":62.9,"pm2_5":39.9,"mosquito_risk":0,"arthritis_risk":5,"migraine_risk":7,"frizz_risk":0,"updated_at":"2026-03-02T23:19:22.539906+05:30"},{"city":"Bokaro","state":"Jharkhand","latitude":23.6693,"longitude":86.1511,"temp":19.9,"humidity":47,"rain":0.0,"pressure":987.8,"uv_index":7.6,"wind_gusts":37.1,"aqi":121,"pm10":63.6,"pm2_5":42.6,"mosquito_risk":0,"arthritis_risk":5,"migraine_risk":7,"frizz_risk":0,"updated_at":"2026-03-02T23:19:22.539913+05:30"},{"city":"Bhubaneswar","state":"Odisha","latitude":20.2961,"longitude":85.8245,"temp":25.1,"humidity":86,"rain":0.0,"pressure":1005.1,"uv_index":8.05,"wind_gusts":25.2,"aqi":150,"pm10":71.9,"pm2_5":67.5,"mosquito_risk":7,"arthritis_risk":5,"migraine_risk":4,"frizz_risk":1,"updated_at":"2026-03-02T23:19:22.539920+05:30"},{"city":"Cuttack","state":"Odisha","latitude":20.4625,"longitude":85.8828,"temp":25.3,"humidity":84,"rain":0.0,"pressure":1007.0,"uv_index":8.1,"wind_gusts":21.2,"aqi":150,"pm10":71.9,"pm2_5":67.5,"mosquito_risk":7,"arthritis_risk":5,"migraine_risk":4,"frizz_risk":1,"updated_at":"2026-03-02T23:19:22.539927+05:30"},{"city":"Rourkela","state":"Odisha","latitude":22.2604,"longitude":84.8536,"temp":23.9,"humidity":43,"rain":0.0,"pressure":988.4,"uv_index":7.65,"wind_gusts":24.8,"aqi":100,"pm10":52.9,"pm2_5":39.8,"mosquito_risk":0,"arthritis_risk":5,"migraine_risk":7,"frizz_risk":0,"updated_at":"2026-03-02T23:19:22.539934+05:30"},{"city":"Raipur","state":"Chhattisgarh","latitude":21.2514,"longitude":81.6296,"temp":25.6,"humidity":47,"rain":0.0,"pressure":977.7,"uv_index":7.75,"wind_gusts":24.1,"aqi":95,"pm10":70.5,"pm2_5":59.8,"mosquito_risk":4,"arthritis_risk":5,"migraine_risk":7,"frizz_risk":0,"updated_at":"2026-03-02T23:19:22.539940+05:30"},{"city":"Bhilai","state":"Chhattisgarh","latitude":21.1938,"longitude":81.3509,"temp":23.4,"humidity":60,"rain":0.0,"pressure":977.9,"uv_index":7.8,"wind_gusts":22.7,"aqi":90,"pm10":71.7,"pm2_5":61.7,"mosquito_risk":0,"arthritis_risk":5,"migraine_risk":7,"frizz_risk":0,"updated_at":"2026-03-02T23:19:22.539947+05:30"},{"city":"Guwahati","state":"Assam","latitude":26.1158,"longitude":91.7086,"temp":22.2,"humidity":79,"rain":0.0,"pressure":1005.7,"uv_index":7.0,"wind_gusts":28.4,"aqi":152,"pm10":73.8,"pm2_5":62.9,"mosquito_risk":3,"arthritis_risk":5,"migraine_risk":4,"frizz_risk":1,"updated_at":"2026-03-02T23:19:22.539953+05:30"},{"city":"Agartala","state":"Tripura","latitude":23.8315,"longitude":91.2868,"temp":21.7,"humidity":91,"rain":0.0,"pressure":1009.2,"uv_index":7.3,"wind_gusts":18.0,"aqi":151,"pm10":125.7,"pm2_5":111.5,"mosquito_risk":3,"arthritis_risk":0,"migraine_risk":4,"frizz_risk":1,"updated_at":"2026-03-02T23:19:22.539961+05:30"},{"city":"Shillong","state":"Meghalaya","latitude":25.5788,"longitude":91.8933,"temp":8.3,"humidity":87,"rain":0.0,"pressure":855.2,"uv_index":7.35,"wind_gusts":66.2,"aqi":112,"pm10":53.9,"pm2_5":46.3,"mosquito_risk":3,"arthritis_risk":10,"migraine_risk":7,"frizz_risk":0,"updated_at":"2026-03-02T23:19:22.539967+05:30"},{"city":"Imphal","state":"Manipur","latitude":24.817,"longitude":93.9368,"temp":14.0,"humidity":75,"rain":0.0,"pressure":924.7,"uv_index":7.6,"wind_gusts":72.4,"aqi":152,"pm10":111.1,"pm2_5":93.1,"mosquito_risk":3,"arthritis_risk":5,"migraine_risk":7,"frizz_risk":0,"updated_at":"2026-03-02T23:19:22.539975+05:30"},{"city":"Aizawl","state":"Mizoram","latitude":23.7271,"longitude":92.7176,"temp":15.8,"humidity":87,"rain":0.0,"pressure":893.9,"uv_index":7.6,"wind_gusts":42.8,"aqi":150,"pm10":87.8,"pm2_5":82.0,"mosquito_risk":3,"arthritis_risk":10,"migraine_risk":7,"frizz_risk":0,"updated_at":"2026-03-02T23:19:22.539982+05:30"},{"city":"Kohima","state":"Nagaland","latitude":25.6701,"longitude":94.1077,"temp":12.6,"humidity":81,"rain":0.0,"pressure":855.9,"uv_index":7.45,"wind_gusts":82.8,"aqi":146,"pm10":82.2,"pm2_5":73.6,"mosquito_risk":3,"arthritis_risk":10,"migraine_risk":7,"frizz_risk":0,"updated_at":"2026-03-02T23:19:22.539988+05:30"},{"city":"Gangtok","state":"Sikkim","latitude":27.3314,"longitude":88.6138,"temp":11.0,"humidity":81,"rain":0.0,"pressure":837.3,"uv_index":5.8,"wind_gusts":19.4,"aqi":125,"pm10":86.4,"pm2_5":66.4,"mosquito_risk":3,"arthritis_risk":10,"migraine_risk":3,"frizz_risk":0,"updated_at":"2026-03-02T23:19:22.539995+05:30"},{"city":"Siliguri","state":"West Bengal","latitude":26.7271,"longitude":88.3953,"temp":19.0,"humidity":68,"rain":0.0,"pressure":997.5,"uv_index":7.0,"wind_gusts":20.5,"aqi":168,"pm10":126.7,"pm2_5":97.1,"mosquito_risk":3,"arthritis_risk":5,"migraine_risk":7,"frizz_risk":0,"updated_at":"2026-03-02T23:19:25.825759+05:30"},{"city":"Durgapur","state":"West Bengal","latitude":23.5204,"longitude":87.3119,"temp":23.4,"humidity":33,"rain":0.0,"pressure":998.6,"uv_index":7.6,"wind_gusts":26.3,"aqi":111,"pm10":58.1,"pm2_5":31.9,"mosquito_risk":0,"arthritis_risk":5,"migraine_risk":7,"frizz_risk":0,"updated_at":"2026-03-02T23:19:25.825787+05:30"},{"city":"Asansol","state":"West Bengal","latitude":23.6739,"longitude":86.9524,"temp":24.6,"humidity":29,"rain":0.0,"pressure":997.3,"uv_index":7.6,"wind_gusts":28.4,"aqi":97,"pm10":51.0,"pm2_5":28.6,"mosquito_risk":0,"arthritis_risk":5,"migraine_risk":7,"frizz_risk":0,"updated_at":"2026-03-02T23:19:25.825797+05:30"},{"city":"Pondicherry","state":"Puducherry","latitude":11.9139,"longitude":79.8145,"temp":22.9,"humidity":90,"rain":0.0,"pressure":1011.5,"uv_index":8.8,"wind_gusts":29.5,"aqi":119,"pm10":39.6,"pm2_5":35.4,"mosquito_risk":3,"arthritis_risk":0,"migraine_risk":4,"frizz_risk":1,"updated_at":"2026-03-02T23:19:25.825805+05:30"},{"city":"Port Blair","state":"Andaman and Nicobar Islands","latitude":11.6234,"longitude":92.7265,"temp":27.6,"humidity":73,"rain":0.0,"pressure":1008.8,"uv_index":8.75,"wind_gusts":16.2,"aqi":80,"pm10":33.2,"pm2_5":25.7,"mosquito_risk":7,"arthritis_risk":0,"migraine_risk":4,"frizz_risk":1,"updated_at":"2026-03-02T23:19:25.825814+05:30"},{"city":"Haridwar","state":"Uttarakhand","latitude":29.9457,"longitude":78.1642,"temp":16.4,"humidity":77,"rain":0.0,"pressure":977.4,"uv_index":5.55,"wind_gusts":41.8,"aqi":96,"pm10":49.9,"pm2_5":45.2,"mosquito_risk":3,"arthritis_risk":5,"migraine_risk":3,"frizz_risk":0,"updated_at":"2026-03-02T23:19:25.825821+05:30"},{"city":"Rishikesh","state":"Uttarakhand","latitude":30.0869,"longitude":78.2676,"temp":16.6,"humidity":68,"rain":0.0,"pressure":970.0,"uv_index":5.6,"wind_gusts":31.3,"aqi":99,"pm10":37.0,"pm2_5":34.2,"mosquito_risk":3,"arthritis_risk":5,"migraine_risk":3,"frizz_risk":0,"updated_at":"2026-03-02T23:19:25.825829+05:30"},{"city":"Nainital","state":"Uttarakhand","latitude":29.3919,"longitude":79.4542,"temp":14.5,"humidity":58,"rain":0.0,"pressure":806.1,"uv_index":6.4,"wind_gusts":45.7,"aqi":102,"pm10":36.1,"pm2_5":26.8,"mosquito_risk":0,"arthritis_risk":5,"migraine_risk":7,"frizz_risk":0,"updated_at":"2026-03-02T23:19:25.825836+05:30"},{"city":"Mussoorie","state":"Uttarakhand","latitude":30.4599,"longitude":78.0664,"temp":13.4,"humidity":61,"rain":0.0,"pressure":802.9,"uv_index":5.9,"wind_gusts":33.8,"aqi":85,"pm10":46.0,"pm2_5":43.3,"mosquito_risk":3,"arthritis_risk":5,"migraine_risk":3,"frizz_risk":0,"updated_at":"2026-03-02T23:19:25.825843+05:30"},{"city":"Dharamshala","state":"Himachal Pradesh","latitude":32.219,"longitude":76.3234,"temp":17.7,"humidity":41,"rain":0.0,"pressure":871.5,"uv_index":6.1,"wind_gusts":26.3,"aqi":99,"pm10":26.6,"pm2_5":22.1,"mosquito_risk":0,"arthritis_risk":5,"migraine_risk":7,"frizz_risk":0,"updated_at":"2026-03-02T23:19:25.825850+05:30"},{"city":"Dalhousie","state":"Himachal Pradesh","latitude":32.5387,"longitude":75.971,"temp":14.1,"humidity":47,"rain":0.0,"pressure":805.2,"uv_index":6.35,"wind_gusts":22.3,"aqi":99,"pm10":59.4,"pm2_5":54.4,"mosquito_risk":0,"arthritis_risk":5,"migraine_risk":7,"frizz_risk":0,"updated_at":"2026-03-02T23:19:25.825858+05:30"},{"city":"Patiala","state":"Punjab","latitude":30.3398,"longitude":76.3869,"temp":17.3,"humidity":68,"rain":0.0,"pressure":982.4,"uv_index":5.55,"wind_gusts":37.4,"aqi":158,"pm10":279.4,"pm2_5":69.6,"mosquito_risk":3,"arthritis_risk":5,"migraine_risk":3,"frizz_risk":0,"updated_at":"2026-03-02T23:19:25.825865+05:30"},{"city":"Bhatinda","state":"Punjab","latitude":30.211,"longitude":74.9455,"temp":18.8,"humidity":69,"rain":0.0,"pressure":988.6,"uv_index":6.2,"wind_gusts":24.8,"aqi":156,"pm10":67.5,"pm2_5":56.7,"mosquito_risk":3,"arthritis_risk":5,"migraine_risk":7,"frizz_risk":0,"updated_at":"2026-03-02T23:19:25.825872+05:30"},{"city":"Rohtak","state":"Haryana","latitude":28.8955,"longitude":76.6066,"temp":18.0,"humidity":73,"rain":0.0,"pressure":986.4,"uv_index":5.75,"wind_gusts":34.9,"aqi":301,"pm10":447.0,"pm2_5":96.2,"mosquito_risk":3,"arthritis_risk":5,"migraine_risk":3,"frizz_risk":0,"updated_at":"2026-03-02T23:19:25.825879+05:30"},{"city":"Panipat","state":"Haryana","latitude":29.3909,"longitude":76.9635,"temp":17.0,"humidity":72,"rain":0.0,"pressure":984.6,"uv_index":5.55,"wind_gusts":35.3,"aqi":731,"pm10":855.0,"pm2_5":135.5,"mosquito_risk":3,"arthritis_risk":5,"migraine_risk":3,"frizz_risk":0,"updated_at":"2026-03-02T23:19:25.825886+05:30"},{"city":"Mathura","state":"Uttar Pradesh","latitude":27.4924,"longitude":77.6737,"temp":20.6,"humidity":66,"rain":0.0,"pressure":991.5,"uv_index":6.0,"wind_gusts":29.2,"aqi":425,"pm10":705.9,"pm2_5":119.2,"mosquito_risk":3,"arthritis_risk":5,"migraine_risk":3,"frizz_risk":0,"updated_at":"2026-03-02T23:19:25.825893+05:30"},{"city":"Vrindavan","state":"Uttar Pradesh","latitude":27.5823,"longitude":77.7027,"temp":18.7,"humidity":74,"rain":0.0,"pressure":991.8,"uv_index":5.95,"wind_gusts":31.3,"aqi":425,"pm10":705.9,"pm2_5":119.2,"mosquito_risk":3,"arthritis_risk":5,"migraine_risk":3,"frizz_risk":0,"updated_at":"2026-03-02T23:19:25.825899+05:30"},{"city":"Ayodhya","state":"Uttar Pradesh","latitude":26.7922,"longitude":82.1998,"temp":19.0,"humidity":56,"rain":0.0,"pressure":999.0,"uv_index":6.4,"wind_gusts":34.6,"aqi":127,"pm10":130.4,"pm2_5":54.8,"mosquito_risk":0,"arthritis_risk":5,"migraine_risk":7,"frizz_risk":0,"updated_at":"2026-03-02T23:19:25.825906+05:30"},{"city":"Ratlam","state":"Madhya Pradesh","latitude":23.3315,"longitude":75.0367,"temp":22.8,"humidity":62,"rain":0.0,"pressure":958.3,"uv_index":7.25,"wind_gusts":7.2,"aqi":104,"pm10":43.8,"pm2_5":38.2,"mosquito_risk":3,"arthritis_risk":5,"migraine_risk":7,"frizz_risk":0,"updated_at":"2026-03-02T23:19:25.825914+05:30"},{"city":"Sagar","state":"Madhya Pradesh","latitude":23.8388,"longitude":78.7378,"temp":23.0,"humidity":42,"rain":0.0,"pressure":953.8,"uv_index":7.2,"wind_gusts":25.2,"aqi":67,"pm10":32.9,"pm2_5":20.7,"mosquito_risk":0,"arthritis_risk":5,"migraine_risk":7,"frizz_risk":0,"updated_at":"2026-03-02T23:19:25.825921+05:30"},{"city":"Satna","state":"Madhya Pradesh","latitude":24.6005,"longitude":80.8322,"temp":22.2,"humidity":40,"rain":0.0,"pressure":975.3,"uv_index":7.15,"wind_gusts":38.2,"aqi":67,"pm10":34.8,"pm2_5":20.6,"mosquito_risk":0,"arthritis_risk":5,"migraine_risk":7,"frizz_risk":0,"updated_at":"2026-03-02T23:19:25.825928+05:30"},{"city":"Akola","state":"Maharashtra","latitude":20.7002,"longitude":77.0082,"temp":25.6,"humidity":50,"rain":0.0,"pressure":978.4,"uv_index":7.75,"wind_gusts":25.9,"aqi":83,"pm10":31.8,"pm2_5":30.4,"mosquito_risk":4,"arthritis_risk":5,"migraine_risk":7,"frizz_risk":0,"updated_at":"2026-03-02T23:19:25.825936+05:30"},{"city":"Amravati","state":"Maharashtra","latitude":20.9374,"longitude":77.7796,"temp":23.3,"humidity":51,"rain":0.0,"pressure":970.3,"uv_index":7.7,"wind_gusts":24.5,"aqi":79,"pm10":38.0,"pm2_5":36.3,"mosquito_risk":0,"arthritis_risk":5,"migraine_risk":7,"frizz_risk":0,"updated_at":"2026-03-02T23:19:25.825943+05:30"},{"city":"Latur","state":"Maharashtra","latitude":18.4088,"longitude":76.5604,"temp":24.8,"humidity":56,"rain":0.0,"pressure":942.3,"uv_index":8.15,"wind_gusts":26.3,"aqi":138,"pm10":35.5,"pm2_5":35.0,"mosquito_risk":0,"arthritis_risk":5,"migraine_risk":7,"frizz_risk":0,"updated_at":"2026-03-02T23:19:25.825950+05:30"},{"city":"Nanded","state":"Maharashtra","latitude":19.1383,"longitude":77.3091,"temp":27.4,"humidity":53,"rain":0.0,"pressure":971.3,"uv_index":7.95,"wind_gusts":17.3,"aqi":89,"pm10":57.2,"pm2_5":56.1,"mosquito_risk":4,"arthritis_risk":5,"migraine_risk":7,"frizz_risk":1,"updated_at":"2026-03-02T23:19:25.825957+05:30"},{"city":"Gulbarga","state":"Karnataka","latitude":17.3297,"longitude":76.8343,"temp":27.3,"humidity":56,"rain":0.0,"pressure":961.1,"uv_index":8.25,"wind_gusts":19.4,"aqi":147,"pm10":63.3,"pm2_5":62.9,"mosquito_risk":4,"arthritis_risk":5,"migraine_risk":7,"frizz_risk":1,"updated_at":"2026-03-02T23:19:25.825964+05:30"},{"city":"Bidar","state":"Karnataka","latitude":17.9104,"longitude":77.5199,"temp":25.0,"humidity":54,"rain":0.0,"pressure":938.0,"uv_index":8.2,"wind_gusts":16.2,"aqi":148,"pm10":29.0,"pm2_5":28.6,"mosquito_risk":4,"arthritis_risk":5,"migraine_risk":7,"frizz_risk":0,"updated_at":"2026-03-02T23:19:25.825971+05:30"},{"city":"Hospet","state":"Karnataka","latitude":15.2689,"longitude":76.3909,"temp":29.2,"humidity":44,"rain":0.0,"pressure":957.6,"uv_index":8.6,"wind_gusts":21.2,"aqi":160,"pm10":50.9,"pm2_5":50.3,"mosquito_risk":4,"arthritis_risk":5,"migraine_risk":7,"frizz_risk":0,"updated_at":"2026-03-02T23:19:25.825977+05:30"},{"city":"Tirupur","state":"Tamil Nadu","latitude":11.1085,"longitude":77.3411,"temp":27.1,"humidity":61,"rain":0.0,"pressure":977.9,"uv_index":9.1,"wind_gusts":33.5,"aqi":147,"pm10":60.8,"pm2_5":59.6,"mosquito_risk":7,"arthritis_risk":5,"migraine_risk":7,"frizz_risk":1,"updated_at":"2026-03-02T23:19:25.825984+05:30"},{"city":"Alappuzha","state":"Kerala","latitude":9.4981,"longitude":76.3388,"temp":28.0,"humidity":80,"rain":0.0,"pressure":1011.1,"uv_index":8.9,"wind_gusts":32.8,"aqi":94,"pm10":41.1,"pm2_5":38.3,"mosquito_risk":7,"arthritis_risk":0,"migraine_risk":4,"frizz_risk":1,"updated_at":"2026-03-02T23:19:25.825991+05:30"},{"city":"Munnar","state":"Kerala","latitude":10.0889,"longitude":77.0595,"temp":20.1,"humidity":78,"rain":0.0,"pressure":858.1,"uv_index":9.4,"wind_gusts":22.0,"aqi":124,"pm10":51.5,"pm2_5":50.5,"mosquito_risk":3,"arthritis_risk":5,"migraine_risk":7,"frizz_risk":1,"updated_at":"2026-03-02T23:19:25.825998+05:30"},{"city":"Silchar","state":"Assam","latitude":24.8333,"longitude":92.7789,"temp":21.5,"humidity":79,"rain":0.0,"pressure":1007.9,"uv_index":7.35,"wind_gusts":18.7,"aqi":155,"pm10":112.0,"pm2_5":91.0,"mosquito_risk":3,"arthritis_risk":5,"migraine_risk":4,"frizz_risk":1,"updated_at":"2026-03-02T23:19:25.826005+05:30"},{"city":"Dibrugarh","state":"Assam","latitude":27.4728,"longitude":94.912,"temp":20.1,"humidity":90,"rain":0.0,"pressure":1000.6,"uv_index":7.05,"wind_gusts":12.6,"aqi":152,"pm10":93.8,"pm2_5":81.5,"mosquito_risk":3,"arthritis_risk":5,"migraine_risk":4,"frizz_risk":1,"updated_at":"2026-03-02T23:19:25.826012+05:30"}]