[{"city":"Delhi","state":"Delhi","latitude":28.6139,"longitude":77.209,"temp":27.4,"humidity":75,"rain":0.0,"pressure":977.3,"uv_index":7.75,"wind_gusts":44.3,"aqi":263,"pm10":393.9,"pm2_5":125.3,"no2":59.4,"co":626.0,"o3":14.0,"so2":25.5,"mosquito_risk":7,"arthritis_risk":5,"migraine_risk":7,"frizz_risk":1,"updated_at":"2026-06-15T01:49:59.761343+05:30"},{"city":"Mumbai","state":"Maharashtra","latitude":19.076,"longitude":72.8777,"temp":29.5,"humidity":75,"rain":0.0,"pressure":1006.9,"uv_index":7.7,"wind_gusts":47.2,"aqi":64,"pm10":32.4,"pm2_5":14.4,"no2":2.5,"co":120.0,"o3":50.0,"so2":2.5,"mosquito_risk":7,"arthritis_risk":5,"migraine_risk":4,"frizz_risk":1,"updated_at":"2026-06-15T01:49:59.761387+05:30"},{"city":"Bangalore","state":"Karnataka","latitude":12.9716,"longitude":77.5946,"temp":21.2,"humidity":91,"rain":0.0,"pressure":910.5,"uv_index":9.05,"wind_gusts":39.2,"aqi":45,"pm10":9.3,"pm2_5":7.4,"no2":12.8,"co":228.0,"o3":39.0,"so2":4.3,"mosquito_risk":3,"arthritis_risk":5,"migraine_risk":7,"frizz_risk":1,"updated_at":"2026-06-15T01:49:59.761402+05:30"},{"city":"Hyderabad","state":"Telangana","latitude":17.385,"longitude":78.4867,"temp":26.6,"humidity":61,"rain":0.0,"pressure":949.9,"uv_index":8.8,"wind_gusts":36.0,"aqi":87,"pm10":91.7,"pm2_5":46.7,"no2":27.8,"co":497.0,"o3":43.0,"so2":8.8,"mosquito_risk":7,"arthritis_risk":5,"migraine_risk":7,"frizz_risk":1,"updated_at":"2026-06-15T01:49:59.761412+05:30"},{"city":"Chennai","state":"Tamil Nadu","latitude":13.0827,"longitude":80.2707,"temp":28.1,"humidity":76,"rain":0.0,"pressure":1004.2,"uv_index":8.4,"wind_gusts":34.2,"aqi":66,"pm10":33.4,"pm2_5":21.0,"no2":12.0,"co":256.0,"o3":70.0,"so2":7.2,"mosquito_risk":7,"arthritis_risk":5,"migraine_risk":4,"frizz_risk":1,"updated_at":"2026-06-15T01:49:59.761420+05:30"},{"city":"Kolkata","state":"West Bengal","latitude":22.5726,"longitude":88.3639,"temp":27.6,"humidity":94,"rain":0.0,"pressure":1000.7,"uv_index":9.0,"wind_gusts":35.3,"aqi":121,"pm10":60.5,"pm2_5":56.0,"no2":22.8,"co":469.0,"o3":58.0,"so2":10.3,"mosquito_risk":7,"arthritis_risk":5,"migraine_risk":4,"frizz_risk":1,"updated_at":"2026-06-15T01:49:59.761428+05:30"},{"city":"Pune","state":"Maharashtra","latitude":18.5204,"longitude":73.8567,"temp":24.4,"humidity":87,"rain":0.0,"pressure":947.0,"uv_index":8.3,"wind_gusts":51.1,"aqi":54,"pm10":16.6,"pm2_5":10.0,"no2":7.4,"co":121.0,"o3":41.0,"so2":7.8,"mosquito_risk":3,"arthritis_risk":5,"migraine_risk":7,"frizz_risk":1,"updated_at":"2026-06-15T01:49:59.761435+05:30"},{"city":"Ahmedabad","state":"Gujarat","latitude":23.0225,"longitude":72.5714,"temp":30.5,"humidity":60,"rain":0.0,"pressure":999.1,"uv_index":8.05,"wind_gusts":40.3,"aqi":67,"pm10":29.7,"pm2_5":12.9,"no2":3.3,"co":109.0,"o3":49.0,"so2":3.0,"mosquito_risk":0,"arthritis_risk":5,"migraine_risk":7,"frizz_risk":1,"updated_at":"2026-06-15T01:49:59.761441+05:30"},{"city":"Jaipur","state":"Rajasthan","latitude":26.9124,"longitude":75.7873,"temp":26.8,"humidity":70,"rain":0.0,"pressure":954.9,"uv_index":8.25,"wind_gusts":34.6,"aqi":132,"pm10":99.2,"pm2_5":41.0,"no2":7.2,"co":203.0,"o3":64.0,"so2":4.3,"mosquito_risk":7,"arthritis_risk":5,"migraine_risk":7,"frizz_risk":1,"updated_at":"2026-06-15T01:49:59.761453+05:30"},{"city":"Lucknow","state":"Uttar Pradesh","latitude":26.8467,"longitude":80.9462,"temp":28.1,"humidity":76,"rain":0.0,"pressure":987.7,"uv_index":8.35,"wind_gusts":28.8,"aqi":161,"pm10":384.6,"pm2_5":109.9,"no2":36.2,"co":401.0,"o3":35.0,"so2":11.2,"mosquito_risk":7,"arthritis_risk":5,"migraine_risk":7,"frizz_risk":1,"updated_at":"2026-06-15T01:49:59.761461+05:30"},{"city":"Kanpur","state":"Uttar Pradesh","latitude":26.4499,"longitude":80.3319,"temp":31.1,"humidity":50,"rain":0.0,"pressure":986.2,"uv_index":8.3,"wind_gusts":43.9,"aqi":264,"pm10":514.1,"pm2_5":122.0,"no2":53.1,"co":283.0,"o3":20.0,"so2":12.4,"mosquito_risk":0,"arthritis_risk":5,"migraine_risk":7,"frizz_risk":1,"updated_at":"2026-06-15T01:49:59.761468+05:30"},{"city":"Chandigarh","state":"Chandigarh","latitude":30.7333,"longitude":76.7794,"temp":24.7,"humidity":66,"rain":0.0,"pressure":962.7,"uv_index":7.8,"wind_gusts":23.0,"aqi":86,"pm10":55.2,"pm2_5":46.0,"no2":47.4,"co":531.0,"o3":19.0,"so2":9.2,"mosquito_risk":3,"arthritis_risk":5,"migraine_risk":7,"frizz_risk":1,"updated_at":"2026-06-15T01:49:59.761475+05:30"},{"city":"Srinagar","state":"Jammu and Kashmir","latitude":34.0837,"longitude":74.7973,"temp":13.9,"humidity":96,"rain":0.0,"pressure":837.3,"uv_index":9.05,"wind_gusts":19.8,"aqi":70,"pm10":45.2,"pm2_5":41.0,"no2":30.2,"co":497.0,"o3":16.0,"so2":2.0,"mosquito_risk":3,"arthritis_risk":10,"migraine_risk":7,"frizz_risk":0,"updated_at":"2026-06-15T01:49:59.761482+05:30"},{"city":"Jammu","state":"Jammu and Kashmir","latitude":32.7266,"longitude":74.857,"temp":25.8,"humidity":55,"rain":0.0,"pressure":966.8,"uv_index":8.6,"wind_gusts":28.1,"aqi":75,"pm10":37.1,"pm2_5":34.8,"no2":47.1,"co":376.0,"o3":5.0,"so2":3.6,"mosquito_risk":4,"arthritis_risk":5,"migraine_risk":7,"frizz_risk":0,"updated_at":"2026-06-15T01:49:59.761489+05:30"},{"city":"Amritsar","state":"Punjab","latitude":31.634,"longitude":74.8723,"temp":27.3,"humidity":70,"rain":0.0,"pressure":974.5,"uv_index":8.45,"wind_gusts":18.4,"aqi":108,"pm10":97.8,"pm2_5":83.8,"no2":85.3,"co":763.0,"o3":8.0,"so2":13.8,"mosquito_risk":7,"arthritis_risk":5,"migraine_risk":7,"frizz_risk":1,"updated_at":"2026-06-15T01:49:59.761496+05:30"},{"city":"Ludhiana","state":"Punjab","latitude":30.901,"longitude":75.8573,"temp":26.7,"humidity":77,"rain":0.0,"pressure":972.5,"uv_index":8.05,"wind_gusts":22.7,"aqi":109,"pm10":104.5,"pm2_5":64.7,"no2":53.3,"co":727.0,"o3":16.0,"so2":8.0,"mosquito_risk":7,"arthritis_risk":5,"migraine_risk":7,"frizz_risk":1,"updated_at":"2026-06-15T01:49:59.761503+05:30"},{"city":"Jalandhar","state":"Punjab","latitude":31.326,"longitude":75.5762,"temp":26.5,"humidity":73,"rain":0.0,"pressure":973.4,"uv_index":8.2,"wind_gusts":23.4,"aqi":96,"pm10":66.1,"pm2_5":52.9,"no2":50.8,"co":803.0,"o3":25.0,"so2":6.7,"mosquito_risk":7,"arthritis_risk":5,"migraine_risk":7,"frizz_risk":1,"updated_at":"2026-06-15T01:49:59.761509+05:30"},{"city":"Dehradun","state":"Uttarakhand","latitude":30.6284,"longitude":78.0322,"temp":14.1,"humidity":90,"rain":0.0,"pressure":825.4,"uv_index":8.25,"wind_gusts":35.6,"aqi":42,"pm10":17.8,"pm2_5":11.7,"no2":22.8,"co":213.0,"o3":28.0,"so2":0.3,"mosquito_risk":3,"arthritis_risk":10,"migraine_risk":7,"frizz_risk":0,"updated_at":"2026-06-15T01:49:59.761519+05:30"},{"city":"Shimla","state":"Himachal Pradesh","latitude":31.1048,"longitude":77.1734,"temp":11.9,"humidity":80,"rain":0.0,"pressure":779.2,"uv_index":8.1,"wind_gusts":38.2,"aqi":57,"pm10":27.6,"pm2_5":24.0,"no2":21.5,"co":245.0,"o3":33.0,"so2":0.0,"mosquito_risk":3,"arthritis_risk":5,"migraine_risk":7,"frizz_risk":0,"updated_at":"2026-06-15T01:49:59.761527+05:30"},{"city":"Manali","state":"Himachal Pradesh","latitude":32.2396,"longitude":77.1887,"temp":12.4,"humidity":74,"rain":0.0,"pressure":813.8,"uv_index":9.5,"wind_gusts":38.2,"aqi":46,"pm10":3.4,"pm2_5":2.9,"no2":19.1,"co":207.0,"o3":95.0,"so2":0.0,"mosquito_risk":3,"arthritis_risk":5,"migraine_risk":7,"frizz_risk":0,"updated_at":"2026-06-15T01:49:59.761534+05:30"},{"city":"Gurgaon","state":"Haryana","latitude":28.4595,"longitude":77.0266,"temp":27.7,"humidity":61,"rain":0.0,"pressure":975.7,"uv_index":7.85,"wind_gusts":52.2,"aqi":391,"pm10":301.7,"pm2_5":94.1,"no2":30.8,"co":512.0,"o3":36.0,"so2":13.2,"mosquito_risk":7,"arthritis_risk":5,"migraine_risk":7,"frizz_risk":1,"updated_at":"2026-06-15T01:49:59.761543+05:30"},{"city":"Noida","state":"Uttar Pradesh","latitude":28.5355,"longitude":77.391,"temp":27.9,"humidity":70,"rain":0.0,"pressure":978.8,"uv_index":7.8,"wind_gusts":40.3,"aqi":391,"pm10":301.7,"pm2_5":94.1,"no2":30.8,"co":884.0,"o3":36.0,"so2":13.2,"mosquito_risk":7,"arthritis_risk":5,"migraine_risk":7,"frizz_risk":1,"updated_at":"2026-06-15T01:49:59.761549+05:30"},{"city":"Ghaziabad","state":"Uttar Pradesh","latitude":28.6692,"longitude":77.4538,"temp":27.1,"humidity":76,"rain":0.0,"pressure":976.9,"uv_index":7.8,"wind_gusts":33.8,"aqi":213,"pm10":315.7,"pm2_5":116.4,"no2":51.6,"co":825.0,"o3":21.0,"so2":20.8,"mosquito_risk":7,"arthritis_risk":5,"migraine_risk":7,"frizz_risk":1,"updated_at":"2026-06-15T01:49:59.761556+05:30"},{"city":"Faridabad","state":"Haryana","latitude":28.4089,"longitude":77.3178,"temp":28.1,"humidity":70,"rain":0.0,"pressure":978.0,"uv_index":7.85,"wind_gusts":53.6,"aqi":391,"pm10":301.7,"pm2_5":94.1,"no2":30.8,"co":656.0,"o3":36.0,"so2":13.2,"mosquito_risk":7,"arthritis_risk":5,"migraine_risk":7,"frizz_risk":1,"updated_at":"2026-06-15T01:49:59.761562+05:30"},{"city":"Meerut","state":"Uttar Pradesh","latitude":28.9845,"longitude":77.7064,"temp":27.0,"humidity":73,"rain":0.0,"pressure":975.7,"uv_index":7.7,"wind_gusts":30.6,"aqi":213,"pm10":315.7,"pm2_5":116.4,"no2":51.6,"co":605.0,"o3":21.0,"so2":20.8,"mosquito_risk":7,"arthritis_risk":5,"migraine_risk":7,"frizz_risk":1,"updated_at":"2026-06-15T01:49:59.761568+05:30"},{"city":"Agra","state":"Uttar Pradesh","latitude":27.1767,"longitude":78.0081,"temp":29.4,"humidity":50,"rain":0.0,"pressure":982.5,"uv_index":8.15,"wind_gusts":77.8,"aqi":368,"pm10":1017.0,"pm2_5":146.2,"no2":15.4,"co":173.0,"o3":50.0,"so2":4.5,"mosquito_risk":4,"arthritis_risk":5,"migraine_risk":7,"frizz_risk":1,"updated_at":"2026-06-15T01:49:59.761575+05:30"},{"city":"Varanasi","state":"Uttar Pradesh","latitude":25.3176,"longitude":82.9739,"temp":30.6,"humidity":59,"rain":0.0,"pressure":992.1,"uv_index":8.8,"wind_gusts":36.7,"aqi":163,"pm10":147.6,"pm2_5":81.0,"no2":45.2,"co":759.0,"o3":37.0,"so2":16.5,"mosquito_risk":0,"arthritis_risk":5,"migraine_risk":7,"frizz_risk":1,"updated_at":"2026-06-15T01:49:59.761582+05:30"},{"city":"Prayagraj","state":"Uttar Pradesh","latitude":25.4358,"longitude":81.8463,"temp":31.1,"humidity":55,"rain":0.0,"pressure":990.5,"uv_index":8.7,"wind_gusts":32.4,"aqi":162,"pm10":187.7,"pm2_5":96.4,"no2":61.0,"co":733.0,"o3":16.0,"so2":18.7,"mosquito_risk":0,"arthritis_risk":5,"migraine_risk":7,"frizz_risk":1,"updated_at":"2026-06-15T01:49:59.761589+05:30"},{"city":"Gorakhpur","state":"Uttar Pradesh","latitude":26.7606,"longitude":83.3732,"temp":27.9,"humidity":76,"rain":0.0,"pressure":991.5,"uv_index":8.7,"wind_gusts":25.9,"aqi":152,"pm10":100.6,"pm2_5":82.9,"no2":54.5,"co":583.0,"o3":17.0,"so2":15.2,"mosquito_risk":7,"arthritis_risk":5,"migraine_risk":7,"frizz_risk":1,"updated_at":"2026-06-15T01:49:59.761598+05:30"},{"city":"Bareilly","state":"Uttar Pradesh","latitude":28.367,"longitude":79.4304,"temp":26.5,"humidity":81,"rain":0.0,"pressure":981.1,"uv_index":8.1,"wind_gusts":40.3,"aqi":158,"pm10":205.8,"pm2_5":89.6,"no2":40.5,"co":375.0,"o3":43.0,"so2":14.4,"mosquito_risk":7,"arthritis_risk":5,"migraine_risk":7,"frizz_risk":1,"updated_at":"2026-06-15T01:49:59.761604+05:30"},{"city":"Aligarh","state":"Uttar Pradesh","latitude":27.8974,"longitude":78.088,"temp":27.8,"humidity":63,"rain":0.0,"pressure":980.0,"uv_index":7.95,"wind_gusts":56.5,"aqi":369,"pm10":202.1,"pm2_5":79.9,"no2":23.6,"co":257.0,"o3":49.0,"so2":7.8,"mosquito_risk":7,"arthritis_risk":5,"migraine_risk":7,"frizz_risk":1,"updated_at":"2026-06-15T01:49:59.761611+05:30"},{"city":"Moradabad","state":"Uttar Pradesh","latitude":28.8386,"longitude":78.7733,"temp":26.6,"humidity":79,"rain":0.0,"pressure":978.0,"uv_index":7.95,"wind_gusts":39.2,"aqi":165,"pm10":284.1,"pm2_5":134.1,"no2":63.3,"co":509.0,"o3":12.0,"so2":17.5,"mosquito_risk":7,"arthritis_risk":5,"migraine_risk":7,"frizz_risk":1,"updated_at":"2026-06-15T01:49:59.761617+05:30"},{"city":"Saharanpur","state":"Uttar Pradesh","latitude":29.9637,"longitude":77.546,"temp":26.1,"humidity":75,"rain":0.0,"pressure":970.1,"uv_index":7.55,"wind_gusts":19.1,"aqi":152,"pm10":97.1,"pm2_5":55.4,"no2":39.1,"co":640.0,"o3":26.0,"so2":10.3,"mosquito_risk":7,"arthritis_risk":5,"migraine_risk":7,"frizz_risk":1,"updated_at":"2026-06-15T01:49:59.761623+05:30"},{"city":"Jhansi","state":"Uttar Pradesh","latitude":25.4484,"longitude":78.5685,"temp":29.0,"humidity":59,"rain":0.0,"pressure":973.1,"uv_index":8.35,"wind_gusts":73.4,"aqi":91,"pm10":78.7,"pm2_5":36.7,"no2":4.3,"co":144.0,"o3":65.0,"so2":1.6,"mosquito_risk":4,"arthritis_risk":5,"migraine_risk":7,"frizz_risk":1,"updated_at":"2026-06-15T01:50:08.472596+05:30"},{"city":"Surat","state":"Gujarat","latitude":21.1702,"longitude":72.8311,"temp":29.7,"humidity":76,"rain":0.0,"pressure":1004.6,"uv_index":7.55,"wind_gusts":50.0,"aqi":72,"pm10":35.3,"pm2_5":19.3,"no2":12.2,"co":221.0,"o3":40.0,"so2":20.5,"mosquito_risk":7,"arthritis_risk":5,"migraine_risk":4,"frizz_risk":1,"updated_at":"2026-06-15T01:50:08.472629+05:30"},{"city":"Vadodara","state":"Gujarat","latitude":22.3072,"longitude":73.1812,"temp":31.1,"humidity":62,"rain":0.0,"pressure":1001.5,"uv_index":8.0,"wind_gusts":45.0,"aqi":76,"pm10":34.6,"pm2_5":23.6,"no2":15.8,"co":168.0,"o3":32.0,"so2":11.7,"mosquito_risk":3,"arthritis_risk":5,"migraine_risk":4,"frizz_risk":1,"updated_at":"2026-06-15T01:50:08.472640+05:30"},{"city":"Rajkot","state":"Gujarat","latitude":22.3039,"longitude":70.8022,"temp":28.3,"humidity":77,"rain":0.0,"pressure":991.6,"uv_index":7.55,"wind_gusts":50.8,"aqi":65,"pm10":34.5,"pm2_5":14.8,"no2":4.1,"co":96.0,"o3":46.0,"so2":4.7,"mosquito_risk":7,"arthritis_risk":5,"migraine_risk":7,"frizz_risk":1,"updated_at":"2026-06-15T01:50:08.472648+05:30"},{"city":"Thane","state":"Maharashtra","latitude":19.2183,"longitude":72.9781,"temp":29.0,"humidity":78,"rain":0.0,"pressure":1006.3,"uv_index":7.7,"wind_gusts":44.3,"aqi":64,"pm10":32.4,"pm2_5":14.4,"no2":2.5,"co":129.0,"o3":50.0,"so2":2.5,"mosquito_risk":7,"arthritis_risk":5,"migraine_risk":4,"frizz_risk":1,"updated_at":"2026-06-15T01:50:08.472657+05:30"},{"city":"Nagpur","state":"Maharashtra","latitude":21.1458,"longitude":79.0882,"temp":29.2,"humidity":62,"rain":0.0,"pressure":969.6,"uv_index":8.9,"wind_gusts":36.7,"aqi":107,"pm10":64.3,"pm2_5":36.2,"no2":15.4,"co":179.0,"o3":54.0,"so2":8.6,"mosquito_risk":7,"arthritis_risk":5,"migraine_risk":7,"frizz_risk":1,"updated_at":"2026-06-15T01:50:08.472666+05:30"},{"city":"Nashik","state":"Maharashtra","latitude":19.9975,"longitude":73.7898,"temp":24.7,"humidity":87,"rain":0.0,"pressure":944.1,"uv_index":8.05,"wind_gusts":50.4,"aqi":57,"pm10":20.4,"pm2_5":10.2,"no2":2.7,"co":114.0,"o3":45.0,"so2":1.2,"mosquito_risk":3,"arthritis_risk":5,"migraine_risk":7,"frizz_risk":1,"updated_at":"2026-06-15T01:50:08.472674+05:30"},{"city":"Aurangabad","state":"Maharashtra","latitude":19.8762,"longitude":75.3433,"temp":26.4,"humidity":65,"rain":0.0,"pressure":942.7,"uv_index":8.95,"wind_gusts":51.8,"aqi":59,"pm10":27.4,"pm2_5":15.0,"no2":5.7,"co":119.0,"o3":45.0,"so2":5.5,"mosquito_risk":7,"arthritis_risk":5,"migraine_risk":7,"frizz_risk":1,"updated_at":"2026-06-15T01:50:08.472682+05:30"},{"city":"Solapur","state":"Maharashtra","latitude":17.6599,"longitude":75.9064,"temp":27.1,"humidity":71,"rain":0.0,"pressure":955.8,"uv_index":8.9,"wind_gusts":49.0,"aqi":62,"pm10":17.6,"pm2_5":11.2,"no2":4.9,"co":123.0,"o3":52.0,"so2":4.1,"mosquito_risk":7,"arthritis_risk":5,"migraine_risk":7,"frizz_risk":1,"updated_at":"2026-06-15T01:50:08.472690+05:30"},{"city":"Kolhapur","state":"Maharashtra","latitude":16.705,"longitude":74.2433,"temp":23.7,"humidity":92,"rain":0.0,"pressure":947.2,"uv_index":8.75,"wind_gusts":49.7,"aqi":43,"pm10":14.8,"pm2_5":9.5,"no2":5.2,"co":143.0,"o3":40.0,"so2":2.3,"mosquito_risk":3,"arthritis_risk":5,"migraine_risk":7,"frizz_risk":1,"updated_at":"2026-06-15T01:50:08.472698+05:30"},{"city":"Goa","state":"Goa","latitude":15.2993,"longitude":74.124,"temp":26.1,"humidity":92,"rain":0.0,"pressure":997.6,"uv_index":8.7,"wind_gusts":37.8,"aqi":63,"pm10":38.2,"pm2_5":22.5,"no2":6.9,"co":404.0,"o3":42.0,"so2":2.2,"mosquito_risk":7,"arthritis_risk":5,"migraine_risk":7,"frizz_risk":1,"updated_at":"2026-06-15T01:50:08.472706+05:30"},{"city":"Jodhpur","state":"Rajasthan","latitude":26.2389,"longitude":73.0243,"temp":32.2,"humidity":53,"rain":0.0,"pressure":977.5,"uv_index":8.45,"wind_gusts":42.5,"aqi":160,"pm10":207.7,"pm2_5":49.9,"no2":3.3,"co":124.0,"o3":53.0,"so2":2.2,"mosquito_risk":0,"arthritis_risk":5,"migraine_risk":7,"frizz_risk":1,"updated_at":"2026-06-15T01:50:08.472715+05:30"},{"city":"Udaipur","state":"Rajasthan","latitude":24.5854,"longitude":73.7125,"temp":27.4,"humidity":69,"rain":0.0,"pressure":943.0,"uv_index":8.85,"wind_gusts":41.4,"aqi":75,"pm10":24.4,"pm2_5":14.7,"no2":3.0,"co":125.0,"o3":57.0,"so2":2.1,"mosquito_risk":7,"arthritis_risk":5,"migraine_risk":7,"frizz_risk":1,"updated_at":"2026-06-15T01:50:08.472722+05:30"},{"city":"Kota","state":"Rajasthan","latitude":25.2138,"longitude":75.8648,"temp":27.7,"humidity":61,"rain":0.0,"pressure":974.7,"uv_index":8.4,"wind_gusts":33.1,"aqi":109,"pm10":70.5,"pm2_5":32.9,"no2":5.2,"co":217.0,"o3":70.0,"so2":4.4,"mosquito_risk":7,"arthritis_risk":5,"migraine_risk":7,"frizz_risk":1,"updated_at":"2026-06-15T01:50:08.472738+05:30"},{"city":"Bikaner","state":"Rajasthan","latitude":28.0229,"longitude":73.3119,"temp":31.9,"humidity":44,"rain":0.0,"pressure":975.1,"uv_index":8.5,"wind_gusts":37.8,"aqi":154,"pm10":247.7,"pm2_5":72.9,"no2":2.1,"co":126.0,"o3":71.0,"so2":3.8,"mosquito_risk":0,"arthritis_risk":5,"migraine_risk":7,"frizz_risk":1,"updated_at":"2026-06-15T01:50:08.472754+05:30"},{"city":"Ajmer","state":"Rajasthan","latitude":26.4499,"longitude":74.6399,"temp":28.3,"humidity":57,"rain":0.0,"pressure":949.7,"uv_index":8.35,"wind_gusts":46.1,"aqi":114,"pm10":85.4,"pm2_5":38.6,"no2":7.1,"co":154.0,"o3":53.0,"so2":3.4,"mosquito_risk":4,"arthritis_risk":5,"migraine_risk":7,"frizz_risk":1,"updated_at":"2026-06-15T01:50:08.472768+05:30"},{"city":"Gwalior","state":"Madhya Pradesh","latitude":26.2183,"longitude":78.1828,"temp":29.5,"humidity":56,"rain":0.0,"pressure":978.1,"uv_index":8.3,"wind_gusts":78.1,"aqi":101,"pm10":80.1,"pm2_5":38.3,"no2":5.9,"co":134.0,"o3":64.0,"so2":2.9,"mosquito_risk":4,"arthritis_risk":5,"migraine_risk":7,"frizz_risk":1,"updated_at":"2026-06-15T01:50:08.472783+05:30"},{"city":"Indore","state":"Madhya Pradesh","latitude":22.7196,"longitude":75.8577,"temp":28.1,"humidity":63,"rain":0.0,"pressure":945.8,"uv_index":8.65,"wind_gusts":46.8,"aqi":86,"pm10":65.7,"pm2_5":35.5,"no2":7.0,"co":253.0,"o3":71.0,"so2":7.5,"mosquito_risk":7,"arthritis_risk":5,"migraine_risk":7,"frizz_risk":1,"updated_at":"2026-06-15T01:50:08.472792+05:30"},{"city":"Bhopal","state":"Madhya Pradesh","latitude":23.2599,"longitude":77.4126,"temp":26.5,"humidity":71,"rain":0.0,"pressure":950.3,"uv_index":8.65,"wind_gusts":33.8,"aqi":96,"pm10":53.7,"pm2_5":32.8,"no2":8.1,"co":302.0,"o3":58.0,"so2":3.5,"mosquito_risk":7,"arthritis_risk":5,"migraine_risk":7,"frizz_risk":1,"updated_at":"2026-06-15T01:50:08.472800+05:30"},{"city":"Jabalpur","state":"Madhya Pradesh","latitude":23.1815,"longitude":79.9864,"temp":28.5,"humidity":63,"rain":0.0,"pressure":957.7,"uv_index":7.55,"wind_gusts":43.6,"aqi":93,"pm10":51.9,"pm2_5":31.3,"no2":8.3,"co":197.0,"o3":66.0,"so2":3.7,"mosquito_risk":7,"arthritis_risk":5,"migraine_risk":7,"frizz_risk":1,"updated_at":"2026-06-15T01:50:08.472808+05:30"},{"city":"Ujjain","state":"Madhya Pradesh","latitude":23.1765,"longitude":75.7885,"temp":28.5,"humidity":54,"rain":0.0,"pressure":951.3,"uv_index":8.55,"wind_gusts":45.0,"aqi":83,"pm10":53.7,"pm2_5":29.1,"no2":3.8,"co":300.0,"o3":79.0,"so2":6.5,"mosquito_risk":4,"arthritis_risk":5,"migraine_risk":7,"frizz_risk":1,"updated_at":"2026-06-15T01:50:08.472816+05:30"},{"city":"Visakhapatnam","state":"Andhra Pradesh","latitude":17.6868,"longitude":83.2185,"temp":29.3,"humidity":82,"rain":0.0,"pressure":998.2,"uv_index":8.95,"wind_gusts":37.1,"aqi":111,"pm10":60.3,"pm2_5":45.4,"no2":29.0,"co":518.0,"o3":47.0,"so2":31.8,"mosquito_risk":7,"arthritis_risk":5,"migraine_risk":7,"frizz_risk":1,"updated_at":"2026-06-15T01:50:08.472824+05:30"},{"city":"Vijayawada","state":"Andhra Pradesh","latitude":16.5062,"longitude":80.648,"temp":29.4,"humidity":67,"rain":0.0,"pressure":998.0,"uv_index":9.0,"wind_gusts":32.8,"aqi":93,"pm10":40.9,"pm2_5":30.7,"no2":11.7,"co":328.0,"o3":61.0,"so2":6.0,"mosquito_risk":7,"arthritis_risk":5,"migraine_risk":7,"frizz_risk":1,"updated_at":"2026-06-15T01:50:08.472832+05:30"},{"city":"Guntur","state":"Andhra Pradesh","latitude":16.3067,"longitude":80.4365,"temp":28.8,"humidity":66,"rain":0.0,"pressure":999.3,"uv_index":8.95,"wind_gusts":37.8,"aqi":88,"pm10":39.2,"pm2_5":28.9,"no2":12.8,"co":322.0,"o3":57.0,"so2":5.9,"mosquito_risk":7,"arthritis_risk":5,"migraine_risk":7,"frizz_risk":1,"updated_at":"2026-06-15T01:50:08.472839+05:30"},{"city":"Nellore","state":"Andhra Pradesh","latitude":14.4426,"longitude":79.9865,"temp":29.4,"humidity":62,"rain":0.0,"pressure":1002.2,"uv_index":8.95,"wind_gusts":42.5,"aqi":72,"pm10":45.1,"pm2_5":29.3,"no2":13.1,"co":255.0,"o3":60.0,"so2":5.9,"mosquito_risk":7,"arthritis_risk":5,"migraine_risk":4,"frizz_risk":1,"updated_at":"2026-06-15T01:50:08.472848+05:30"},{"city":"Kurnool","state":"Andhra Pradesh","latitude":15.8281,"longitude":78.0373,"temp":28.4,"humidity":56,"rain":0.0,"pressure":974.7,"uv_index":8.95,"wind_gusts":41.8,"aqi":73,"pm10":25.6,"pm2_5":16.9,"no2":12.5,"co":148.0,"o3":45.0,"so2":4.6,"mosquito_risk":4,"arthritis_risk":5,"migraine_risk":7,"frizz_risk":1,"updated_at":"2026-06-15T01:50:08.472856+05:30"},{"city":"Kakinada","state":"Andhra Pradesh","latitude":16.9891,"longitude":82.2475,"temp":29.5,"humidity":70,"rain":0.0,"pressure":1002.4,"uv_index":8.95,"wind_gusts":37.4,"aqi":95,"pm10":53.9,"pm2_5":37.7,"no2":8.9,"co":474.0,"o3":86.0,"so2":6.0,"mosquito_risk":7,"arthritis_risk":5,"migraine_risk":4,"frizz_risk":1,"updated_at":"2026-06-15T01:50:08.472863+05:30"},{"city":"Tirupati","state":"Andhra Pradesh","latitude":13.6288,"longitude":79.4192,"temp":26.6,"humidity":77,"rain":0.0,"pressure":988.3,"uv_index":9.0,"wind_gusts":31.7,"aqi":70,"pm10":30.7,"pm2_5":21.4,"no2":12.9,"co":235.0,"o3":46.0,"so2":2.9,"mosquito_risk":7,"arthritis_risk":5,"migraine_risk":7,"frizz_risk":1,"updated_at":"2026-06-15T01:50:08.472871+05:30"},{"city":"Warangal","state":"Telangana","latitude":17.9689,"longitude":79.5941,"temp":28.1,"humidity":67,"rain":0.0,"pressure":974.2,"uv_index":9.0,"wind_gusts":40.3,"aqi":112,"pm10":96.2,"pm2_5":71.5,"no2":41.7,"co":254.0,"o3":10.0,"so2":8.1,"mosquito_risk":7,"arthritis_risk":5,"migraine_risk":7,"frizz_risk":1,"updated_at":"2026-06-15T01:50:08.472878+05:30"},{"city":"Nizamabad","state":"Telangana","latitude":18.6725,"longitude":78.0941,"temp":28.5,"humidity":53,"rain":0.0,"pressure":961.9,"uv_index":8.95,"wind_gusts":37.8,"aqi":83,"pm10":72.4,"pm2_5":37.5,"no2":13.1,"co":337.0,"o3":51.0,"so2":4.1,"mosquito_risk":4,"arthritis_risk":5,"migraine_risk":7,"frizz_risk":1,"updated_at":"2026-06-15T01:50:08.472885+05:30"},{"city":"Mysore","state":"Karnataka","latitude":12.2958,"longitude":76.6396,"temp":20.8,"humidity":98,"rain":0.0,"pressure":927.7,"uv_index":8.85,"wind_gusts":37.8,"aqi":31,"pm10":10.2,"pm2_5":7.7,"no2":9.3,"co":170.0,"o3":37.0,"so2":2.4,"mosquito_risk":3,"arthritis_risk":5,"migraine_risk":7,"frizz_risk":1,"updated_at":"2026-06-15T01:50:08.472892+05:30"},{"city":"Mangalore","state":"Karnataka","latitude":12.9141,"longitude":74.856,"temp":25.0,"humidity":95,"rain":0.0,"pressure":1006.9,"uv_index":8.65,"wind_gusts":43.6,"aqi":54,"pm10":28.3,"pm2_5":20.3,"no2":14.8,"co":397.0,"o3":19.0,"so2":3.9,"mosquito_risk":7,"arthritis_risk":5,"migraine_risk":4,"frizz_risk":1,"updated_at":"2026-06-15T01:50:08.472900+05:30"},{"city":"Hubli-Dharwad","state":"Karnataka","latitude":15.3647,"longitude":75.124,"temp":22.6,"humidity":95,"rain":0.0,"pressure":940.1,"uv_index":8.9,"wind_gusts":51.1,"aqi":41,"pm10":20.9,"pm2_5":11.0,"no2":4.2,"co":120.0,"o3":41.0,"so2":1.7,"mosquito_risk":3,"arthritis_risk":5,"migraine_risk":7,"frizz_risk":1,"updated_at":"2026-06-15T01:50:08.472907+05:30"},{"city":"Belgaum","state":"Karnataka","latitude":15.8497,"longitude":74.4977,"temp":21.5,"humidity":98,"rain":0.0,"pressure":924.7,"uv_index":8.95,"wind_gusts":48.2,"aqi":40,"pm10":21.1,"pm2_5":12.2,"no2":4.7,"co":111.0,"o3":39.0,"so2":1.2,"mosquito_risk":3,"arthritis_risk":5,"migraine_risk":7,"frizz_risk":1,"updated_at":"2026-06-15T01:50:11.824119+05:30"},{"city":"Coimbatore","state":"Tamil Nadu","latitude":11.0168,"longitude":76.9558,"temp":23.5,"humidity":95,"rain":0.0,"pressure":960.9,"uv_index":8.75,"wind_gusts":45.4,"aqi":30,"pm10":10.3,"pm2_5":7.8,"no2":8.1,"co":200.0,"o3":33.0,"so2":2.9,"mosquito_risk":3,"arthritis_risk":5,"migraine_risk":7,"frizz_risk":1,"updated_at":"2026-06-15T01:50:11.824152+05:30"},{"city":"Madurai","state":"Tamil Nadu","latitude":9.9252,"longitude":78.1198,"temp":29.0,"humidity":65,"rain":0.0,"pressure":991.8,"uv_index":8.35,"wind_gusts":51.8,"aqi":61,"pm10":34.1,"pm2_5":29.1,"no2":34.1,"co":203.0,"o3":6.0,"so2":6.2,"mosquito_risk":7,"arthritis_risk":5,"migraine_risk":7,"frizz_risk":1,"updated_at":"2026-06-15T01:50:11.824163+05:30"},{"city":"Trichy","state":"Tamil Nadu","latitude":10.7905,"longitude":78.7047,"temp":29.2,"humidity":63,"rain":0.0,"pressure":998.1,"uv_index":8.5,"wind_gusts":45.4,"aqi":53,"pm10":19.6,"pm2_5":15.3,"no2":13.3,"co":130.0,"o3":40.0,"so2":4.4,"mosquito_risk":7,"arthritis_risk":5,"migraine_risk":7,"frizz_risk":1,"updated_at":"2026-06-15T01:50:11.824172+05:30"},{"city":"Salem","state":"Tamil Nadu","latitude":11.6643,"longitude":78.146,"temp":26.0,"humidity":87,"rain":0.0,"pressure":976.3,"uv_index":8.35,"wind_gusts":36.7,"aqi":57,"pm10":15.7,"pm2_5":12.2,"no2":13.4,"co":373.0,"o3":38.0,"so2":6.3,"mosquito_risk":7,"arthritis_risk":5,"migraine_risk":7,"frizz_risk":1,"updated_at":"2026-06-15T01:50:11.824181+05:30"},{"city":"Tirunelveli","state":"Tamil Nadu","latitude":8.7139,"longitude":77.7567,"temp":27.9,"humidity":68,"rain":0.0,"pressure":1002.3,"uv_index":7.6,"wind_gusts":42.8,"aqi":40,"pm10":14.2,"pm2_5":10.4,"no2":6.5,"co":148.0,"o3":41.0,"so2":2.5,"mosquito_risk":7,"arthritis_risk":5,"migraine_risk":4,"frizz_risk":1,"updated_at":"2026-06-15T01:50:11.824190+05:30"},{"city":"Vellore","state":"Tamil Nadu","latitude":12.9165,"longitude":79.1325,"temp":27.2,"humidity":68,"rain":0.0,"pressure":982.2,"uv_index":8.95,"wind_gusts":41.4,"aqi":61,"pm10":18.6,"pm2_5":13.7,"no2":13.5,"co":180.0,"o3":44.0,"so2":4.6,"mosquito_risk":7,"arthritis_risk":5,"migraine_risk":7,"frizz_risk":1,"updated_at":"2026-06-15T01:50:11.824198+05:30"},{"city":"Erode","state":"Tamil Nadu","latitude":11.341,"longitude":77.7172,"temp":26.2,"humidity":81,"rain":0.0,"pressure":988.2,"uv_index":8.85,"wind_gusts":38.9,"aqi":44,"pm10":16.3,"pm2_5":12.0,"no2":10.7,"co":175.0,"o3":38.0,"so2":3.6,"mosquito_risk":7,"arthritis_risk":5,"migraine_risk":7,"frizz_risk":1,"updated_at":"2026-06-15T01:50:11.824207+05:30"},{"city":"Kochi","state":"Kerala","latitude":9.9312,"longitude":76.2673,"temp":26.2,"humidity":97,"rain":0.0,"pressure":1008.9,"uv_index":8.45,"wind_gusts":34.2,"aqi":55,"pm10":30.3,"pm2_5":25.4,"no2":21.6,"co":259.0,"o3":12.0,"so2":5.6,"mosquito_risk":7,"arthritis_risk":0,"migraine_risk":4,"frizz_risk":1,"updated_at":"2026-06-15T01:50:11.824214+05:30"},{"city":"Thiruvananthapuram","state":"Kerala","latitude":8.5241,"longitude":76.9366,"temp":25.1,"humidity":94,"rain":0.0,"pressure":1008.4,"uv_index":6.75,"wind_gusts":41.0,"aqi":44,"pm10":20.0,"pm2_5":10.6,"no2":3.6,"co":209.0,"o3":49.0,"so2":1.9,"mosquito_risk":7,"arthritis_risk":0,"migraine_risk":4,"frizz_risk":1,"updated_at":"2026-06-15T01:50:11.824222+05:30"},{"city":"Kozhikode","state":"Kerala","latitude":11.2588,"longitude":75.7804,"temp":25.3,"humidity":93,"rain":0.0,"pressure":1007.8,"uv_index":8.15,"wind_gusts":46.4,"aqi":29,"pm10":21.5,"pm2_5":10.2,"no2":2.2,"co":212.0,"o3":56.0,"so2":1.4,"mosquito_risk":7,"arthritis_risk":5,"migraine_risk":4,"frizz_risk":1,"updated_at":"2026-06-15T01:50:11.824229+05:30"},{"city":"Thrissur","state":"Kerala","latitude":10.5276,"longitude":76.2144,"temp":24.9,"humidity":97,"rain":0.0,"pressure":1007.2,"uv_index":8.2,"wind_gusts":37.1,"aqi":53,"pm10":33.6,"pm2_5":26.8,"no2":18.7,"co":387.0,"o3":16.0,"so2":4.7,"mosquito_risk":3,"arthritis_risk":5,"migraine_risk":4,"frizz_risk":1,"updated_at":"2026-06-15T01:50:11.824237+05:30"},{"city":"Kannur","state":"Kerala","latitude":11.8745,"longitude":75.3704,"temp":24.9,"humidity":95,"rain":0.0,"pressure":1007.1,"uv_index":8.4,"wind_gusts":47.2,"aqi":40,"pm10":21.7,"pm2_5":15.7,"no2":14.2,"co":517.0,"o3":21.0,"so2":2.8,"mosquito_risk":3,"arthritis_risk":5,"migraine_risk":4,"frizz_risk":1,"updated_at":"2026-06-15T01:50:11.824245+05:30"},{"city":"Patna","state":"Bihar","latitude":25.5941,"longitude":85.1376,"temp":28.8,"humidity":82,"rain":0.0,"pressure":994.9,"uv_index":8.9,"wind_gusts":25.2,"aqi":167,"pm10":135.5,"pm2_5":107.6,"no2":61.4,"co":746.0,"o3":19.0,"so2":21.7,"mosquito_risk":7,"arthritis_risk":5,"migraine_risk":7,"frizz_risk":1,"updated_at":"2026-06-15T01:50:11.824251+05:30"},{"city":"Gaya","state":"Bihar","latitude":24.7914,"longitude":85.0002,"temp":28.3,"humidity":73,"rain":0.0,"pressure":988.5,"uv_index":8.95,"wind_gusts":29.2,"aqi":164,"pm10":139.7,"pm2_5":102.2,"no2":42.5,"co":995.0,"o3":42.0,"so2":15.6,"mosquito_risk":7,"arthritis_risk":5,"migraine_risk":7,"frizz_risk":1,"updated_at":"2026-06-15T01:50:11.824259+05:30"},{"city":"Muzaffarpur","state":"Bihar","latitude":26.1209,"longitude":85.3647,"temp":27.8,"humidity":84,"rain":0.0,"pressure":995.1,"uv_index":8.85,"wind_gusts":29.5,"aqi":166,"pm10":116.2,"pm2_5":93.4,"no2":50.1,"co":920.0,"o3":27.0,"so2":18.0,"mosquito_risk":7,"arthritis_risk":5,"migraine_risk":7,"frizz_risk":1,"updated_at":"2026-06-15T01:50:11.824266+05:30"},{"city":"Bhagalpur","state":"Bihar","latitude":25.2425,"longitude":87.0117,"temp":28.5,"humidity":82,"rain":0.0,"pressure":995.7,"uv_index":8.85,"wind_gusts":27.0,"aqi":159,"pm10":100.1,"pm2_5":79.2,"no2":19.6,"co":535.0,"o3":71.0,"so2":11.2,"mosquito_risk":7,"arthritis_risk":5,"migraine_risk":7,"frizz_risk":1,"updated_at":"2026-06-15T01:50:11.824272+05:30"},{"city":"Ranchi","state":"Jharkhand","latitude":23.3441,"longitude":85.3096,"temp":24.3,"humidity":77,"rain":0.0,"pressure":933.3,"uv_index":9.25,"wind_gusts":28.4,"aqi":128,"pm10":62.4,"pm2_5":46.7,"no2":11.4,"co":259.0,"o3":83.0,"so2":4.6,"mosquito_risk":3,"arthritis_risk":5,"migraine_risk":7,"frizz_risk":1,"updated_at":"2026-06-15T01:50:11.824279+05:30"},{"city":"Jamshedpur","state":"Jharkhand","latitude":22.8046,"longitude":86.2029,"temp":26.4,"humidity":90,"rain":0.0,"pressure":986.0,"uv_index":9.1,"wind_gusts":29.9,"aqi":154,"pm10":76.4,"pm2_5":60.3,"no2":23.2,"co":355.0,"o3":67.0,"so2":22.5,"mosquito_risk":7,"arthritis_risk":5,"migraine_risk":7,"frizz_risk":1,"updated_at":"2026-06-15T01:50:11.824286+05:30"},{"city":"Dhanbad","state":"Jharkhand","latitude":23.7957,"longitude":86.4304,"temp":27.4,"humidity":78,"rain":0.0,"pressure":974.9,"uv_index":9.1,"wind_gusts":27.7,"aqi":171,"pm10":171.8,"pm2_5":149.5,"no2":66.1,"co":263.0,"o3":32.0,"so2":207.5,"mosquito_risk":7,"arthritis_risk":5,"migraine_risk":7,"frizz_risk":1,"updated_at":"2026-06-15T01:50:11.824293+05:30"},{"city":"Bokaro","state":"Jharkhand","latitude":23.6693,"longitude":86.1511,"temp":27.2,"humidity":75,"rain":0.0,"pressure":978.6,"uv_index":9.1,"wind_gusts":25.6,"aqi":166,"pm10":145.3,"pm2_5":117.3,"no2":46.6,"co":249.0,"o3":69.0,"so2":166.1,"mosquito_risk":7,"arthritis_risk":5,"migraine_risk":7,"frizz_risk":1,"updated_at":"2026-06-15T01:50:11.824300+05:30"},{"city":"Bhubaneswar","state":"Odisha","latitude":20.2961,"longitude":85.8245,"temp":27.6,"humidity":92,"rain":0.0,"pressure":997.3,"uv_index":8.65,"wind_gusts":46.4,"aqi":117,"pm10":97.8,"pm2_5":88.7,"no2":42.4,"co":755.0,"o3":44.0,"so2":12.0,"mosquito_risk":7,"arthritis_risk":5,"migraine_risk":7,"frizz_risk":1,"updated_at":"2026-06-15T01:50:11.824306+05:30"},{"city":"Cuttack","state":"Odisha","latitude":20.4625,"longitude":85.8828,"temp":27.5,"humidity":95,"rain":0.0,"pressure":999.2,"uv_index":6.85,"wind_gusts":37.8,"aqi":117,"pm10":97.8,"pm2_5":88.7,"no2":42.4,"co":663.0,"o3":44.0,"so2":12.0,"mosquito_risk":7,"arthritis_risk":5,"migraine_risk":7,"frizz_risk":1,"updated_at":"2026-06-15T01:50:11.824313+05:30"},{"city":"Rourkela","state":"Odisha","latitude":22.2604,"longitude":84.8536,"temp":26.9,"humidity":94,"rain":0.0,"pressure":980.6,"uv_index":9.05,"wind_gusts":60.5,"aqi":144,"pm10":75.0,"pm2_5":53.1,"no2":15.3,"co":337.0,"o3":80.0,"so2":4.6,"mosquito_risk":7,"arthritis_risk":5,"migraine_risk":7,"frizz_risk":1,"updated_at":"2026-06-15T01:50:11.824320+05:30"},{"city":"Raipur","state":"Chhattisgarh","latitude":21.2514,"longitude":81.6296,"temp":27.9,"humidity":71,"rain":0.0,"pressure":970.1,"uv_index":8.6,"wind_gusts":50.8,"aqi":144,"pm10":78.9,"pm2_5":53.3,"no2":40.6,"co":557.0,"o3":40.0,"so2":49.3,"mosquito_risk":7,"arthritis_risk":5,"migraine_risk":7,"frizz_risk":1,"updated_at":"2026-06-15T01:50:11.824327+05:30"},{"city":"Bhilai","state":"Chhattisgarh","latitude":21.1938,"longitude":81.3509,"temp":26.8,"humidity":85,"rain":0.0,"pressure":970.4,"uv_index":8.6,"wind_gusts":63.0,"aqi":139,"pm10":88.2,"pm2_5":50.3,"no2":30.7,"co":945.0,"o3":50.0,"so2":38.7,"mosquito_risk":7,"arthritis_risk":5,"migraine_risk":7,"frizz_risk":1,"updated_at":"2026-06-15T01:50:11.824333+05:30"},{"city":"Guwahati","state":"Assam","latitude":26.1158,"longitude":91.7086,"temp":25.0,"humidity":98,"rain":0.0,"pressure":997.3,"uv_index":8.7,"wind_gusts":24.8,"aqi":66,"pm10":22.6,"pm2_5":20.0,"no2":8.0,"co":321.0,"o3":70.0,"so2":3.4,"mosquito_risk":7,"arthritis_risk":5,"migraine_risk":7,"frizz_risk":1,"updated_at":"2026-06-15T01:50:11.824340+05:30"},{"city":"Agartala","state":"Tripura","latitude":23.8315,"longitude":91.2868,"temp":25.6,"humidity":94,"rain":0.0,"pressure":1002.1,"uv_index":8.15,"wind_gusts":32.4,"aqi":64,"pm10":29.5,"pm2_5":24.3,"no2":12.7,"co":243.0,"o3":61.0,"so2":2.1,"mosquito_risk":7,"arthritis_risk":5,"migraine_risk":4,"frizz_risk":1,"updated_at":"2026-06-15T01:50:11.824347+05:30"},{"city":"Shillong","state":"Meghalaya","latitude":25.5788,"longitude":91.8933,"temp":18.8,"humidity":95,"rain":0.1,"pressure":853.8,"uv_index":7.7,"wind_gusts":19.8,"aqi":43,"pm10":3.5,"pm2_5":2.8,"no2":4.1,"co":252.0,"o3":89.0,"so2":3.2,"mosquito_risk":6,"arthritis_risk":10,"migraine_risk":7,"frizz_risk":1,"updated_at":"2026-06-15T01:50:11.824354+05:30"},{"city":"Imphal","state":"Manipur","latitude":24.817,"longitude":93.9368,"temp":22.1,"humidity":98,"rain":0.0,"pressure":919.6,"uv_index":8.75,"wind_gusts":29.5,"aqi":67,"pm10":28.3,"pm2_5":25.8,"no2":13.0,"co":533.0,"o3":41.0,"so2":2.9,"mosquito_risk":3,"arthritis_risk":5,"migraine_risk":7,"frizz_risk":1,"updated_at":"2026-06-15T01:50:11.824362+05:30"},{"city":"Aizawl","state":"Mizoram","latitude":23.7271,"longitude":92.7176,"temp":19.2,"humidity":94,"rain":0.0,"pressure":889.0,"uv_index":8.75,"wind_gusts":25.2,"aqi":50,"pm10":13.0,"pm2_5":11.0,"no2":4.3,"co":172.0,"o3":41.0,"so2":0.8,"mosquito_risk":3,"arthritis_risk":10,"migraine_risk":7,"frizz_risk":1,"updated_at":"2026-06-15T01:50:11.824369+05:30"},{"city":"Kohima","state":"Nagaland","latitude":25.6701,"longitude":94.1077,"temp":19.8,"humidity":89,"rain":0.0,"pressure":852.5,"uv_index":8.85,"wind_gusts":24.1,"aqi":35,"pm10":7.9,"pm2_5":6.8,"no2":5.0,"co":268.0,"o3":46.0,"so2":0.9,"mosquito_risk":3,"arthritis_risk":10,"migraine_risk":7,"frizz_risk":1,"updated_at":"2026-06-15T01:50:11.824376+05:30"},{"city":"Gangtok","state":"Sikkim","latitude":27.3314,"longitude":88.6138,"temp":16.9,"humidity":91,"rain":0.2,"pressure":834.1,"uv_index":8.7,"wind_gusts":37.1,"aqi":48,"pm10":8.0,"pm2_5":6.8,"no2":7.5,"co":449.0,"o3":101.0,"so2":1.7,"mosquito_risk":6,"arthritis_risk":10,"migraine_risk":7,"frizz_risk":0,"updated_at":"2026-06-15T01:50:11.824382+05:30"},{"city":"Siliguri","state":"West Bengal","latitude":26.7271,"longitude":88.3953,"temp":23.8,"humidity":99,"rain":0.0,"pressure":988.7,"uv_index":8.65,"wind_gusts":20.9,"aqi":83,"pm10":22.8,"pm2_5":17.7,"no2":7.8,"co":452.0,"o3":112.0,"so2":3.8,"mosquito_risk":3,"arthritis_risk":5,"migraine_risk":7,"frizz_risk":1,"updated_at":"2026-06-15T01:50:15.188686+05:30"},{"city":"Durgapur","state":"West Bengal","latitude":23.5204,"longitude":87.3119,"temp":27.5,"humidity":88,"rain":0.0,"pressure":989.6,"uv_index":9.05,"wind_gusts":38.2,"aqi":170,"pm10":76.1,"pm2_5":72.4,"no2":40.3,"co":891.0,"o3":37.0,"so2":49.5,"mosquito_risk":7,"arthritis_risk":5,"migraine_risk":7,"frizz_risk":1,"updated_at":"2026-06-15T01:50:15.188717+05:30"},{"city":"Asansol","state":"West Bengal","latitude":23.6739,"longitude":86.9524,"temp":27.4,"humidity":82,"rain":0.0,"pressure":988.3,"uv_index":9.05,"wind_gusts":34.9,"aqi":167,"pm10":105.2,"pm2_5":94.8,"no2":44.3,"co":553.0,"o3":39.0,"so2":58.3,"mosquito_risk":7,"arthritis_risk":5,"migraine_risk":7,"frizz_risk":1,"updated_at":"2026-06-15T01:50:15.188728+05:30"},{"city":"Pondicherry","state":"Puducherry","latitude":11.9139,"longitude":79.8145,"temp":26.9,"humidity":85,"rain":0.0,"pressure":1006.1,"uv_index":8.1,"wind_gusts":37.8,"aqi":66,"pm10":32.4,"pm2_5":21.7,"no2":15.8,"co":279.0,"o3":57.0,"so2":13.3,"mosquito_risk":7,"arthritis_risk":5,"migraine_risk":4,"frizz_risk":1,"updated_at":"2026-06-15T01:50:15.188737+05:30"},{"city":"Port Blair","state":"Andaman and Nicobar Islands","latitude":11.6234,"longitude":92.7265,"temp":27.6,"humidity":81,"rain":0.0,"pressure":1005.8,"uv_index":5.35,"wind_gusts":48.2,"aqi":36,"pm10":12.7,"pm2_5":7.6,"no2":0.2,"co":86.0,"o3":42.0,"so2":0.4,"mosquito_risk":7,"arthritis_risk":5,"migraine_risk":0,"frizz_risk":1,"updated_at":"2026-06-15T01:50:15.188746+05:30"},{"city":"Haridwar","state":"Uttarakhand","latitude":29.9457,"longitude":78.1642,"temp":23.8,"humidity":84,"rain":0.0,"pressure":968.4,"uv_index":7.6,"wind_gusts":23.0,"aqi":109,"pm10":45.4,"pm2_5":40.7,"no2":36.6,"co":350.0,"o3":18.0,"so2":5.9,"mosquito_risk":3,"arthritis_risk":5,"migraine_risk":7,"frizz_risk":1,"updated_at":"2026-06-15T01:50:15.188754+05:30"},{"city":"Rishikesh","state":"Uttarakhand","latitude":30.0869,"longitude":78.2676,"temp":21.4,"humidity":88,"rain":0.0,"pressure":960.9,"uv_index":7.7,"wind_gusts":24.1,"aqi":75,"pm10":35.2,"pm2_5":24.8,"no2":20.6,"co":330.0,"o3":73.0,"so2":5.3,"mosquito_risk":3,"arthritis_risk":5,"migraine_risk":7,"frizz_risk":1,"updated_at":"2026-06-15T01:50:15.188762+05:30"},{"city":"Nainital","state":"Uttarakhand","latitude":29.3919,"longitude":79.4542,"temp":13.5,"humidity":85,"rain":0.0,"pressure":800.5,"uv_index":8.5,"wind_gusts":33.1,"aqi":100,"pm10":124.8,"pm2_5":49.4,"no2":17.9,"co":280.0,"o3":69.0,"so2":4.2,"mosquito_risk":3,"arthritis_risk":10,"migraine_risk":7,"frizz_risk":0,"updated_at":"2026-06-15T01:50:15.188770+05:30"},{"city":"Mussoorie","state":"Uttarakhand","latitude":30.4599,"longitude":78.0664,"temp":15.8,"humidity":70,"rain":0.0,"pressure":799.6,"uv_index":8.1,"wind_gusts":40.3,"aqi":68,"pm10":33.4,"pm2_5":24.4,"no2":33.0,"co":250.0,"o3":40.0,"so2":5.3,"mosquito_risk":3,"arthritis_risk":5,"migraine_risk":7,"frizz_risk":0,"updated_at":"2026-06-15T01:50:15.188778+05:30"},{"city":"Dharamshala","state":"Himachal Pradesh","latitude":32.219,"longitude":76.3234,"temp":20.8,"humidity":52,"rain":0.0,"pressure":865.1,"uv_index":8.5,"wind_gusts":36.0,"aqi":34,"pm10":12.1,"pm2_5":10.1,"no2":16.4,"co":180.0,"o3":24.0,"so2":0.0,"mosquito_risk":0,"arthritis_risk":5,"migraine_risk":7,"frizz_risk":0,"updated_at":"2026-06-15T01:50:15.188785+05:30"},{"city":"Dalhousie","state":"Himachal Pradesh","latitude":32.5387,"longitude":75.971,"temp":12.4,"humidity":83,"rain":0.0,"pressure":799.1,"uv_index":8.65,"wind_gusts":32.8,"aqi":59,"pm10":34.0,"pm2_5":23.7,"no2":35.8,"co":281.0,"o3":26.0,"so2":1.5,"mosquito_risk":3,"arthritis_risk":10,"migraine_risk":7,"frizz_risk":0,"updated_at":"2026-06-15T01:50:15.188794+05:30"},{"city":"Patiala","state":"Punjab","latitude":30.3398,"longitude":76.3869,"temp":26.8,"humidity":68,"rain":0.0,"pressure":972.1,"uv_index":7.7,"wind_gusts":19.1,"aqi":171,"pm10":233.8,"pm2_5":76.8,"no2":28.6,"co":504.0,"o3":55.0,"so2":9.5,"mosquito_risk":7,"arthritis_risk":5,"migraine_risk":7,"frizz_risk":1,"updated_at":"2026-06-15T01:50:15.188802+05:30"},{"city":"Bhatinda","state":"Punjab","latitude":30.211,"longitude":74.9455,"temp":28.4,"humidity":67,"rain":0.0,"pressure":977.3,"uv_index":8.35,"wind_gusts":28.4,"aqi":95,"pm10":56.3,"pm2_5":49.9,"no2":59.9,"co":544.0,"o3":29.0,"so2":9.4,"mosquito_risk":7,"arthritis_risk":5,"migraine_risk":7,"frizz_risk":1,"updated_at":"2026-06-15T01:50:15.188809+05:30"},{"city":"Rohtak","state":"Haryana","latitude":28.8955,"longitude":76.6066,"temp":27.7,"humidity":71,"rain":0.0,"pressure":975.9,"uv_index":7.8,"wind_gusts":44.3,"aqi":417,"pm10":411.6,"pm2_5":123.9,"no2":48.0,"co":631.0,"o3":17.0,"so2":11.8,"mosquito_risk":7,"arthritis_risk":5,"migraine_risk":7,"frizz_risk":1,"updated_at":"2026-06-15T01:50:15.188816+05:30"},{"city":"Panipat","state":"Haryana","latitude":29.3909,"longitude":76.9635,"temp":27.1,"humidity":72,"rain":0.0,"pressure":974.5,"uv_index":7.65,"wind_gusts":28.8,"aqi":640,"pm10":577.4,"pm2_5":138.3,"no2":41.9,"co":479.0,"o3":26.0,"so2":8.4,"mosquito_risk":7,"arthritis_risk":5,"migraine_risk":7,"frizz_risk":1,"updated_at":"2026-06-15T01:50:15.188823+05:30"},{"city":"Mathura","state":"Uttar Pradesh","latitude":27.4924,"longitude":77.6737,"temp":27.8,"humidity":59,"rain":0.0,"pressure":981.5,"uv_index":8.1,"wind_gusts":65.5,"aqi":278,"pm10":510.4,"pm2_5":88.5,"no2":18.5,"co":171.0,"o3":46.0,"so2":3.4,"mosquito_risk":4,"arthritis_risk":5,"migraine_risk":7,"frizz_risk":1,"updated_at":"2026-06-15T01:50:15.188830+05:30"},{"city":"Vrindavan","state":"Uttar Pradesh","latitude":27.5823,"longitude":77.7027,"temp":27.8,"humidity":58,"rain":0.0,"pressure":981.8,"uv_index":8.05,"wind_gusts":67.3,"aqi":278,"pm10":510.4,"pm2_5":88.5,"no2":18.5,"co":177.0,"o3":46.0,"so2":3.4,"mosquito_risk":4,"arthritis_risk":5,"migraine_risk":7,"frizz_risk":1,"updated_at":"2026-06-15T01:50:15.188837+05:30"},{"city":"Ayodhya","state":"Uttar Pradesh","latitude":26.7922,"longitude":82.1998,"temp":27.5,"humidity":82,"rain":0.0,"pressure":989.5,"uv_index":8.45,"wind_gusts":30.6,"aqi":151,"pm10":196.0,"pm2_5":83.6,"no2":28.9,"co":527.0,"o3":47.0,"so2":11.3,"mosquito_risk":7,"arthritis_risk":5,"migraine_risk":7,"frizz_risk":1,"updated_at":"2026-06-15T01:50:15.188845+05:30"},{"city":"Ratlam","state":"Madhya Pradesh","latitude":23.3315,"longitude":75.0367,"temp":28.1,"humidity":67,"rain":0.0,"pressure":952.3,"uv_index":8.5,"wind_gusts":43.9,"aqi":82,"pm10":44.8,"pm2_5":26.1,"no2":4.8,"co":178.0,"o3":67.0,"so2":8.0,"mosquito_risk":7,"arthritis_risk":5,"migraine_risk":7,"frizz_risk":1,"updated_at":"2026-06-15T01:50:15.188852+05:30"},{"city":"Sagar","state":"Madhya Pradesh","latitude":23.8388,"longitude":78.7378,"temp":27.4,"humidity":60,"rain":0.0,"pressure":946.6,"uv_index":8.5,"wind_gusts":46.8,"aqi":88,"pm10":49.0,"pm2_5":27.8,"no2":7.3,"co":177.0,"o3":65.0,"so2":3.1,"mosquito_risk":4,"arthritis_risk":5,"migraine_risk":7,"frizz_risk":1,"updated_at":"2026-06-15T01:50:15.188859+05:30"},{"city":"Satna","state":"Madhya Pradesh","latitude":24.6005,"longitude":80.8322,"temp":30.1,"humidity":51,"rain":0.0,"pressure":966.8,"uv_index":8.8,"wind_gusts":32.4,"aqi":107,"pm10":65.9,"pm2_5":34.7,"no2":17.8,"co":176.0,"o3":50.0,"so2":3.7,"mosquito_risk":0,"arthritis_risk":5,"migraine_risk":7,"frizz_risk":1,"updated_at":"2026-06-15T01:50:15.188866+05:30"},{"city":"Akola","state":"Maharashtra","latitude":20.7002,"longitude":77.0082,"temp":28.6,"humidity":59,"rain":0.0,"pressure":972.4,"uv_index":8.8,"wind_gusts":47.2,"aqi":76,"pm10":46.3,"pm2_5":26.0,"no2":9.6,"co":147.0,"o3":66.0,"so2":8.6,"mosquito_risk":4,"arthritis_risk":5,"migraine_risk":7,"frizz_risk":1,"updated_at":"2026-06-15T01:50:15.188874+05:30"},{"city":"Amravati","state":"Maharashtra","latitude":20.9374,"longitude":77.7796,"temp":28.8,"humidity":55,"rain":0.0,"pressure":964.4,"uv_index":8.8,"wind_gusts":40.3,"aqi":78,"pm10":54.7,"pm2_5":29.6,"no2":11.8,"co":192.0,"o3":63.0,"so2":6.9,"mosquito_risk":4,"arthritis_risk":5,"migraine_risk":7,"frizz_risk":1,"updated_at":"2026-06-15T01:50:15.188882+05:30"},{"city":"Latur","state":"Maharashtra","latitude":18.4088,"longitude":76.5604,"temp":27.0,"humidity":62,"rain":0.0,"pressure":938.1,"uv_index":8.9,"wind_gusts":46.4,"aqi":70,"pm10":32.7,"pm2_5":20.1,"no2":4.5,"co":154.0,"o3":72.0,"so2":5.4,"mosquito_risk":7,"arthritis_risk":5,"migraine_risk":7,"frizz_risk":1,"updated_at":"2026-06-15T01:50:15.188890+05:30"},{"city":"Nanded","state":"Maharashtra","latitude":19.1383,"longitude":77.3091,"temp":27.8,"humidity":60,"rain":0.0,"pressure":966.1,"uv_index":8.9,"wind_gusts":46.4,"aqi":76,"pm10":41.9,"pm2_5":24.8,"no2":9.2,"co":144.0,"o3":52.0,"so2":3.4,"mosquito_risk":4,"arthritis_risk":5,"migraine_risk":7,"frizz_risk":1,"updated_at":"2026-06-15T01:50:15.188897+05:30"},{"city":"Gulbarga","state":"Karnataka","latitude":17.3297,"longitude":76.8343,"temp":27.5,"humidity":67,"rain":0.0,"pressure":956.8,"uv_index":8.8,"wind_gusts":44.6,"aqi":64,"pm10":18.8,"pm2_5":12.3,"no2":4.8,"co":124.0,"o3":56.0,"so2":3.4,"mosquito_risk":7,"arthritis_risk":5,"migraine_risk":7,"frizz_risk":1,"updated_at":"2026-06-15T01:50:15.188904+05:30"},{"city":"Bidar","state":"Karnataka","latitude":17.9104,"longitude":77.5199,"temp":27.3,"humidity":52,"rain":0.0,"pressure":933.4,"uv_index":8.95,"wind_gusts":37.8,"aqi":84,"pm10":46.6,"pm2_5":26.1,"no2":12.4,"co":161.0,"o3":57.0,"so2":5.0,"mosquito_risk":4,"arthritis_risk":5,"migraine_risk":7,"frizz_risk":1,"updated_at":"2026-06-15T01:50:15.188911+05:30"},{"city":"Hospet","state":"Karnataka","latitude":15.2689,"longitude":76.3909,"temp":24.7,"humidity":83,"rain":0.0,"pressure":955.1,"uv_index":9.0,"wind_gusts":44.6,"aqi":51,"pm10":16.6,"pm2_5":9.4,"no2":5.1,"co":135.0,"o3":43.0,"so2":1.8,"mosquito_risk":3,"arthritis_risk":5,"migraine_risk":7,"frizz_risk":1,"updated_at":"2026-06-15T01:50:15.188918+05:30"},{"city":"Tirupur","state":"Tamil Nadu","latitude":11.1085,"longitude":77.3411,"temp":24.4,"humidity":89,"rain":0.0,"pressure":974.5,"uv_index":8.95,"wind_gusts":55.1,"aqi":46,"pm10":16.8,"pm2_5":13.3,"no2":13.7,"co":155.0,"o3":30.0,"so2":4.4,"mosquito_risk":3,"arthritis_risk":5,"migraine_risk":7,"frizz_risk":1,"updated_at":"2026-06-15T01:50:15.188925+05:30"},{"city":"Alappuzha","state":"Kerala","latitude":9.4981,"longitude":76.3388,"temp":26.2,"humidity":94,"rain":0.1,"pressure":1009.0,"uv_index":8.05,"wind_gusts":34.9,"aqi":45,"pm10":22.9,"pm2_5":14.6,"no2":10.4,"co":94.0,"o3":41.0,"so2":4.0,"mosquito_risk":10,"arthritis_risk":0,"migraine_risk":4,"frizz_risk":1,"updated_at":"2026-06-15T01:50:15.188932+05:30"},{"city":"Munnar","state":"Kerala","latitude":10.0889,"longitude":77.0595,"temp":16.4,"humidity":88,"rain":0.0,"pressure":855.7,"uv_index":9.0,"wind_gusts":30.6,"aqi":31,"pm10":11.5,"pm2_5":8.4,"no2":6.9,"co":102.0,"o3":28.0,"so2":1.5,"mosquito_risk":3,"arthritis_risk":10,"migraine_risk":7,"frizz_risk":0,"updated_at":"2026-06-15T01:50:15.188940+05:30"},{"city":"Silchar","state":"Assam","latitude":24.8333,"longitude":92.7789,"temp":25.2,"humidity":97,"rain":0.1,"pressure":1001.5,"uv_index":8.95,"wind_gusts":28.8,"aqi":65,"pm10":22.1,"pm2_5":18.2,"no2":7.1,"co":256.0,"o3":81.0,"so2":3.2,"mosquito_risk":10,"arthritis_risk":5,"migraine_risk":4,"frizz_risk":1,"updated_at":"2026-06-15T01:50:15.188947+05:30"},{"city":"Dibrugarh","state":"Assam","latitude":27.4728,"longitude":94.912,"temp":24.6,"humidity":97,"rain":0.1,"pressure":991.6,"uv_index":7.5,"wind_gusts":21.6,"aqi":61,"pm10":14.6,"pm2_5":13.7,"no2":7.8,"co":237.0,"o3":76.0,"so2":1.2,"mosquito_risk":6,"arthritis_risk":5,"migraine_risk":7,"frizz_risk":1,"updated_at":"2026-06-15T01:50:15.188954+05:30"}]