[{"city":"Delhi","state":"Delhi","latitude":28.6139,"longitude":77.209,"temp":42.2,"humidity":13,"rain":0.0,"pressure":982.4,"uv_index":7.25,"wind_gusts":50.4,"aqi":343,"pm10":257.0,"pm2_5":46.9,"mosquito_risk":0,"arthritis_risk":5,"migraine_risk":10,"frizz_risk":0,"updated_at":"2026-04-25T12:52:13.067483+05:30"},{"city":"Mumbai","state":"Maharashtra","latitude":19.076,"longitude":72.8777,"temp":38.1,"humidity":40,"rain":0.0,"pressure":1006.8,"uv_index":8.0,"wind_gusts":44.6,"aqi":79,"pm10":44.6,"pm2_5":32.9,"mosquito_risk":0,"arthritis_risk":5,"migraine_risk":7,"frizz_risk":1,"updated_at":"2026-04-25T12:52:13.067534+05:30"},{"city":"Bangalore","state":"Karnataka","latitude":12.9716,"longitude":77.5946,"temp":34.7,"humidity":21,"rain":0.0,"pressure":913.6,"uv_index":9.5,"wind_gusts":37.1,"aqi":73,"pm10":34.5,"pm2_5":25.7,"mosquito_risk":0,"arthritis_risk":5,"migraine_risk":7,"frizz_risk":0,"updated_at":"2026-04-25T12:52:13.067550+05:30"},{"city":"Hyderabad","state":"Telangana","latitude":17.385,"longitude":78.4867,"temp":37.6,"humidity":20,"rain":0.0,"pressure":954.4,"uv_index":9.3,"wind_gusts":31.7,"aqi":123,"pm10":49.7,"pm2_5":41.4,"mosquito_risk":0,"arthritis_risk":5,"migraine_risk":10,"frizz_risk":0,"updated_at":"2026-04-25T12:52:13.067561+05:30"},{"city":"Chennai","state":"Tamil Nadu","latitude":13.0827,"longitude":80.2707,"temp":35.0,"humidity":53,"rain":0.0,"pressure":1007.0,"uv_index":9.3,"wind_gusts":51.1,"aqi":30,"pm10":13.2,"pm2_5":9.0,"mosquito_risk":0,"arthritis_risk":5,"migraine_risk":4,"frizz_risk":1,"updated_at":"2026-04-25T12:52:13.067571+05:30"},{"city":"Kolkata","state":"West Bengal","latitude":22.5726,"longitude":88.3639,"temp":38.8,"humidity":41,"rain":0.0,"pressure":1004.9,"uv_index":8.45,"wind_gusts":43.9,"aqi":80,"pm10":44.6,"pm2_5":34.6,"mosquito_risk":0,"arthritis_risk":5,"migraine_risk":7,"frizz_risk":1,"updated_at":"2026-04-25T12:52:13.067584+05:30"},{"city":"Pune","state":"Maharashtra","latitude":18.5204,"longitude":73.8567,"temp":39.8,"humidity":12,"rain":0.0,"pressure":948.9,"uv_index":8.45,"wind_gusts":37.8,"aqi":99,"pm10":32.0,"pm2_5":25.1,"mosquito_risk":0,"arthritis_risk":5,"migraine_risk":10,"frizz_risk":0,"updated_at":"2026-04-25T12:52:13.067592+05:30"},{"city":"Ahmedabad","state":"Gujarat","latitude":23.0225,"longitude":72.5714,"temp":40.7,"humidity":21,"rain":0.0,"pressure":1001.8,"uv_index":8.2,"wind_gusts":24.1,"aqi":62,"pm10":71.5,"pm2_5":20.5,"mosquito_risk":0,"arthritis_risk":5,"migraine_risk":7,"frizz_risk":0,"updated_at":"2026-04-25T12:52:13.067601+05:30"},{"city":"Jaipur","state":"Rajasthan","latitude":26.9124,"longitude":75.7873,"temp":41.8,"humidity":12,"rain":0.0,"pressure":960.9,"uv_index":8.05,"wind_gusts":31.0,"aqi":126,"pm10":156.0,"pm2_5":31.1,"mosquito_risk":0,"arthritis_risk":5,"migraine_risk":10,"frizz_risk":0,"updated_at":"2026-04-25T12:52:13.067609+05:30"},{"city":"Lucknow","state":"Uttar Pradesh","latitude":26.8467,"longitude":80.9462,"temp":43.8,"humidity":11,"rain":0.0,"pressure":991.0,"uv_index":7.9,"wind_gusts":43.6,"aqi":129,"pm10":184.9,"pm2_5":40.2,"mosquito_risk":0,"arthritis_risk":5,"migraine_risk":10,"frizz_risk":0,"updated_at":"2026-04-25T12:52:13.067617+05:30"},{"city":"Kanpur","state":"Uttar Pradesh","latitude":26.4499,"longitude":80.3319,"temp":43.9,"humidity":11,"rain":0.0,"pressure":989.6,"uv_index":7.95,"wind_gusts":45.4,"aqi":143,"pm10":309.2,"pm2_5":42.0,"mosquito_risk":0,"arthritis_risk":5,"migraine_risk":10,"frizz_risk":0,"updated_at":"2026-04-25T12:52:13.067625+05:30"},{"city":"Chandigarh","state":"Chandigarh","latitude":30.7333,"longitude":76.7794,"temp":38.0,"humidity":21,"rain":0.0,"pressure":969.6,"uv_index":7.25,"wind_gusts":58.3,"aqi":66,"pm10":61.7,"pm2_5":17.3,"mosquito_risk":0,"arthritis_risk":5,"migraine_risk":10,"frizz_risk":0,"updated_at":"2026-04-25T12:52:13.067632+05:30"},{"city":"Srinagar","state":"Jammu and Kashmir","latitude":34.0837,"longitude":74.7973,"temp":18.6,"humidity":61,"rain":0.0,"pressure":847.8,"uv_index":8.6,"wind_gusts":36.7,"aqi":71,"pm10":54.7,"pm2_5":14.5,"mosquito_risk":3,"arthritis_risk":5,"migraine_risk":7,"frizz_risk":0,"updated_at":"2026-04-25T12:52:13.067641+05:30"},{"city":"Jammu","state":"Jammu and Kashmir","latitude":32.7266,"longitude":74.857,"temp":36.2,"humidity":20,"rain":0.0,"pressure":974.6,"uv_index":8.2,"wind_gusts":27.7,"aqi":78,"pm10":89.2,"pm2_5":20.7,"mosquito_risk":0,"arthritis_risk":5,"migraine_risk":10,"frizz_risk":0,"updated_at":"2026-04-25T12:52:13.067648+05:30"},{"city":"Amritsar","state":"Punjab","latitude":31.634,"longitude":74.8723,"temp":38.5,"humidity":19,"rain":0.0,"pressure":981.6,"uv_index":8.1,"wind_gusts":33.5,"aqi":85,"pm10":128.1,"pm2_5":30.4,"mosquito_risk":0,"arthritis_risk":5,"migraine_risk":10,"frizz_risk":0,"updated_at":"2026-04-25T12:52:13.067658+05:30"},{"city":"Ludhiana","state":"Punjab","latitude":30.901,"longitude":75.8573,"temp":39.2,"humidity":17,"rain":0.0,"pressure":979.6,"uv_index":7.7,"wind_gusts":48.6,"aqi":77,"pm10":90.3,"pm2_5":23.5,"mosquito_risk":0,"arthritis_risk":5,"migraine_risk":10,"frizz_risk":0,"updated_at":"2026-04-25T12:52:13.067667+05:30"},{"city":"Jalandhar","state":"Punjab","latitude":31.326,"longitude":75.5762,"temp":37.5,"humidity":23,"rain":0.0,"pressure":980.6,"uv_index":7.85,"wind_gusts":38.5,"aqi":87,"pm10":115.9,"pm2_5":27.4,"mosquito_risk":0,"arthritis_risk":5,"migraine_risk":10,"frizz_risk":0,"updated_at":"2026-04-25T12:52:13.067674+05:30"},{"city":"Dehradun","state":"Uttarakhand","latitude":30.6284,"longitude":78.0322,"temp":25.9,"humidity":31,"rain":0.0,"pressure":835.2,"uv_index":7.85,"wind_gusts":52.9,"aqi":54,"pm10":41.0,"pm2_5":11.1,"mosquito_risk":4,"arthritis_risk":5,"migraine_risk":7,"frizz_risk":0,"updated_at":"2026-04-25T12:52:13.067682+05:30"},{"city":"Shimla","state":"Himachal Pradesh","latitude":31.1048,"longitude":77.1734,"temp":24.6,"humidity":23,"rain":0.0,"pressure":791.0,"uv_index":7.45,"wind_gusts":55.8,"aqi":56,"pm10":44.6,"pm2_5":11.4,"mosquito_risk":0,"arthritis_risk":5,"migraine_risk":7,"frizz_risk":0,"updated_at":"2026-04-25T12:52:13.067689+05:30"},{"city":"Manali","state":"Himachal Pradesh","latitude":32.2396,"longitude":77.1887,"temp":21.5,"humidity":38,"rain":0.0,"pressure":823.0,"uv_index":9.85,"wind_gusts":43.9,"aqi":83,"pm10":35.3,"pm2_5":9.2,"mosquito_risk":0,"arthritis_risk":5,"migraine_risk":7,"frizz_risk":0,"updated_at":"2026-04-25T12:52:13.067696+05:30"},{"city":"Gurgaon","state":"Haryana","latitude":28.4595,"longitude":77.0266,"temp":40.8,"humidity":15,"rain":0.0,"pressure":981.4,"uv_index":7.45,"wind_gusts":51.1,"aqi":865,"pm10":746.9,"pm2_5":88.5,"mosquito_risk":0,"arthritis_risk":5,"migraine_risk":10,"frizz_risk":0,"updated_at":"2026-04-25T12:52:13.067703+05:30"},{"city":"Noida","state":"Uttar Pradesh","latitude":28.5355,"longitude":77.391,"temp":41.8,"humidity":15,"rain":0.0,"pressure":983.6,"uv_index":7.3,"wind_gusts":43.9,"aqi":865,"pm10":746.9,"pm2_5":88.5,"mosquito_risk":0,"arthritis_risk":5,"migraine_risk":10,"frizz_risk":0,"updated_at":"2026-04-25T12:52:13.067709+05:30"},{"city":"Ghaziabad","state":"Uttar Pradesh","latitude":28.6692,"longitude":77.4538,"temp":41.8,"humidity":14,"rain":0.0,"pressure":982.0,"uv_index":7.25,"wind_gusts":50.8,"aqi":174,"pm10":196.5,"pm2_5":39.2,"mosquito_risk":0,"arthritis_risk":5,"migraine_risk":10,"frizz_risk":0,"updated_at":"2026-04-25T12:52:13.067715+05:30"},{"city":"Faridabad","state":"Haryana","latitude":28.4089,"longitude":77.3178,"temp":41.6,"humidity":13,"rain":0.0,"pressure":982.9,"uv_index":7.35,"wind_gusts":52.6,"aqi":865,"pm10":746.9,"pm2_5":88.5,"mosquito_risk":0,"arthritis_risk":5,"migraine_risk":10,"frizz_risk":0,"updated_at":"2026-04-25T12:52:13.067722+05:30"},{"city":"Meerut","state":"Uttar Pradesh","latitude":28.9845,"longitude":77.7064,"temp":39.5,"humidity":22,"rain":0.0,"pressure":980.9,"uv_index":7.35,"wind_gusts":55.4,"aqi":174,"pm10":196.5,"pm2_5":39.2,"mosquito_risk":0,"arthritis_risk":5,"migraine_risk":10,"frizz_risk":0,"updated_at":"2026-04-25T12:52:13.067728+05:30"},{"city":"Agra","state":"Uttar Pradesh","latitude":27.1767,"longitude":78.0081,"temp":42.2,"humidity":14,"rain":0.0,"pressure":987.0,"uv_index":7.8,"wind_gusts":45.0,"aqi":264,"pm10":464.7,"pm2_5":61.7,"mosquito_risk":0,"arthritis_risk":5,"migraine_risk":10,"frizz_risk":0,"updated_at":"2026-04-25T12:52:13.067737+05:30"},{"city":"Varanasi","state":"Uttar Pradesh","latitude":25.3176,"longitude":82.9739,"temp":43.4,"humidity":11,"rain":0.0,"pressure":995.4,"uv_index":8.5,"wind_gusts":41.0,"aqi":124,"pm10":176.0,"pm2_5":36.7,"mosquito_risk":0,"arthritis_risk":5,"migraine_risk":10,"frizz_risk":0,"updated_at":"2026-04-25T12:52:13.067744+05:30"},{"city":"Prayagraj","state":"Uttar Pradesh","latitude":25.4358,"longitude":81.8463,"temp":42.5,"humidity":12,"rain":0.0,"pressure":994.3,"uv_index":8.4,"wind_gusts":29.5,"aqi":92,"pm10":191.4,"pm2_5":39.9,"mosquito_risk":0,"arthritis_risk":5,"migraine_risk":10,"frizz_risk":0,"updated_at":"2026-04-25T12:52:13.067751+05:30"},{"city":"Gorakhpur","state":"Uttar Pradesh","latitude":26.7606,"longitude":83.3732,"temp":39.7,"humidity":23,"rain":0.0,"pressure":996.4,"uv_index":8.35,"wind_gusts":41.4,"aqi":154,"pm10":138.3,"pm2_5":56.6,"mosquito_risk":0,"arthritis_risk":5,"migraine_risk":10,"frizz_risk":0,"updated_at":"2026-04-25T12:52:13.067757+05:30"},{"city":"Bareilly","state":"Uttar Pradesh","latitude":28.367,"longitude":79.4304,"temp":40.7,"humidity":18,"rain":0.0,"pressure":985.1,"uv_index":7.7,"wind_gusts":48.2,"aqi":114,"pm10":83.6,"pm2_5":32.0,"mosquito_risk":0,"arthritis_risk":5,"migraine_risk":10,"frizz_risk":0,"updated_at":"2026-04-25T12:52:13.067765+05:30"},{"city":"Aligarh","state":"Uttar Pradesh","latitude":27.8974,"longitude":78.088,"temp":42.1,"humidity":14,"rain":0.0,"pressure":984.6,"uv_index":7.6,"wind_gusts":47.9,"aqi":332,"pm10":321.3,"pm2_5":47.8,"mosquito_risk":0,"arthritis_risk":5,"migraine_risk":10,"frizz_risk":0,"updated_at":"2026-04-25T12:52:13.067772+05:30"},{"city":"Moradabad","state":"Uttar Pradesh","latitude":28.8386,"longitude":78.7733,"temp":39.8,"humidity":21,"rain":0.0,"pressure":982.6,"uv_index":7.5,"wind_gusts":49.3,"aqi":156,"pm10":69.4,"pm2_5":46.2,"mosquito_risk":0,"arthritis_risk":5,"migraine_risk":10,"frizz_risk":0,"updated_at":"2026-04-25T12:52:13.067781+05:30"},{"city":"Saharanpur","state":"Uttar Pradesh","latitude":29.9637,"longitude":77.546,"temp":36.9,"humidity":25,"rain":0.0,"pressure":976.2,"uv_index":7.1,"wind_gusts":53.6,"aqi":100,"pm10":84.8,"pm2_5":23.9,"mosquito_risk":0,"arthritis_risk":5,"migraine_risk":10,"frizz_risk":0,"updated_at":"2026-04-25T12:52:13.067787+05:30"},{"city":"Jhansi","state":"Uttar Pradesh","latitude":25.4484,"longitude":78.5685,"temp":43.2,"humidity":11,"rain":0.0,"pressure":977.4,"uv_index":8.3,"wind_gusts":29.5,"aqi":57,"pm10":94.3,"pm2_5":21.4,"mosquito_risk":0,"arthritis_risk":5,"migraine_risk":10,"frizz_risk":0,"updated_at":"2026-04-25T12:52:16.304488+05:30"},{"city":"Surat","state":"Gujarat","latitude":21.1702,"longitude":72.8311,"temp":42.2,"humidity":18,"rain":0.0,"pressure":1005.7,"uv_index":7.85,"wind_gusts":36.7,"aqi":100,"pm10":74.5,"pm2_5":46.1,"mosquito_risk":0,"arthritis_risk":5,"migraine_risk":7,"frizz_risk":0,"updated_at":"2026-04-25T12:52:16.304523+05:30"},{"city":"Vadodara","state":"Gujarat","latitude":22.3072,"longitude":73.1812,"temp":41.3,"humidity":20,"rain":0.0,"pressure":1003.7,"uv_index":8.15,"wind_gusts":25.2,"aqi":82,"pm10":71.2,"pm2_5":26.6,"mosquito_risk":0,"arthritis_risk":5,"migraine_risk":7,"frizz_risk":0,"updated_at":"2026-04-25T12:52:16.304534+05:30"},{"city":"Rajkot","state":"Gujarat","latitude":22.3039,"longitude":70.8022,"temp":40.0,"humidity":18,"rain":0.0,"pressure":994.7,"uv_index":7.9,"wind_gusts":33.1,"aqi":48,"pm10":62.9,"pm2_5":17.3,"mosquito_risk":0,"arthritis_risk":5,"migraine_risk":10,"frizz_risk":0,"updated_at":"2026-04-25T12:52:16.304541+05:30"},{"city":"Thane","state":"Maharashtra","latitude":19.2183,"longitude":72.9781,"temp":43.3,"humidity":12,"rain":0.0,"pressure":1005.9,"uv_index":8.0,"wind_gusts":47.5,"aqi":79,"pm10":44.6,"pm2_5":32.9,"mosquito_risk":0,"arthritis_risk":5,"migraine_risk":7,"frizz_risk":0,"updated_at":"2026-04-25T12:52:16.304548+05:30"},{"city":"Nagpur","state":"Maharashtra","latitude":21.1458,"longitude":79.0882,"temp":42.9,"humidity":10,"rain":0.0,"pressure":973.2,"uv_index":8.9,"wind_gusts":29.9,"aqi":97,"pm10":32.4,"pm2_5":24.2,"mosquito_risk":0,"arthritis_risk":5,"migraine_risk":10,"frizz_risk":0,"updated_at":"2026-04-25T12:52:16.304556+05:30"},{"city":"Nashik","state":"Maharashtra","latitude":19.9975,"longitude":73.7898,"temp":40.0,"humidity":13,"rain":0.0,"pressure":946.6,"uv_index":8.25,"wind_gusts":31.7,"aqi":78,"pm10":27.6,"pm2_5":17.3,"mosquito_risk":0,"arthritis_risk":5,"migraine_risk":10,"frizz_risk":0,"updated_at":"2026-04-25T12:52:16.304563+05:30"},{"city":"Aurangabad","state":"Maharashtra","latitude":19.8762,"longitude":75.3433,"temp":40.5,"humidity":12,"rain":0.0,"pressure":945.6,"uv_index":8.75,"wind_gusts":29.5,"aqi":81,"pm10":32.7,"pm2_5":19.7,"mosquito_risk":0,"arthritis_risk":5,"migraine_risk":10,"frizz_risk":0,"updated_at":"2026-04-25T12:52:16.304569+05:30"},{"city":"Solapur","state":"Maharashtra","latitude":17.6599,"longitude":75.9064,"temp":40.2,"humidity":16,"rain":0.0,"pressure":957.6,"uv_index":8.65,"wind_gusts":24.8,"aqi":116,"pm10":46.3,"pm2_5":38.0,"mosquito_risk":0,"arthritis_risk":5,"migraine_risk":10,"frizz_risk":0,"updated_at":"2026-04-25T12:52:16.304577+05:30"},{"city":"Kolhapur","state":"Maharashtra","latitude":16.705,"longitude":74.2433,"temp":38.5,"humidity":19,"rain":0.0,"pressure":948.8,"uv_index":9.05,"wind_gusts":34.2,"aqi":150,"pm10":48.9,"pm2_5":40.0,"mosquito_risk":0,"arthritis_risk":5,"migraine_risk":10,"frizz_risk":0,"updated_at":"2026-04-25T12:52:16.304584+05:30"},{"city":"Goa","state":"Goa","latitude":15.2993,"longitude":74.124,"temp":39.0,"humidity":41,"rain":0.0,"pressure":996.6,"uv_index":8.95,"wind_gusts":32.0,"aqi":76,"pm10":29.0,"pm2_5":23.1,"mosquito_risk":0,"arthritis_risk":5,"migraine_risk":10,"frizz_risk":1,"updated_at":"2026-04-25T12:52:16.304590+05:30"},{"city":"Jodhpur","state":"Rajasthan","latitude":26.2389,"longitude":73.0243,"temp":42.5,"humidity":12,"rain":0.0,"pressure":983.4,"uv_index":8.3,"wind_gusts":27.4,"aqi":102,"pm10":207.7,"pm2_5":39.3,"mosquito_risk":0,"arthritis_risk":5,"migraine_risk":10,"frizz_risk":0,"updated_at":"2026-04-25T12:52:16.304597+05:30"},{"city":"Udaipur","state":"Rajasthan","latitude":24.5854,"longitude":73.7125,"temp":39.3,"humidity":15,"rain":0.0,"pressure":948.3,"uv_index":8.8,"wind_gusts":42.5,"aqi":56,"pm10":63.8,"pm2_5":16.1,"mosquito_risk":0,"arthritis_risk":5,"migraine_risk":10,"frizz_risk":0,"updated_at":"2026-04-25T12:52:16.304604+05:30"},{"city":"Kota","state":"Rajasthan","latitude":25.2138,"longitude":75.8648,"temp":42.5,"humidity":13,"rain":0.0,"pressure":978.8,"uv_index":8.3,"wind_gusts":32.8,"aqi":69,"pm10":131.8,"pm2_5":31.1,"mosquito_risk":0,"arthritis_risk":5,"migraine_risk":10,"frizz_risk":0,"updated_at":"2026-04-25T12:52:16.304610+05:30"},{"city":"Bikaner","state":"Rajasthan","latitude":28.0229,"longitude":73.3119,"temp":42.4,"humidity":12,"rain":0.0,"pressure":982.2,"uv_index":8.15,"wind_gusts":33.8,"aqi":68,"pm10":104.5,"pm2_5":26.3,"mosquito_risk":0,"arthritis_risk":5,"migraine_risk":10,"frizz_risk":0,"updated_at":"2026-04-25T12:52:16.304617+05:30"},{"city":"Ajmer","state":"Rajasthan","latitude":26.4499,"longitude":74.6399,"temp":40.4,"humidity":13,"rain":0.0,"pressure":956.5,"uv_index":8.25,"wind_gusts":33.5,"aqi":72,"pm10":143.9,"pm2_5":28.4,"mosquito_risk":0,"arthritis_risk":5,"migraine_risk":10,"frizz_risk":0,"updated_at":"2026-04-25T12:52:16.304623+05:30"},{"city":"Gwalior","state":"Madhya Pradesh","latitude":26.2183,"longitude":78.1828,"temp":42.8,"humidity":11,"rain":0.0,"pressure":982.5,"uv_index":8.05,"wind_gusts":39.6,"aqi":82,"pm10":243.1,"pm2_5":42.8,"mosquito_risk":0,"arthritis_risk":5,"migraine_risk":10,"frizz_risk":0,"updated_at":"2026-04-25T12:52:16.304629+05:30"},{"city":"Indore","state":"Madhya Pradesh","latitude":22.7196,"longitude":75.8577,"temp":41.0,"humidity":10,"rain":0.0,"pressure":949.4,"uv_index":8.65,"wind_gusts":32.4,"aqi":53,"pm10":33.9,"pm2_5":11.7,"mosquito_risk":0,"arthritis_risk":5,"migraine_risk":10,"frizz_risk":0,"updated_at":"2026-04-25T12:52:16.304635+05:30"},{"city":"Bhopal","state":"Madhya Pradesh","latitude":23.2599,"longitude":77.4126,"temp":41.7,"humidity":9,"rain":0.0,"pressure":954.6,"uv_index":8.65,"wind_gusts":30.6,"aqi":55,"pm10":27.5,"pm2_5":9.6,"mosquito_risk":0,"arthritis_risk":5,"migraine_risk":10,"frizz_risk":0,"updated_at":"2026-04-25T12:52:16.304642+05:30"},{"city":"Jabalpur","state":"Madhya Pradesh","latitude":23.1815,"longitude":79.9864,"temp":41.7,"humidity":10,"rain":0.0,"pressure":962.1,"uv_index":8.75,"wind_gusts":32.0,"aqi":56,"pm10":16.6,"pm2_5":8.8,"mosquito_risk":0,"arthritis_risk":5,"migraine_risk":10,"frizz_risk":0,"updated_at":"2026-04-25T12:52:16.304648+05:30"},{"city":"Ujjain","state":"Madhya Pradesh","latitude":23.1765,"longitude":75.7885,"temp":41.0,"humidity":12,"rain":0.0,"pressure":954.9,"uv_index":8.55,"wind_gusts":29.2,"aqi":55,"pm10":48.8,"pm2_5":14.2,"mosquito_risk":0,"arthritis_risk":5,"migraine_risk":10,"frizz_risk":0,"updated_at":"2026-04-25T12:52:16.304655+05:30"},{"city":"Visakhapatnam","state":"Andhra Pradesh","latitude":17.6868,"longitude":83.2185,"temp":34.6,"humidity":52,"rain":0.0,"pressure":1003.6,"uv_index":8.7,"wind_gusts":44.3,"aqi":61,"pm10":21.5,"pm2_5":16.6,"mosquito_risk":0,"arthritis_risk":5,"migraine_risk":4,"frizz_risk":1,"updated_at":"2026-04-25T12:52:16.304662+05:30"},{"city":"Vijayawada","state":"Andhra Pradesh","latitude":16.5062,"longitude":80.648,"temp":39.2,"humidity":35,"rain":0.0,"pressure":1002.1,"uv_index":8.65,"wind_gusts":34.2,"aqi":52,"pm10":18.8,"pm2_5":13.5,"mosquito_risk":0,"arthritis_risk":5,"migraine_risk":7,"frizz_risk":1,"updated_at":"2026-04-25T12:52:16.304668+05:30"},{"city":"Guntur","state":"Andhra Pradesh","latitude":16.3067,"longitude":80.4365,"temp":38.6,"humidity":35,"rain":0.0,"pressure":1003.4,"uv_index":8.7,"wind_gusts":40.0,"aqi":55,"pm10":21.3,"pm2_5":15.8,"mosquito_risk":0,"arthritis_risk":5,"migraine_risk":7,"frizz_risk":1,"updated_at":"2026-04-25T12:52:16.304675+05:30"},{"city":"Nellore","state":"Andhra Pradesh","latitude":14.4426,"longitude":79.9865,"temp":39.5,"humidity":31,"rain":0.0,"pressure":1005.0,"uv_index":9.2,"wind_gusts":42.1,"aqi":41,"pm10":20.7,"pm2_5":15.2,"mosquito_risk":0,"arthritis_risk":5,"migraine_risk":7,"frizz_risk":1,"updated_at":"2026-04-25T12:52:16.304682+05:30"},{"city":"Kurnool","state":"Andhra Pradesh","latitude":15.8281,"longitude":78.0373,"temp":41.5,"humidity":15,"rain":0.0,"pressure":976.6,"uv_index":8.9,"wind_gusts":32.8,"aqi":81,"pm10":37.1,"pm2_5":30.3,"mosquito_risk":0,"arthritis_risk":5,"migraine_risk":10,"frizz_risk":0,"updated_at":"2026-04-25T12:52:16.304689+05:30"},{"city":"Kakinada","state":"Andhra Pradesh","latitude":16.9891,"longitude":82.2475,"temp":39.3,"humidity":33,"rain":0.0,"pressure":1006.6,"uv_index":8.45,"wind_gusts":39.6,"aqi":41,"pm10":15.3,"pm2_5":10.0,"mosquito_risk":0,"arthritis_risk":5,"migraine_risk":7,"frizz_risk":1,"updated_at":"2026-04-25T12:52:16.304695+05:30"},{"city":"Tirupati","state":"Andhra Pradesh","latitude":13.6288,"longitude":79.4192,"temp":39.2,"humidity":23,"rain":0.0,"pressure":990.8,"uv_index":9.35,"wind_gusts":37.4,"aqi":57,"pm10":22.1,"pm2_5":17.2,"mosquito_risk":0,"arthritis_risk":5,"migraine_risk":10,"frizz_risk":0,"updated_at":"2026-04-25T12:52:16.304701+05:30"},{"city":"Warangal","state":"Telangana","latitude":17.9689,"longitude":79.5941,"temp":39.2,"humidity":27,"rain":0.0,"pressure":979.4,"uv_index":8.9,"wind_gusts":28.1,"aqi":109,"pm10":41.0,"pm2_5":33.9,"mosquito_risk":0,"arthritis_risk":5,"migraine_risk":10,"frizz_risk":1,"updated_at":"2026-04-25T12:52:16.304707+05:30"},{"city":"Nizamabad","state":"Telangana","latitude":18.6725,"longitude":78.0941,"temp":40.0,"humidity":16,"rain":0.0,"pressure":965.5,"uv_index":9.05,"wind_gusts":27.7,"aqi":118,"pm10":31.9,"pm2_5":22.8,"mosquito_risk":0,"arthritis_risk":5,"migraine_risk":10,"frizz_risk":0,"updated_at":"2026-04-25T12:52:16.304714+05:30"},{"city":"Mysore","state":"Karnataka","latitude":12.2958,"longitude":76.6396,"temp":33.7,"humidity":29,"rain":0.0,"pressure":929.5,"uv_index":8.85,"wind_gusts":44.6,"aqi":88,"pm10":25.1,"pm2_5":19.8,"mosquito_risk":0,"arthritis_risk":5,"migraine_risk":7,"frizz_risk":0,"updated_at":"2026-04-25T12:52:16.304720+05:30"},{"city":"Mangalore","state":"Karnataka","latitude":12.9141,"longitude":74.856,"temp":33.4,"humidity":66,"rain":0.0,"pressure":1005.7,"uv_index":9.1,"wind_gusts":41.4,"aqi":64,"pm10":27.8,"pm2_5":22.6,"mosquito_risk":3,"arthritis_risk":5,"migraine_risk":4,"frizz_risk":1,"updated_at":"2026-04-25T12:52:16.304726+05:30"},{"city":"Hubli-Dharwad","state":"Karnataka","latitude":15.3647,"longitude":75.124,"temp":37.4,"humidity":22,"rain":0.0,"pressure":941.9,"uv_index":9.1,"wind_gusts":37.8,"aqi":101,"pm10":39.1,"pm2_5":31.4,"mosquito_risk":0,"arthritis_risk":5,"migraine_risk":10,"frizz_risk":0,"updated_at":"2026-04-25T12:52:16.304732+05:30"},{"city":"Belgaum","state":"Karnataka","latitude":15.8497,"longitude":74.4977,"temp":36.8,"humidity":20,"rain":0.0,"pressure":927.1,"uv_index":9.15,"wind_gusts":37.1,"aqi":110,"pm10":49.1,"pm2_5":39.3,"mosquito_risk":0,"arthritis_risk":5,"migraine_risk":10,"frizz_risk":0,"updated_at":"2026-04-25T12:52:19.529405+05:30"},{"city":"Coimbatore","state":"Tamil Nadu","latitude":11.0168,"longitude":76.9558,"temp":37.3,"humidity":25,"rain":0.0,"pressure":961.7,"uv_index":8.9,"wind_gusts":46.4,"aqi":74,"pm10":18.3,"pm2_5":14.0,"mosquito_risk":0,"arthritis_risk":5,"migraine_risk":10,"frizz_risk":0,"updated_at":"2026-04-25T12:52:19.529439+05:30"},{"city":"Madurai","state":"Tamil Nadu","latitude":9.9252,"longitude":78.1198,"temp":38.7,"humidity":27,"rain":0.0,"pressure":992.1,"uv_index":9.1,"wind_gusts":39.6,"aqi":52,"pm10":14.6,"pm2_5":12.6,"mosquito_risk":0,"arthritis_risk":5,"migraine_risk":10,"frizz_risk":1,"updated_at":"2026-04-25T12:52:19.529449+05:30"},{"city":"Trichy","state":"Tamil Nadu","latitude":10.7905,"longitude":78.7047,"temp":37.2,"humidity":35,"rain":0.0,"pressure":998.7,"uv_index":9.3,"wind_gusts":33.1,"aqi":49,"pm10":13.3,"pm2_5":10.7,"mosquito_risk":0,"arthritis_risk":5,"migraine_risk":10,"frizz_risk":1,"updated_at":"2026-04-25T12:52:19.529458+05:30"},{"city":"Salem","state":"Tamil Nadu","latitude":11.6643,"longitude":78.146,"temp":38.3,"humidity":25,"rain":0.0,"pressure":976.8,"uv_index":9.0,"wind_gusts":42.1,"aqi":59,"pm10":19.0,"pm2_5":15.0,"mosquito_risk":0,"arthritis_risk":5,"migraine_risk":10,"frizz_risk":0,"updated_at":"2026-04-25T12:52:19.529465+05:30"},{"city":"Tirunelveli","state":"Tamil Nadu","latitude":8.7139,"longitude":77.7567,"temp":38.7,"humidity":27,"rain":0.0,"pressure":1001.9,"uv_index":9.2,"wind_gusts":40.7,"aqi":66,"pm10":12.7,"pm2_5":11.6,"mosquito_risk":0,"arthritis_risk":5,"migraine_risk":7,"frizz_risk":1,"updated_at":"2026-04-25T12:52:19.529473+05:30"},{"city":"Vellore","state":"Tamil Nadu","latitude":12.9165,"longitude":79.1325,"temp":38.3,"humidity":27,"rain":0.0,"pressure":984.3,"uv_index":9.25,"wind_gusts":36.0,"aqi":80,"pm10":22.6,"pm2_5":18.9,"mosquito_risk":0,"arthritis_risk":5,"migraine_risk":10,"frizz_risk":0,"updated_at":"2026-04-25T12:52:19.529480+05:30"},{"city":"Erode","state":"Tamil Nadu","latitude":11.341,"longitude":77.7172,"temp":38.5,"humidity":25,"rain":0.0,"pressure":988.3,"uv_index":9.25,"wind_gusts":46.1,"aqi":49,"pm10":13.5,"pm2_5":10.3,"mosquito_risk":0,"arthritis_risk":5,"migraine_risk":10,"frizz_risk":0,"updated_at":"2026-04-25T12:52:19.529488+05:30"},{"city":"Kochi","state":"Kerala","latitude":9.9312,"longitude":76.2673,"temp":33.1,"humidity":61,"rain":0.0,"pressure":1007.4,"uv_index":8.05,"wind_gusts":39.2,"aqi":93,"pm10":26.0,"pm2_5":23.4,"mosquito_risk":3,"arthritis_risk":5,"migraine_risk":4,"frizz_risk":1,"updated_at":"2026-04-25T12:52:19.529496+05:30"},{"city":"Thiruvananthapuram","state":"Kerala","latitude":8.5241,"longitude":76.9366,"temp":30.9,"humidity":75,"rain":0.0,"pressure":1007.3,"uv_index":8.2,"wind_gusts":33.1,"aqi":58,"pm10":21.1,"pm2_5":18.2,"mosquito_risk":3,"arthritis_risk":5,"migraine_risk":4,"frizz_risk":1,"updated_at":"2026-04-25T12:52:19.529503+05:30"},{"city":"Kozhikode","state":"Kerala","latitude":11.2588,"longitude":75.7804,"temp":33.3,"humidity":61,"rain":0.0,"pressure":1006.4,"uv_index":8.55,"wind_gusts":37.1,"aqi":70,"pm10":26.5,"pm2_5":23.1,"mosquito_risk":3,"arthritis_risk":5,"migraine_risk":4,"frizz_risk":1,"updated_at":"2026-04-25T12:52:19.529510+05:30"},{"city":"Thrissur","state":"Kerala","latitude":10.5276,"longitude":76.2144,"temp":36.2,"humidity":40,"rain":0.0,"pressure":1005.2,"uv_index":8.15,"wind_gusts":44.3,"aqi":88,"pm10":19.3,"pm2_5":17.0,"mosquito_risk":0,"arthritis_risk":5,"migraine_risk":7,"frizz_risk":1,"updated_at":"2026-04-25T12:52:19.529517+05:30"},{"city":"Kannur","state":"Kerala","latitude":11.8745,"longitude":75.3704,"temp":33.5,"humidity":60,"rain":0.0,"pressure":1006.1,"uv_index":8.55,"wind_gusts":40.7,"aqi":72,"pm10":24.7,"pm2_5":20.5,"mosquito_risk":0,"arthritis_risk":5,"migraine_risk":4,"frizz_risk":1,"updated_at":"2026-04-25T12:52:19.529524+05:30"},{"city":"Patna","state":"Bihar","latitude":25.5941,"longitude":85.1376,"temp":41.0,"humidity":22,"rain":0.0,"pressure":998.5,"uv_index":8.65,"wind_gusts":60.1,"aqi":151,"pm10":109.4,"pm2_5":61.9,"mosquito_risk":0,"arthritis_risk":5,"migraine_risk":10,"frizz_risk":0,"updated_at":"2026-04-25T12:52:19.529531+05:30"},{"city":"Gaya","state":"Bihar","latitude":24.7914,"longitude":85.0002,"temp":41.8,"humidity":12,"rain":0.0,"pressure":992.3,"uv_index":8.7,"wind_gusts":48.2,"aqi":108,"pm10":108.0,"pm2_5":27.8,"mosquito_risk":0,"arthritis_risk":5,"migraine_risk":10,"frizz_risk":0,"updated_at":"2026-04-25T12:52:19.529537+05:30"},{"city":"Muzaffarpur","state":"Bihar","latitude":26.1209,"longitude":85.3647,"temp":34.2,"humidity":58,"rain":0.0,"pressure":1000.4,"uv_index":8.65,"wind_gusts":34.6,"aqi":155,"pm10":105.0,"pm2_5":64.5,"mosquito_risk":0,"arthritis_risk":5,"migraine_risk":4,"frizz_risk":1,"updated_at":"2026-04-25T12:52:19.529543+05:30"},{"city":"Bhagalpur","state":"Bihar","latitude":25.2425,"longitude":87.0117,"temp":37.2,"humidity":49,"rain":0.0,"pressure":1000.0,"uv_index":8.6,"wind_gusts":52.9,"aqi":154,"pm10":114.1,"pm2_5":58.9,"mosquito_risk":0,"arthritis_risk":5,"migraine_risk":7,"frizz_risk":1,"updated_at":"2026-04-25T12:52:19.529549+05:30"},{"city":"Ranchi","state":"Jharkhand","latitude":23.3441,"longitude":85.3096,"temp":37.3,"humidity":16,"rain":0.0,"pressure":939.1,"uv_index":9.2,"wind_gusts":28.8,"aqi":119,"pm10":59.0,"pm2_5":28.4,"mosquito_risk":0,"arthritis_risk":5,"migraine_risk":10,"frizz_risk":0,"updated_at":"2026-04-25T12:52:19.529557+05:30"},{"city":"Jamshedpur","state":"Jharkhand","latitude":22.8046,"longitude":86.2029,"temp":42.5,"humidity":13,"rain":0.0,"pressure":989.6,"uv_index":8.9,"wind_gusts":35.3,"aqi":136,"pm10":83.4,"pm2_5":59.3,"mosquito_risk":0,"arthritis_risk":5,"migraine_risk":10,"frizz_risk":0,"updated_at":"2026-04-25T12:52:19.529563+05:30"},{"city":"Dhanbad","state":"Jharkhand","latitude":23.7957,"longitude":86.4304,"temp":41.3,"humidity":16,"rain":0.0,"pressure":979.1,"uv_index":8.95,"wind_gusts":42.1,"aqi":156,"pm10":98.5,"pm2_5":75.7,"mosquito_risk":0,"arthritis_risk":5,"migraine_risk":10,"frizz_risk":0,"updated_at":"2026-04-25T12:52:19.529569+05:30"},{"city":"Bokaro","state":"Jharkhand","latitude":23.6693,"longitude":86.1511,"temp":41.3,"humidity":15,"rain":0.0,"pressure":982.7,"uv_index":9.0,"wind_gusts":34.6,"aqi":156,"pm10":95.7,"pm2_5":58.8,"mosquito_risk":0,"arthritis_risk":5,"migraine_risk":10,"frizz_risk":0,"updated_at":"2026-04-25T12:52:19.529575+05:30"},{"city":"Bhubaneswar","state":"Odisha","latitude":20.2961,"longitude":85.8245,"temp":35.5,"humidity":59,"rain":0.0,"pressure":1002.4,"uv_index":9.1,"wind_gusts":41.0,"aqi":69,"pm10":29.2,"pm2_5":22.5,"mosquito_risk":0,"arthritis_risk":5,"migraine_risk":7,"frizz_risk":1,"updated_at":"2026-04-25T12:52:19.529582+05:30"},{"city":"Cuttack","state":"Odisha","latitude":20.4625,"longitude":85.8828,"temp":36.4,"humidity":57,"rain":0.0,"pressure":1004.0,"uv_index":9.15,"wind_gusts":37.8,"aqi":69,"pm10":29.2,"pm2_5":22.5,"mosquito_risk":0,"arthritis_risk":5,"migraine_risk":7,"frizz_risk":1,"updated_at":"2026-04-25T12:52:19.529588+05:30"},{"city":"Rourkela","state":"Odisha","latitude":22.2604,"longitude":84.8536,"temp":42.0,"humidity":15,"rain":0.0,"pressure":984.2,"uv_index":8.6,"wind_gusts":45.0,"aqi":136,"pm10":58.7,"pm2_5":47.6,"mosquito_risk":0,"arthritis_risk":5,"migraine_risk":10,"frizz_risk":0,"updated_at":"2026-04-25T12:52:19.529594+05:30"},{"city":"Raipur","state":"Chhattisgarh","latitude":21.2514,"longitude":81.6296,"temp":42.5,"humidity":11,"rain":0.0,"pressure":974.4,"uv_index":9.0,"wind_gusts":31.0,"aqi":118,"pm10":36.9,"pm2_5":29.6,"mosquito_risk":0,"arthritis_risk":5,"migraine_risk":10,"frizz_risk":0,"updated_at":"2026-04-25T12:52:19.529599+05:30"},{"city":"Bhilai","state":"Chhattisgarh","latitude":21.1938,"longitude":81.3509,"temp":42.1,"humidity":11,"rain":0.0,"pressure":974.9,"uv_index":9.0,"wind_gusts":35.6,"aqi":120,"pm10":34.6,"pm2_5":25.8,"mosquito_risk":0,"arthritis_risk":5,"migraine_risk":10,"frizz_risk":0,"updated_at":"2026-04-25T12:52:19.529605+05:30"},{"city":"Guwahati","state":"Assam","latitude":26.1158,"longitude":91.7086,"temp":31.5,"humidity":61,"rain":0.0,"pressure":1001.8,"uv_index":8.55,"wind_gusts":42.1,"aqi":161,"pm10":104.1,"pm2_5":63.6,"mosquito_risk":3,"arthritis_risk":5,"migraine_risk":4,"frizz_risk":1,"updated_at":"2026-04-25T12:52:19.529610+05:30"},{"city":"Agartala","state":"Tripura","latitude":23.8315,"longitude":91.2868,"temp":36.8,"humidity":42,"rain":0.0,"pressure":1005.1,"uv_index":8.75,"wind_gusts":35.6,"aqi":153,"pm10":68.9,"pm2_5":38.8,"mosquito_risk":0,"arthritis_risk":5,"migraine_risk":7,"frizz_risk":1,"updated_at":"2026-04-25T12:52:19.529617+05:30"},{"city":"Shillong","state":"Meghalaya","latitude":25.5788,"longitude":91.8933,"temp":25.2,"humidity":46,"rain":0.0,"pressure":860.7,"uv_index":8.2,"wind_gusts":27.0,"aqi":146,"pm10":93.4,"pm2_5":46.2,"mosquito_risk":4,"arthritis_risk":5,"migraine_risk":7,"frizz_risk":0,"updated_at":"2026-04-25T12:52:19.529624+05:30"},{"city":"Imphal","state":"Manipur","latitude":24.817,"longitude":93.9368,"temp":32.5,"humidity":35,"rain":0.0,"pressure":924.2,"uv_index":9.1,"wind_gusts":34.2,"aqi":155,"pm10":85.0,"pm2_5":39.3,"mosquito_risk":0,"arthritis_risk":5,"migraine_risk":7,"frizz_risk":0,"updated_at":"2026-04-25T12:52:19.529630+05:30"},{"city":"Aizawl","state":"Mizoram","latitude":23.7271,"longitude":92.7176,"temp":33.4,"humidity":21,"rain":0.0,"pressure":895.2,"uv_index":8.95,"wind_gusts":37.8,"aqi":121,"pm10":84.5,"pm2_5":30.4,"mosquito_risk":0,"arthritis_risk":5,"migraine_risk":7,"frizz_risk":0,"updated_at":"2026-04-25T12:52:19.529637+05:30"},{"city":"Kohima","state":"Nagaland","latitude":25.6701,"longitude":94.1077,"temp":24.2,"humidity":72,"rain":0.0,"pressure":858.5,"uv_index":8.8,"wind_gusts":38.2,"aqi":155,"pm10":109.7,"pm2_5":54.8,"mosquito_risk":3,"arthritis_risk":5,"migraine_risk":7,"frizz_risk":1,"updated_at":"2026-04-25T12:52:19.529643+05:30"},{"city":"Gangtok","state":"Sikkim","latitude":27.3314,"longitude":88.6138,"temp":21.2,"humidity":58,"rain":0.0,"pressure":840.9,"uv_index":8.8,"wind_gusts":41.4,"aqi":97,"pm10":42.7,"pm2_5":26.4,"mosquito_risk":0,"arthritis_risk":5,"migraine_risk":7,"frizz_risk":0,"updated_at":"2026-04-25T12:52:19.529649+05:30"},{"city":"Siliguri","state":"West Bengal","latitude":26.7271,"longitude":88.3953,"temp":30.5,"humidity":61,"rain":0.0,"pressure":994.2,"uv_index":8.45,"wind_gusts":29.2,"aqi":151,"pm10":86.4,"pm2_5":51.0,"mosquito_risk":3,"arthritis_risk":5,"migraine_risk":7,"frizz_risk":1,"updated_at":"2026-04-25T12:52:22.764879+05:30"},{"city":"Durgapur","state":"West Bengal","latitude":23.5204,"longitude":87.3119,"temp":37.0,"humidity":51,"rain":0.0,"pressure":994.1,"uv_index":8.9,"wind_gusts":38.2,"aqi":142,"pm10":88.2,"pm2_5":63.3,"mosquito_risk":0,"arthritis_risk":5,"migraine_risk":10,"frizz_risk":1,"updated_at":"2026-04-25T12:52:22.764912+05:30"},{"city":"Asansol","state":"West Bengal","latitude":23.6739,"longitude":86.9524,"temp":38.8,"humidity":41,"rain":0.0,"pressure":992.6,"uv_index":8.95,"wind_gusts":38.9,"aqi":140,"pm10":85.9,"pm2_5":67.5,"mosquito_risk":0,"arthritis_risk":5,"migraine_risk":10,"frizz_risk":1,"updated_at":"2026-04-25T12:52:22.764924+05:30"},{"city":"Pondicherry","state":"Puducherry","latitude":11.9139,"longitude":79.8145,"temp":33.2,"humidity":57,"rain":0.0,"pressure":1008.3,"uv_index":9.15,"wind_gusts":44.6,"aqi":24,"pm10":11.4,"pm2_5":7.6,"mosquito_risk":0,"arthritis_risk":0,"migraine_risk":4,"frizz_risk":1,"updated_at":"2026-04-25T12:52:22.764931+05:30"},{"city":"Port Blair","state":"Andaman and Nicobar Islands","latitude":11.6234,"longitude":92.7265,"temp":34.2,"humidity":50,"rain":0.0,"pressure":1006.7,"uv_index":9.15,"wind_gusts":32.4,"aqi":35,"pm10":16.2,"pm2_5":9.8,"mosquito_risk":0,"arthritis_risk":5,"migraine_risk":4,"frizz_risk":1,"updated_at":"2026-04-25T12:52:22.764938+05:30"},{"city":"Haridwar","state":"Uttarakhand","latitude":29.9457,"longitude":78.1642,"temp":36.6,"humidity":29,"rain":0.0,"pressure":973.9,"uv_index":7.2,"wind_gusts":32.8,"aqi":78,"pm10":68.7,"pm2_5":19.1,"mosquito_risk":0,"arthritis_risk":5,"migraine_risk":10,"frizz_risk":0,"updated_at":"2026-04-25T12:52:22.764945+05:30"},{"city":"Rishikesh","state":"Uttarakhand","latitude":30.0869,"longitude":78.2676,"temp":35.8,"humidity":28,"rain":0.0,"pressure":966.8,"uv_index":7.35,"wind_gusts":37.4,"aqi":64,"pm10":58.6,"pm2_5":16.2,"mosquito_risk":0,"arthritis_risk":5,"migraine_risk":10,"frizz_risk":0,"updated_at":"2026-04-25T12:52:22.764952+05:30"},{"city":"Nainital","state":"Uttarakhand","latitude":29.3919,"longitude":79.4542,"temp":25.0,"humidity":28,"rain":0.0,"pressure":810.8,"uv_index":8.15,"wind_gusts":43.6,"aqi":75,"pm10":41.1,"pm2_5":18.0,"mosquito_risk":4,"arthritis_risk":5,"migraine_risk":7,"frizz_risk":0,"updated_at":"2026-04-25T12:52:22.764959+05:30"},{"city":"Mussoorie","state":"Uttarakhand","latitude":30.4599,"longitude":78.0664,"temp":24.1,"humidity":30,"rain":0.0,"pressure":808.3,"uv_index":7.75,"wind_gusts":58.7,"aqi":67,"pm10":54.7,"pm2_5":15.7,"mosquito_risk":0,"arthritis_risk":5,"migraine_risk":7,"frizz_risk":0,"updated_at":"2026-04-25T12:52:22.764965+05:30"},{"city":"Dharamshala","state":"Himachal Pradesh","latitude":32.219,"longitude":76.3234,"temp":28.4,"humidity":22,"rain":0.0,"pressure":873.7,"uv_index":7.55,"wind_gusts":59.0,"aqi":48,"pm10":49.2,"pm2_5":10.5,"mosquito_risk":4,"arthritis_risk":5,"migraine_risk":7,"frizz_risk":0,"updated_at":"2026-04-25T12:52:22.764972+05:30"},{"city":"Dalhousie","state":"Himachal Pradesh","latitude":32.5387,"longitude":75.971,"temp":23.3,"humidity":28,"rain":0.0,"pressure":810.5,"uv_index":8.1,"wind_gusts":45.7,"aqi":57,"pm10":64.7,"pm2_5":15.0,"mosquito_risk":0,"arthritis_risk":5,"migraine_risk":7,"frizz_risk":0,"updated_at":"2026-04-25T12:52:22.764979+05:30"},{"city":"Patiala","state":"Punjab","latitude":30.3398,"longitude":76.3869,"temp":39.5,"humidity":15,"rain":0.0,"pressure":978.8,"uv_index":7.35,"wind_gusts":56.2,"aqi":403,"pm10":517.8,"pm2_5":56.0,"mosquito_risk":0,"arthritis_risk":5,"migraine_risk":10,"frizz_risk":0,"updated_at":"2026-04-25T12:52:22.764986+05:30"},{"city":"Bhatinda","state":"Punjab","latitude":30.211,"longitude":74.9455,"temp":38.4,"humidity":17,"rain":0.0,"pressure":985.0,"uv_index":8.0,"wind_gusts":46.1,"aqi":85,"pm10":116.4,"pm2_5":29.3,"mosquito_risk":0,"arthritis_risk":5,"migraine_risk":10,"frizz_risk":0,"updated_at":"2026-04-25T12:52:22.764992+05:30"},{"city":"Rohtak","state":"Haryana","latitude":28.8955,"longitude":76.6066,"temp":40.8,"humidity":15,"rain":0.0,"pressure":982.0,"uv_index":7.45,"wind_gusts":54.4,"aqi":574,"pm10":367.9,"pm2_5":55.2,"mosquito_risk":0,"arthritis_risk":5,"migraine_risk":10,"frizz_risk":0,"updated_at":"2026-04-25T12:52:22.764998+05:30"},{"city":"Panipat","state":"Haryana","latitude":29.3909,"longitude":76.9635,"temp":42.2,"humidity":13,"rain":0.0,"pressure":979.7,"uv_index":7.15,"wind_gusts":51.1,"aqi":990,"pm10":696.6,"pm2_5":75.2,"mosquito_risk":0,"arthritis_risk":5,"migraine_risk":10,"frizz_risk":0,"updated_at":"2026-04-25T12:52:22.765004+05:30"},{"city":"Mathura","state":"Uttar Pradesh","latitude":27.4924,"longitude":77.6737,"temp":41.8,"humidity":15,"rain":0.0,"pressure":986.1,"uv_index":7.65,"wind_gusts":45.0,"aqi":361,"pm10":440.5,"pm2_5":60.3,"mosquito_risk":0,"arthritis_risk":5,"migraine_risk":10,"frizz_risk":0,"updated_at":"2026-04-25T12:52:22.765010+05:30"},{"city":"Vrindavan","state":"Uttar Pradesh","latitude":27.5823,"longitude":77.7027,"temp":41.8,"humidity":15,"rain":0.0,"pressure":986.5,"uv_index":7.55,"wind_gusts":45.0,"aqi":361,"pm10":440.5,"pm2_5":60.3,"mosquito_risk":0,"arthritis_risk":5,"migraine_risk":10,"frizz_risk":0,"updated_at":"2026-04-25T12:52:22.765016+05:30"},{"city":"Ayodhya","state":"Uttar Pradesh","latitude":26.7922,"longitude":82.1998,"temp":42.3,"humidity":14,"rain":0.0,"pressure":992.9,"uv_index":8.1,"wind_gusts":38.5,"aqi":136,"pm10":178.8,"pm2_5":50.1,"mosquito_risk":0,"arthritis_risk":5,"migraine_risk":10,"frizz_risk":0,"updated_at":"2026-04-25T12:52:22.765022+05:30"},{"city":"Ratlam","state":"Madhya Pradesh","latitude":23.3315,"longitude":75.0367,"temp":41.0,"humidity":13,"rain":0.0,"pressure":955.7,"uv_index":8.45,"wind_gusts":25.9,"aqi":54,"pm10":46.2,"pm2_5":13.6,"mosquito_risk":0,"arthritis_risk":5,"migraine_risk":10,"frizz_risk":0,"updated_at":"2026-04-25T12:52:22.765028+05:30"},{"city":"Sagar","state":"Madhya Pradesh","latitude":23.8388,"longitude":78.7378,"temp":40.8,"humidity":12,"rain":0.0,"pressure":951.4,"uv_index":8.65,"wind_gusts":29.9,"aqi":67,"pm10":25.1,"pm2_5":10.5,"mosquito_risk":0,"arthritis_risk":5,"migraine_risk":10,"frizz_risk":0,"updated_at":"2026-04-25T12:52:22.765034+05:30"},{"city":"Satna","state":"Madhya Pradesh","latitude":24.6005,"longitude":80.8322,"temp":42.0,"humidity":11,"rain":0.0,"pressure":971.2,"uv_index":8.7,"wind_gusts":43.9,"aqi":60,"pm10":151.8,"pm2_5":30.2,"mosquito_risk":0,"arthritis_risk":5,"migraine_risk":10,"frizz_risk":0,"updated_at":"2026-04-25T12:52:22.765039+05:30"},{"city":"Akola","state":"Maharashtra","latitude":20.7002,"longitude":77.0082,"temp":42.0,"humidity":13,"rain":0.0,"pressure":975.3,"uv_index":8.7,"wind_gusts":23.8,"aqi":74,"pm10":26.1,"pm2_5":12.0,"mosquito_risk":0,"arthritis_risk":5,"migraine_risk":10,"frizz_risk":0,"updated_at":"2026-04-25T12:52:22.765046+05:30"},{"city":"Amravati","state":"Maharashtra","latitude":20.9374,"longitude":77.7796,"temp":41.6,"humidity":12,"rain":0.0,"pressure":967.7,"uv_index":8.5,"wind_gusts":27.7,"aqi":76,"pm10":25.4,"pm2_5":11.4,"mosquito_risk":0,"arthritis_risk":5,"migraine_risk":10,"frizz_risk":0,"updated_at":"2026-04-25T12:52:22.765052+05:30"},{"city":"Latur","state":"Maharashtra","latitude":18.4088,"longitude":76.5604,"temp":39.6,"humidity":14,"rain":0.0,"pressure":941.2,"uv_index":8.8,"wind_gusts":32.8,"aqi":102,"pm10":31.5,"pm2_5":24.8,"mosquito_risk":0,"arthritis_risk":5,"migraine_risk":10,"frizz_risk":0,"updated_at":"2026-04-25T12:52:22.765059+05:30"},{"city":"Nanded","state":"Maharashtra","latitude":19.1383,"longitude":77.3091,"temp":41.5,"humidity":13,"rain":0.0,"pressure":968.9,"uv_index":8.6,"wind_gusts":28.1,"aqi":106,"pm10":27.4,"pm2_5":18.5,"mosquito_risk":0,"arthritis_risk":5,"migraine_risk":10,"frizz_risk":0,"updated_at":"2026-04-25T12:52:22.765064+05:30"},{"city":"Gulbarga","state":"Karnataka","latitude":17.3297,"longitude":76.8343,"temp":39.6,"humidity":18,"rain":0.0,"pressure":959.6,"uv_index":9.15,"wind_gusts":26.6,"aqi":116,"pm10":51.3,"pm2_5":42.3,"mosquito_risk":0,"arthritis_risk":5,"migraine_risk":10,"frizz_risk":0,"updated_at":"2026-04-25T12:52:22.765070+05:30"},{"city":"Bidar","state":"Karnataka","latitude":17.9104,"longitude":77.5199,"temp":38.2,"humidity":18,"rain":0.0,"pressure":937.4,"uv_index":8.9,"wind_gusts":27.0,"aqi":120,"pm10":43.9,"pm2_5":36.7,"mosquito_risk":0,"arthritis_risk":5,"migraine_risk":10,"frizz_risk":0,"updated_at":"2026-04-25T12:52:22.765076+05:30"},{"city":"Hospet","state":"Karnataka","latitude":15.2689,"longitude":76.3909,"temp":36.7,"humidity":30,"rain":0.0,"pressure":956.6,"uv_index":9.3,"wind_gusts":27.4,"aqi":95,"pm10":39.2,"pm2_5":31.5,"mosquito_risk":0,"arthritis_risk":5,"migraine_risk":10,"frizz_risk":1,"updated_at":"2026-04-25T12:52:22.765082+05:30"},{"city":"Tirupur","state":"Tamil Nadu","latitude":11.1085,"longitude":77.3411,"temp":38.5,"humidity":24,"rain":0.0,"pressure":974.7,"uv_index":9.4,"wind_gusts":42.1,"aqi":55,"pm10":14.8,"pm2_5":11.4,"mosquito_risk":0,"arthritis_risk":5,"migraine_risk":10,"frizz_risk":0,"updated_at":"2026-04-25T12:52:22.765088+05:30"},{"city":"Alappuzha","state":"Kerala","latitude":9.4981,"longitude":76.3388,"temp":31.4,"humidity":74,"rain":0.0,"pressure":1007.6,"uv_index":8.05,"wind_gusts":36.7,"aqi":88,"pm10":30.0,"pm2_5":27.3,"mosquito_risk":3,"arthritis_risk":5,"migraine_risk":4,"frizz_risk":1,"updated_at":"2026-04-25T12:52:22.765094+05:30"},{"city":"Munnar","state":"Kerala","latitude":10.0889,"longitude":77.0595,"temp":26.5,"humidity":35,"rain":0.0,"pressure":859.1,"uv_index":9.15,"wind_gusts":31.7,"aqi":61,"pm10":9.3,"pm2_5":7.6,"mosquito_risk":4,"arthritis_risk":5,"migraine_risk":7,"frizz_risk":0,"updated_at":"2026-04-25T12:52:22.765100+05:30"},{"city":"Silchar","state":"Assam","latitude":24.8333,"longitude":92.7789,"temp":34.5,"humidity":52,"rain":0.0,"pressure":1004.0,"uv_index":8.75,"wind_gusts":21.6,"aqi":159,"pm10":131.8,"pm2_5":53.4,"mosquito_risk":0,"arthritis_risk":5,"migraine_risk":4,"frizz_risk":1,"updated_at":"2026-04-25T12:52:22.765106+05:30"},{"city":"Dibrugarh","state":"Assam","latitude":27.4728,"longitude":94.912,"temp":27.5,"humidity":71,"rain":0.0,"pressure":996.8,"uv_index":8.6,"wind_gusts":31.7,"aqi":96,"pm10":68.0,"pm2_5":33.3,"mosquito_risk":7,"arthritis_risk":5,"migraine_risk":7,"frizz_risk":1,"updated_at":"2026-04-25T12:52:22.765112+05:30"}]