[{"city":"Delhi","state":"Delhi","latitude":28.6139,"longitude":77.209,"temp":25.5,"humidity":73,"rain":0.0,"pressure":982.0,"uv_index":7.7,"wind_gusts":22.7,"aqi":150,"pm10":76.8,"pm2_5":60.3,"no2":39.9,"co":662.0,"o3":46.0,"so2":26.9,"mosquito_risk":7,"arthritis_risk":5,"migraine_risk":7,"frizz_risk":1,"updated_at":"2026-06-02T03:42:11.993566+05:30"},{"city":"Mumbai","state":"Maharashtra","latitude":19.076,"longitude":72.8777,"temp":29.6,"humidity":77,"rain":0.0,"pressure":1008.1,"uv_index":7.7,"wind_gusts":40.3,"aqi":51,"pm10":30.0,"pm2_5":12.6,"no2":6.6,"co":171.0,"o3":44.0,"so2":5.0,"mosquito_risk":7,"arthritis_risk":0,"migraine_risk":4,"frizz_risk":1,"updated_at":"2026-06-02T03:42:11.993631+05:30"},{"city":"Bangalore","state":"Karnataka","latitude":12.9716,"longitude":77.5946,"temp":22.9,"humidity":78,"rain":0.1,"pressure":911.3,"uv_index":7.45,"wind_gusts":29.5,"aqi":66,"pm10":23.1,"pm2_5":19.8,"no2":24.7,"co":379.0,"o3":48.0,"so2":7.7,"mosquito_risk":6,"arthritis_risk":5,"migraine_risk":7,"frizz_risk":1,"updated_at":"2026-06-02T03:42:11.993649+05:30"},{"city":"Hyderabad","state":"Telangana","latitude":17.385,"longitude":78.4867,"temp":29.0,"humidity":49,"rain":0.0,"pressure":951.6,"uv_index":8.95,"wind_gusts":29.9,"aqi":86,"pm10":68.2,"pm2_5":55.6,"no2":57.8,"co":533.0,"o3":29.0,"so2":18.2,"mosquito_risk":4,"arthritis_risk":5,"migraine_risk":7,"frizz_risk":1,"updated_at":"2026-06-02T03:42:11.993661+05:30"},{"city":"Chennai","state":"Tamil Nadu","latitude":13.0827,"longitude":80.2707,"temp":28.6,"humidity":84,"rain":0.0,"pressure":1005.6,"uv_index":7.2,"wind_gusts":41.0,"aqi":74,"pm10":19.3,"pm2_5":15.8,"no2":16.5,"co":285.0,"o3":48.0,"so2":16.7,"mosquito_risk":7,"arthritis_risk":5,"migraine_risk":4,"frizz_risk":1,"updated_at":"2026-06-02T03:42:11.993671+05:30"},{"city":"Kolkata","state":"West Bengal","latitude":22.5726,"longitude":88.3639,"temp":28.1,"humidity":88,"rain":0.0,"pressure":1004.7,"uv_index":8.9,"wind_gusts":33.8,"aqi":131,"pm10":66.8,"pm2_5":58.7,"no2":18.9,"co":393.0,"o3":51.0,"so2":8.0,"mosquito_risk":7,"arthritis_risk":5,"migraine_risk":4,"frizz_risk":1,"updated_at":"2026-06-02T03:42:11.993681+05:30"},{"city":"Pune","state":"Maharashtra","latitude":18.5204,"longitude":73.8567,"temp":24.9,"humidity":86,"rain":0.0,"pressure":947.8,"uv_index":8.3,"wind_gusts":46.1,"aqi":51,"pm10":17.3,"pm2_5":9.3,"no2":9.1,"co":146.0,"o3":40.0,"so2":9.1,"mosquito_risk":3,"arthritis_risk":5,"migraine_risk":7,"frizz_risk":1,"updated_at":"2026-06-02T03:42:11.993689+05:30"},{"city":"Ahmedabad","state":"Gujarat","latitude":23.0225,"longitude":72.5714,"temp":26.3,"humidity":92,"rain":0.0,"pressure":1000.2,"uv_index":8.05,"wind_gusts":28.8,"aqi":72,"pm10":31.1,"pm2_5":17.9,"no2":7.9,"co":168.0,"o3":40.0,"so2":4.9,"mosquito_risk":7,"arthritis_risk":5,"migraine_risk":4,"frizz_risk":1,"updated_at":"2026-06-02T03:42:11.993699+05:30"},{"city":"Jaipur","state":"Rajasthan","latitude":26.9124,"longitude":75.7873,"temp":25.5,"humidity":80,"rain":0.0,"pressure":958.0,"uv_index":8.2,"wind_gusts":31.0,"aqi":115,"pm10":125.7,"pm2_5":45.8,"no2":14.0,"co":259.0,"o3":45.0,"so2":6.6,"mosquito_risk":7,"arthritis_risk":5,"migraine_risk":7,"frizz_risk":1,"updated_at":"2026-06-02T03:42:11.993714+05:30"},{"city":"Lucknow","state":"Uttar Pradesh","latitude":26.8467,"longitude":80.9462,"temp":25.0,"humidity":74,"rain":0.0,"pressure":992.7,"uv_index":8.25,"wind_gusts":50.4,"aqi":98,"pm10":62.4,"pm2_5":49.0,"no2":39.6,"co":558.0,"o3":31.0,"so2":12.6,"mosquito_risk":7,"arthritis_risk":5,"migraine_risk":7,"frizz_risk":1,"updated_at":"2026-06-02T03:42:11.993724+05:30"},{"city":"Kanpur","state":"Uttar Pradesh","latitude":26.4499,"longitude":80.3319,"temp":27.7,"humidity":66,"rain":0.0,"pressure":990.4,"uv_index":8.25,"wind_gusts":49.0,"aqi":98,"pm10":58.2,"pm2_5":42.6,"no2":32.4,"co":383.0,"o3":35.0,"so2":8.5,"mosquito_risk":7,"arthritis_risk":5,"migraine_risk":7,"frizz_risk":1,"updated_at":"2026-06-02T03:42:11.993732+05:30"},{"city":"Chandigarh","state":"Chandigarh","latitude":30.7333,"longitude":76.7794,"temp":23.8,"humidity":78,"rain":0.0,"pressure":968.4,"uv_index":7.85,"wind_gusts":23.4,"aqi":87,"pm10":55.9,"pm2_5":46.2,"no2":46.6,"co":1124.0,"o3":14.0,"so2":6.1,"mosquito_risk":3,"arthritis_risk":5,"migraine_risk":7,"frizz_risk":1,"updated_at":"2026-06-02T03:42:11.993740+05:30"},{"city":"Srinagar","state":"Jammu and Kashmir","latitude":34.0837,"longitude":74.7973,"temp":13.9,"humidity":86,"rain":0.0,"pressure":839.9,"uv_index":9.0,"wind_gusts":26.6,"aqi":114,"pm10":47.0,"pm2_5":39.0,"no2":22.3,"co":387.0,"o3":15.0,"so2":0.1,"mosquito_risk":3,"arthritis_risk":10,"migraine_risk":7,"frizz_risk":0,"updated_at":"2026-06-02T03:42:11.993749+05:30"},{"city":"Jammu","state":"Jammu and Kashmir","latitude":32.7266,"longitude":74.857,"temp":26.1,"humidity":55,"rain":0.0,"pressure":972.3,"uv_index":8.3,"wind_gusts":27.4,"aqi":134,"pm10":83.6,"pm2_5":62.2,"no2":37.2,"co":395.0,"o3":15.0,"so2":3.1,"mosquito_risk":4,"arthritis_risk":5,"migraine_risk":7,"frizz_risk":1,"updated_at":"2026-06-02T03:42:11.993757+05:30"},{"city":"Amritsar","state":"Punjab","latitude":31.634,"longitude":74.8723,"temp":26.3,"humidity":56,"rain":0.0,"pressure":980.1,"uv_index":8.45,"wind_gusts":22.7,"aqi":113,"pm10":64.0,"pm2_5":46.2,"no2":17.1,"co":720.0,"o3":61.0,"so2":5.3,"mosquito_risk":4,"arthritis_risk":5,"migraine_risk":7,"frizz_risk":1,"updated_at":"2026-06-02T03:42:11.993765+05:30"},{"city":"Ludhiana","state":"Punjab","latitude":30.901,"longitude":75.8573,"temp":26.2,"humidity":56,"rain":0.0,"pressure":978.3,"uv_index":8.05,"wind_gusts":22.3,"aqi":140,"pm10":317.6,"pm2_5":82.2,"no2":16.3,"co":497.0,"o3":70.0,"so2":10.9,"mosquito_risk":4,"arthritis_risk":5,"migraine_risk":7,"frizz_risk":1,"updated_at":"2026-06-02T03:42:11.993773+05:30"},{"city":"Jalandhar","state":"Punjab","latitude":31.326,"longitude":75.5762,"temp":26.2,"humidity":56,"rain":0.0,"pressure":979.4,"uv_index":8.25,"wind_gusts":27.0,"aqi":130,"pm10":123.9,"pm2_5":77.1,"no2":55.7,"co":472.0,"o3":12.0,"so2":10.2,"mosquito_risk":4,"arthritis_risk":5,"migraine_risk":7,"frizz_risk":1,"updated_at":"2026-06-02T03:42:11.993781+05:30"},{"city":"Dehradun","state":"Uttarakhand","latitude":30.6284,"longitude":78.0322,"temp":15.0,"humidity":84,"rain":0.0,"pressure":829.6,"uv_index":8.1,"wind_gusts":31.0,"aqi":34,"pm10":14.1,"pm2_5":10.2,"no2":24.1,"co":236.0,"o3":16.0,"so2":0.1,"mosquito_risk":3,"arthritis_risk":10,"migraine_risk":7,"frizz_risk":0,"updated_at":"2026-06-02T03:42:11.993789+05:30"},{"city":"Shimla","state":"Himachal Pradesh","latitude":31.1048,"longitude":77.1734,"temp":11.2,"humidity":78,"rain":0.0,"pressure":782.4,"uv_index":8.35,"wind_gusts":29.9,"aqi":54,"pm10":27.3,"pm2_5":23.1,"no2":21.1,"co":352.0,"o3":37.0,"so2":1.0,"mosquito_risk":3,"arthritis_risk":5,"migraine_risk":7,"frizz_risk":0,"updated_at":"2026-06-02T03:42:11.993799+05:30"},{"city":"Manali","state":"Himachal Pradesh","latitude":32.2396,"longitude":77.1887,"temp":11.9,"humidity":68,"rain":0.0,"pressure":817.3,"uv_index":9.1,"wind_gusts":34.9,"aqi":33,"pm10":4.4,"pm2_5":2.7,"no2":15.4,"co":223.0,"o3":84.0,"so2":0.0,"mosquito_risk":3,"arthritis_risk":5,"migraine_risk":7,"frizz_risk":0,"updated_at":"2026-06-02T03:42:11.993806+05:30"},{"city":"Gurgaon","state":"Haryana","latitude":28.4595,"longitude":77.0266,"temp":25.9,"humidity":68,"rain":0.0,"pressure":980.2,"uv_index":7.85,"wind_gusts":26.6,"aqi":241,"pm10":147.1,"pm2_5":63.1,"no2":36.5,"co":916.0,"o3":42.0,"so2":21.4,"mosquito_risk":7,"arthritis_risk":5,"migraine_risk":7,"frizz_risk":1,"updated_at":"2026-06-02T03:42:11.993817+05:30"},{"city":"Noida","state":"Uttar Pradesh","latitude":28.5355,"longitude":77.391,"temp":25.3,"humidity":72,"rain":0.0,"pressure":983.6,"uv_index":7.2,"wind_gusts":23.0,"aqi":241,"pm10":147.1,"pm2_5":63.1,"no2":36.5,"co":607.0,"o3":42.0,"so2":21.4,"mosquito_risk":7,"arthritis_risk":5,"migraine_risk":7,"frizz_risk":1,"updated_at":"2026-06-02T03:42:11.993825+05:30"},{"city":"Ghaziabad","state":"Uttar Pradesh","latitude":28.6692,"longitude":77.4538,"temp":25.0,"humidity":74,"rain":0.0,"pressure":981.9,"uv_index":7.2,"wind_gusts":24.5,"aqi":116,"pm10":69.4,"pm2_5":59.3,"no2":31.4,"co":603.0,"o3":48.0,"so2":13.8,"mosquito_risk":7,"arthritis_risk":5,"migraine_risk":7,"frizz_risk":1,"updated_at":"2026-06-02T03:42:11.993832+05:30"},{"city":"Faridabad","state":"Haryana","latitude":28.4089,"longitude":77.3178,"temp":25.4,"humidity":72,"rain":0.0,"pressure":982.8,"uv_index":7.25,"wind_gusts":23.0,"aqi":241,"pm10":147.1,"pm2_5":63.1,"no2":36.5,"co":723.0,"o3":42.0,"so2":21.4,"mosquito_risk":7,"arthritis_risk":5,"migraine_risk":7,"frizz_risk":1,"updated_at":"2026-06-02T03:42:11.993840+05:30"},{"city":"Meerut","state":"Uttar Pradesh","latitude":28.9845,"longitude":77.7064,"temp":24.4,"humidity":81,"rain":0.0,"pressure":981.0,"uv_index":7.15,"wind_gusts":26.6,"aqi":116,"pm10":69.4,"pm2_5":59.3,"no2":31.4,"co":506.0,"o3":48.0,"so2":13.8,"mosquito_risk":3,"arthritis_risk":5,"migraine_risk":7,"frizz_risk":1,"updated_at":"2026-06-02T03:42:11.993848+05:30"},{"city":"Agra","state":"Uttar Pradesh","latitude":27.1767,"longitude":78.0081,"temp":24.5,"humidity":88,"rain":0.0,"pressure":986.4,"uv_index":7.7,"wind_gusts":26.6,"aqi":137,"pm10":109.0,"pm2_5":44.9,"no2":19.6,"co":620.0,"o3":52.0,"so2":8.0,"mosquito_risk":3,"arthritis_risk":5,"migraine_risk":7,"frizz_risk":1,"updated_at":"2026-06-02T03:42:11.993855+05:30"},{"city":"Varanasi","state":"Uttar Pradesh","latitude":25.3176,"longitude":82.9739,"temp":28.0,"humidity":72,"rain":0.0,"pressure":996.4,"uv_index":8.35,"wind_gusts":23.4,"aqi":147,"pm10":79.4,"pm2_5":72.2,"no2":41.3,"co":1379.0,"o3":43.0,"so2":17.2,"mosquito_risk":7,"arthritis_risk":5,"migraine_risk":7,"frizz_risk":1,"updated_at":"2026-06-02T03:42:11.993865+05:30"},{"city":"Prayagraj","state":"Uttar Pradesh","latitude":25.4358,"longitude":81.8463,"temp":28.0,"humidity":66,"rain":0.0,"pressure":994.8,"uv_index":8.65,"wind_gusts":23.8,"aqi":133,"pm10":85.9,"pm2_5":78.9,"no2":49.6,"co":614.0,"o3":33.0,"so2":14.2,"mosquito_risk":7,"arthritis_risk":5,"migraine_risk":7,"frizz_risk":1,"updated_at":"2026-06-02T03:42:11.993874+05:30"},{"city":"Gorakhpur","state":"Uttar Pradesh","latitude":26.7606,"longitude":83.3732,"temp":26.6,"humidity":72,"rain":0.0,"pressure":996.1,"uv_index":8.6,"wind_gusts":23.4,"aqi":153,"pm10":88.7,"pm2_5":75.4,"no2":53.4,"co":520.0,"o3":16.0,"so2":10.4,"mosquito_risk":7,"arthritis_risk":5,"migraine_risk":7,"frizz_risk":1,"updated_at":"2026-06-02T03:42:11.993883+05:30"},{"city":"Bareilly","state":"Uttar Pradesh","latitude":28.367,"longitude":79.4304,"temp":25.0,"humidity":79,"rain":0.0,"pressure":985.9,"uv_index":8.0,"wind_gusts":19.8,"aqi":106,"pm10":54.0,"pm2_5":45.2,"no2":35.5,"co":492.0,"o3":42.0,"so2":4.6,"mosquito_risk":7,"arthritis_risk":5,"migraine_risk":7,"frizz_risk":1,"updated_at":"2026-06-02T03:42:11.993890+05:30"},{"city":"Aligarh","state":"Uttar Pradesh","latitude":27.8974,"longitude":78.088,"temp":25.5,"humidity":80,"rain":0.1,"pressure":984.6,"uv_index":7.55,"wind_gusts":23.8,"aqi":114,"pm10":88.0,"pm2_5":55.2,"no2":32.0,"co":498.0,"o3":32.0,"so2":8.3,"mosquito_risk":10,"arthritis_risk":5,"migraine_risk":7,"frizz_risk":1,"updated_at":"2026-06-02T03:42:11.993897+05:30"},{"city":"Moradabad","state":"Uttar Pradesh","latitude":28.8386,"longitude":78.7733,"temp":24.6,"humidity":83,"rain":0.0,"pressure":983.0,"uv_index":7.85,"wind_gusts":25.2,"aqi":142,"pm10":102.0,"pm2_5":88.2,"no2":58.1,"co":513.0,"o3":14.0,"so2":12.7,"mosquito_risk":3,"arthritis_risk":5,"migraine_risk":7,"frizz_risk":1,"updated_at":"2026-06-02T03:42:11.993904+05:30"},{"city":"Saharanpur","state":"Uttar Pradesh","latitude":29.9637,"longitude":77.546,"temp":24.5,"humidity":71,"rain":0.0,"pressure":975.4,"uv_index":7.55,"wind_gusts":21.6,"aqi":132,"pm10":103.6,"pm2_5":84.8,"no2":70.6,"co":658.0,"o3":8.0,"so2":15.6,"mosquito_risk":3,"arthritis_risk":5,"migraine_risk":7,"frizz_risk":1,"updated_at":"2026-06-02T03:42:11.993911+05:30"},{"city":"Jhansi","state":"Uttar Pradesh","latitude":25.4484,"longitude":78.5685,"temp":28.2,"humidity":58,"rain":0.0,"pressure":976.6,"uv_index":8.45,"wind_gusts":22.0,"aqi":93,"pm10":37.8,"pm2_5":29.6,"no2":8.4,"co":158.0,"o3":73.0,"so2":5.0,"mosquito_risk":4,"arthritis_risk":5,"migraine_risk":7,"frizz_risk":1,"updated_at":"2026-06-02T03:42:15.229634+05:30"},{"city":"Surat","state":"Gujarat","latitude":21.1702,"longitude":72.8311,"temp":25.2,"humidity":99,"rain":0.7,"pressure":1005.3,"uv_index":7.6,"wind_gusts":43.6,"aqi":70,"pm10":25.9,"pm2_5":15.4,"no2":17.5,"co":281.0,"o3":31.0,"so2":29.6,"mosquito_risk":10,"arthritis_risk":5,"migraine_risk":4,"frizz_risk":1,"updated_at":"2026-06-02T03:42:15.229671+05:30"},{"city":"Vadodara","state":"Gujarat","latitude":22.3072,"longitude":73.1812,"temp":26.3,"humidity":90,"rain":0.0,"pressure":1002.6,"uv_index":8.0,"wind_gusts":41.8,"aqi":69,"pm10":20.9,"pm2_5":13.6,"no2":13.2,"co":123.0,"o3":32.0,"so2":15.5,"mosquito_risk":7,"arthritis_risk":5,"migraine_risk":4,"frizz_risk":1,"updated_at":"2026-06-02T03:42:15.229681+05:30"},{"city":"Rajkot","state":"Gujarat","latitude":22.3039,"longitude":70.8022,"temp":28.7,"humidity":74,"rain":0.0,"pressure":992.0,"uv_index":7.5,"wind_gusts":44.3,"aqi":59,"pm10":31.1,"pm2_5":15.9,"no2":4.1,"co":106.0,"o3":42.0,"so2":4.4,"mosquito_risk":7,"arthritis_risk":5,"migraine_risk":7,"frizz_risk":1,"updated_at":"2026-06-02T03:42:15.229690+05:30"},{"city":"Thane","state":"Maharashtra","latitude":19.2183,"longitude":72.9781,"temp":29.0,"humidity":81,"rain":0.0,"pressure":1007.6,"uv_index":7.7,"wind_gusts":35.6,"aqi":51,"pm10":30.0,"pm2_5":12.6,"no2":6.6,"co":157.0,"o3":44.0,"so2":5.0,"mosquito_risk":7,"arthritis_risk":5,"migraine_risk":4,"frizz_risk":1,"updated_at":"2026-06-02T03:42:15.229698+05:30"},{"city":"Nagpur","state":"Maharashtra","latitude":21.1458,"longitude":79.0882,"temp":30.2,"humidity":48,"rain":0.0,"pressure":971.3,"uv_index":8.85,"wind_gusts":36.0,"aqi":79,"pm10":33.1,"pm2_5":19.8,"no2":13.0,"co":238.0,"o3":60.0,"so2":9.1,"mosquito_risk":0,"arthritis_risk":5,"migraine_risk":7,"frizz_risk":1,"updated_at":"2026-06-02T03:42:15.229706+05:30"},{"city":"Nashik","state":"Maharashtra","latitude":19.9975,"longitude":73.7898,"temp":24.8,"humidity":87,"rain":0.0,"pressure":945.8,"uv_index":8.0,"wind_gusts":40.7,"aqi":47,"pm10":22.1,"pm2_5":10.4,"no2":6.0,"co":120.0,"o3":40.0,"so2":3.9,"mosquito_risk":3,"arthritis_risk":5,"migraine_risk":7,"frizz_risk":1,"updated_at":"2026-06-02T03:42:15.229714+05:30"},{"city":"Aurangabad","state":"Maharashtra","latitude":19.8762,"longitude":75.3433,"temp":25.9,"humidity":70,"rain":0.0,"pressure":943.7,"uv_index":8.95,"wind_gusts":44.3,"aqi":55,"pm10":16.9,"pm2_5":10.8,"no2":7.8,"co":170.0,"o3":43.0,"so2":5.8,"mosquito_risk":7,"arthritis_risk":5,"migraine_risk":7,"frizz_risk":1,"updated_at":"2026-06-02T03:42:15.229721+05:30"},{"city":"Solapur","state":"Maharashtra","latitude":17.6599,"longitude":75.9064,"temp":28.8,"humidity":66,"rain":0.0,"pressure":956.5,"uv_index":8.9,"wind_gusts":43.2,"aqi":59,"pm10":25.5,"pm2_5":17.9,"no2":10.7,"co":164.0,"o3":70.0,"so2":5.8,"mosquito_risk":7,"arthritis_risk":5,"migraine_risk":7,"frizz_risk":1,"updated_at":"2026-06-02T03:42:15.229729+05:30"},{"city":"Kolhapur","state":"Maharashtra","latitude":16.705,"longitude":74.2433,"temp":24.4,"humidity":89,"rain":0.0,"pressure":947.5,"uv_index":8.75,"wind_gusts":49.3,"aqi":43,"pm10":12.2,"pm2_5":8.5,"no2":9.8,"co":149.0,"o3":33.0,"so2":3.3,"mosquito_risk":3,"arthritis_risk":5,"migraine_risk":7,"frizz_risk":1,"updated_at":"2026-06-02T03:42:15.229737+05:30"},{"city":"Goa","state":"Goa","latitude":15.2993,"longitude":74.124,"temp":26.4,"humidity":95,"rain":0.0,"pressure":997.4,"uv_index":6.5,"wind_gusts":28.8,"aqi":51,"pm10":22.9,"pm2_5":18.9,"no2":12.3,"co":434.0,"o3":36.0,"so2":3.3,"mosquito_risk":7,"arthritis_risk":5,"migraine_risk":7,"frizz_risk":1,"updated_at":"2026-06-02T03:42:15.229744+05:30"},{"city":"Jodhpur","state":"Rajasthan","latitude":26.2389,"longitude":73.0243,"temp":28.6,"humidity":63,"rain":0.0,"pressure":980.9,"uv_index":8.4,"wind_gusts":41.4,"aqi":97,"pm10":69.6,"pm2_5":35.0,"no2":19.0,"co":222.0,"o3":20.0,"so2":4.4,"mosquito_risk":7,"arthritis_risk":5,"migraine_risk":7,"frizz_risk":1,"updated_at":"2026-06-02T03:42:15.229752+05:30"},{"city":"Udaipur","state":"Rajasthan","latitude":24.5854,"longitude":73.7125,"temp":24.5,"humidity":76,"rain":0.0,"pressure":944.6,"uv_index":8.8,"wind_gusts":37.8,"aqi":68,"pm10":45.8,"pm2_5":22.2,"no2":6.5,"co":186.0,"o3":56.0,"so2":5.7,"mosquito_risk":3,"arthritis_risk":5,"migraine_risk":7,"frizz_risk":1,"updated_at":"2026-06-02T03:42:15.229760+05:30"},{"city":"Kota","state":"Rajasthan","latitude":25.2138,"longitude":75.8648,"temp":26.0,"humidity":81,"rain":0.0,"pressure":977.3,"uv_index":8.35,"wind_gusts":54.4,"aqi":87,"pm10":71.9,"pm2_5":34.7,"no2":9.0,"co":189.0,"o3":53.0,"so2":4.2,"mosquito_risk":7,"arthritis_risk":5,"migraine_risk":7,"frizz_risk":1,"updated_at":"2026-06-02T03:42:15.229767+05:30"},{"city":"Bikaner","state":"Rajasthan","latitude":28.0229,"longitude":73.3119,"temp":27.5,"humidity":71,"rain":0.0,"pressure":979.9,"uv_index":8.45,"wind_gusts":32.8,"aqi":125,"pm10":129.5,"pm2_5":47.6,"no2":5.8,"co":143.0,"o3":41.0,"so2":3.4,"mosquito_risk":7,"arthritis_risk":5,"migraine_risk":7,"frizz_risk":1,"updated_at":"2026-06-02T03:42:15.229775+05:30"},{"city":"Ajmer","state":"Rajasthan","latitude":26.4499,"longitude":74.6399,"temp":25.6,"humidity":73,"rain":0.0,"pressure":952.7,"uv_index":8.35,"wind_gusts":52.9,"aqi":85,"pm10":114.3,"pm2_5":36.9,"no2":9.3,"co":193.0,"o3":39.0,"so2":2.5,"mosquito_risk":7,"arthritis_risk":5,"migraine_risk":7,"frizz_risk":1,"updated_at":"2026-06-02T03:42:15.229782+05:30"},{"city":"Gwalior","state":"Madhya Pradesh","latitude":26.2183,"longitude":78.1828,"temp":26.5,"humidity":75,"rain":0.0,"pressure":982.0,"uv_index":7.7,"wind_gusts":21.2,"aqi":103,"pm10":47.0,"pm2_5":31.1,"no2":11.5,"co":283.0,"o3":53.0,"so2":4.3,"mosquito_risk":7,"arthritis_risk":5,"migraine_risk":7,"frizz_risk":1,"updated_at":"2026-06-02T03:42:15.229789+05:30"},{"city":"Indore","state":"Madhya Pradesh","latitude":22.7196,"longitude":75.8577,"temp":24.8,"humidity":77,"rain":0.0,"pressure":946.7,"uv_index":8.6,"wind_gusts":37.8,"aqi":84,"pm10":57.4,"pm2_5":41.7,"no2":20.3,"co":388.0,"o3":38.0,"so2":9.8,"mosquito_risk":3,"arthritis_risk":5,"migraine_risk":7,"frizz_risk":1,"updated_at":"2026-06-02T03:42:15.229796+05:30"},{"city":"Bhopal","state":"Madhya Pradesh","latitude":23.2599,"longitude":77.4126,"temp":27.1,"humidity":57,"rain":0.0,"pressure":952.2,"uv_index":8.65,"wind_gusts":28.4,"aqi":69,"pm10":42.5,"pm2_5":24.7,"no2":7.1,"co":236.0,"o3":65.0,"so2":3.9,"mosquito_risk":4,"arthritis_risk":5,"migraine_risk":7,"frizz_risk":1,"updated_at":"2026-06-02T03:42:15.229804+05:30"},{"city":"Jabalpur","state":"Madhya Pradesh","latitude":23.1815,"longitude":79.9864,"temp":29.0,"humidity":50,"rain":0.0,"pressure":960.3,"uv_index":8.85,"wind_gusts":26.3,"aqi":85,"pm10":46.0,"pm2_5":32.2,"no2":18.4,"co":237.0,"o3":58.0,"so2":6.4,"mosquito_risk":4,"arthritis_risk":5,"migraine_risk":7,"frizz_risk":1,"updated_at":"2026-06-02T03:42:15.229811+05:30"},{"city":"Ujjain","state":"Madhya Pradesh","latitude":23.1765,"longitude":75.7885,"temp":24.8,"humidity":77,"rain":0.0,"pressure":952.5,"uv_index":8.6,"wind_gusts":46.8,"aqi":78,"pm10":47.3,"pm2_5":33.5,"no2":9.7,"co":412.0,"o3":51.0,"so2":8.0,"mosquito_risk":3,"arthritis_risk":5,"migraine_risk":7,"frizz_risk":1,"updated_at":"2026-06-02T03:42:15.229819+05:30"},{"city":"Visakhapatnam","state":"Andhra Pradesh","latitude":17.6868,"longitude":83.2185,"temp":28.3,"humidity":91,"rain":0.0,"pressure":1001.5,"uv_index":8.5,"wind_gusts":38.5,"aqi":96,"pm10":43.1,"pm2_5":34.5,"no2":31.3,"co":391.0,"o3":80.0,"so2":41.8,"mosquito_risk":7,"arthritis_risk":5,"migraine_risk":4,"frizz_risk":1,"updated_at":"2026-06-02T03:42:15.229827+05:30"},{"city":"Vijayawada","state":"Andhra Pradesh","latitude":16.5062,"longitude":80.648,"temp":29.6,"humidity":78,"rain":0.0,"pressure":1000.4,"uv_index":9.0,"wind_gusts":28.8,"aqi":94,"pm10":32.4,"pm2_5":27.3,"no2":7.9,"co":215.0,"o3":104.0,"so2":6.0,"mosquito_risk":7,"arthritis_risk":5,"migraine_risk":4,"frizz_risk":1,"updated_at":"2026-06-02T03:42:15.229834+05:30"},{"city":"Guntur","state":"Andhra Pradesh","latitude":16.3067,"longitude":80.4365,"temp":29.3,"humidity":82,"rain":0.0,"pressure":1001.5,"uv_index":9.05,"wind_gusts":31.0,"aqi":99,"pm10":32.5,"pm2_5":27.9,"no2":8.8,"co":176.0,"o3":101.0,"so2":6.6,"mosquito_risk":7,"arthritis_risk":5,"migraine_risk":4,"frizz_risk":1,"updated_at":"2026-06-02T03:42:15.229841+05:30"},{"city":"Nellore","state":"Andhra Pradesh","latitude":14.4426,"longitude":79.9865,"temp":29.1,"humidity":67,"rain":0.0,"pressure":1003.7,"uv_index":9.0,"wind_gusts":32.0,"aqi":82,"pm10":26.8,"pm2_5":23.1,"no2":8.8,"co":307.0,"o3":86.0,"so2":7.7,"mosquito_risk":7,"arthritis_risk":5,"migraine_risk":4,"frizz_risk":1,"updated_at":"2026-06-02T03:42:15.229848+05:30"},{"city":"Kurnool","state":"Andhra Pradesh","latitude":15.8281,"longitude":78.0373,"temp":29.4,"humidity":50,"rain":0.0,"pressure":975.5,"uv_index":8.9,"wind_gusts":43.6,"aqi":78,"pm10":26.7,"pm2_5":18.9,"no2":11.2,"co":181.0,"o3":66.0,"so2":6.7,"mosquito_risk":4,"arthritis_risk":5,"migraine_risk":7,"frizz_risk":1,"updated_at":"2026-06-02T03:42:15.229856+05:30"},{"city":"Kakinada","state":"Andhra Pradesh","latitude":16.9891,"longitude":82.2475,"temp":27.6,"humidity":91,"rain":0.0,"pressure":1005.3,"uv_index":9.05,"wind_gusts":32.4,"aqi":78,"pm10":39.6,"pm2_5":27.6,"no2":4.2,"co":436.0,"o3":119.0,"so2":4.0,"mosquito_risk":7,"arthritis_risk":5,"migraine_risk":4,"frizz_risk":1,"updated_at":"2026-06-02T03:42:15.229863+05:30"},{"city":"Tirupati","state":"Andhra Pradesh","latitude":13.6288,"longitude":79.4192,"temp":28.0,"humidity":69,"rain":0.0,"pressure":990.1,"uv_index":9.0,"wind_gusts":26.6,"aqi":70,"pm10":28.6,"pm2_5":25.1,"no2":16.0,"co":184.0,"o3":56.0,"so2":5.6,"mosquito_risk":7,"arthritis_risk":5,"migraine_risk":7,"frizz_risk":1,"updated_at":"2026-06-02T03:42:15.229870+05:30"},{"city":"Warangal","state":"Telangana","latitude":17.9689,"longitude":79.5941,"temp":29.2,"humidity":57,"rain":0.0,"pressure":976.5,"uv_index":8.7,"wind_gusts":33.1,"aqi":128,"pm10":81.3,"pm2_5":59.4,"no2":34.7,"co":488.0,"o3":54.0,"so2":11.4,"mosquito_risk":4,"arthritis_risk":5,"migraine_risk":7,"frizz_risk":1,"updated_at":"2026-06-02T03:42:15.229877+05:30"},{"city":"Nizamabad","state":"Telangana","latitude":18.6725,"longitude":78.0941,"temp":27.8,"humidity":60,"rain":0.0,"pressure":962.9,"uv_index":8.9,"wind_gusts":50.0,"aqi":74,"pm10":36.1,"pm2_5":22.6,"no2":8.0,"co":162.0,"o3":79.0,"so2":4.5,"mosquito_risk":4,"arthritis_risk":5,"migraine_risk":7,"frizz_risk":1,"updated_at":"2026-06-02T03:42:15.229883+05:30"},{"city":"Mysore","state":"Karnataka","latitude":12.2958,"longitude":76.6396,"temp":22.3,"humidity":96,"rain":0.0,"pressure":927.8,"uv_index":9.1,"wind_gusts":40.7,"aqi":47,"pm10":14.8,"pm2_5":14.5,"no2":16.2,"co":260.0,"o3":40.0,"so2":2.8,"mosquito_risk":3,"arthritis_risk":5,"migraine_risk":7,"frizz_risk":1,"updated_at":"2026-06-02T03:42:15.229890+05:30"},{"city":"Mangalore","state":"Karnataka","latitude":12.9141,"longitude":74.856,"temp":24.8,"humidity":98,"rain":0.2,"pressure":1007.4,"uv_index":3.4,"wind_gusts":28.4,"aqi":52,"pm10":27.1,"pm2_5":24.9,"no2":21.5,"co":404.0,"o3":24.0,"so2":5.5,"mosquito_risk":6,"arthritis_risk":5,"migraine_risk":0,"frizz_risk":1,"updated_at":"2026-06-02T03:42:15.229896+05:30"},{"city":"Hubli-Dharwad","state":"Karnataka","latitude":15.3647,"longitude":75.124,"temp":24.2,"humidity":92,"rain":0.0,"pressure":940.6,"uv_index":8.8,"wind_gusts":35.3,"aqi":39,"pm10":8.3,"pm2_5":5.7,"no2":5.7,"co":156.0,"o3":39.0,"so2":1.7,"mosquito_risk":3,"arthritis_risk":5,"migraine_risk":7,"frizz_risk":1,"updated_at":"2026-06-02T03:42:15.229903+05:30"},{"city":"Belgaum","state":"Karnataka","latitude":15.8497,"longitude":74.4977,"temp":22.2,"humidity":97,"rain":0.0,"pressure":925.0,"uv_index":7.45,"wind_gusts":46.4,"aqi":45,"pm10":15.1,"pm2_5":11.7,"no2":10.0,"co":154.0,"o3":31.0,"so2":0.6,"mosquito_risk":3,"arthritis_risk":5,"migraine_risk":7,"frizz_risk":1,"updated_at":"2026-06-02T03:42:18.461697+05:30"},{"city":"Coimbatore","state":"Tamil Nadu","latitude":11.0168,"longitude":76.9558,"temp":25.6,"humidity":82,"rain":0.0,"pressure":961.0,"uv_index":9.0,"wind_gusts":48.2,"aqi":33,"pm10":9.4,"pm2_5":8.6,"no2":8.7,"co":176.0,"o3":51.0,"so2":3.4,"mosquito_risk":7,"arthritis_risk":5,"migraine_risk":7,"frizz_risk":1,"updated_at":"2026-06-02T03:42:18.461734+05:30"},{"city":"Madurai","state":"Tamil Nadu","latitude":9.9252,"longitude":78.1198,"temp":28.2,"humidity":81,"rain":0.0,"pressure":992.1,"uv_index":8.85,"wind_gusts":56.5,"aqi":78,"pm10":57.2,"pm2_5":46.4,"no2":50.6,"co":301.0,"o3":0.0,"so2":11.2,"mosquito_risk":7,"arthritis_risk":5,"migraine_risk":7,"frizz_risk":1,"updated_at":"2026-06-02T03:42:18.461746+05:30"},{"city":"Trichy","state":"Tamil Nadu","latitude":10.7905,"longitude":78.7047,"temp":27.7,"humidity":81,"rain":0.0,"pressure":999.1,"uv_index":8.9,"wind_gusts":40.3,"aqi":56,"pm10":20.5,"pm2_5":17.7,"no2":20.3,"co":195.0,"o3":38.0,"so2":5.2,"mosquito_risk":7,"arthritis_risk":5,"migraine_risk":7,"frizz_risk":1,"updated_at":"2026-06-02T03:42:18.461754+05:30"},{"city":"Salem","state":"Tamil Nadu","latitude":11.6643,"longitude":78.146,"temp":27.6,"humidity":72,"rain":0.0,"pressure":976.8,"uv_index":8.95,"wind_gusts":36.0,"aqi":65,"pm10":23.2,"pm2_5":20.8,"no2":21.3,"co":212.0,"o3":47.0,"so2":8.4,"mosquito_risk":7,"arthritis_risk":5,"migraine_risk":7,"frizz_risk":1,"updated_at":"2026-06-02T03:42:18.461763+05:30"},{"city":"Tirunelveli","state":"Tamil Nadu","latitude":8.7139,"longitude":77.7567,"temp":28.8,"humidity":70,"rain":0.0,"pressure":1002.7,"uv_index":8.65,"wind_gusts":31.3,"aqi":33,"pm10":13.6,"pm2_5":11.5,"no2":11.0,"co":149.0,"o3":32.0,"so2":2.5,"mosquito_risk":7,"arthritis_risk":5,"migraine_risk":4,"frizz_risk":1,"updated_at":"2026-06-02T03:42:18.461771+05:30"},{"city":"Vellore","state":"Tamil Nadu","latitude":12.9165,"longitude":79.1325,"temp":26.1,"humidity":84,"rain":0.0,"pressure":983.5,"uv_index":9.0,"wind_gusts":27.0,"aqi":73,"pm10":32.8,"pm2_5":28.9,"no2":20.8,"co":230.0,"o3":34.0,"so2":5.1,"mosquito_risk":7,"arthritis_risk":5,"migraine_risk":7,"frizz_risk":1,"updated_at":"2026-06-02T03:42:18.461779+05:30"},{"city":"Erode","state":"Tamil Nadu","latitude":11.341,"longitude":77.7172,"temp":27.0,"humidity":77,"rain":0.0,"pressure":988.4,"uv_index":8.95,"wind_gusts":46.1,"aqi":47,"pm10":13.6,"pm2_5":12.8,"no2":20.1,"co":299.0,"o3":35.0,"so2":5.1,"mosquito_risk":7,"arthritis_risk":5,"migraine_risk":7,"frizz_risk":1,"updated_at":"2026-06-02T03:42:18.461787+05:30"},{"city":"Kochi","state":"Kerala","latitude":9.9312,"longitude":76.2673,"temp":26.0,"humidity":96,"rain":0.0,"pressure":1008.4,"uv_index":8.2,"wind_gusts":27.7,"aqi":51,"pm10":16.2,"pm2_5":15.1,"no2":15.9,"co":281.0,"o3":16.0,"so2":4.3,"mosquito_risk":7,"arthritis_risk":0,"migraine_risk":4,"frizz_risk":1,"updated_at":"2026-06-02T03:42:18.461794+05:30"},{"city":"Thiruvananthapuram","state":"Kerala","latitude":8.5241,"longitude":76.9366,"temp":25.5,"humidity":96,"rain":0.1,"pressure":1008.4,"uv_index":8.35,"wind_gusts":37.8,"aqi":29,"pm10":7.4,"pm2_5":4.1,"no2":1.2,"co":302.0,"o3":40.0,"so2":0.4,"mosquito_risk":10,"arthritis_risk":0,"migraine_risk":4,"frizz_risk":1,"updated_at":"2026-06-02T03:42:18.461801+05:30"},{"city":"Kozhikode","state":"Kerala","latitude":11.2588,"longitude":75.7804,"temp":25.6,"humidity":97,"rain":0.1,"pressure":1007.9,"uv_index":6.6,"wind_gusts":27.7,"aqi":33,"pm10":10.2,"pm2_5":7.6,"no2":4.2,"co":422.0,"o3":68.0,"so2":2.9,"mosquito_risk":10,"arthritis_risk":5,"migraine_risk":4,"frizz_risk":1,"updated_at":"2026-06-02T03:42:18.461808+05:30"},{"city":"Thrissur","state":"Kerala","latitude":10.5276,"longitude":76.2144,"temp":25.0,"humidity":96,"rain":0.0,"pressure":1006.9,"uv_index":8.35,"wind_gusts":28.1,"aqi":46,"pm10":15.9,"pm2_5":15.1,"no2":16.7,"co":274.0,"o3":12.0,"so2":4.0,"mosquito_risk":7,"arthritis_risk":5,"migraine_risk":4,"frizz_risk":1,"updated_at":"2026-06-02T03:42:18.461817+05:30"},{"city":"Kannur","state":"Kerala","latitude":11.8745,"longitude":75.3704,"temp":25.1,"humidity":99,"rain":0.1,"pressure":1007.5,"uv_index":6.15,"wind_gusts":28.1,"aqi":42,"pm10":22.9,"pm2_5":21.4,"no2":22.4,"co":309.0,"o3":21.0,"so2":3.6,"mosquito_risk":10,"arthritis_risk":5,"migraine_risk":4,"frizz_risk":1,"updated_at":"2026-06-02T03:42:18.461824+05:30"},{"city":"Patna","state":"Bihar","latitude":25.5941,"longitude":85.1376,"temp":28.9,"humidity":70,"rain":0.0,"pressure":999.3,"uv_index":8.85,"wind_gusts":19.1,"aqi":158,"pm10":93.8,"pm2_5":86.6,"no2":44.2,"co":693.0,"o3":25.0,"so2":16.5,"mosquito_risk":7,"arthritis_risk":5,"migraine_risk":7,"frizz_risk":1,"updated_at":"2026-06-02T03:42:18.461831+05:30"},{"city":"Gaya","state":"Bihar","latitude":24.7914,"longitude":85.0002,"temp":26.5,"humidity":78,"rain":0.0,"pressure":992.7,"uv_index":8.9,"wind_gusts":20.9,"aqi":152,"pm10":75.7,"pm2_5":68.5,"no2":31.1,"co":437.0,"o3":51.0,"so2":9.7,"mosquito_risk":7,"arthritis_risk":5,"migraine_risk":7,"frizz_risk":1,"updated_at":"2026-06-02T03:42:18.461838+05:30"},{"city":"Muzaffarpur","state":"Bihar","latitude":26.1209,"longitude":85.3647,"temp":27.0,"humidity":78,"rain":0.0,"pressure":999.3,"uv_index":8.85,"wind_gusts":20.9,"aqi":160,"pm10":93.1,"pm2_5":84.8,"no2":42.0,"co":960.0,"o3":28.0,"so2":14.4,"mosquito_risk":7,"arthritis_risk":5,"migraine_risk":7,"frizz_risk":1,"updated_at":"2026-06-02T03:42:18.461844+05:30"},{"city":"Bhagalpur","state":"Bihar","latitude":25.2425,"longitude":87.0117,"temp":27.7,"humidity":85,"rain":0.0,"pressure":999.9,"uv_index":8.85,"wind_gusts":17.6,"aqi":157,"pm10":112.5,"pm2_5":103.6,"no2":40.2,"co":595.0,"o3":30.0,"so2":18.7,"mosquito_risk":7,"arthritis_risk":5,"migraine_risk":7,"frizz_risk":1,"updated_at":"2026-06-02T03:42:18.461851+05:30"},{"city":"Ranchi","state":"Jharkhand","latitude":23.3441,"longitude":85.3096,"temp":23.5,"humidity":76,"rain":0.0,"pressure":936.8,"uv_index":9.25,"wind_gusts":24.1,"aqi":132,"pm10":94.3,"pm2_5":77.3,"no2":38.4,"co":643.0,"o3":45.0,"so2":9.7,"mosquito_risk":3,"arthritis_risk":5,"migraine_risk":7,"frizz_risk":1,"updated_at":"2026-06-02T03:42:18.461858+05:30"},{"city":"Jamshedpur","state":"Jharkhand","latitude":22.8046,"longitude":86.2029,"temp":26.4,"humidity":89,"rain":0.0,"pressure":990.0,"uv_index":9.05,"wind_gusts":34.6,"aqi":154,"pm10":90.1,"pm2_5":82.0,"no2":42.7,"co":733.0,"o3":29.0,"so2":18.3,"mosquito_risk":7,"arthritis_risk":5,"migraine_risk":7,"frizz_risk":1,"updated_at":"2026-06-02T03:42:18.461865+05:30"},{"city":"Dhanbad","state":"Jharkhand","latitude":23.7957,"longitude":86.4304,"temp":26.2,"humidity":85,"rain":0.0,"pressure":978.9,"uv_index":9.05,"wind_gusts":23.0,"aqi":173,"pm10":152.3,"pm2_5":145.3,"no2":67.5,"co":519.0,"o3":12.0,"so2":270.8,"mosquito_risk":7,"arthritis_risk":5,"migraine_risk":7,"frizz_risk":1,"updated_at":"2026-06-02T03:42:18.461872+05:30"},{"city":"Bokaro","state":"Jharkhand","latitude":23.6693,"longitude":86.1511,"temp":26.0,"humidity":86,"rain":0.0,"pressure":982.9,"uv_index":9.05,"wind_gusts":22.3,"aqi":176,"pm10":178.8,"pm2_5":165.8,"no2":72.1,"co":764.0,"o3":6.0,"so2":227.2,"mosquito_risk":7,"arthritis_risk":5,"migraine_risk":7,"frizz_risk":1,"updated_at":"2026-06-02T03:42:18.461878+05:30"},{"city":"Bhubaneswar","state":"Odisha","latitude":20.2961,"longitude":85.8245,"temp":27.9,"humidity":99,"rain":0.0,"pressure":1001.0,"uv_index":9.05,"wind_gusts":23.8,"aqi":112,"pm10":43.8,"pm2_5":40.9,"no2":9.7,"co":273.0,"o3":105.0,"so2":7.9,"mosquito_risk":7,"arthritis_risk":5,"migraine_risk":4,"frizz_risk":1,"updated_at":"2026-06-02T03:42:18.461885+05:30"},{"city":"Cuttack","state":"Odisha","latitude":20.4625,"longitude":85.8828,"temp":28.4,"humidity":97,"rain":0.0,"pressure":1002.8,"uv_index":9.1,"wind_gusts":34.6,"aqi":112,"pm10":43.8,"pm2_5":40.9,"no2":9.7,"co":293.0,"o3":105.0,"so2":7.9,"mosquito_risk":7,"arthritis_risk":5,"migraine_risk":4,"frizz_risk":1,"updated_at":"2026-06-02T03:42:18.461892+05:30"},{"city":"Rourkela","state":"Odisha","latitude":22.2604,"longitude":84.8536,"temp":27.2,"humidity":78,"rain":0.0,"pressure":983.9,"uv_index":9.0,"wind_gusts":28.4,"aqi":155,"pm10":119.2,"pm2_5":105.2,"no2":57.1,"co":424.0,"o3":10.0,"so2":21.2,"mosquito_risk":7,"arthritis_risk":5,"migraine_risk":7,"frizz_risk":1,"updated_at":"2026-06-02T03:42:18.461899+05:30"},{"city":"Raipur","state":"Chhattisgarh","latitude":21.2514,"longitude":81.6296,"temp":29.8,"humidity":54,"rain":0.0,"pressure":973.0,"uv_index":8.95,"wind_gusts":30.2,"aqi":142,"pm10":65.0,"pm2_5":51.7,"no2":34.0,"co":525.0,"o3":50.0,"so2":29.7,"mosquito_risk":4,"arthritis_risk":5,"migraine_risk":7,"frizz_risk":1,"updated_at":"2026-06-02T03:42:18.461906+05:30"},{"city":"Bhilai","state":"Chhattisgarh","latitude":21.1938,"longitude":81.3509,"temp":28.1,"humidity":68,"rain":0.0,"pressure":973.2,"uv_index":8.95,"wind_gusts":27.0,"aqi":151,"pm10":79.2,"pm2_5":61.0,"no2":51.3,"co":513.0,"o3":32.0,"so2":54.0,"mosquito_risk":7,"arthritis_risk":5,"migraine_risk":7,"frizz_risk":1,"updated_at":"2026-06-02T03:42:18.461913+05:30"},{"city":"Guwahati","state":"Assam","latitude":26.1158,"longitude":91.7086,"temp":27.0,"humidity":76,"rain":0.0,"pressure":1000.1,"uv_index":8.8,"wind_gusts":30.6,"aqi":96,"pm10":53.6,"pm2_5":48.7,"no2":18.5,"co":370.0,"o3":22.0,"so2":2.8,"mosquito_risk":7,"arthritis_risk":5,"migraine_risk":4,"frizz_risk":1,"updated_at":"2026-06-02T03:42:18.461918+05:30"},{"city":"Agartala","state":"Tripura","latitude":23.8315,"longitude":91.2868,"temp":26.4,"humidity":91,"rain":0.0,"pressure":1005.6,"uv_index":8.85,"wind_gusts":19.8,"aqi":120,"pm10":43.8,"pm2_5":39.3,"no2":18.6,"co":262.0,"o3":40.0,"so2":3.2,"mosquito_risk":7,"arthritis_risk":5,"migraine_risk":4,"frizz_risk":1,"updated_at":"2026-06-02T03:42:18.461925+05:30"},{"city":"Shillong","state":"Meghalaya","latitude":25.5788,"longitude":91.8933,"temp":17.4,"humidity":97,"rain":0.0,"pressure":856.4,"uv_index":7.15,"wind_gusts":22.7,"aqi":57,"pm10":21.4,"pm2_5":17.4,"no2":6.8,"co":307.0,"o3":59.0,"so2":2.3,"mosquito_risk":3,"arthritis_risk":10,"migraine_risk":7,"frizz_risk":1,"updated_at":"2026-06-02T03:42:18.461932+05:30"},{"city":"Imphal","state":"Manipur","latitude":24.817,"longitude":93.9368,"temp":21.9,"humidity":100,"rain":0.0,"pressure":922.7,"uv_index":9.25,"wind_gusts":29.5,"aqi":51,"pm10":8.8,"pm2_5":8.6,"no2":8.9,"co":524.0,"o3":47.0,"so2":1.8,"mosquito_risk":3,"arthritis_risk":5,"migraine_risk":7,"frizz_risk":1,"updated_at":"2026-06-02T03:42:18.461938+05:30"},{"city":"Aizawl","state":"Mizoram","latitude":23.7271,"longitude":92.7176,"temp":19.1,"humidity":96,"rain":0.1,"pressure":892.1,"uv_index":8.45,"wind_gusts":20.5,"aqi":50,"pm10":10.6,"pm2_5":7.9,"no2":4.7,"co":223.0,"o3":50.0,"so2":1.8,"mosquito_risk":6,"arthritis_risk":10,"migraine_risk":7,"frizz_risk":1,"updated_at":"2026-06-02T03:42:18.461945+05:30"},{"city":"Kohima","state":"Nagaland","latitude":25.6701,"longitude":94.1077,"temp":19.4,"humidity":94,"rain":0.0,"pressure":855.4,"uv_index":8.25,"wind_gusts":31.7,"aqi":27,"pm10":4.8,"pm2_5":4.1,"no2":3.0,"co":198.0,"o3":74.0,"so2":1.1,"mosquito_risk":3,"arthritis_risk":10,"migraine_risk":7,"frizz_risk":1,"updated_at":"2026-06-02T03:42:18.461952+05:30"},{"city":"Gangtok","state":"Sikkim","latitude":27.3314,"longitude":88.6138,"temp":14.3,"humidity":82,"rain":0.0,"pressure":836.4,"uv_index":8.9,"wind_gusts":39.6,"aqi":61,"pm10":21.7,"pm2_5":18.2,"no2":14.5,"co":304.0,"o3":23.0,"so2":0.6,"mosquito_risk":3,"arthritis_risk":10,"migraine_risk":7,"frizz_risk":0,"updated_at":"2026-06-02T03:42:18.461958+05:30"},{"city":"Siliguri","state":"West Bengal","latitude":26.7271,"longitude":88.3953,"temp":26.0,"humidity":80,"rain":0.0,"pressure":991.7,"uv_index":8.6,"wind_gusts":29.2,"aqi":114,"pm10":52.5,"pm2_5":50.2,"no2":34.1,"co":888.0,"o3":10.0,"so2":1.9,"mosquito_risk":7,"arthritis_risk":5,"migraine_risk":7,"frizz_risk":1,"updated_at":"2026-06-02T03:42:21.726141+05:30"},{"city":"Durgapur","state":"West Bengal","latitude":23.5204,"longitude":87.3119,"temp":27.0,"humidity":90,"rain":0.0,"pressure":994.0,"uv_index":8.95,"wind_gusts":23.4,"aqi":159,"pm10":81.5,"pm2_5":76.8,"no2":44.7,"co":1015.0,"o3":28.0,"so2":52.0,"mosquito_risk":7,"arthritis_risk":5,"migraine_risk":7,"frizz_risk":1,"updated_at":"2026-06-02T03:42:21.726179+05:30"},{"city":"Asansol","state":"West Bengal","latitude":23.6739,"longitude":86.9524,"temp":26.9,"humidity":84,"rain":0.0,"pressure":992.7,"uv_index":9.0,"wind_gusts":27.0,"aqi":157,"pm10":77.1,"pm2_5":71.9,"no2":43.7,"co":1685.0,"o3":28.0,"so2":51.9,"mosquito_risk":7,"arthritis_risk":5,"migraine_risk":7,"frizz_risk":1,"updated_at":"2026-06-02T03:42:21.726191+05:30"},{"city":"Pondicherry","state":"Puducherry","latitude":11.9139,"longitude":79.8145,"temp":28.2,"humidity":82,"rain":0.0,"pressure":1007.3,"uv_index":8.85,"wind_gusts":42.1,"aqi":67,"pm10":13.4,"pm2_5":10.2,"no2":12.9,"co":206.0,"o3":40.0,"so2":10.4,"mosquito_risk":7,"arthritis_risk":5,"migraine_risk":4,"frizz_risk":1,"updated_at":"2026-06-02T03:42:21.726200+05:30"},{"city":"Port Blair","state":"Andaman and Nicobar Islands","latitude":11.6234,"longitude":92.7265,"temp":24.9,"humidity":98,"rain":0.1,"pressure":1006.4,"uv_index":8.45,"wind_gusts":34.6,"aqi":30,"pm10":11.9,"pm2_5":6.3,"no2":0.2,"co":108.0,"o3":65.0,"so2":0.4,"mosquito_risk":6,"arthritis_risk":5,"migraine_risk":4,"frizz_risk":1,"updated_at":"2026-06-02T03:42:21.726208+05:30"},{"city":"Haridwar","state":"Uttarakhand","latitude":29.9457,"longitude":78.1642,"temp":22.9,"humidity":77,"rain":0.0,"pressure":973.6,"uv_index":7.45,"wind_gusts":24.8,"aqi":93,"pm10":58.1,"pm2_5":45.5,"no2":33.8,"co":314.0,"o3":56.0,"so2":8.0,"mosquito_risk":3,"arthritis_risk":5,"migraine_risk":7,"frizz_risk":1,"updated_at":"2026-06-02T03:42:21.726217+05:30"},{"city":"Rishikesh","state":"Uttarakhand","latitude":30.0869,"longitude":78.2676,"temp":21.1,"humidity":80,"rain":0.0,"pressure":966.3,"uv_index":7.55,"wind_gusts":28.1,"aqi":63,"pm10":38.2,"pm2_5":27.6,"no2":25.9,"co":408.0,"o3":58.0,"so2":3.4,"mosquito_risk":3,"arthritis_risk":5,"migraine_risk":7,"frizz_risk":1,"updated_at":"2026-06-02T03:42:21.726225+05:30"},{"city":"Nainital","state":"Uttarakhand","latitude":29.3919,"longitude":79.4542,"temp":11.5,"humidity":86,"rain":0.0,"pressure":803.6,"uv_index":6.55,"wind_gusts":30.2,"aqi":63,"pm10":28.2,"pm2_5":22.9,"no2":20.4,"co":267.0,"o3":49.0,"so2":1.5,"mosquito_risk":3,"arthritis_risk":10,"migraine_risk":7,"frizz_risk":0,"updated_at":"2026-06-02T03:42:21.726233+05:30"},{"city":"Mussoorie","state":"Uttarakhand","latitude":30.4599,"longitude":78.0664,"temp":14.5,"humidity":77,"rain":0.0,"pressure":802.4,"uv_index":8.05,"wind_gusts":33.1,"aqi":59,"pm10":28.5,"pm2_5":26.0,"no2":46.1,"co":254.0,"o3":15.0,"so2":4.9,"mosquito_risk":3,"arthritis_risk":5,"migraine_risk":7,"frizz_risk":0,"updated_at":"2026-06-02T03:42:21.726241+05:30"},{"city":"Dharamshala","state":"Himachal Pradesh","latitude":32.219,"longitude":76.3234,"temp":19.9,"humidity":60,"rain":0.0,"pressure":869.5,"uv_index":8.55,"wind_gusts":37.4,"aqi":38,"pm10":9.8,"pm2_5":7.1,"no2":9.9,"co":211.0,"o3":47.0,"so2":0.0,"mosquito_risk":0,"arthritis_risk":5,"migraine_risk":7,"frizz_risk":0,"updated_at":"2026-06-02T03:42:21.726249+05:30"},{"city":"Dalhousie","state":"Himachal Pradesh","latitude":32.5387,"longitude":75.971,"temp":10.6,"humidity":92,"rain":0.0,"pressure":802.2,"uv_index":8.75,"wind_gusts":31.3,"aqi":65,"pm10":30.9,"pm2_5":23.9,"no2":24.1,"co":285.0,"o3":47.0,"so2":1.2,"mosquito_risk":3,"arthritis_risk":10,"migraine_risk":7,"frizz_risk":0,"updated_at":"2026-06-02T03:42:21.726257+05:30"},{"city":"Patiala","state":"Punjab","latitude":30.3398,"longitude":76.3869,"temp":24.9,"humidity":69,"rain":0.0,"pressure":977.7,"uv_index":7.7,"wind_gusts":19.8,"aqi":171,"pm10":222.1,"pm2_5":68.0,"no2":12.1,"co":601.0,"o3":73.0,"so2":9.1,"mosquito_risk":3,"arthritis_risk":5,"migraine_risk":7,"frizz_risk":1,"updated_at":"2026-06-02T03:42:21.726264+05:30"},{"city":"Bhatinda","state":"Punjab","latitude":30.211,"longitude":74.9455,"temp":27.2,"humidity":48,"rain":0.0,"pressure":982.9,"uv_index":8.3,"wind_gusts":26.3,"aqi":192,"pm10":432.1,"pm2_5":101.7,"no2":18.2,"co":328.0,"o3":63.0,"so2":7.0,"mosquito_risk":4,"arthritis_risk":5,"migraine_risk":7,"frizz_risk":0,"updated_at":"2026-06-02T03:42:21.726271+05:30"},{"city":"Rohtak","state":"Haryana","latitude":28.8955,"longitude":76.6066,"temp":25.9,"humidity":67,"rain":0.0,"pressure":980.7,"uv_index":7.8,"wind_gusts":25.2,"aqi":186,"pm10":114.1,"pm2_5":64.0,"no2":35.9,"co":508.0,"o3":46.0,"so2":27.0,"mosquito_risk":7,"arthritis_risk":5,"migraine_risk":7,"frizz_risk":1,"updated_at":"2026-06-02T03:42:21.726278+05:30"},{"city":"Panipat","state":"Haryana","latitude":29.3909,"longitude":76.9635,"temp":25.0,"humidity":76,"rain":0.0,"pressure":979.9,"uv_index":7.65,"wind_gusts":26.6,"aqi":492,"pm10":124.8,"pm2_5":62.4,"no2":26.4,"co":535.0,"o3":52.0,"so2":11.1,"mosquito_risk":7,"arthritis_risk":5,"migraine_risk":7,"frizz_risk":1,"updated_at":"2026-06-02T03:42:21.726285+05:30"},{"city":"Mathura","state":"Uttar Pradesh","latitude":27.4924,"longitude":77.6737,"temp":26.0,"humidity":79,"rain":0.0,"pressure":985.3,"uv_index":8.0,"wind_gusts":27.0,"aqi":141,"pm10":107.6,"pm2_5":50.2,"no2":25.8,"co":437.0,"o3":43.0,"so2":7.6,"mosquito_risk":7,"arthritis_risk":5,"migraine_risk":7,"frizz_risk":1,"updated_at":"2026-06-02T03:42:21.726292+05:30"},{"city":"Vrindavan","state":"Uttar Pradesh","latitude":27.5823,"longitude":77.7027,"temp":25.7,"humidity":81,"rain":0.0,"pressure":985.9,"uv_index":8.0,"wind_gusts":26.3,"aqi":141,"pm10":107.6,"pm2_5":50.2,"no2":25.8,"co":414.0,"o3":43.0,"so2":7.6,"mosquito_risk":7,"arthritis_risk":5,"migraine_risk":7,"frizz_risk":1,"updated_at":"2026-06-02T03:42:21.726299+05:30"},{"city":"Ayodhya","state":"Uttar Pradesh","latitude":26.7922,"longitude":82.1998,"temp":25.8,"humidity":75,"rain":0.0,"pressure":994.5,"uv_index":8.4,"wind_gusts":43.2,"aqi":126,"pm10":102.9,"pm2_5":81.5,"no2":80.3,"co":547.0,"o3":0.0,"so2":14.7,"mosquito_risk":7,"arthritis_risk":5,"migraine_risk":7,"frizz_risk":1,"updated_at":"2026-06-02T03:42:21.726306+05:30"},{"city":"Ratlam","state":"Madhya Pradesh","latitude":23.3315,"longitude":75.0367,"temp":24.1,"humidity":80,"rain":0.0,"pressure":953.7,"uv_index":8.15,"wind_gusts":33.1,"aqi":74,"pm10":38.8,"pm2_5":24.1,"no2":6.7,"co":175.0,"o3":57.0,"so2":10.3,"mosquito_risk":3,"arthritis_risk":5,"migraine_risk":7,"frizz_risk":1,"updated_at":"2026-06-02T03:42:21.726314+05:30"},{"city":"Sagar","state":"Madhya Pradesh","latitude":23.8388,"longitude":78.7378,"temp":26.1,"humidity":57,"rain":0.0,"pressure":948.8,"uv_index":8.75,"wind_gusts":26.6,"aqi":75,"pm10":52.9,"pm2_5":28.9,"no2":24.1,"co":184.0,"o3":31.0,"so2":3.2,"mosquito_risk":4,"arthritis_risk":5,"migraine_risk":7,"frizz_risk":1,"updated_at":"2026-06-02T03:42:21.726321+05:30"},{"city":"Satna","state":"Madhya Pradesh","latitude":24.6005,"longitude":80.8322,"temp":26.6,"humidity":71,"rain":0.0,"pressure":970.1,"uv_index":8.8,"wind_gusts":49.3,"aqi":92,"pm10":35.7,"pm2_5":30.9,"no2":19.0,"co":340.0,"o3":58.0,"so2":6.3,"mosquito_risk":7,"arthritis_risk":5,"migraine_risk":7,"frizz_risk":1,"updated_at":"2026-06-02T03:42:21.726327+05:30"},{"city":"Akola","state":"Maharashtra","latitude":20.7002,"longitude":77.0082,"temp":27.4,"humidity":69,"rain":0.0,"pressure":973.8,"uv_index":8.8,"wind_gusts":40.0,"aqi":69,"pm10":39.0,"pm2_5":22.2,"no2":14.8,"co":177.0,"o3":48.0,"so2":4.3,"mosquito_risk":7,"arthritis_risk":5,"migraine_risk":7,"frizz_risk":1,"updated_at":"2026-06-02T03:42:21.726336+05:30"},{"city":"Amravati","state":"Maharashtra","latitude":20.9374,"longitude":77.7796,"temp":27.8,"humidity":55,"rain":0.0,"pressure":966.0,"uv_index":8.75,"wind_gusts":30.6,"aqi":70,"pm10":37.3,"pm2_5":21.9,"no2":13.6,"co":228.0,"o3":54.0,"so2":3.9,"mosquito_risk":4,"arthritis_risk":5,"migraine_risk":7,"frizz_risk":1,"updated_at":"2026-06-02T03:42:21.726344+05:30"},{"city":"Latur","state":"Maharashtra","latitude":18.4088,"longitude":76.5604,"temp":27.0,"humidity":63,"rain":0.0,"pressure":938.7,"uv_index":8.95,"wind_gusts":72.0,"aqi":63,"pm10":36.3,"pm2_5":19.7,"no2":10.2,"co":171.0,"o3":71.0,"so2":2.8,"mosquito_risk":7,"arthritis_risk":5,"migraine_risk":7,"frizz_risk":1,"updated_at":"2026-06-02T03:42:21.726351+05:30"},{"city":"Nanded","state":"Maharashtra","latitude":19.1383,"longitude":77.3091,"temp":29.0,"humidity":60,"rain":0.0,"pressure":967.1,"uv_index":8.9,"wind_gusts":49.3,"aqi":68,"pm10":30.4,"pm2_5":18.8,"no2":11.3,"co":175.0,"o3":67.0,"so2":3.6,"mosquito_risk":4,"arthritis_risk":5,"migraine_risk":7,"frizz_risk":1,"updated_at":"2026-06-02T03:42:21.726359+05:30"},{"city":"Gulbarga","state":"Karnataka","latitude":17.3297,"longitude":76.8343,"temp":28.5,"humidity":61,"rain":0.0,"pressure":957.7,"uv_index":8.9,"wind_gusts":42.1,"aqi":62,"pm10":28.1,"pm2_5":16.5,"no2":6.3,"co":186.0,"o3":82.0,"so2":4.4,"mosquito_risk":7,"arthritis_risk":5,"migraine_risk":7,"frizz_risk":1,"updated_at":"2026-06-02T03:42:21.726365+05:30"},{"city":"Bidar","state":"Karnataka","latitude":17.9104,"longitude":77.5199,"temp":28.3,"humidity":53,"rain":0.0,"pressure":934.5,"uv_index":8.65,"wind_gusts":38.9,"aqi":74,"pm10":34.7,"pm2_5":21.6,"no2":12.2,"co":119.0,"o3":73.0,"so2":3.9,"mosquito_risk":4,"arthritis_risk":5,"migraine_risk":7,"frizz_risk":1,"updated_at":"2026-06-02T03:42:21.726373+05:30"},{"city":"Hospet","state":"Karnataka","latitude":15.2689,"longitude":76.3909,"temp":25.5,"humidity":85,"rain":0.0,"pressure":955.4,"uv_index":8.7,"wind_gusts":43.6,"aqi":53,"pm10":8.1,"pm2_5":5.9,"no2":5.8,"co":180.0,"o3":46.0,"so2":1.6,"mosquito_risk":7,"arthritis_risk":5,"migraine_risk":7,"frizz_risk":1,"updated_at":"2026-06-02T03:42:21.726380+05:30"},{"city":"Tirupur","state":"Tamil Nadu","latitude":11.1085,"longitude":77.3411,"temp":26.1,"humidity":82,"rain":0.0,"pressure":974.3,"uv_index":9.05,"wind_gusts":53.3,"aqi":48,"pm10":17.5,"pm2_5":16.4,"no2":23.0,"co":151.0,"o3":38.0,"so2":6.0,"mosquito_risk":7,"arthritis_risk":5,"migraine_risk":7,"frizz_risk":1,"updated_at":"2026-06-02T03:42:21.726387+05:30"},{"city":"Alappuzha","state":"Kerala","latitude":9.4981,"longitude":76.3388,"temp":26.0,"humidity":98,"rain":0.0,"pressure":1008.7,"uv_index":8.55,"wind_gusts":33.8,"aqi":40,"pm10":13.1,"pm2_5":11.2,"no2":10.6,"co":275.0,"o3":37.0,"so2":3.7,"mosquito_risk":7,"arthritis_risk":0,"migraine_risk":4,"frizz_risk":1,"updated_at":"2026-06-02T03:42:21.726394+05:30"},{"city":"Munnar","state":"Kerala","latitude":10.0889,"longitude":77.0595,"temp":18.0,"humidity":100,"rain":0.0,"pressure":856.3,"uv_index":9.1,"wind_gusts":27.4,"aqi":43,"pm10":8.2,"pm2_5":8.0,"no2":8.8,"co":214.0,"o3":24.0,"so2":1.0,"mosquito_risk":3,"arthritis_risk":10,"migraine_risk":7,"frizz_risk":1,"updated_at":"2026-06-02T03:42:21.726401+05:30"},{"city":"Silchar","state":"Assam","latitude":24.8333,"longitude":92.7789,"temp":25.1,"humidity":100,"rain":0.0,"pressure":1005.0,"uv_index":8.75,"wind_gusts":20.2,"aqi":77,"pm10":24.4,"pm2_5":20.7,"no2":7.1,"co":334.0,"o3":96.0,"so2":4.1,"mosquito_risk":7,"arthritis_risk":5,"migraine_risk":4,"frizz_risk":1,"updated_at":"2026-06-02T03:42:21.726408+05:30"},{"city":"Dibrugarh","state":"Assam","latitude":27.4728,"longitude":94.912,"temp":24.5,"humidity":98,"rain":0.1,"pressure":995.1,"uv_index":8.7,"wind_gusts":23.0,"aqi":67,"pm10":16.7,"pm2_5":16.1,"no2":13.7,"co":229.0,"o3":37.0,"so2":1.2,"mosquito_risk":6,"arthritis_risk":5,"migraine_risk":7,"frizz_risk":1,"updated_at":"2026-06-02T03:42:21.726414+05:30"}]