[{"city":"Delhi","state":"Delhi","latitude":28.6139,"longitude":77.209,"temp":17.4,"humidity":80,"rain":0.0,"pressure":986.6,"uv_index":5.85,"wind_gusts":37.1,"aqi":342,"pm10":275.7,"pm2_5":67.1,"mosquito_risk":3,"arthritis_risk":5,"migraine_risk":3,"frizz_risk":0,"updated_at":"2026-03-04T04:03:12.488301+05:30"},{"city":"Mumbai","state":"Maharashtra","latitude":19.076,"longitude":72.8777,"temp":27.8,"humidity":65,"rain":0.0,"pressure":1009.2,"uv_index":7.4,"wind_gusts":25.6,"aqi":124,"pm10":46.1,"pm2_5":45.2,"mosquito_risk":7,"arthritis_risk":0,"migraine_risk":4,"frizz_risk":1,"updated_at":"2026-03-04T04:03:12.488342+05:30"},{"city":"Bangalore","state":"Karnataka","latitude":12.9716,"longitude":77.5946,"temp":19.5,"humidity":73,"rain":0.0,"pressure":912.1,"uv_index":9.1,"wind_gusts":36.7,"aqi":98,"pm10":39.3,"pm2_5":37.0,"mosquito_risk":3,"arthritis_risk":5,"migraine_risk":7,"frizz_risk":0,"updated_at":"2026-03-04T04:03:12.488358+05:30"},{"city":"Hyderabad","state":"Telangana","latitude":17.385,"longitude":78.4867,"temp":22.9,"humidity":61,"rain":0.0,"pressure":954.8,"uv_index":8.4,"wind_gusts":24.5,"aqi":120,"pm10":52.7,"pm2_5":51.5,"mosquito_risk":3,"arthritis_risk":5,"migraine_risk":7,"frizz_risk":0,"updated_at":"2026-03-04T04:03:12.488367+05:30"},{"city":"Chennai","state":"Tamil Nadu","latitude":13.0827,"longitude":80.2707,"temp":23.1,"humidity":91,"rain":0.0,"pressure":1009.2,"uv_index":8.8,"wind_gusts":28.4,"aqi":116,"pm10":52.6,"pm2_5":47.0,"mosquito_risk":3,"arthritis_risk":0,"migraine_risk":4,"frizz_risk":1,"updated_at":"2026-03-04T04:03:12.488375+05:30"},{"city":"Kolkata","state":"West Bengal","latitude":22.5726,"longitude":88.3639,"temp":20.1,"humidity":76,"rain":0.0,"pressure":1009.6,"uv_index":7.75,"wind_gusts":18.7,"aqi":164,"pm10":143.0,"pm2_5":112.5,"mosquito_risk":3,"arthritis_risk":0,"migraine_risk":4,"frizz_risk":0,"updated_at":"2026-03-04T04:03:12.488384+05:30"},{"city":"Pune","state":"Maharashtra","latitude":18.5204,"longitude":73.8567,"temp":22.5,"humidity":68,"rain":0.0,"pressure":949.6,"uv_index":7.95,"wind_gusts":31.3,"aqi":81,"pm10":31.0,"pm2_5":30.5,"mosquito_risk":3,"arthritis_risk":5,"migraine_risk":7,"frizz_risk":1,"updated_at":"2026-03-04T04:03:12.488396+05:30"},{"city":"Ahmedabad","state":"Gujarat","latitude":23.0225,"longitude":72.5714,"temp":22.5,"humidity":64,"rain":0.0,"pressure":1005.8,"uv_index":7.2,"wind_gusts":19.1,"aqi":84,"pm10":37.8,"pm2_5":28.8,"mosquito_risk":3,"arthritis_risk":5,"migraine_risk":4,"frizz_risk":0,"updated_at":"2026-03-04T04:03:12.488403+05:30"},{"city":"Jaipur","state":"Rajasthan","latitude":26.9124,"longitude":75.7873,"temp":21.1,"humidity":36,"rain":0.0,"pressure":963.7,"uv_index":6.6,"wind_gusts":33.5,"aqi":100,"pm10":55.3,"pm2_5":36.7,"mosquito_risk":0,"arthritis_risk":5,"migraine_risk":7,"frizz_risk":0,"updated_at":"2026-03-04T04:03:12.488410+05:30"},{"city":"Lucknow","state":"Uttar Pradesh","latitude":26.8467,"longitude":80.9462,"temp":17.6,"humidity":74,"rain":0.0,"pressure":997.0,"uv_index":6.35,"wind_gusts":26.3,"aqi":152,"pm10":305.5,"pm2_5":68.2,"mosquito_risk":3,"arthritis_risk":5,"migraine_risk":7,"frizz_risk":0,"updated_at":"2026-03-04T04:03:12.488418+05:30"},{"city":"Kanpur","state":"Uttar Pradesh","latitude":26.4499,"longitude":80.3319,"temp":16.1,"humidity":82,"rain":0.0,"pressure":995.4,"uv_index":6.35,"wind_gusts":29.9,"aqi":178,"pm10":343.7,"pm2_5":61.7,"mosquito_risk":3,"arthritis_risk":10,"migraine_risk":7,"frizz_risk":0,"updated_at":"2026-03-04T04:03:12.488425+05:30"},{"city":"Chandigarh","state":"Chandigarh","latitude":30.7333,"longitude":76.7794,"temp":16.4,"humidity":76,"rain":0.0,"pressure":971.6,"uv_index":5.75,"wind_gusts":36.0,"aqi":86,"pm10":31.4,"pm2_5":28.1,"mosquito_risk":3,"arthritis_risk":5,"migraine_risk":3,"frizz_risk":0,"updated_at":"2026-03-04T04:03:12.488432+05:30"},{"city":"Srinagar","state":"Jammu and Kashmir","latitude":34.0837,"longitude":74.7973,"temp":4.3,"humidity":79,"rain":0.0,"pressure":841.3,"uv_index":6.45,"wind_gusts":15.8,"aqi":136,"pm10":69.6,"pm2_5":59.4,"mosquito_risk":3,"arthritis_risk":5,"migraine_risk":7,"frizz_risk":0,"updated_at":"2026-03-04T04:03:12.488439+05:30"},{"city":"Jammu","state":"Jammu and Kashmir","latitude":32.7266,"longitude":74.857,"temp":14.8,"humidity":79,"rain":0.0,"pressure":976.4,"uv_index":6.35,"wind_gusts":27.0,"aqi":98,"pm10":40.6,"pm2_5":36.6,"mosquito_risk":3,"arthritis_risk":5,"migraine_risk":7,"frizz_risk":0,"updated_at":"2026-03-04T04:03:12.488446+05:30"},{"city":"Amritsar","state":"Punjab","latitude":31.634,"longitude":74.8723,"temp":16.8,"humidity":71,"rain":0.0,"pressure":984.7,"uv_index":6.3,"wind_gusts":22.7,"aqi":103,"pm10":79.6,"pm2_5":69.6,"mosquito_risk":3,"arthritis_risk":5,"migraine_risk":7,"frizz_risk":0,"updated_at":"2026-03-04T04:03:12.488453+05:30"},{"city":"Ludhiana","state":"Punjab","latitude":30.901,"longitude":75.8573,"temp":18.2,"humidity":71,"rain":0.0,"pressure":982.5,"uv_index":6.0,"wind_gusts":32.4,"aqi":143,"pm10":82.0,"pm2_5":75.4,"mosquito_risk":3,"arthritis_risk":5,"migraine_risk":3,"frizz_risk":0,"updated_at":"2026-03-04T04:03:12.488459+05:30"},{"city":"Jalandhar","state":"Punjab","latitude":31.326,"longitude":75.5762,"temp":15.0,"humidity":90,"rain":0.0,"pressure":983.7,"uv_index":6.15,"wind_gusts":29.2,"aqi":145,"pm10":92.7,"pm2_5":84.5,"mosquito_risk":3,"arthritis_risk":10,"migraine_risk":7,"frizz_risk":0,"updated_at":"2026-03-04T04:03:12.488470+05:30"},{"city":"Dehradun","state":"Uttarakhand","latitude":30.6284,"longitude":78.0322,"temp":10.9,"humidity":50,"rain":0.0,"pressure":829.1,"uv_index":6.1,"wind_gusts":32.0,"aqi":59,"pm10":18.7,"pm2_5":17.1,"mosquito_risk":0,"arthritis_risk":5,"migraine_risk":7,"frizz_risk":0,"updated_at":"2026-03-04T04:03:12.488476+05:30"},{"city":"Shimla","state":"Himachal Pradesh","latitude":31.1048,"longitude":77.1734,"temp":9.8,"humidity":47,"rain":0.0,"pressure":783.4,"uv_index":6.15,"wind_gusts":55.1,"aqi":72,"pm10":34.0,"pm2_5":26.7,"mosquito_risk":0,"arthritis_risk":5,"migraine_risk":7,"frizz_risk":1,"updated_at":"2026-03-04T04:03:12.488483+05:30"},{"city":"Manali","state":"Himachal Pradesh","latitude":32.2396,"longitude":77.1887,"temp":16.5,"humidity":16,"rain":0.0,"pressure":822.0,"uv_index":7.35,"wind_gusts":32.4,"aqi":50,"pm10":19.6,"pm2_5":13.9,"mosquito_risk":0,"arthritis_risk":5,"migraine_risk":7,"frizz_risk":1,"updated_at":"2026-03-04T04:03:12.488489+05:30"},{"city":"Gurgaon","state":"Haryana","latitude":28.4595,"longitude":77.0266,"temp":14.7,"humidity":90,"rain":0.0,"pressure":985.1,"uv_index":5.95,"wind_gusts":36.0,"aqi":1233,"pm10":933.2,"pm2_5":127.6,"mosquito_risk":3,"arthritis_risk":10,"migraine_risk":3,"frizz_risk":0,"updated_at":"2026-03-04T04:03:12.488496+05:30"},{"city":"Noida","state":"Uttar Pradesh","latitude":28.5355,"longitude":77.391,"temp":17.9,"humidity":77,"rain":0.0,"pressure":988.2,"uv_index":5.85,"wind_gusts":36.4,"aqi":1233,"pm10":933.2,"pm2_5":127.6,"mosquito_risk":3,"arthritis_risk":5,"migraine_risk":3,"frizz_risk":0,"updated_at":"2026-03-04T04:03:12.488502+05:30"},{"city":"Ghaziabad","state":"Uttar Pradesh","latitude":28.6692,"longitude":77.4538,"temp":17.3,"humidity":81,"rain":0.0,"pressure":986.2,"uv_index":5.85,"wind_gusts":33.8,"aqi":268,"pm10":233.8,"pm2_5":63.6,"mosquito_risk":3,"arthritis_risk":10,"migraine_risk":3,"frizz_risk":0,"updated_at":"2026-03-04T04:03:12.488509+05:30"},{"city":"Faridabad","state":"Haryana","latitude":28.4089,"longitude":77.3178,"temp":16.9,"humidity":76,"rain":0.0,"pressure":987.4,"uv_index":5.9,"wind_gusts":34.6,"aqi":1233,"pm10":933.2,"pm2_5":127.6,"mosquito_risk":3,"arthritis_risk":5,"migraine_risk":3,"frizz_risk":0,"updated_at":"2026-03-04T04:03:12.488516+05:30"},{"city":"Meerut","state":"Uttar Pradesh","latitude":28.9845,"longitude":77.7064,"temp":15.7,"humidity":89,"rain":0.0,"pressure":984.7,"uv_index":5.7,"wind_gusts":36.4,"aqi":268,"pm10":233.8,"pm2_5":63.6,"mosquito_risk":3,"arthritis_risk":10,"migraine_risk":3,"frizz_risk":0,"updated_at":"2026-03-04T04:03:12.488522+05:30"},{"city":"Agra","state":"Uttar Pradesh","latitude":27.1767,"longitude":78.0081,"temp":15.6,"humidity":70,"rain":0.0,"pressure":991.6,"uv_index":6.2,"wind_gusts":37.4,"aqi":418,"pm10":386.5,"pm2_5":65.4,"mosquito_risk":3,"arthritis_risk":5,"migraine_risk":7,"frizz_risk":0,"updated_at":"2026-03-04T04:03:12.488529+05:30"},{"city":"Varanasi","state":"Uttar Pradesh","latitude":25.3176,"longitude":82.9739,"temp":17.0,"humidity":77,"rain":0.0,"pressure":1001.4,"uv_index":7.0,"wind_gusts":19.8,"aqi":137,"pm10":82.9,"pm2_5":54.6,"mosquito_risk":3,"arthritis_risk":5,"migraine_risk":4,"frizz_risk":0,"updated_at":"2026-03-04T04:03:12.488540+05:30"},{"city":"Prayagraj","state":"Uttar Pradesh","latitude":25.4358,"longitude":81.8463,"temp":17.1,"humidity":82,"rain":0.0,"pressure":999.9,"uv_index":6.9,"wind_gusts":26.6,"aqi":141,"pm10":127.6,"pm2_5":59.0,"mosquito_risk":3,"arthritis_risk":10,"migraine_risk":7,"frizz_risk":0,"updated_at":"2026-03-04T04:03:12.488547+05:30"},{"city":"Gorakhpur","state":"Uttar Pradesh","latitude":26.7606,"longitude":83.3732,"temp":16.3,"humidity":89,"rain":0.0,"pressure":1000.7,"uv_index":6.75,"wind_gusts":7.9,"aqi":159,"pm10":121.1,"pm2_5":100.6,"mosquito_risk":3,"arthritis_risk":10,"migraine_risk":4,"frizz_risk":0,"updated_at":"2026-03-04T04:03:12.488554+05:30"},{"city":"Bareilly","state":"Uttar Pradesh","latitude":28.367,"longitude":79.4304,"temp":15.6,"humidity":87,"rain":0.0,"pressure":990.0,"uv_index":6.05,"wind_gusts":16.2,"aqi":154,"pm10":233.8,"pm2_5":88.2,"mosquito_risk":3,"arthritis_risk":10,"migraine_risk":7,"frizz_risk":0,"updated_at":"2026-03-04T04:03:12.488560+05:30"},{"city":"Aligarh","state":"Uttar Pradesh","latitude":27.8974,"longitude":78.088,"temp":15.4,"humidity":75,"rain":0.0,"pressure":989.1,"uv_index":5.95,"wind_gusts":32.8,"aqi":709,"pm10":577.4,"pm2_5":103.6,"mosquito_risk":3,"arthritis_risk":5,"migraine_risk":3,"frizz_risk":0,"updated_at":"2026-03-04T04:03:12.488566+05:30"},{"city":"Moradabad","state":"Uttar Pradesh","latitude":28.8386,"longitude":78.7733,"temp":15.2,"humidity":88,"rain":0.0,"pressure":986.7,"uv_index":5.9,"wind_gusts":19.8,"aqi":151,"pm10":181.6,"pm2_5":73.8,"mosquito_risk":3,"arthritis_risk":10,"migraine_risk":3,"frizz_risk":0,"updated_at":"2026-03-04T04:03:12.488572+05:30"},{"city":"Saharanpur","state":"Uttar Pradesh","latitude":29.9637,"longitude":77.546,"temp":15.4,"humidity":81,"rain":0.0,"pressure":978.5,"uv_index":5.5,"wind_gusts":40.3,"aqi":138,"pm10":113.2,"pm2_5":66.1,"mosquito_risk":3,"arthritis_risk":10,"migraine_risk":3,"frizz_risk":0,"updated_at":"2026-03-04T04:03:12.488578+05:30"},{"city":"Jhansi","state":"Uttar Pradesh","latitude":25.4484,"longitude":78.5685,"temp":16.7,"humidity":77,"rain":0.0,"pressure":981.6,"uv_index":6.8,"wind_gusts":33.8,"aqi":72,"pm10":18.0,"pm2_5":14.6,"mosquito_risk":3,"arthritis_risk":5,"migraine_risk":7,"frizz_risk":0,"updated_at":"2026-03-04T04:03:15.741328+05:30"},{"city":"Surat","state":"Gujarat","latitude":21.1702,"longitude":72.8311,"temp":23.4,"humidity":68,"rain":0.0,"pressure":1009.4,"uv_index":7.1,"wind_gusts":27.7,"aqi":157,"pm10":55.6,"pm2_5":52.9,"mosquito_risk":3,"arthritis_risk":0,"migraine_risk":4,"frizz_risk":1,"updated_at":"2026-03-04T04:03:15.741357+05:30"},{"city":"Vadodara","state":"Gujarat","latitude":22.3072,"longitude":73.1812,"temp":22.5,"humidity":64,"rain":0.0,"pressure":1007.5,"uv_index":7.2,"wind_gusts":19.1,"aqi":153,"pm10":85.2,"pm2_5":81.0,"mosquito_risk":3,"arthritis_risk":5,"migraine_risk":4,"frizz_risk":0,"updated_at":"2026-03-04T04:03:15.741367+05:30"},{"city":"Rajkot","state":"Gujarat","latitude":22.3039,"longitude":70.8022,"temp":21.5,"humidity":76,"rain":0.0,"pressure":998.1,"uv_index":7.0,"wind_gusts":20.5,"aqi":62,"pm10":24.5,"pm2_5":18.6,"mosquito_risk":3,"arthritis_risk":5,"migraine_risk":7,"frizz_risk":1,"updated_at":"2026-03-04T04:03:15.741374+05:30"},{"city":"Thane","state":"Maharashtra","latitude":19.2183,"longitude":72.9781,"temp":25.5,"humidity":62,"rain":0.0,"pressure":1008.9,"uv_index":7.4,"wind_gusts":36.4,"aqi":124,"pm10":46.1,"pm2_5":45.2,"mosquito_risk":7,"arthritis_risk":0,"migraine_risk":4,"frizz_risk":1,"updated_at":"2026-03-04T04:03:15.741382+05:30"},{"city":"Nagpur","state":"Maharashtra","latitude":21.1458,"longitude":79.0882,"temp":20.3,"humidity":68,"rain":0.0,"pressure":976.0,"uv_index":7.75,"wind_gusts":22.3,"aqi":70,"pm10":19.3,"pm2_5":16.2,"mosquito_risk":3,"arthritis_risk":5,"migraine_risk":7,"frizz_risk":0,"updated_at":"2026-03-04T04:03:15.741389+05:30"},{"city":"Nashik","state":"Maharashtra","latitude":19.9975,"longitude":73.7898,"temp":22.9,"humidity":50,"rain":0.0,"pressure":947.4,"uv_index":7.55,"wind_gusts":24.1,"aqi":90,"pm10":29.9,"pm2_5":29.0,"mosquito_risk":0,"arthritis_risk":5,"migraine_risk":7,"frizz_risk":0,"updated_at":"2026-03-04T04:03:15.741396+05:30"},{"city":"Aurangabad","state":"Maharashtra","latitude":19.8762,"longitude":75.3433,"temp":21.6,"humidity":52,"rain":0.0,"pressure":945.7,"uv_index":8.1,"wind_gusts":29.5,"aqi":75,"pm10":29.8,"pm2_5":29.4,"mosquito_risk":0,"arthritis_risk":5,"migraine_risk":7,"frizz_risk":0,"updated_at":"2026-03-04T04:03:15.741403+05:30"},{"city":"Solapur","state":"Maharashtra","latitude":17.6599,"longitude":75.9064,"temp":22.3,"humidity":71,"rain":0.0,"pressure":957.9,"uv_index":8.35,"wind_gusts":18.7,"aqi":82,"pm10":19.3,"pm2_5":18.7,"mosquito_risk":3,"arthritis_risk":5,"migraine_risk":7,"frizz_risk":1,"updated_at":"2026-03-04T04:03:15.741410+05:30"},{"city":"Kolhapur","state":"Maharashtra","latitude":16.705,"longitude":74.2433,"temp":21.4,"humidity":76,"rain":0.0,"pressure":948.2,"uv_index":8.45,"wind_gusts":35.6,"aqi":155,"pm10":94.5,"pm2_5":93.6,"mosquito_risk":3,"arthritis_risk":5,"migraine_risk":7,"frizz_risk":1,"updated_at":"2026-03-04T04:03:15.741417+05:30"},{"city":"Goa","state":"Goa","latitude":15.2993,"longitude":74.124,"temp":25.8,"humidity":90,"rain":0.0,"pressure":998.4,"uv_index":8.5,"wind_gusts":36.7,"aqi":90,"pm10":49.2,"pm2_5":45.4,"mosquito_risk":7,"arthritis_risk":5,"migraine_risk":7,"frizz_risk":1,"updated_at":"2026-03-04T04:03:15.741424+05:30"},{"city":"Jodhpur","state":"Rajasthan","latitude":26.2389,"longitude":73.0243,"temp":19.6,"humidity":60,"rain":0.0,"pressure":987.3,"uv_index":6.9,"wind_gusts":13.3,"aqi":73,"pm10":59.8,"pm2_5":31.2,"mosquito_risk":0,"arthritis_risk":5,"migraine_risk":7,"frizz_risk":0,"updated_at":"2026-03-04T04:03:15.741431+05:30"},{"city":"Udaipur","state":"Rajasthan","latitude":24.5854,"longitude":73.7125,"temp":17.6,"humidity":54,"rain":0.0,"pressure":950.1,"uv_index":7.5,"wind_gusts":13.3,"aqi":61,"pm10":30.9,"pm2_5":16.6,"mosquito_risk":0,"arthritis_risk":5,"migraine_risk":7,"frizz_risk":0,"updated_at":"2026-03-04T04:03:15.741438+05:30"},{"city":"Kota","state":"Rajasthan","latitude":25.2138,"longitude":75.8648,"temp":15.1,"humidity":87,"rain":0.0,"pressure":982.7,"uv_index":6.9,"wind_gusts":15.5,"aqi":85,"pm10":42.1,"pm2_5":33.1,"mosquito_risk":3,"arthritis_risk":10,"migraine_risk":7,"frizz_risk":0,"updated_at":"2026-03-04T04:03:15.741445+05:30"},{"city":"Bikaner","state":"Rajasthan","latitude":28.0229,"longitude":73.3119,"temp":20.7,"humidity":49,"rain":0.0,"pressure":986.2,"uv_index":6.6,"wind_gusts":23.8,"aqi":69,"pm10":40.0,"pm2_5":19.7,"mosquito_risk":0,"arthritis_risk":5,"migraine_risk":7,"frizz_risk":0,"updated_at":"2026-03-04T04:03:15.741453+05:30"},{"city":"Ajmer","state":"Rajasthan","latitude":26.4499,"longitude":74.6399,"temp":20.5,"humidity":34,"rain":0.0,"pressure":958.6,"uv_index":6.85,"wind_gusts":21.2,"aqi":73,"pm10":43.4,"pm2_5":25.1,"mosquito_risk":0,"arthritis_risk":5,"migraine_risk":7,"frizz_risk":0,"updated_at":"2026-03-04T04:03:15.741460+05:30"},{"city":"Gwalior","state":"Madhya Pradesh","latitude":26.2183,"longitude":78.1828,"temp":17.1,"humidity":62,"rain":0.0,"pressure":987.0,"uv_index":6.55,"wind_gusts":31.7,"aqi":102,"pm10":30.0,"pm2_5":24.4,"mosquito_risk":3,"arthritis_risk":5,"migraine_risk":7,"frizz_risk":0,"updated_at":"2026-03-04T04:03:15.741467+05:30"},{"city":"Indore","state":"Madhya Pradesh","latitude":22.7196,"longitude":75.8577,"temp":19.1,"humidity":61,"rain":0.0,"pressure":950.7,"uv_index":7.45,"wind_gusts":18.4,"aqi":88,"pm10":34.3,"pm2_5":30.9,"mosquito_risk":3,"arthritis_risk":5,"migraine_risk":7,"frizz_risk":0,"updated_at":"2026-03-04T04:03:15.741473+05:30"},{"city":"Bhopal","state":"Madhya Pradesh","latitude":23.2599,"longitude":77.4126,"temp":19.3,"humidity":53,"rain":0.0,"pressure":956.6,"uv_index":7.35,"wind_gusts":22.7,"aqi":76,"pm10":39.9,"pm2_5":32.0,"mosquito_risk":0,"arthritis_risk":5,"migraine_risk":7,"frizz_risk":0,"updated_at":"2026-03-04T04:03:15.741480+05:30"},{"city":"Jabalpur","state":"Madhya Pradesh","latitude":23.1815,"longitude":79.9864,"temp":18.1,"humidity":69,"rain":0.0,"pressure":964.5,"uv_index":7.4,"wind_gusts":24.5,"aqi":72,"pm10":37.3,"pm2_5":27.4,"mosquito_risk":3,"arthritis_risk":5,"migraine_risk":7,"frizz_risk":0,"updated_at":"2026-03-04T04:03:15.741487+05:30"},{"city":"Ujjain","state":"Madhya Pradesh","latitude":23.1765,"longitude":75.7885,"temp":18.0,"humidity":67,"rain":0.0,"pressure":956.8,"uv_index":7.35,"wind_gusts":16.2,"aqi":108,"pm10":49.1,"pm2_5":44.8,"mosquito_risk":3,"arthritis_risk":5,"migraine_risk":7,"frizz_risk":0,"updated_at":"2026-03-04T04:03:15.741494+05:30"},{"city":"Visakhapatnam","state":"Andhra Pradesh","latitude":17.6868,"longitude":83.2185,"temp":22.6,"humidity":96,"rain":0.0,"pressure":1006.4,"uv_index":8.4,"wind_gusts":35.3,"aqi":134,"pm10":57.0,"pm2_5":54.5,"mosquito_risk":3,"arthritis_risk":5,"migraine_risk":4,"frizz_risk":1,"updated_at":"2026-03-04T04:03:15.741501+05:30"},{"city":"Vijayawada","state":"Andhra Pradesh","latitude":16.5062,"longitude":80.648,"temp":23.3,"humidity":90,"rain":0.0,"pressure":1005.3,"uv_index":8.45,"wind_gusts":19.8,"aqi":133,"pm10":52.0,"pm2_5":47.7,"mosquito_risk":3,"arthritis_risk":5,"migraine_risk":4,"frizz_risk":1,"updated_at":"2026-03-04T04:03:15.741509+05:30"},{"city":"Guntur","state":"Andhra Pradesh","latitude":16.3067,"longitude":80.4365,"temp":22.7,"humidity":89,"rain":0.0,"pressure":1006.4,"uv_index":8.45,"wind_gusts":24.8,"aqi":123,"pm10":45.3,"pm2_5":41.4,"mosquito_risk":3,"arthritis_risk":5,"migraine_risk":4,"frizz_risk":1,"updated_at":"2026-03-04T04:03:15.741516+05:30"},{"city":"Nellore","state":"Andhra Pradesh","latitude":14.4426,"longitude":79.9865,"temp":22.8,"humidity":91,"rain":0.0,"pressure":1008.0,"uv_index":8.65,"wind_gusts":28.8,"aqi":111,"pm10":47.5,"pm2_5":44.2,"mosquito_risk":3,"arthritis_risk":0,"migraine_risk":4,"frizz_risk":1,"updated_at":"2026-03-04T04:03:15.741523+05:30"},{"city":"Kurnool","state":"Andhra Pradesh","latitude":15.8281,"longitude":78.0373,"temp":25.3,"humidity":53,"rain":0.0,"pressure":978.4,"uv_index":8.45,"wind_gusts":28.4,"aqi":103,"pm10":39.8,"pm2_5":38.0,"mosquito_risk":4,"arthritis_risk":5,"migraine_risk":7,"frizz_risk":0,"updated_at":"2026-03-04T04:03:15.741530+05:30"},{"city":"Kakinada","state":"Andhra Pradesh","latitude":16.9891,"longitude":82.2475,"temp":22.1,"humidity":89,"rain":0.0,"pressure":1010.2,"uv_index":8.4,"wind_gusts":33.1,"aqi":116,"pm10":46.0,"pm2_5":40.0,"mosquito_risk":3,"arthritis_risk":0,"migraine_risk":4,"frizz_risk":1,"updated_at":"2026-03-04T04:03:15.741536+05:30"},{"city":"Tirupati","state":"Andhra Pradesh","latitude":13.6288,"longitude":79.4192,"temp":19.9,"humidity":72,"rain":0.0,"pressure":993.8,"uv_index":8.8,"wind_gusts":36.4,"aqi":151,"pm10":79.6,"pm2_5":76.1,"mosquito_risk":3,"arthritis_risk":5,"migraine_risk":7,"frizz_risk":0,"updated_at":"2026-03-04T04:03:15.741543+05:30"},{"city":"Warangal","state":"Telangana","latitude":17.9689,"longitude":79.5941,"temp":22.8,"humidity":67,"rain":0.0,"pressure":980.7,"uv_index":8.2,"wind_gusts":23.0,"aqi":119,"pm10":53.2,"pm2_5":52.5,"mosquito_risk":3,"arthritis_risk":5,"migraine_risk":7,"frizz_risk":1,"updated_at":"2026-03-04T04:03:15.741550+05:30"},{"city":"Nizamabad","state":"Telangana","latitude":18.6725,"longitude":78.0941,"temp":20.6,"humidity":74,"rain":0.0,"pressure":966.6,"uv_index":8.1,"wind_gusts":25.2,"aqi":83,"pm10":22.8,"pm2_5":20.8,"mosquito_risk":3,"arthritis_risk":5,"migraine_risk":7,"frizz_risk":0,"updated_at":"2026-03-04T04:03:15.741556+05:30"},{"city":"Mysore","state":"Karnataka","latitude":12.2958,"longitude":76.6396,"temp":19.8,"humidity":72,"rain":0.0,"pressure":928.5,"uv_index":9.15,"wind_gusts":40.7,"aqi":107,"pm10":36.7,"pm2_5":35.0,"mosquito_risk":3,"arthritis_risk":5,"migraine_risk":7,"frizz_risk":0,"updated_at":"2026-03-04T04:03:15.741562+05:30"},{"city":"Mangalore","state":"Karnataka","latitude":12.9141,"longitude":74.856,"temp":28.0,"humidity":81,"rain":0.0,"pressure":1007.2,"uv_index":8.75,"wind_gusts":30.2,"aqi":72,"pm10":34.5,"pm2_5":30.4,"mosquito_risk":7,"arthritis_risk":5,"migraine_risk":4,"frizz_risk":1,"updated_at":"2026-03-04T04:03:15.741568+05:30"},{"city":"Hubli-Dharwad","state":"Karnataka","latitude":15.3647,"longitude":75.124,"temp":21.2,"humidity":95,"rain":0.0,"pressure":940.9,"uv_index":8.65,"wind_gusts":24.5,"aqi":93,"pm10":28.9,"pm2_5":28.4,"mosquito_risk":3,"arthritis_risk":5,"migraine_risk":7,"frizz_risk":1,"updated_at":"2026-03-04T04:03:15.741575+05:30"},{"city":"Belgaum","state":"Karnataka","latitude":15.8497,"longitude":74.4977,"temp":21.0,"humidity":93,"rain":0.0,"pressure":925.7,"uv_index":8.7,"wind_gusts":28.8,"aqi":118,"pm10":57.9,"pm2_5":55.2,"mosquito_risk":3,"arthritis_risk":5,"migraine_risk":7,"frizz_risk":1,"updated_at":"2026-03-04T04:03:18.996331+05:30"},{"city":"Coimbatore","state":"Tamil Nadu","latitude":11.0168,"longitude":76.9558,"temp":21.3,"humidity":62,"rain":0.0,"pressure":962.6,"uv_index":9.15,"wind_gusts":42.5,"aqi":112,"pm10":35.3,"pm2_5":34.6,"mosquito_risk":3,"arthritis_risk":5,"migraine_risk":7,"frizz_risk":0,"updated_at":"2026-03-04T04:03:18.996360+05:30"},{"city":"Madurai","state":"Tamil Nadu","latitude":9.9252,"longitude":78.1198,"temp":22.2,"humidity":82,"rain":0.0,"pressure":994.5,"uv_index":9.1,"wind_gusts":25.6,"aqi":103,"pm10":45.9,"pm2_5":44.8,"mosquito_risk":3,"arthritis_risk":5,"migraine_risk":7,"frizz_risk":1,"updated_at":"2026-03-04T04:03:18.996370+05:30"},{"city":"Trichy","state":"Tamil Nadu","latitude":10.7905,"longitude":78.7047,"temp":21.3,"humidity":96,"rain":0.0,"pressure":1001.7,"uv_index":9.0,"wind_gusts":30.2,"aqi":100,"pm10":51.0,"pm2_5":47.7,"mosquito_risk":3,"arthritis_risk":5,"migraine_risk":4,"frizz_risk":1,"updated_at":"2026-03-04T04:03:18.996378+05:30"},{"city":"Salem","state":"Tamil Nadu","latitude":11.6643,"longitude":78.146,"temp":21.6,"humidity":80,"rain":0.0,"pressure":978.6,"uv_index":9.05,"wind_gusts":35.6,"aqi":126,"pm10":55.2,"pm2_5":53.3,"mosquito_risk":3,"arthritis_risk":5,"migraine_risk":7,"frizz_risk":1,"updated_at":"2026-03-04T04:03:18.996386+05:30"},{"city":"Tirunelveli","state":"Tamil Nadu","latitude":8.7139,"longitude":77.7567,"temp":20.2,"humidity":90,"rain":0.0,"pressure":1004.6,"uv_index":9.15,"wind_gusts":33.5,"aqi":95,"pm10":45.6,"pm2_5":44.1,"mosquito_risk":3,"arthritis_risk":5,"migraine_risk":4,"frizz_risk":1,"updated_at":"2026-03-04T04:03:18.996393+05:30"},{"city":"Vellore","state":"Tamil Nadu","latitude":12.9165,"longitude":79.1325,"temp":20.3,"humidity":89,"rain":0.0,"pressure":986.7,"uv_index":8.9,"wind_gusts":40.0,"aqi":141,"pm10":78.9,"pm2_5":75.2,"mosquito_risk":3,"arthritis_risk":5,"migraine_risk":7,"frizz_risk":1,"updated_at":"2026-03-04T04:03:18.996400+05:30"},{"city":"Erode","state":"Tamil Nadu","latitude":11.341,"longitude":77.7172,"temp":22.4,"humidity":92,"rain":0.0,"pressure":990.7,"uv_index":9.05,"wind_gusts":29.2,"aqi":105,"pm10":38.2,"pm2_5":36.8,"mosquito_risk":3,"arthritis_risk":5,"migraine_risk":7,"frizz_risk":1,"updated_at":"2026-03-04T04:03:18.996408+05:30"},{"city":"Kochi","state":"Kerala","latitude":9.9312,"longitude":76.2673,"temp":26.6,"humidity":81,"rain":0.0,"pressure":1009.5,"uv_index":8.95,"wind_gusts":33.5,"aqi":107,"pm10":36.6,"pm2_5":35.5,"mosquito_risk":7,"arthritis_risk":0,"migraine_risk":4,"frizz_risk":1,"updated_at":"2026-03-04T04:03:18.996415+05:30"},{"city":"Thiruvananthapuram","state":"Kerala","latitude":8.5241,"longitude":76.9366,"temp":27.5,"humidity":75,"rain":0.0,"pressure":1008.6,"uv_index":9.0,"wind_gusts":26.6,"aqi":92,"pm10":39.0,"pm2_5":37.1,"mosquito_risk":7,"arthritis_risk":0,"migraine_risk":4,"frizz_risk":1,"updated_at":"2026-03-04T04:03:18.996422+05:30"},{"city":"Kozhikode","state":"Kerala","latitude":11.2588,"longitude":75.7804,"temp":27.5,"humidity":81,"rain":0.0,"pressure":1008.4,"uv_index":8.85,"wind_gusts":30.6,"aqi":73,"pm10":35.7,"pm2_5":31.0,"mosquito_risk":7,"arthritis_risk":0,"migraine_risk":4,"frizz_risk":1,"updated_at":"2026-03-04T04:03:18.996429+05:30"},{"city":"Thrissur","state":"Kerala","latitude":10.5276,"longitude":76.2144,"temp":24.3,"humidity":94,"rain":0.0,"pressure":1007.8,"uv_index":8.9,"wind_gusts":38.5,"aqi":107,"pm10":51.3,"pm2_5":48.8,"mosquito_risk":3,"arthritis_risk":5,"migraine_risk":4,"frizz_risk":1,"updated_at":"2026-03-04T04:03:18.996437+05:30"},{"city":"Kannur","state":"Kerala","latitude":11.8745,"longitude":75.3704,"temp":26.8,"humidity":83,"rain":0.0,"pressure":1007.6,"uv_index":8.85,"wind_gusts":34.6,"aqi":70,"pm10":29.0,"pm2_5":25.8,"mosquito_risk":7,"arthritis_risk":5,"migraine_risk":4,"frizz_risk":1,"updated_at":"2026-03-04T04:03:18.996444+05:30"},{"city":"Patna","state":"Bihar","latitude":25.5941,"longitude":85.1376,"temp":19.4,"humidity":72,"rain":0.0,"pressure":1004.2,"uv_index":7.2,"wind_gusts":16.6,"aqi":154,"pm10":143.9,"pm2_5":116.2,"mosquito_risk":3,"arthritis_risk":5,"migraine_risk":4,"frizz_risk":0,"updated_at":"2026-03-04T04:03:18.996451+05:30"},{"city":"Gaya","state":"Bihar","latitude":24.7914,"longitude":85.0002,"temp":16.7,"humidity":64,"rain":0.0,"pressure":997.7,"uv_index":7.3,"wind_gusts":19.4,"aqi":122,"pm10":94.5,"pm2_5":65.4,"mosquito_risk":3,"arthritis_risk":5,"migraine_risk":7,"frizz_risk":0,"updated_at":"2026-03-04T04:03:18.996458+05:30"},{"city":"Muzaffarpur","state":"Bihar","latitude":26.1209,"longitude":85.3647,"temp":18.3,"humidity":72,"rain":0.0,"pressure":1004.2,"uv_index":7.15,"wind_gusts":13.7,"aqi":161,"pm10":143.9,"pm2_5":118.3,"mosquito_risk":3,"arthritis_risk":5,"migraine_risk":4,"frizz_risk":0,"updated_at":"2026-03-04T04:03:18.996464+05:30"},{"city":"Bhagalpur","state":"Bihar","latitude":25.2425,"longitude":87.0117,"temp":17.9,"humidity":78,"rain":0.0,"pressure":1005.2,"uv_index":7.2,"wind_gusts":10.1,"aqi":152,"pm10":144.8,"pm2_5":96.9,"mosquito_risk":3,"arthritis_risk":5,"migraine_risk":4,"frizz_risk":0,"updated_at":"2026-03-04T04:03:18.996471+05:30"},{"city":"Ranchi","state":"Jharkhand","latitude":23.3441,"longitude":85.3096,"temp":18.1,"humidity":51,"rain":0.0,"pressure":940.2,"uv_index":7.95,"wind_gusts":30.6,"aqi":77,"pm10":67.5,"pm2_5":39.1,"mosquito_risk":0,"arthritis_risk":5,"migraine_risk":7,"frizz_risk":0,"updated_at":"2026-03-04T04:03:18.996478+05:30"},{"city":"Jamshedpur","state":"Jharkhand","latitude":22.8046,"longitude":86.2029,"temp":17.1,"humidity":77,"rain":0.0,"pressure":994.3,"uv_index":7.85,"wind_gusts":22.3,"aqi":104,"pm10":78.9,"pm2_5":58.8,"mosquito_risk":3,"arthritis_risk":5,"migraine_risk":7,"frizz_risk":0,"updated_at":"2026-03-04T04:03:18.996485+05:30"},{"city":"Dhanbad","state":"Jharkhand","latitude":23.7957,"longitude":86.4304,"temp":16.8,"humidity":67,"rain":0.0,"pressure":983.4,"uv_index":7.7,"wind_gusts":24.5,"aqi":113,"pm10":83.8,"pm2_5":61.9,"mosquito_risk":3,"arthritis_risk":5,"migraine_risk":7,"frizz_risk":0,"updated_at":"2026-03-04T04:03:18.996491+05:30"},{"city":"Bokaro","state":"Jharkhand","latitude":23.6693,"longitude":86.1511,"temp":16.8,"humidity":58,"rain":0.0,"pressure":987.6,"uv_index":7.7,"wind_gusts":27.4,"aqi":116,"pm10":92.2,"pm2_5":69.4,"mosquito_risk":0,"arthritis_risk":5,"migraine_risk":7,"frizz_risk":0,"updated_at":"2026-03-04T04:03:18.996499+05:30"},{"city":"Bhubaneswar","state":"Odisha","latitude":20.2961,"longitude":85.8245,"temp":22.4,"humidity":97,"rain":0.0,"pressure":1005.5,"uv_index":8.1,"wind_gusts":29.5,"aqi":152,"pm10":77.3,"pm2_5":71.2,"mosquito_risk":3,"arthritis_risk":5,"migraine_risk":4,"frizz_risk":1,"updated_at":"2026-03-04T04:03:18.996505+05:30"},{"city":"Cuttack","state":"Odisha","latitude":20.4625,"longitude":85.8828,"temp":21.7,"humidity":98,"rain":0.0,"pressure":1007.5,"uv_index":8.15,"wind_gusts":28.8,"aqi":152,"pm10":77.3,"pm2_5":71.2,"mosquito_risk":3,"arthritis_risk":5,"migraine_risk":4,"frizz_risk":1,"updated_at":"2026-03-04T04:03:18.996512+05:30"},{"city":"Rourkela","state":"Odisha","latitude":22.2604,"longitude":84.8536,"temp":19.0,"humidity":65,"rain":0.0,"pressure":988.4,"uv_index":7.75,"wind_gusts":19.4,"aqi":93,"pm10":45.9,"pm2_5":31.5,"mosquito_risk":3,"arthritis_risk":5,"migraine_risk":7,"frizz_risk":0,"updated_at":"2026-03-04T04:03:18.996518+05:30"},{"city":"Raipur","state":"Chhattisgarh","latitude":21.2514,"longitude":81.6296,"temp":20.6,"humidity":55,"rain":0.0,"pressure":977.4,"uv_index":7.8,"wind_gusts":23.0,"aqi":134,"pm10":72.2,"pm2_5":68.2,"mosquito_risk":0,"arthritis_risk":5,"migraine_risk":7,"frizz_risk":0,"updated_at":"2026-03-04T04:03:18.996525+05:30"},{"city":"Bhilai","state":"Chhattisgarh","latitude":21.1938,"longitude":81.3509,"temp":19.8,"humidity":57,"rain":0.0,"pressure":977.6,"uv_index":7.8,"wind_gusts":20.9,"aqi":126,"pm10":57.7,"pm2_5":53.6,"mosquito_risk":0,"arthritis_risk":5,"migraine_risk":7,"frizz_risk":0,"updated_at":"2026-03-04T04:03:18.996531+05:30"},{"city":"Guwahati","state":"Assam","latitude":26.1158,"longitude":91.7086,"temp":20.5,"humidity":80,"rain":0.0,"pressure":1005.4,"uv_index":7.1,"wind_gusts":16.6,"aqi":154,"pm10":73.3,"pm2_5":64.7,"mosquito_risk":3,"arthritis_risk":5,"migraine_risk":4,"frizz_risk":1,"updated_at":"2026-03-04T04:03:18.996537+05:30"},{"city":"Agartala","state":"Tripura","latitude":23.8315,"longitude":91.2868,"temp":18.7,"humidity":90,"rain":0.0,"pressure":1009.5,"uv_index":7.5,"wind_gusts":22.7,"aqi":166,"pm10":94.1,"pm2_5":83.8,"mosquito_risk":3,"arthritis_risk":5,"migraine_risk":4,"frizz_risk":1,"updated_at":"2026-03-04T04:03:18.996544+05:30"},{"city":"Shillong","state":"Meghalaya","latitude":25.5788,"longitude":91.8933,"temp":9.8,"humidity":76,"rain":0.0,"pressure":855.6,"uv_index":7.5,"wind_gusts":25.2,"aqi":151,"pm10":64.7,"pm2_5":54.5,"mosquito_risk":3,"arthritis_risk":5,"migraine_risk":7,"frizz_risk":0,"updated_at":"2026-03-04T04:03:18.996550+05:30"},{"city":"Imphal","state":"Manipur","latitude":24.817,"longitude":93.9368,"temp":12.0,"humidity":80,"rain":0.0,"pressure":924.7,"uv_index":7.7,"wind_gusts":23.4,"aqi":152,"pm10":66.1,"pm2_5":60.3,"mosquito_risk":3,"arthritis_risk":5,"migraine_risk":7,"frizz_risk":0,"updated_at":"2026-03-04T04:03:18.996557+05:30"},{"city":"Aizawl","state":"Mizoram","latitude":23.7271,"longitude":92.7176,"temp":15.1,"humidity":72,"rain":0.0,"pressure":893.5,"uv_index":7.7,"wind_gusts":27.0,"aqi":157,"pm10":85.7,"pm2_5":78.2,"mosquito_risk":3,"arthritis_risk":5,"migraine_risk":7,"frizz_risk":0,"updated_at":"2026-03-04T04:03:18.996563+05:30"},{"city":"Kohima","state":"Nagaland","latitude":25.6701,"longitude":94.1077,"temp":11.1,"humidity":64,"rain":0.0,"pressure":854.6,"uv_index":7.55,"wind_gusts":36.0,"aqi":150,"pm10":67.8,"pm2_5":59.8,"mosquito_risk":3,"arthritis_risk":5,"migraine_risk":7,"frizz_risk":0,"updated_at":"2026-03-04T04:03:18.996569+05:30"},{"city":"Gangtok","state":"Sikkim","latitude":27.3314,"longitude":88.6138,"temp":10.6,"humidity":91,"rain":0.0,"pressure":837.5,"uv_index":7.45,"wind_gusts":20.9,"aqi":151,"pm10":70.1,"pm2_5":53.4,"mosquito_risk":3,"arthritis_risk":10,"migraine_risk":7,"frizz_risk":0,"updated_at":"2026-03-04T04:03:18.996576+05:30"},{"city":"Siliguri","state":"West Bengal","latitude":26.7271,"longitude":88.3953,"temp":19.2,"humidity":67,"rain":0.0,"pressure":997.8,"uv_index":7.15,"wind_gusts":21.6,"aqi":162,"pm10":110.4,"pm2_5":89.4,"mosquito_risk":3,"arthritis_risk":5,"migraine_risk":7,"frizz_risk":0,"updated_at":"2026-03-04T04:03:22.248650+05:30"},{"city":"Durgapur","state":"West Bengal","latitude":23.5204,"longitude":87.3119,"temp":20.7,"humidity":63,"rain":0.0,"pressure":998.8,"uv_index":7.7,"wind_gusts":24.1,"aqi":91,"pm10":85.9,"pm2_5":45.4,"mosquito_risk":3,"arthritis_risk":5,"migraine_risk":7,"frizz_risk":0,"updated_at":"2026-03-04T04:03:22.248680+05:30"},{"city":"Asansol","state":"West Bengal","latitude":23.6739,"longitude":86.9524,"temp":21.5,"humidity":62,"rain":0.0,"pressure":997.4,"uv_index":7.7,"wind_gusts":22.3,"aqi":89,"pm10":63.1,"pm2_5":35.7,"mosquito_risk":3,"arthritis_risk":5,"migraine_risk":7,"frizz_risk":0,"updated_at":"2026-03-04T04:03:22.248689+05:30"},{"city":"Pondicherry","state":"Puducherry","latitude":11.9139,"longitude":79.8145,"temp":21.9,"humidity":97,"rain":0.0,"pressure":1010.5,"uv_index":8.85,"wind_gusts":27.7,"aqi":109,"pm10":44.4,"pm2_5":39.2,"mosquito_risk":3,"arthritis_risk":0,"migraine_risk":4,"frizz_risk":1,"updated_at":"2026-03-04T04:03:22.248696+05:30"},{"city":"Port Blair","state":"Andaman and Nicobar Islands","latitude":11.6234,"longitude":92.7265,"temp":26.8,"humidity":76,"rain":0.0,"pressure":1008.4,"uv_index":8.8,"wind_gusts":27.0,"aqi":78,"pm10":39.8,"pm2_5":30.4,"mosquito_risk":7,"arthritis_risk":0,"migraine_risk":4,"frizz_risk":1,"updated_at":"2026-03-04T04:03:22.248705+05:30"},{"city":"Haridwar","state":"Uttarakhand","latitude":29.9457,"longitude":78.1642,"temp":15.4,"humidity":90,"rain":0.0,"pressure":977.2,"uv_index":5.6,"wind_gusts":19.8,"aqi":118,"pm10":67.5,"pm2_5":58.2,"mosquito_risk":3,"arthritis_risk":10,"migraine_risk":3,"frizz_risk":0,"updated_at":"2026-03-04T04:03:22.248712+05:30"},{"city":"Rishikesh","state":"Uttarakhand","latitude":30.0869,"longitude":78.2676,"temp":16.3,"humidity":85,"rain":0.0,"pressure":969.8,"uv_index":5.65,"wind_gusts":23.8,"aqi":92,"pm10":45.1,"pm2_5":39.3,"mosquito_risk":3,"arthritis_risk":10,"migraine_risk":3,"frizz_risk":0,"updated_at":"2026-03-04T04:03:22.248720+05:30"},{"city":"Nainital","state":"Uttarakhand","latitude":29.3919,"longitude":79.4542,"temp":14.0,"humidity":60,"rain":0.0,"pressure":805.5,"uv_index":6.5,"wind_gusts":53.3,"aqi":119,"pm10":69.8,"pm2_5":58.1,"mosquito_risk":0,"arthritis_risk":5,"migraine_risk":7,"frizz_risk":0,"updated_at":"2026-03-04T04:03:22.248727+05:30"},{"city":"Mussoorie","state":"Uttarakhand","latitude":30.4599,"longitude":78.0664,"temp":13.5,"humidity":56,"rain":0.0,"pressure":802.6,"uv_index":6.0,"wind_gusts":40.3,"aqi":90,"pm10":36.7,"pm2_5":32.7,"mosquito_risk":0,"arthritis_risk":5,"migraine_risk":3,"frizz_risk":0,"updated_at":"2026-03-04T04:03:22.248734+05:30"},{"city":"Dharamshala","state":"Himachal Pradesh","latitude":32.219,"longitude":76.3234,"temp":19.3,"humidity":29,"rain":0.0,"pressure":871.3,"uv_index":6.25,"wind_gusts":29.5,"aqi":46,"pm10":13.9,"pm2_5":7.3,"mosquito_risk":0,"arthritis_risk":5,"migraine_risk":7,"frizz_risk":0,"updated_at":"2026-03-04T04:03:22.248740+05:30"},{"city":"Dalhousie","state":"Himachal Pradesh","latitude":32.5387,"longitude":75.971,"temp":14.8,"humidity":25,"rain":0.0,"pressure":804.9,"uv_index":6.45,"wind_gusts":23.8,"aqi":84,"pm10":28.7,"pm2_5":25.7,"mosquito_risk":0,"arthritis_risk":5,"migraine_risk":7,"frizz_risk":1,"updated_at":"2026-03-04T04:03:22.248747+05:30"},{"city":"Patiala","state":"Punjab","latitude":30.3398,"longitude":76.3869,"temp":16.3,"humidity":83,"rain":0.0,"pressure":981.5,"uv_index":5.65,"wind_gusts":34.2,"aqi":254,"pm10":224.0,"pm2_5":68.2,"mosquito_risk":3,"arthritis_risk":10,"migraine_risk":3,"frizz_risk":0,"updated_at":"2026-03-04T04:03:22.248754+05:30"},{"city":"Bhatinda","state":"Punjab","latitude":30.211,"longitude":74.9455,"temp":17.6,"humidity":83,"rain":0.0,"pressure":987.7,"uv_index":6.3,"wind_gusts":25.9,"aqi":141,"pm10":91.5,"pm2_5":69.4,"mosquito_risk":3,"arthritis_risk":10,"migraine_risk":7,"frizz_risk":0,"updated_at":"2026-03-04T04:03:22.248761+05:30"},{"city":"Rohtak","state":"Haryana","latitude":28.8955,"longitude":76.6066,"temp":16.2,"humidity":88,"rain":0.0,"pressure":985.4,"uv_index":5.85,"wind_gusts":35.6,"aqi":464,"pm10":294.3,"pm2_5":66.6,"mosquito_risk":3,"arthritis_risk":10,"migraine_risk":3,"frizz_risk":0,"updated_at":"2026-03-04T04:03:22.248767+05:30"},{"city":"Panipat","state":"Haryana","latitude":29.3909,"longitude":76.9635,"temp":16.3,"humidity":86,"rain":0.0,"pressure":983.7,"uv_index":5.65,"wind_gusts":35.3,"aqi":1085,"pm10":763.7,"pm2_5":114.6,"mosquito_risk":3,"arthritis_risk":10,"migraine_risk":3,"frizz_risk":0,"updated_at":"2026-03-04T04:03:22.248773+05:30"},{"city":"Mathura","state":"Uttar Pradesh","latitude":27.4924,"longitude":77.6737,"temp":20.8,"humidity":45,"rain":0.0,"pressure":990.6,"uv_index":6.1,"wind_gusts":34.6,"aqi":471,"pm10":404.2,"pm2_5":69.6,"mosquito_risk":0,"arthritis_risk":5,"migraine_risk":7,"frizz_risk":0,"updated_at":"2026-03-04T04:03:22.248779+05:30"},{"city":"Vrindavan","state":"Uttar Pradesh","latitude":27.5823,"longitude":77.7027,"temp":16.4,"humidity":68,"rain":0.0,"pressure":991.0,"uv_index":6.1,"wind_gusts":36.4,"aqi":471,"pm10":404.2,"pm2_5":69.6,"mosquito_risk":3,"arthritis_risk":5,"migraine_risk":7,"frizz_risk":0,"updated_at":"2026-03-04T04:03:22.248786+05:30"},{"city":"Ayodhya","state":"Uttar Pradesh","latitude":26.7922,"longitude":82.1998,"temp":16.8,"humidity":87,"rain":0.0,"pressure":998.8,"uv_index":6.5,"wind_gusts":10.1,"aqi":153,"pm10":220.3,"pm2_5":89.9,"mosquito_risk":3,"arthritis_risk":10,"migraine_risk":7,"frizz_risk":0,"updated_at":"2026-03-04T04:03:22.248792+05:30"},{"city":"Ratlam","state":"Madhya Pradesh","latitude":23.3315,"longitude":75.0367,"temp":16.5,"humidity":92,"rain":0.0,"pressure":957.3,"uv_index":7.35,"wind_gusts":13.0,"aqi":96,"pm10":56.5,"pm2_5":51.7,"mosquito_risk":3,"arthritis_risk":10,"migraine_risk":7,"frizz_risk":0,"updated_at":"2026-03-04T04:03:22.248799+05:30"},{"city":"Sagar","state":"Madhya Pradesh","latitude":23.8388,"longitude":78.7378,"temp":18.2,"humidity":65,"rain":0.0,"pressure":953.0,"uv_index":7.3,"wind_gusts":24.5,"aqi":64,"pm10":31.3,"pm2_5":24.6,"mosquito_risk":3,"arthritis_risk":5,"migraine_risk":7,"frizz_risk":0,"updated_at":"2026-03-04T04:03:22.248806+05:30"},{"city":"Satna","state":"Madhya Pradesh","latitude":24.6005,"longitude":80.8322,"temp":16.9,"humidity":62,"rain":0.0,"pressure":974.6,"uv_index":7.25,"wind_gusts":36.4,"aqi":75,"pm10":27.5,"pm2_5":18.5,"mosquito_risk":3,"arthritis_risk":5,"migraine_risk":7,"frizz_risk":0,"updated_at":"2026-03-04T04:03:22.248812+05:30"},{"city":"Akola","state":"Maharashtra","latitude":20.7002,"longitude":77.0082,"temp":20.6,"humidity":65,"rain":0.0,"pressure":977.9,"uv_index":7.8,"wind_gusts":15.1,"aqi":74,"pm10":24.8,"pm2_5":21.5,"mosquito_risk":3,"arthritis_risk":5,"migraine_risk":7,"frizz_risk":0,"updated_at":"2026-03-04T04:03:22.248819+05:30"},{"city":"Amravati","state":"Maharashtra","latitude":20.9374,"longitude":77.7796,"temp":20.9,"humidity":54,"rain":0.0,"pressure":969.8,"uv_index":7.75,"wind_gusts":20.2,"aqi":70,"pm10":21.7,"pm2_5":17.6,"mosquito_risk":0,"arthritis_risk":5,"migraine_risk":7,"frizz_risk":0,"updated_at":"2026-03-04T04:03:22.248826+05:30"},{"city":"Latur","state":"Maharashtra","latitude":18.4088,"longitude":76.5604,"temp":22.1,"humidity":56,"rain":0.0,"pressure":941.2,"uv_index":8.25,"wind_gusts":23.8,"aqi":81,"pm10":32.8,"pm2_5":31.3,"mosquito_risk":0,"arthritis_risk":5,"migraine_risk":7,"frizz_risk":0,"updated_at":"2026-03-04T04:03:22.248832+05:30"},{"city":"Nanded","state":"Maharashtra","latitude":19.1383,"longitude":77.3091,"temp":21.7,"humidity":63,"rain":0.0,"pressure":970.7,"uv_index":8.0,"wind_gusts":17.3,"aqi":75,"pm10":36.8,"pm2_5":35.5,"mosquito_risk":3,"arthritis_risk":5,"migraine_risk":7,"frizz_risk":0,"updated_at":"2026-03-04T04:03:22.248839+05:30"},{"city":"Gulbarga","state":"Karnataka","latitude":17.3297,"longitude":76.8343,"temp":23.1,"humidity":54,"rain":0.0,"pressure":960.2,"uv_index":8.35,"wind_gusts":20.9,"aqi":96,"pm10":26.8,"pm2_5":26.3,"mosquito_risk":0,"arthritis_risk":5,"migraine_risk":7,"frizz_risk":0,"updated_at":"2026-03-04T04:03:22.248845+05:30"},{"city":"Bidar","state":"Karnataka","latitude":17.9104,"longitude":77.5199,"temp":22.0,"humidity":65,"rain":0.0,"pressure":936.7,"uv_index":8.3,"wind_gusts":26.6,"aqi":99,"pm10":42.3,"pm2_5":41.1,"mosquito_risk":3,"arthritis_risk":5,"migraine_risk":7,"frizz_risk":0,"updated_at":"2026-03-04T04:03:22.248851+05:30"},{"city":"Hospet","state":"Karnataka","latitude":15.2689,"longitude":76.3909,"temp":25.9,"humidity":51,"rain":0.0,"pressure":956.8,"uv_index":8.65,"wind_gusts":25.9,"aqi":105,"pm10":35.7,"pm2_5":35.2,"mosquito_risk":4,"arthritis_risk":5,"migraine_risk":7,"frizz_risk":0,"updated_at":"2026-03-04T04:03:22.248857+05:30"},{"city":"Tirupur","state":"Tamil Nadu","latitude":11.1085,"longitude":77.3411,"temp":22.6,"humidity":84,"rain":0.0,"pressure":976.7,"uv_index":9.15,"wind_gusts":32.0,"aqi":117,"pm10":38.2,"pm2_5":37.1,"mosquito_risk":3,"arthritis_risk":5,"migraine_risk":7,"frizz_risk":1,"updated_at":"2026-03-04T04:03:22.248864+05:30"},{"city":"Alappuzha","state":"Kerala","latitude":9.4981,"longitude":76.3388,"temp":26.6,"humidity":82,"rain":0.0,"pressure":1009.5,"uv_index":8.95,"wind_gusts":32.8,"aqi":99,"pm10":41.9,"pm2_5":39.7,"mosquito_risk":7,"arthritis_risk":0,"migraine_risk":4,"frizz_risk":1,"updated_at":"2026-03-04T04:03:22.248870+05:30"},{"city":"Munnar","state":"Kerala","latitude":10.0889,"longitude":77.0595,"temp":17.4,"humidity":56,"rain":0.0,"pressure":855.3,"uv_index":9.45,"wind_gusts":22.7,"aqi":95,"pm10":29.9,"pm2_5":29.0,"mosquito_risk":0,"arthritis_risk":5,"migraine_risk":7,"frizz_risk":0,"updated_at":"2026-03-04T04:03:22.248878+05:30"},{"city":"Silchar","state":"Assam","latitude":24.8333,"longitude":92.7789,"temp":20.0,"humidity":77,"rain":0.0,"pressure":1008.5,"uv_index":7.45,"wind_gusts":16.2,"aqi":157,"pm10":65.4,"pm2_5":57.9,"mosquito_risk":3,"arthritis_risk":0,"migraine_risk":4,"frizz_risk":0,"updated_at":"2026-03-04T04:03:22.248884+05:30"},{"city":"Dibrugarh","state":"Assam","latitude":27.4728,"longitude":94.912,"temp":19.1,"humidity":96,"rain":0.0,"pressure":999.7,"uv_index":7.15,"wind_gusts":9.7,"aqi":132,"pm10":50.2,"pm2_5":41.7,"mosquito_risk":3,"arthritis_risk":10,"migraine_risk":7,"frizz_risk":1,"updated_at":"2026-03-04T04:03:22.248891+05:30"}]