[{"city":"Delhi","state":"Delhi","latitude":28.6139,"longitude":77.209,"temp":22.3,"humidity":64,"rain":0.0,"pressure":987.0,"uv_index":6.45,"wind_gusts":28.4,"aqi":175,"pm10":599.8,"pm2_5":115.0,"mosquito_risk":3,"arthritis_risk":5,"migraine_risk":7,"frizz_risk":0,"updated_at":"2026-03-23T00:11:32.476956+05:30"},{"city":"Mumbai","state":"Maharashtra","latitude":19.076,"longitude":72.8777,"temp":29.1,"humidity":58,"rain":0.0,"pressure":1009.9,"uv_index":7.9,"wind_gusts":28.4,"aqi":145,"pm10":53.7,"pm2_5":38.5,"mosquito_risk":4,"arthritis_risk":0,"migraine_risk":4,"frizz_risk":1,"updated_at":"2026-03-23T00:11:32.477017+05:30"},{"city":"Bangalore","state":"Karnataka","latitude":12.9716,"longitude":77.5946,"temp":24.2,"humidity":67,"rain":0.0,"pressure":913.4,"uv_index":9.45,"wind_gusts":25.2,"aqi":114,"pm10":94.5,"pm2_5":82.2,"mosquito_risk":3,"arthritis_risk":5,"migraine_risk":7,"frizz_risk":1,"updated_at":"2026-03-23T00:11:32.477032+05:30"},{"city":"Hyderabad","state":"Telangana","latitude":17.385,"longitude":78.4867,"temp":24.8,"humidity":75,"rain":0.0,"pressure":955.8,"uv_index":8.9,"wind_gusts":24.5,"aqi":101,"pm10":38.0,"pm2_5":31.3,"mosquito_risk":3,"arthritis_risk":5,"migraine_risk":7,"frizz_risk":1,"updated_at":"2026-03-23T00:11:32.477043+05:30"},{"city":"Chennai","state":"Tamil Nadu","latitude":13.0827,"longitude":80.2707,"temp":26.8,"humidity":80,"rain":0.0,"pressure":1010.0,"uv_index":9.15,"wind_gusts":32.4,"aqi":37,"pm10":12.6,"pm2_5":8.4,"mosquito_risk":7,"arthritis_risk":0,"migraine_risk":4,"frizz_risk":1,"updated_at":"2026-03-23T00:11:32.477052+05:30"},{"city":"Kolkata","state":"West Bengal","latitude":22.5726,"longitude":88.3639,"temp":22.7,"humidity":77,"rain":0.0,"pressure":1010.7,"uv_index":8.25,"wind_gusts":16.6,"aqi":140,"pm10":84.5,"pm2_5":81.7,"mosquito_risk":3,"arthritis_risk":0,"migraine_risk":4,"frizz_risk":1,"updated_at":"2026-03-23T00:11:32.477060+05:30"},{"city":"Pune","state":"Maharashtra","latitude":18.5204,"longitude":73.8567,"temp":25.8,"humidity":56,"rain":0.0,"pressure":950.5,"uv_index":8.45,"wind_gusts":26.6,"aqi":86,"pm10":37.1,"pm2_5":27.4,"mosquito_risk":4,"arthritis_risk":5,"migraine_risk":7,"frizz_risk":1,"updated_at":"2026-03-23T00:11:32.477073+05:30"},{"city":"Ahmedabad","state":"Gujarat","latitude":23.0225,"longitude":72.5714,"temp":25.1,"humidity":54,"rain":0.0,"pressure":1005.2,"uv_index":7.65,"wind_gusts":22.7,"aqi":75,"pm10":79.2,"pm2_5":49.0,"mosquito_risk":4,"arthritis_risk":5,"migraine_risk":4,"frizz_risk":0,"updated_at":"2026-03-23T00:11:32.477081+05:30"},{"city":"Jaipur","state":"Rajasthan","latitude":26.9124,"longitude":75.7873,"temp":22.9,"humidity":52,"rain":0.0,"pressure":962.8,"uv_index":7.25,"wind_gusts":29.9,"aqi":90,"pm10":103.1,"pm2_5":46.3,"mosquito_risk":0,"arthritis_risk":5,"migraine_risk":7,"frizz_risk":0,"updated_at":"2026-03-23T00:11:32.477090+05:30"},{"city":"Lucknow","state":"Uttar Pradesh","latitude":26.8467,"longitude":80.9462,"temp":21.9,"humidity":62,"rain":0.0,"pressure":997.8,"uv_index":6.95,"wind_gusts":26.6,"aqi":123,"pm10":350.2,"pm2_5":69.4,"mosquito_risk":3,"arthritis_risk":5,"migraine_risk":7,"frizz_risk":0,"updated_at":"2026-03-23T00:11:32.477098+05:30"},{"city":"Kanpur","state":"Uttar Pradesh","latitude":26.4499,"longitude":80.3319,"temp":21.8,"humidity":72,"rain":0.0,"pressure":996.0,"uv_index":7.0,"wind_gusts":27.7,"aqi":158,"pm10":493.6,"pm2_5":83.8,"mosquito_risk":3,"arthritis_risk":5,"migraine_risk":7,"frizz_risk":1,"updated_at":"2026-03-23T00:11:32.477105+05:30"},{"city":"Chandigarh","state":"Chandigarh","latitude":30.7333,"longitude":76.7794,"temp":18.5,"humidity":80,"rain":0.0,"pressure":972.5,"uv_index":6.4,"wind_gusts":33.1,"aqi":94,"pm10":58.1,"pm2_5":52.4,"mosquito_risk":3,"arthritis_risk":5,"migraine_risk":7,"frizz_risk":0,"updated_at":"2026-03-23T00:11:32.477113+05:30"},{"city":"Srinagar","state":"Jammu and Kashmir","latitude":34.0837,"longitude":74.7973,"temp":8.1,"humidity":88,"rain":0.0,"pressure":839.6,"uv_index":7.5,"wind_gusts":14.0,"aqi":119,"pm10":91.0,"pm2_5":81.0,"mosquito_risk":3,"arthritis_risk":10,"migraine_risk":7,"frizz_risk":0,"updated_at":"2026-03-23T00:11:32.477121+05:30"},{"city":"Jammu","state":"Jammu and Kashmir","latitude":32.7266,"longitude":74.857,"temp":18.8,"humidity":85,"rain":0.0,"pressure":976.5,"uv_index":6.85,"wind_gusts":22.0,"aqi":104,"pm10":60.5,"pm2_5":56.2,"mosquito_risk":3,"arthritis_risk":10,"migraine_risk":7,"frizz_risk":1,"updated_at":"2026-03-23T00:11:32.477129+05:30"},{"city":"Amritsar","state":"Punjab","latitude":31.634,"longitude":74.8723,"temp":19.5,"humidity":72,"rain":0.0,"pressure":984.9,"uv_index":7.05,"wind_gusts":20.5,"aqi":155,"pm10":89.4,"pm2_5":67.3,"mosquito_risk":3,"arthritis_risk":5,"migraine_risk":7,"frizz_risk":0,"updated_at":"2026-03-23T00:11:32.477136+05:30"},{"city":"Ludhiana","state":"Punjab","latitude":30.901,"longitude":75.8573,"temp":20.2,"humidity":72,"rain":0.0,"pressure":982.9,"uv_index":6.6,"wind_gusts":26.6,"aqi":139,"pm10":118.5,"pm2_5":67.3,"mosquito_risk":3,"arthritis_risk":5,"migraine_risk":7,"frizz_risk":0,"updated_at":"2026-03-23T00:11:32.477143+05:30"},{"city":"Jalandhar","state":"Punjab","latitude":31.326,"longitude":75.5762,"temp":19.4,"humidity":76,"rain":0.0,"pressure":984.1,"uv_index":6.85,"wind_gusts":21.6,"aqi":152,"pm10":101.7,"pm2_5":71.5,"mosquito_risk":3,"arthritis_risk":5,"migraine_risk":7,"frizz_risk":0,"updated_at":"2026-03-23T00:11:32.477152+05:30"},{"city":"Dehradun","state":"Uttarakhand","latitude":30.6284,"longitude":78.0322,"temp":11.0,"humidity":91,"rain":0.0,"pressure":830.2,"uv_index":6.8,"wind_gusts":24.1,"aqi":98,"pm10":37.5,"pm2_5":33.1,"mosquito_risk":3,"arthritis_risk":10,"migraine_risk":7,"frizz_risk":0,"updated_at":"2026-03-23T00:11:32.477159+05:30"},{"city":"Shimla","state":"Himachal Pradesh","latitude":31.1048,"longitude":77.1734,"temp":9.3,"humidity":89,"rain":0.0,"pressure":783.4,"uv_index":6.85,"wind_gusts":41.0,"aqi":88,"pm10":42.5,"pm2_5":37.8,"mosquito_risk":3,"arthritis_risk":10,"migraine_risk":7,"frizz_risk":0,"updated_at":"2026-03-23T00:11:32.477167+05:30"},{"city":"Manali","state":"Himachal Pradesh","latitude":32.2396,"longitude":77.1887,"temp":11.8,"humidity":39,"rain":0.0,"pressure":818.1,"uv_index":8.9,"wind_gusts":33.8,"aqi":101,"pm10":25.6,"pm2_5":16.5,"mosquito_risk":0,"arthritis_risk":5,"migraine_risk":7,"frizz_risk":1,"updated_at":"2026-03-23T00:11:32.477174+05:30"},{"city":"Gurgaon","state":"Haryana","latitude":28.4595,"longitude":77.0266,"temp":20.2,"humidity":75,"rain":0.0,"pressure":985.4,"uv_index":6.55,"wind_gusts":23.8,"aqi":462,"pm10":614.7,"pm2_5":115.9,"mosquito_risk":3,"arthritis_risk":5,"migraine_risk":7,"frizz_risk":0,"updated_at":"2026-03-23T00:11:32.477181+05:30"},{"city":"Noida","state":"Uttar Pradesh","latitude":28.5355,"longitude":77.391,"temp":22.2,"humidity":65,"rain":0.0,"pressure":988.6,"uv_index":6.45,"wind_gusts":27.7,"aqi":462,"pm10":614.7,"pm2_5":115.9,"mosquito_risk":3,"arthritis_risk":5,"migraine_risk":7,"frizz_risk":0,"updated_at":"2026-03-23T00:11:32.477188+05:30"},{"city":"Ghaziabad","state":"Uttar Pradesh","latitude":28.6692,"longitude":77.4538,"temp":20.4,"humidity":73,"rain":0.0,"pressure":986.6,"uv_index":6.45,"wind_gusts":28.1,"aqi":155,"pm10":547.6,"pm2_5":107.3,"mosquito_risk":3,"arthritis_risk":5,"migraine_risk":7,"frizz_risk":0,"updated_at":"2026-03-23T00:11:32.477195+05:30"},{"city":"Faridabad","state":"Haryana","latitude":28.4089,"longitude":77.3178,"temp":20.6,"humidity":71,"rain":0.0,"pressure":987.7,"uv_index":6.5,"wind_gusts":24.8,"aqi":462,"pm10":614.7,"pm2_5":115.9,"mosquito_risk":3,"arthritis_risk":5,"migraine_risk":7,"frizz_risk":0,"updated_at":"2026-03-23T00:11:32.477202+05:30"},{"city":"Meerut","state":"Uttar Pradesh","latitude":28.9845,"longitude":77.7064,"temp":19.0,"humidity":78,"rain":0.0,"pressure":985.5,"uv_index":6.3,"wind_gusts":31.7,"aqi":155,"pm10":547.6,"pm2_5":107.3,"mosquito_risk":3,"arthritis_risk":5,"migraine_risk":7,"frizz_risk":0,"updated_at":"2026-03-23T00:11:32.477209+05:30"},{"city":"Agra","state":"Uttar Pradesh","latitude":27.1767,"longitude":78.0081,"temp":21.8,"humidity":63,"rain":0.0,"pressure":991.7,"uv_index":6.45,"wind_gusts":29.9,"aqi":487,"pm10":480.6,"pm2_5":88.7,"mosquito_risk":3,"arthritis_risk":5,"migraine_risk":7,"frizz_risk":0,"updated_at":"2026-03-23T00:11:32.477216+05:30"},{"city":"Varanasi","state":"Uttar Pradesh","latitude":25.3176,"longitude":82.9739,"temp":20.3,"humidity":75,"rain":0.0,"pressure":1002.0,"uv_index":7.1,"wind_gusts":28.4,"aqi":106,"pm10":67.3,"pm2_5":54.2,"mosquito_risk":3,"arthritis_risk":5,"migraine_risk":4,"frizz_risk":0,"updated_at":"2026-03-23T00:11:32.477227+05:30"},{"city":"Prayagraj","state":"Uttar Pradesh","latitude":25.4358,"longitude":81.8463,"temp":22.2,"humidity":59,"rain":0.0,"pressure":1000.6,"uv_index":7.5,"wind_gusts":24.8,"aqi":115,"pm10":133.6,"pm2_5":45.9,"mosquito_risk":0,"arthritis_risk":5,"migraine_risk":4,"frizz_risk":0,"updated_at":"2026-03-23T00:11:32.477235+05:30"},{"city":"Gorakhpur","state":"Uttar Pradesh","latitude":26.7606,"longitude":83.3732,"temp":19.3,"humidity":85,"rain":0.0,"pressure":1001.8,"uv_index":7.25,"wind_gusts":11.2,"aqi":157,"pm10":50.2,"pm2_5":48.1,"mosquito_risk":3,"arthritis_risk":10,"migraine_risk":4,"frizz_risk":1,"updated_at":"2026-03-23T00:11:32.477242+05:30"},{"city":"Bareilly","state":"Uttar Pradesh","latitude":28.367,"longitude":79.4304,"temp":18.5,"humidity":83,"rain":0.0,"pressure":991.0,"uv_index":6.65,"wind_gusts":29.5,"aqi":117,"pm10":157.9,"pm2_5":54.8,"mosquito_risk":3,"arthritis_risk":10,"migraine_risk":7,"frizz_risk":0,"updated_at":"2026-03-23T00:11:32.477249+05:30"},{"city":"Aligarh","state":"Uttar Pradesh","latitude":27.8974,"longitude":78.088,"temp":19.7,"humidity":73,"rain":0.0,"pressure":989.6,"uv_index":6.6,"wind_gusts":27.7,"aqi":358,"pm10":516.0,"pm2_5":103.8,"mosquito_risk":3,"arthritis_risk":5,"migraine_risk":7,"frizz_risk":0,"updated_at":"2026-03-23T00:11:32.477255+05:30"},{"city":"Moradabad","state":"Uttar Pradesh","latitude":28.8386,"longitude":78.7733,"temp":18.6,"humidity":79,"rain":0.0,"pressure":987.7,"uv_index":6.5,"wind_gusts":30.6,"aqi":136,"pm10":265.4,"pm2_5":68.7,"mosquito_risk":3,"arthritis_risk":5,"migraine_risk":7,"frizz_risk":0,"updated_at":"2026-03-23T00:11:32.477264+05:30"},{"city":"Saharanpur","state":"Uttar Pradesh","latitude":29.9637,"longitude":77.546,"temp":18.3,"humidity":81,"rain":0.0,"pressure":979.5,"uv_index":6.15,"wind_gusts":34.2,"aqi":152,"pm10":276.6,"pm2_5":80.3,"mosquito_risk":3,"arthritis_risk":10,"migraine_risk":7,"frizz_risk":0,"updated_at":"2026-03-23T00:11:32.477270+05:30"},{"city":"Jhansi","state":"Uttar Pradesh","latitude":25.4484,"longitude":78.5685,"temp":23.4,"humidity":52,"rain":0.0,"pressure":981.6,"uv_index":7.45,"wind_gusts":32.4,"aqi":80,"pm10":62.2,"pm2_5":30.4,"mosquito_risk":0,"arthritis_risk":5,"migraine_risk":7,"frizz_risk":0,"updated_at":"2026-03-23T00:11:35.849448+05:30"},{"city":"Surat","state":"Gujarat","latitude":21.1702,"longitude":72.8311,"temp":27.4,"humidity":48,"rain":0.0,"pressure":1009.1,"uv_index":7.65,"wind_gusts":24.5,"aqi":113,"pm10":71.0,"pm2_5":53.9,"mosquito_risk":4,"arthritis_risk":0,"migraine_risk":4,"frizz_risk":0,"updated_at":"2026-03-23T00:11:35.849484+05:30"},{"city":"Vadodara","state":"Gujarat","latitude":22.3072,"longitude":73.1812,"temp":26.8,"humidity":52,"rain":0.0,"pressure":1007.1,"uv_index":7.8,"wind_gusts":20.5,"aqi":82,"pm10":55.9,"pm2_5":38.8,"mosquito_risk":4,"arthritis_risk":5,"migraine_risk":4,"frizz_risk":1,"updated_at":"2026-03-23T00:11:35.849496+05:30"},{"city":"Rajkot","state":"Gujarat","latitude":22.3039,"longitude":70.8022,"temp":24.2,"humidity":72,"rain":0.0,"pressure":997.7,"uv_index":7.6,"wind_gusts":25.9,"aqi":66,"pm10":35.7,"pm2_5":21.8,"mosquito_risk":3,"arthritis_risk":5,"migraine_risk":7,"frizz_risk":1,"updated_at":"2026-03-23T00:11:35.849505+05:30"},{"city":"Thane","state":"Maharashtra","latitude":19.2183,"longitude":72.9781,"temp":28.5,"humidity":44,"rain":0.0,"pressure":1009.4,"uv_index":7.85,"wind_gusts":41.0,"aqi":145,"pm10":53.7,"pm2_5":38.5,"mosquito_risk":4,"arthritis_risk":0,"migraine_risk":4,"frizz_risk":0,"updated_at":"2026-03-23T00:11:35.849514+05:30"},{"city":"Nagpur","state":"Maharashtra","latitude":21.1458,"longitude":79.0882,"temp":25.2,"humidity":49,"rain":0.0,"pressure":976.5,"uv_index":8.35,"wind_gusts":19.4,"aqi":55,"pm10":36.9,"pm2_5":29.7,"mosquito_risk":4,"arthritis_risk":5,"migraine_risk":7,"frizz_risk":0,"updated_at":"2026-03-23T00:11:35.849523+05:30"},{"city":"Nashik","state":"Maharashtra","latitude":19.9975,"longitude":73.7898,"temp":23.7,"humidity":59,"rain":0.0,"pressure":947.9,"uv_index":8.1,"wind_gusts":24.8,"aqi":84,"pm10":33.4,"pm2_5":21.8,"mosquito_risk":0,"arthritis_risk":5,"migraine_risk":7,"frizz_risk":0,"updated_at":"2026-03-23T00:11:35.849532+05:30"},{"city":"Aurangabad","state":"Maharashtra","latitude":19.8762,"longitude":75.3433,"temp":24.1,"humidity":48,"rain":0.0,"pressure":946.1,"uv_index":8.6,"wind_gusts":27.0,"aqi":65,"pm10":44.2,"pm2_5":34.2,"mosquito_risk":0,"arthritis_risk":5,"migraine_risk":7,"frizz_risk":0,"updated_at":"2026-03-23T00:11:35.849539+05:30"},{"city":"Solapur","state":"Maharashtra","latitude":17.6599,"longitude":75.9064,"temp":25.5,"humidity":49,"rain":0.0,"pressure":958.5,"uv_index":8.75,"wind_gusts":24.5,"aqi":71,"pm10":19.7,"pm2_5":16.7,"mosquito_risk":4,"arthritis_risk":5,"migraine_risk":7,"frizz_risk":0,"updated_at":"2026-03-23T00:11:35.849548+05:30"},{"city":"Kolhapur","state":"Maharashtra","latitude":16.705,"longitude":74.2433,"temp":20.3,"humidity":74,"rain":0.0,"pressure":949.3,"uv_index":8.85,"wind_gusts":29.2,"aqi":89,"pm10":33.1,"pm2_5":30.0,"mosquito_risk":3,"arthritis_risk":5,"migraine_risk":7,"frizz_risk":0,"updated_at":"2026-03-23T00:11:35.849556+05:30"},{"city":"Goa","state":"Goa","latitude":15.2993,"longitude":74.124,"temp":27.8,"humidity":83,"rain":0.0,"pressure":999.6,"uv_index":8.85,"wind_gusts":35.3,"aqi":93,"pm10":51.1,"pm2_5":41.0,"mosquito_risk":7,"arthritis_risk":5,"migraine_risk":7,"frizz_risk":1,"updated_at":"2026-03-23T00:11:35.849564+05:30"},{"city":"Jodhpur","state":"Rajasthan","latitude":26.2389,"longitude":73.0243,"temp":24.2,"humidity":68,"rain":0.0,"pressure":986.7,"uv_index":7.55,"wind_gusts":33.8,"aqi":69,"pm10":97.1,"pm2_5":23.0,"mosquito_risk":3,"arthritis_risk":5,"migraine_risk":7,"frizz_risk":1,"updated_at":"2026-03-23T00:11:35.849572+05:30"},{"city":"Udaipur","state":"Rajasthan","latitude":24.5854,"longitude":73.7125,"temp":22.9,"humidity":51,"rain":0.0,"pressure":949.3,"uv_index":8.15,"wind_gusts":27.0,"aqi":59,"pm10":44.0,"pm2_5":16.6,"mosquito_risk":0,"arthritis_risk":5,"migraine_risk":7,"frizz_risk":0,"updated_at":"2026-03-23T00:11:35.849580+05:30"},{"city":"Kota","state":"Rajasthan","latitude":25.2138,"longitude":75.8648,"temp":25.4,"humidity":50,"rain":0.0,"pressure":981.8,"uv_index":7.4,"wind_gusts":12.6,"aqi":89,"pm10":42.3,"pm2_5":29.9,"mosquito_risk":4,"arthritis_risk":5,"migraine_risk":7,"frizz_risk":0,"updated_at":"2026-03-23T00:11:35.849588+05:30"},{"city":"Bikaner","state":"Rajasthan","latitude":28.0229,"longitude":73.3119,"temp":23.6,"humidity":63,"rain":0.0,"pressure":986.2,"uv_index":7.1,"wind_gusts":27.4,"aqi":69,"pm10":52.0,"pm2_5":19.1,"mosquito_risk":3,"arthritis_risk":5,"migraine_risk":7,"frizz_risk":1,"updated_at":"2026-03-23T00:11:35.849596+05:30"},{"city":"Ajmer","state":"Rajasthan","latitude":26.4499,"longitude":74.6399,"temp":24.1,"humidity":50,"rain":0.0,"pressure":958.0,"uv_index":7.35,"wind_gusts":25.9,"aqi":68,"pm10":43.5,"pm2_5":17.9,"mosquito_risk":0,"arthritis_risk":5,"migraine_risk":7,"frizz_risk":0,"updated_at":"2026-03-23T00:11:35.849604+05:30"},{"city":"Gwalior","state":"Madhya Pradesh","latitude":26.2183,"longitude":78.1828,"temp":23.3,"humidity":61,"rain":0.0,"pressure":986.9,"uv_index":7.15,"wind_gusts":29.9,"aqi":132,"pm10":144.4,"pm2_5":38.3,"mosquito_risk":3,"arthritis_risk":5,"migraine_risk":7,"frizz_risk":0,"updated_at":"2026-03-23T00:11:35.849612+05:30"},{"city":"Indore","state":"Madhya Pradesh","latitude":22.7196,"longitude":75.8577,"temp":21.9,"humidity":59,"rain":0.0,"pressure":950.5,"uv_index":8.05,"wind_gusts":17.6,"aqi":62,"pm10":37.5,"pm2_5":26.7,"mosquito_risk":0,"arthritis_risk":5,"migraine_risk":7,"frizz_risk":0,"updated_at":"2026-03-23T00:11:35.849620+05:30"},{"city":"Bhopal","state":"Madhya Pradesh","latitude":23.2599,"longitude":77.4126,"temp":23.5,"humidity":44,"rain":0.0,"pressure":956.3,"uv_index":7.9,"wind_gusts":25.9,"aqi":55,"pm10":26.8,"pm2_5":17.4,"mosquito_risk":0,"arthritis_risk":5,"migraine_risk":7,"frizz_risk":0,"updated_at":"2026-03-23T00:11:35.849628+05:30"},{"city":"Jabalpur","state":"Madhya Pradesh","latitude":23.1815,"longitude":79.9864,"temp":23.2,"humidity":53,"rain":0.0,"pressure":964.9,"uv_index":8.05,"wind_gusts":29.9,"aqi":59,"pm10":60.1,"pm2_5":26.6,"mosquito_risk":0,"arthritis_risk":5,"migraine_risk":7,"frizz_risk":0,"updated_at":"2026-03-23T00:11:35.849635+05:30"},{"city":"Ujjain","state":"Madhya Pradesh","latitude":23.1765,"longitude":75.7885,"temp":22.9,"humidity":56,"rain":0.0,"pressure":956.4,"uv_index":8.0,"wind_gusts":13.3,"aqi":70,"pm10":61.5,"pm2_5":50.1,"mosquito_risk":0,"arthritis_risk":5,"migraine_risk":7,"frizz_risk":0,"updated_at":"2026-03-23T00:11:35.849644+05:30"},{"city":"Visakhapatnam","state":"Andhra Pradesh","latitude":17.6868,"longitude":83.2185,"temp":24.9,"humidity":87,"rain":0.0,"pressure":1007.1,"uv_index":8.85,"wind_gusts":36.7,"aqi":78,"pm10":26.0,"pm2_5":21.3,"mosquito_risk":3,"arthritis_risk":5,"migraine_risk":4,"frizz_risk":1,"updated_at":"2026-03-23T00:11:35.849652+05:30"},{"city":"Vijayawada","state":"Andhra Pradesh","latitude":16.5062,"longitude":80.648,"temp":26.0,"humidity":85,"rain":0.0,"pressure":1005.9,"uv_index":8.9,"wind_gusts":18.7,"aqi":65,"pm10":31.1,"pm2_5":27.0,"mosquito_risk":7,"arthritis_risk":5,"migraine_risk":4,"frizz_risk":1,"updated_at":"2026-03-23T00:11:35.849660+05:30"},{"city":"Guntur","state":"Andhra Pradesh","latitude":16.3067,"longitude":80.4365,"temp":25.6,"humidity":90,"rain":0.0,"pressure":1007.0,"uv_index":8.9,"wind_gusts":19.4,"aqi":66,"pm10":31.8,"pm2_5":27.8,"mosquito_risk":7,"arthritis_risk":5,"migraine_risk":4,"frizz_risk":1,"updated_at":"2026-03-23T00:11:35.849668+05:30"},{"city":"Nellore","state":"Andhra Pradesh","latitude":14.4426,"longitude":79.9865,"temp":25.9,"humidity":86,"rain":0.0,"pressure":1009.0,"uv_index":9.05,"wind_gusts":27.7,"aqi":47,"pm10":10.6,"pm2_5":6.8,"mosquito_risk":7,"arthritis_risk":0,"migraine_risk":4,"frizz_risk":1,"updated_at":"2026-03-23T00:11:35.849676+05:30"},{"city":"Kurnool","state":"Andhra Pradesh","latitude":15.8281,"longitude":78.0373,"temp":28.6,"humidity":60,"rain":0.0,"pressure":978.9,"uv_index":8.9,"wind_gusts":22.0,"aqi":79,"pm10":39.2,"pm2_5":30.5,"mosquito_risk":4,"arthritis_risk":5,"migraine_risk":7,"frizz_risk":1,"updated_at":"2026-03-23T00:11:35.849685+05:30"},{"city":"Kakinada","state":"Andhra Pradesh","latitude":16.9891,"longitude":82.2475,"temp":24.0,"humidity":92,"rain":0.0,"pressure":1010.9,"uv_index":8.8,"wind_gusts":28.8,"aqi":43,"pm10":16.8,"pm2_5":11.7,"mosquito_risk":3,"arthritis_risk":0,"migraine_risk":4,"frizz_risk":1,"updated_at":"2026-03-23T00:11:35.849693+05:30"},{"city":"Tirupati","state":"Andhra Pradesh","latitude":13.6288,"longitude":79.4192,"temp":24.9,"humidity":80,"rain":0.0,"pressure":994.9,"uv_index":9.2,"wind_gusts":30.2,"aqi":68,"pm10":24.9,"pm2_5":21.0,"mosquito_risk":3,"arthritis_risk":5,"migraine_risk":7,"frizz_risk":1,"updated_at":"2026-03-23T00:11:35.849701+05:30"},{"city":"Warangal","state":"Telangana","latitude":17.9689,"longitude":79.5941,"temp":25.9,"humidity":75,"rain":0.0,"pressure":981.4,"uv_index":8.75,"wind_gusts":19.8,"aqi":120,"pm10":78.9,"pm2_5":67.5,"mosquito_risk":7,"arthritis_risk":5,"migraine_risk":7,"frizz_risk":1,"updated_at":"2026-03-23T00:11:35.849709+05:30"},{"city":"Nizamabad","state":"Telangana","latitude":18.6725,"longitude":78.0941,"temp":25.6,"humidity":66,"rain":0.0,"pressure":967.4,"uv_index":8.65,"wind_gusts":27.4,"aqi":79,"pm10":61.2,"pm2_5":54.9,"mosquito_risk":7,"arthritis_risk":5,"migraine_risk":7,"frizz_risk":1,"updated_at":"2026-03-23T00:11:35.849717+05:30"},{"city":"Mysore","state":"Karnataka","latitude":12.2958,"longitude":76.6396,"temp":23.9,"humidity":78,"rain":0.0,"pressure":930.0,"uv_index":9.4,"wind_gusts":29.2,"aqi":99,"pm10":46.4,"pm2_5":37.1,"mosquito_risk":3,"arthritis_risk":5,"migraine_risk":7,"frizz_risk":1,"updated_at":"2026-03-23T00:11:35.849725+05:30"},{"city":"Mangalore","state":"Karnataka","latitude":12.9141,"longitude":74.856,"temp":29.4,"humidity":76,"rain":0.0,"pressure":1008.6,"uv_index":9.05,"wind_gusts":28.4,"aqi":75,"pm10":35.0,"pm2_5":24.1,"mosquito_risk":7,"arthritis_risk":0,"migraine_risk":4,"frizz_risk":1,"updated_at":"2026-03-23T00:11:35.849733+05:30"},{"city":"Hubli-Dharwad","state":"Karnataka","latitude":15.3647,"longitude":75.124,"temp":23.8,"humidity":73,"rain":0.0,"pressure":942.3,"uv_index":9.05,"wind_gusts":25.2,"aqi":85,"pm10":26.5,"pm2_5":21.0,"mosquito_risk":3,"arthritis_risk":5,"migraine_risk":7,"frizz_risk":1,"updated_at":"2026-03-23T00:11:35.849742+05:30"},{"city":"Belgaum","state":"Karnataka","latitude":15.8497,"longitude":74.4977,"temp":22.6,"humidity":74,"rain":0.0,"pressure":927.2,"uv_index":9.1,"wind_gusts":33.1,"aqi":94,"pm10":36.2,"pm2_5":29.6,"mosquito_risk":3,"arthritis_risk":5,"migraine_risk":7,"frizz_risk":1,"updated_at":"2026-03-23T00:11:39.210311+05:30"},{"city":"Coimbatore","state":"Tamil Nadu","latitude":11.0168,"longitude":76.9558,"temp":24.7,"humidity":84,"rain":0.0,"pressure":963.7,"uv_index":9.3,"wind_gusts":33.5,"aqi":85,"pm10":51.6,"pm2_5":43.0,"mosquito_risk":3,"arthritis_risk":5,"migraine_risk":7,"frizz_risk":1,"updated_at":"2026-03-23T00:11:39.210342+05:30"},{"city":"Madurai","state":"Tamil Nadu","latitude":9.9252,"longitude":78.1198,"temp":26.5,"humidity":78,"rain":0.0,"pressure":995.6,"uv_index":9.35,"wind_gusts":25.9,"aqi":64,"pm10":25.6,"pm2_5":22.4,"mosquito_risk":7,"arthritis_risk":5,"migraine_risk":7,"frizz_risk":1,"updated_at":"2026-03-23T00:11:39.210352+05:30"},{"city":"Trichy","state":"Tamil Nadu","latitude":10.7905,"longitude":78.7047,"temp":25.9,"humidity":87,"rain":0.0,"pressure":1002.3,"uv_index":9.25,"wind_gusts":23.8,"aqi":65,"pm10":20.8,"pm2_5":17.6,"mosquito_risk":7,"arthritis_risk":5,"migraine_risk":4,"frizz_risk":1,"updated_at":"2026-03-23T00:11:39.210360+05:30"},{"city":"Salem","state":"Tamil Nadu","latitude":11.6643,"longitude":78.146,"temp":26.7,"humidity":73,"rain":0.0,"pressure":979.4,"uv_index":9.3,"wind_gusts":20.9,"aqi":84,"pm10":35.5,"pm2_5":30.3,"mosquito_risk":7,"arthritis_risk":5,"migraine_risk":7,"frizz_risk":1,"updated_at":"2026-03-23T00:11:39.210368+05:30"},{"city":"Tirunelveli","state":"Tamil Nadu","latitude":8.7139,"longitude":77.7567,"temp":26.7,"humidity":73,"rain":0.0,"pressure":1005.6,"uv_index":9.3,"wind_gusts":32.8,"aqi":68,"pm10":29.9,"pm2_5":27.1,"mosquito_risk":7,"arthritis_risk":5,"migraine_risk":4,"frizz_risk":1,"updated_at":"2026-03-23T00:11:39.210376+05:30"},{"city":"Vellore","state":"Tamil Nadu","latitude":12.9165,"longitude":79.1325,"temp":25.0,"humidity":72,"rain":0.0,"pressure":987.6,"uv_index":9.25,"wind_gusts":32.8,"aqi":85,"pm10":31.8,"pm2_5":27.6,"mosquito_risk":7,"arthritis_risk":5,"migraine_risk":7,"frizz_risk":1,"updated_at":"2026-03-23T00:11:39.210384+05:30"},{"city":"Erode","state":"Tamil Nadu","latitude":11.341,"longitude":77.7172,"temp":27.6,"humidity":75,"rain":0.0,"pressure":991.1,"uv_index":9.3,"wind_gusts":32.8,"aqi":66,"pm10":22.1,"pm2_5":18.9,"mosquito_risk":7,"arthritis_risk":5,"migraine_risk":7,"frizz_risk":1,"updated_at":"2026-03-23T00:11:39.210392+05:30"},{"city":"Kochi","state":"Kerala","latitude":9.9312,"longitude":76.2673,"temp":27.7,"humidity":80,"rain":0.0,"pressure":1010.9,"uv_index":9.15,"wind_gusts":34.9,"aqi":77,"pm10":48.2,"pm2_5":45.3,"mosquito_risk":7,"arthritis_risk":0,"migraine_risk":4,"frizz_risk":1,"updated_at":"2026-03-23T00:11:39.210399+05:30"},{"city":"Thiruvananthapuram","state":"Kerala","latitude":8.5241,"longitude":76.9366,"temp":27.6,"humidity":79,"rain":0.0,"pressure":1009.8,"uv_index":9.15,"wind_gusts":26.3,"aqi":97,"pm10":19.1,"pm2_5":14.3,"mosquito_risk":7,"arthritis_risk":0,"migraine_risk":4,"frizz_risk":1,"updated_at":"2026-03-23T00:11:39.210406+05:30"},{"city":"Kozhikode","state":"Kerala","latitude":11.2588,"longitude":75.7804,"temp":29.2,"humidity":78,"rain":0.0,"pressure":1009.3,"uv_index":9.1,"wind_gusts":31.0,"aqi":65,"pm10":44.8,"pm2_5":24.3,"mosquito_risk":7,"arthritis_risk":0,"migraine_risk":4,"frizz_risk":1,"updated_at":"2026-03-23T00:11:39.210413+05:30"},{"city":"Thrissur","state":"Kerala","latitude":10.5276,"longitude":76.2144,"temp":27.5,"humidity":81,"rain":0.0,"pressure":1008.8,"uv_index":9.1,"wind_gusts":38.2,"aqi":76,"pm10":57.6,"pm2_5":52.4,"mosquito_risk":7,"arthritis_risk":0,"migraine_risk":4,"frizz_risk":1,"updated_at":"2026-03-23T00:11:39.210421+05:30"},{"city":"Kannur","state":"Kerala","latitude":11.8745,"longitude":75.3704,"temp":28.9,"humidity":78,"rain":0.0,"pressure":1008.8,"uv_index":9.05,"wind_gusts":34.9,"aqi":69,"pm10":36.8,"pm2_5":22.7,"mosquito_risk":7,"arthritis_risk":0,"migraine_risk":4,"frizz_risk":1,"updated_at":"2026-03-23T00:11:39.210428+05:30"},{"city":"Patna","state":"Bihar","latitude":25.5941,"longitude":85.1376,"temp":21.0,"humidity":79,"rain":0.0,"pressure":1005.5,"uv_index":7.55,"wind_gusts":19.1,"aqi":160,"pm10":62.2,"pm2_5":59.5,"mosquito_risk":3,"arthritis_risk":5,"migraine_risk":4,"frizz_risk":1,"updated_at":"2026-03-23T00:11:39.210435+05:30"},{"city":"Gaya","state":"Bihar","latitude":24.7914,"longitude":85.0002,"temp":19.8,"humidity":84,"rain":0.0,"pressure":998.8,"uv_index":7.5,"wind_gusts":21.6,"aqi":137,"pm10":67.3,"pm2_5":59.8,"mosquito_risk":3,"arthritis_risk":10,"migraine_risk":7,"frizz_risk":1,"updated_at":"2026-03-23T00:11:39.210442+05:30"},{"city":"Muzaffarpur","state":"Bihar","latitude":26.1209,"longitude":85.3647,"temp":19.6,"humidity":77,"rain":0.0,"pressure":1005.4,"uv_index":6.15,"wind_gusts":11.5,"aqi":162,"pm10":63.3,"pm2_5":61.0,"mosquito_risk":3,"arthritis_risk":5,"migraine_risk":4,"frizz_risk":0,"updated_at":"2026-03-23T00:11:39.210449+05:30"},{"city":"Bhagalpur","state":"Bihar","latitude":25.2425,"longitude":87.0117,"temp":20.5,"humidity":80,"rain":0.0,"pressure":1006.4,"uv_index":7.05,"wind_gusts":17.3,"aqi":156,"pm10":86.1,"pm2_5":79.4,"mosquito_risk":3,"arthritis_risk":5,"migraine_risk":4,"frizz_risk":1,"updated_at":"2026-03-23T00:11:39.210456+05:30"},{"city":"Ranchi","state":"Jharkhand","latitude":23.3441,"longitude":85.3096,"temp":18.2,"humidity":68,"rain":0.0,"pressure":940.9,"uv_index":8.45,"wind_gusts":29.5,"aqi":87,"pm10":69.4,"pm2_5":32.9,"mosquito_risk":3,"arthritis_risk":5,"migraine_risk":7,"frizz_risk":0,"updated_at":"2026-03-23T00:11:39.210463+05:30"},{"city":"Jamshedpur","state":"Jharkhand","latitude":22.8046,"longitude":86.2029,"temp":24.6,"humidity":51,"rain":0.0,"pressure":995.2,"uv_index":8.35,"wind_gusts":19.1,"aqi":121,"pm10":75.0,"pm2_5":59.6,"mosquito_risk":0,"arthritis_risk":5,"migraine_risk":7,"frizz_risk":0,"updated_at":"2026-03-23T00:11:39.210469+05:30"},{"city":"Dhanbad","state":"Jharkhand","latitude":23.7957,"longitude":86.4304,"temp":21.0,"humidity":72,"rain":0.0,"pressure":984.5,"uv_index":8.2,"wind_gusts":23.8,"aqi":142,"pm10":97.8,"pm2_5":86.4,"mosquito_risk":3,"arthritis_risk":5,"migraine_risk":7,"frizz_risk":0,"updated_at":"2026-03-23T00:11:39.210475+05:30"},{"city":"Bokaro","state":"Jharkhand","latitude":23.6693,"longitude":86.1511,"temp":21.1,"humidity":72,"rain":0.0,"pressure":988.8,"uv_index":8.2,"wind_gusts":24.5,"aqi":141,"pm10":106.2,"pm2_5":87.1,"mosquito_risk":3,"arthritis_risk":5,"migraine_risk":7,"frizz_risk":0,"updated_at":"2026-03-23T00:11:39.210481+05:30"},{"city":"Bhubaneswar","state":"Odisha","latitude":20.2961,"longitude":85.8245,"temp":24.2,"humidity":91,"rain":0.0,"pressure":1006.8,"uv_index":8.65,"wind_gusts":26.3,"aqi":91,"pm10":44.6,"pm2_5":38.2,"mosquito_risk":3,"arthritis_risk":5,"migraine_risk":4,"frizz_risk":1,"updated_at":"2026-03-23T00:11:39.210488+05:30"},{"city":"Cuttack","state":"Odisha","latitude":20.4625,"longitude":85.8828,"temp":24.2,"humidity":90,"rain":0.0,"pressure":1008.8,"uv_index":8.65,"wind_gusts":21.2,"aqi":91,"pm10":44.6,"pm2_5":38.2,"mosquito_risk":3,"arthritis_risk":0,"migraine_risk":4,"frizz_risk":1,"updated_at":"2026-03-23T00:11:39.210494+05:30"},{"city":"Rourkela","state":"Odisha","latitude":22.2604,"longitude":84.8536,"temp":20.5,"humidity":80,"rain":0.0,"pressure":989.0,"uv_index":8.2,"wind_gusts":20.5,"aqi":81,"pm10":50.2,"pm2_5":37.1,"mosquito_risk":3,"arthritis_risk":5,"migraine_risk":7,"frizz_risk":1,"updated_at":"2026-03-23T00:11:39.210500+05:30"},{"city":"Raipur","state":"Chhattisgarh","latitude":21.2514,"longitude":81.6296,"temp":22.9,"humidity":43,"rain":0.0,"pressure":978.1,"uv_index":8.4,"wind_gusts":23.0,"aqi":80,"pm10":67.8,"pm2_5":60.3,"mosquito_risk":0,"arthritis_risk":5,"migraine_risk":7,"frizz_risk":0,"updated_at":"2026-03-23T00:11:39.210506+05:30"},{"city":"Bhilai","state":"Chhattisgarh","latitude":21.1938,"longitude":81.3509,"temp":22.3,"humidity":46,"rain":0.0,"pressure":978.5,"uv_index":8.4,"wind_gusts":16.9,"aqi":83,"pm10":84.3,"pm2_5":73.1,"mosquito_risk":0,"arthritis_risk":5,"migraine_risk":7,"frizz_risk":0,"updated_at":"2026-03-23T00:11:39.210513+05:30"},{"city":"Guwahati","state":"Assam","latitude":26.1158,"longitude":91.7086,"temp":21.4,"humidity":89,"rain":0.0,"pressure":1006.2,"uv_index":7.6,"wind_gusts":20.5,"aqi":81,"pm10":23.6,"pm2_5":21.4,"mosquito_risk":3,"arthritis_risk":5,"migraine_risk":4,"frizz_risk":1,"updated_at":"2026-03-23T00:11:39.210519+05:30"},{"city":"Agartala","state":"Tripura","latitude":23.8315,"longitude":91.2868,"temp":20.3,"humidity":87,"rain":0.0,"pressure":1011.0,"uv_index":7.85,"wind_gusts":22.0,"aqi":142,"pm10":92.0,"pm2_5":87.1,"mosquito_risk":3,"arthritis_risk":0,"migraine_risk":4,"frizz_risk":1,"updated_at":"2026-03-23T00:11:39.210526+05:30"},{"city":"Shillong","state":"Meghalaya","latitude":25.5788,"longitude":91.8933,"temp":9.1,"humidity":92,"rain":0.0,"pressure":855.6,"uv_index":6.7,"wind_gusts":26.3,"aqi":60,"pm10":22.6,"pm2_5":20.4,"mosquito_risk":3,"arthritis_risk":10,"migraine_risk":7,"frizz_risk":0,"updated_at":"2026-03-23T00:11:39.210532+05:30"},{"city":"Imphal","state":"Manipur","latitude":24.817,"longitude":93.9368,"temp":13.4,"humidity":91,"rain":0.0,"pressure":925.4,"uv_index":8.15,"wind_gusts":51.5,"aqi":60,"pm10":26.5,"pm2_5":25.0,"mosquito_risk":3,"arthritis_risk":10,"migraine_risk":7,"frizz_risk":0,"updated_at":"2026-03-23T00:11:39.210540+05:30"},{"city":"Aizawl","state":"Mizoram","latitude":23.7271,"longitude":92.7176,"temp":14.5,"humidity":86,"rain":0.0,"pressure":894.4,"uv_index":8.2,"wind_gusts":44.6,"aqi":48,"pm10":21.6,"pm2_5":20.0,"mosquito_risk":3,"arthritis_risk":10,"migraine_risk":7,"frizz_risk":0,"updated_at":"2026-03-23T00:11:39.210546+05:30"},{"city":"Kohima","state":"Nagaland","latitude":25.6701,"longitude":94.1077,"temp":11.0,"humidity":85,"rain":0.0,"pressure":854.9,"uv_index":7.8,"wind_gusts":56.9,"aqi":54,"pm10":17.6,"pm2_5":16.2,"mosquito_risk":3,"arthritis_risk":10,"migraine_risk":7,"frizz_risk":0,"updated_at":"2026-03-23T00:11:39.210552+05:30"},{"city":"Gangtok","state":"Sikkim","latitude":27.3314,"longitude":88.6138,"temp":11.1,"humidity":93,"rain":0.1,"pressure":837.3,"uv_index":7.85,"wind_gusts":19.4,"aqi":59,"pm10":19.3,"pm2_5":18.7,"mosquito_risk":6,"arthritis_risk":10,"migraine_risk":7,"frizz_risk":0,"updated_at":"2026-03-23T00:11:39.210559+05:30"},{"city":"Siliguri","state":"West Bengal","latitude":26.7271,"longitude":88.3953,"temp":17.5,"humidity":74,"rain":0.0,"pressure":998.2,"uv_index":7.45,"wind_gusts":17.3,"aqi":101,"pm10":50.2,"pm2_5":48.4,"mosquito_risk":3,"arthritis_risk":5,"migraine_risk":7,"frizz_risk":0,"updated_at":"2026-03-23T00:11:42.564971+05:30"},{"city":"Durgapur","state":"West Bengal","latitude":23.5204,"longitude":87.3119,"temp":22.1,"humidity":74,"rain":0.0,"pressure":999.8,"uv_index":8.1,"wind_gusts":18.4,"aqi":132,"pm10":89.2,"pm2_5":85.2,"mosquito_risk":3,"arthritis_risk":5,"migraine_risk":7,"frizz_risk":1,"updated_at":"2026-03-23T00:11:42.565003+05:30"},{"city":"Asansol","state":"West Bengal","latitude":23.6739,"longitude":86.9524,"temp":22.4,"humidity":70,"rain":0.0,"pressure":998.5,"uv_index":8.2,"wind_gusts":20.5,"aqi":119,"pm10":59.6,"pm2_5":54.9,"mosquito_risk":3,"arthritis_risk":5,"migraine_risk":7,"frizz_risk":1,"updated_at":"2026-03-23T00:11:42.565012+05:30"},{"city":"Pondicherry","state":"Puducherry","latitude":11.9139,"longitude":79.8145,"temp":25.2,"humidity":90,"rain":0.0,"pressure":1011.3,"uv_index":9.15,"wind_gusts":28.8,"aqi":34,"pm10":12.9,"pm2_5":7.7,"mosquito_risk":7,"arthritis_risk":0,"migraine_risk":4,"frizz_risk":1,"updated_at":"2026-03-23T00:11:42.565021+05:30"},{"city":"Port Blair","state":"Andaman and Nicobar Islands","latitude":11.6234,"longitude":92.7265,"temp":28.0,"humidity":81,"rain":0.0,"pressure":1008.9,"uv_index":9.1,"wind_gusts":20.9,"aqi":42,"pm10":10.7,"pm2_5":7.8,"mosquito_risk":7,"arthritis_risk":0,"migraine_risk":4,"frizz_risk":1,"updated_at":"2026-03-23T00:11:42.565029+05:30"},{"city":"Haridwar","state":"Uttarakhand","latitude":29.9457,"longitude":78.1642,"temp":17.5,"humidity":89,"rain":0.0,"pressure":978.1,"uv_index":6.25,"wind_gusts":25.9,"aqi":119,"pm10":201.6,"pm2_5":67.5,"mosquito_risk":3,"arthritis_risk":10,"migraine_risk":7,"frizz_risk":0,"updated_at":"2026-03-23T00:11:42.565037+05:30"},{"city":"Rishikesh","state":"Uttarakhand","latitude":30.0869,"longitude":78.2676,"temp":17.6,"humidity":78,"rain":0.0,"pressure":970.7,"uv_index":6.3,"wind_gusts":25.6,"aqi":111,"pm10":95.2,"pm2_5":46.6,"mosquito_risk":3,"arthritis_risk":5,"migraine_risk":7,"frizz_risk":0,"updated_at":"2026-03-23T00:11:42.565045+05:30"},{"city":"Nainital","state":"Uttarakhand","latitude":29.3919,"longitude":79.4542,"temp":13.9,"humidity":71,"rain":0.0,"pressure":806.4,"uv_index":7.15,"wind_gusts":37.8,"aqi":104,"pm10":53.8,"pm2_5":36.1,"mosquito_risk":3,"arthritis_risk":5,"migraine_risk":7,"frizz_risk":0,"updated_at":"2026-03-23T00:11:42.565053+05:30"},{"city":"Mussoorie","state":"Uttarakhand","latitude":30.4599,"longitude":78.0664,"temp":12.3,"humidity":77,"rain":0.0,"pressure":802.7,"uv_index":6.65,"wind_gusts":25.9,"aqi":90,"pm10":99.9,"pm2_5":54.8,"mosquito_risk":3,"arthritis_risk":5,"migraine_risk":7,"frizz_risk":0,"updated_at":"2026-03-23T00:11:42.565060+05:30"},{"city":"Dharamshala","state":"Himachal Pradesh","latitude":32.219,"longitude":76.3234,"temp":15.9,"humidity":69,"rain":0.0,"pressure":870.3,"uv_index":6.75,"wind_gusts":20.9,"aqi":111,"pm10":30.3,"pm2_5":22.9,"mosquito_risk":3,"arthritis_risk":5,"migraine_risk":7,"frizz_risk":0,"updated_at":"2026-03-23T00:11:42.565067+05:30"},{"city":"Dalhousie","state":"Himachal Pradesh","latitude":32.5387,"longitude":75.971,"temp":11.8,"humidity":81,"rain":0.0,"pressure":803.3,"uv_index":7.0,"wind_gusts":19.1,"aqi":90,"pm10":57.0,"pm2_5":52.6,"mosquito_risk":3,"arthritis_risk":10,"migraine_risk":7,"frizz_risk":0,"updated_at":"2026-03-23T00:11:42.565075+05:30"},{"city":"Patiala","state":"Punjab","latitude":30.3398,"longitude":76.3869,"temp":18.4,"humidity":83,"rain":0.0,"pressure":982.3,"uv_index":6.3,"wind_gusts":31.3,"aqi":159,"pm10":242.1,"pm2_5":73.1,"mosquito_risk":3,"arthritis_risk":10,"migraine_risk":7,"frizz_risk":0,"updated_at":"2026-03-23T00:11:42.565083+05:30"},{"city":"Bhatinda","state":"Punjab","latitude":30.211,"longitude":74.9455,"temp":20.2,"humidity":79,"rain":0.0,"pressure":988.1,"uv_index":6.9,"wind_gusts":19.4,"aqi":151,"pm10":138.8,"pm2_5":73.3,"mosquito_risk":3,"arthritis_risk":5,"migraine_risk":7,"frizz_risk":1,"updated_at":"2026-03-23T00:11:42.565089+05:30"},{"city":"Rohtak","state":"Haryana","latitude":28.8955,"longitude":76.6066,"temp":19.4,"humidity":80,"rain":0.0,"pressure":985.7,"uv_index":6.45,"wind_gusts":24.8,"aqi":193,"pm10":530.9,"pm2_5":105.0,"mosquito_risk":3,"arthritis_risk":5,"migraine_risk":7,"frizz_risk":0,"updated_at":"2026-03-23T00:11:42.565096+05:30"},{"city":"Panipat","state":"Haryana","latitude":29.3909,"longitude":76.9635,"temp":18.2,"humidity":81,"rain":0.0,"pressure":984.4,"uv_index":6.25,"wind_gusts":29.5,"aqi":449,"pm10":545.8,"pm2_5":111.3,"mosquito_risk":3,"arthritis_risk":10,"migraine_risk":7,"frizz_risk":0,"updated_at":"2026-03-23T00:11:42.565103+05:30"},{"city":"Mathura","state":"Uttar Pradesh","latitude":27.4924,"longitude":77.6737,"temp":20.0,"humidity":74,"rain":0.0,"pressure":990.8,"uv_index":6.6,"wind_gusts":28.1,"aqi":323,"pm10":461.9,"pm2_5":89.4,"mosquito_risk":3,"arthritis_risk":5,"migraine_risk":7,"frizz_risk":0,"updated_at":"2026-03-23T00:11:42.565110+05:30"},{"city":"Vrindavan","state":"Uttar Pradesh","latitude":27.5823,"longitude":77.7027,"temp":20.3,"humidity":71,"rain":0.0,"pressure":991.2,"uv_index":6.45,"wind_gusts":28.1,"aqi":323,"pm10":461.9,"pm2_5":89.4,"mosquito_risk":3,"arthritis_risk":5,"migraine_risk":7,"frizz_risk":0,"updated_at":"2026-03-23T00:11:42.565117+05:30"},{"city":"Ayodhya","state":"Uttar Pradesh","latitude":26.7922,"longitude":82.1998,"temp":20.4,"humidity":79,"rain":0.0,"pressure":999.6,"uv_index":7.0,"wind_gusts":18.7,"aqi":104,"pm10":88.9,"pm2_5":41.0,"mosquito_risk":3,"arthritis_risk":5,"migraine_risk":7,"frizz_risk":1,"updated_at":"2026-03-23T00:11:42.565123+05:30"},{"city":"Ratlam","state":"Madhya Pradesh","latitude":23.3315,"longitude":75.0367,"temp":24.7,"humidity":48,"rain":0.0,"pressure":957.1,"uv_index":7.95,"wind_gusts":14.4,"aqi":66,"pm10":56.9,"pm2_5":44.6,"mosquito_risk":0,"arthritis_risk":5,"migraine_risk":7,"frizz_risk":0,"updated_at":"2026-03-23T00:11:42.565131+05:30"},{"city":"Sagar","state":"Madhya Pradesh","latitude":23.8388,"longitude":78.7378,"temp":22.8,"humidity":51,"rain":0.0,"pressure":953.0,"uv_index":7.95,"wind_gusts":29.9,"aqi":62,"pm10":49.2,"pm2_5":23.7,"mosquito_risk":0,"arthritis_risk":5,"migraine_risk":7,"frizz_risk":0,"updated_at":"2026-03-23T00:11:42.565137+05:30"},{"city":"Satna","state":"Madhya Pradesh","latitude":24.6005,"longitude":80.8322,"temp":22.2,"humidity":51,"rain":0.0,"pressure":975.4,"uv_index":7.9,"wind_gusts":32.4,"aqi":74,"pm10":86.8,"pm2_5":27.4,"mosquito_risk":0,"arthritis_risk":5,"migraine_risk":7,"frizz_risk":0,"updated_at":"2026-03-23T00:11:42.565144+05:30"},{"city":"Akola","state":"Maharashtra","latitude":20.7002,"longitude":77.0082,"temp":25.4,"humidity":48,"rain":0.0,"pressure":977.8,"uv_index":8.3,"wind_gusts":21.2,"aqi":76,"pm10":38.2,"pm2_5":32.7,"mosquito_risk":4,"arthritis_risk":5,"migraine_risk":7,"frizz_risk":0,"updated_at":"2026-03-23T00:11:42.565151+05:30"},{"city":"Amravati","state":"Maharashtra","latitude":20.9374,"longitude":77.7796,"temp":24.4,"humidity":52,"rain":0.0,"pressure":970.0,"uv_index":8.3,"wind_gusts":22.3,"aqi":79,"pm10":34.0,"pm2_5":28.2,"mosquito_risk":0,"arthritis_risk":5,"migraine_risk":7,"frizz_risk":0,"updated_at":"2026-03-23T00:11:42.565158+05:30"},{"city":"Latur","state":"Maharashtra","latitude":18.4088,"longitude":76.5604,"temp":23.9,"humidity":51,"rain":0.0,"pressure":941.6,"uv_index":8.7,"wind_gusts":28.8,"aqi":91,"pm10":24.4,"pm2_5":18.1,"mosquito_risk":0,"arthritis_risk":5,"migraine_risk":7,"frizz_risk":0,"updated_at":"2026-03-23T00:11:42.565164+05:30"},{"city":"Nanded","state":"Maharashtra","latitude":19.1383,"longitude":77.3091,"temp":25.7,"humidity":47,"rain":0.0,"pressure":971.0,"uv_index":8.5,"wind_gusts":28.4,"aqi":61,"pm10":24.6,"pm2_5":22.7,"mosquito_risk":4,"arthritis_risk":5,"migraine_risk":7,"frizz_risk":0,"updated_at":"2026-03-23T00:11:42.565171+05:30"},{"city":"Gulbarga","state":"Karnataka","latitude":17.3297,"longitude":76.8343,"temp":28.2,"humidity":40,"rain":0.0,"pressure":960.7,"uv_index":8.75,"wind_gusts":18.4,"aqi":85,"pm10":37.6,"pm2_5":30.3,"mosquito_risk":4,"arthritis_risk":5,"migraine_risk":7,"frizz_risk":0,"updated_at":"2026-03-23T00:11:42.565178+05:30"},{"city":"Bidar","state":"Karnataka","latitude":17.9104,"longitude":77.5199,"temp":26.0,"humidity":62,"rain":0.0,"pressure":937.8,"uv_index":8.75,"wind_gusts":20.5,"aqi":90,"pm10":28.8,"pm2_5":24.0,"mosquito_risk":7,"arthritis_risk":5,"migraine_risk":7,"frizz_risk":1,"updated_at":"2026-03-23T00:11:42.565184+05:30"},{"city":"Hospet","state":"Karnataka","latitude":15.2689,"longitude":76.3909,"temp":27.9,"humidity":59,"rain":0.0,"pressure":957.3,"uv_index":9.0,"wind_gusts":15.1,"aqi":138,"pm10":39.2,"pm2_5":31.9,"mosquito_risk":4,"arthritis_risk":5,"migraine_risk":7,"frizz_risk":1,"updated_at":"2026-03-23T00:11:42.565190+05:30"},{"city":"Tirupur","state":"Tamil Nadu","latitude":11.1085,"longitude":77.3411,"temp":27.6,"humidity":67,"rain":0.0,"pressure":977.4,"uv_index":9.4,"wind_gusts":31.0,"aqi":81,"pm10":42.0,"pm2_5":35.9,"mosquito_risk":7,"arthritis_risk":5,"migraine_risk":7,"frizz_risk":1,"updated_at":"2026-03-23T00:11:42.565197+05:30"},{"city":"Alappuzha","state":"Kerala","latitude":9.4981,"longitude":76.3388,"temp":27.3,"humidity":82,"rain":0.0,"pressure":1011.1,"uv_index":9.15,"wind_gusts":33.5,"aqi":64,"pm10":41.3,"pm2_5":34.0,"mosquito_risk":7,"arthritis_risk":0,"migraine_risk":4,"frizz_risk":1,"updated_at":"2026-03-23T00:11:42.565203+05:30"},{"city":"Munnar","state":"Kerala","latitude":10.0889,"longitude":77.0595,"temp":20.7,"humidity":87,"rain":0.0,"pressure":858.3,"uv_index":8.65,"wind_gusts":26.6,"aqi":69,"pm10":38.4,"pm2_5":30.7,"mosquito_risk":3,"arthritis_risk":5,"migraine_risk":7,"frizz_risk":1,"updated_at":"2026-03-23T00:11:42.565210+05:30"},{"city":"Silchar","state":"Assam","latitude":24.8333,"longitude":92.7789,"temp":19.8,"humidity":92,"rain":0.0,"pressure":1010.6,"uv_index":7.95,"wind_gusts":22.3,"aqi":84,"pm10":56.7,"pm2_5":51.7,"mosquito_risk":3,"arthritis_risk":5,"migraine_risk":4,"frizz_risk":1,"updated_at":"2026-03-23T00:11:42.565217+05:30"},{"city":"Dibrugarh","state":"Assam","latitude":27.4728,"longitude":94.912,"temp":20.7,"humidity":93,"rain":0.0,"pressure":1000.2,"uv_index":4.5,"wind_gusts":28.4,"aqi":112,"pm10":28.9,"pm2_5":27.0,"mosquito_risk":3,"arthritis_risk":5,"migraine_risk":0,"frizz_risk":1,"updated_at":"2026-03-23T00:11:42.565223+05:30"}]