[{"city":"Delhi","state":"Delhi","latitude":28.6139,"longitude":77.209,"temp":29.2,"humidity":89,"rain":0.0,"pressure":974.3,"uv_index":7.4,"wind_gusts":21.2,"aqi":143,"pm10":72.9,"pm2_5":68.5,"no2":45.3,"co":956.0,"o3":46.0,"so2":29.0,"mosquito_risk":7,"arthritis_risk":5,"migraine_risk":7,"frizz_risk":1,"updated_at":"2026-07-05T03:30:40.995199+05:30"},{"city":"Mumbai","state":"Maharashtra","latitude":19.076,"longitude":72.8777,"temp":26.0,"humidity":94,"rain":0.7,"pressure":998.8,"uv_index":0.6,"wind_gusts":67.3,"aqi":28,"pm10":14.2,"pm2_5":7.1,"no2":2.7,"co":98.0,"o3":52.0,"so2":2.2,"mosquito_risk":10,"arthritis_risk":5,"migraine_risk":3,"frizz_risk":1,"updated_at":"2026-07-05T03:30:40.995249+05:30"},{"city":"Bangalore","state":"Karnataka","latitude":12.9716,"longitude":77.5946,"temp":21.2,"humidity":88,"rain":0.0,"pressure":908.5,"uv_index":7.95,"wind_gusts":67.7,"aqi":18,"pm10":2.7,"pm2_5":1.9,"no2":4.6,"co":125.0,"o3":41.0,"so2":2.5,"mosquito_risk":3,"arthritis_risk":5,"migraine_risk":7,"frizz_risk":1,"updated_at":"2026-07-05T03:30:40.995265+05:30"},{"city":"Hyderabad","state":"Telangana","latitude":17.385,"longitude":78.4867,"temp":23.8,"humidity":86,"rain":0.0,"pressure":946.4,"uv_index":4.4,"wind_gusts":67.7,"aqi":19,"pm10":2.5,"pm2_5":1.9,"no2":5.0,"co":121.0,"o3":40.0,"so2":2.6,"mosquito_risk":3,"arthritis_risk":5,"migraine_risk":3,"frizz_risk":1,"updated_at":"2026-07-05T03:30:40.995274+05:30"},{"city":"Chennai","state":"Tamil Nadu","latitude":13.0827,"longitude":80.2707,"temp":30.0,"humidity":54,"rain":0.0,"pressure":1002.8,"uv_index":8.4,"wind_gusts":62.3,"aqi":38,"pm10":5.4,"pm2_5":4.1,"no2":9.9,"co":139.0,"o3":36.0,"so2":6.0,"mosquito_risk":4,"arthritis_risk":5,"migraine_risk":4,"frizz_risk":1,"updated_at":"2026-07-05T03:30:40.995283+05:30"},{"city":"Kolkata","state":"West Bengal","latitude":22.5726,"longitude":88.3639,"temp":26.8,"humidity":93,"rain":0.0,"pressure":993.3,"uv_index":8.4,"wind_gusts":42.5,"aqi":42,"pm10":11.1,"pm2_5":9.9,"no2":7.9,"co":209.0,"o3":62.0,"so2":5.8,"mosquito_risk":7,"arthritis_risk":5,"migraine_risk":7,"frizz_risk":1,"updated_at":"2026-07-05T03:30:40.995291+05:30"},{"city":"Pune","state":"Maharashtra","latitude":18.5204,"longitude":73.8567,"temp":23.3,"humidity":94,"rain":0.1,"pressure":939.4,"uv_index":0.8,"wind_gusts":55.8,"aqi":22,"pm10":0.8,"pm2_5":0.8,"no2":3.3,"co":95.0,"o3":47.0,"so2":2.3,"mosquito_risk":6,"arthritis_risk":5,"migraine_risk":3,"frizz_risk":1,"updated_at":"2026-07-05T03:30:40.995297+05:30"},{"city":"Ahmedabad","state":"Gujarat","latitude":23.0225,"longitude":72.5714,"temp":26.2,"humidity":93,"rain":0.1,"pressure":992.1,"uv_index":5.7,"wind_gusts":41.0,"aqi":61,"pm10":36.6,"pm2_5":16.6,"no2":8.7,"co":201.0,"o3":52.0,"so2":3.0,"mosquito_risk":10,"arthritis_risk":5,"migraine_risk":3,"frizz_risk":1,"updated_at":"2026-07-05T03:30:40.995304+05:30"},{"city":"Jaipur","state":"Rajasthan","latitude":26.9124,"longitude":75.7873,"temp":28.1,"humidity":86,"rain":0.0,"pressure":951.1,"uv_index":7.95,"wind_gusts":39.6,"aqi":110,"pm10":48.8,"pm2_5":32.2,"no2":24.2,"co":272.0,"o3":47.0,"so2":5.9,"mosquito_risk":7,"arthritis_risk":5,"migraine_risk":7,"frizz_risk":1,"updated_at":"2026-07-05T03:30:40.995311+05:30"},{"city":"Lucknow","state":"Uttar Pradesh","latitude":26.8467,"longitude":80.9462,"temp":27.6,"humidity":98,"rain":0.1,"pressure":984.5,"uv_index":7.65,"wind_gusts":36.7,"aqi":94,"pm10":31.2,"pm2_5":30.7,"no2":19.4,"co":354.0,"o3":56.0,"so2":6.7,"mosquito_risk":10,"arthritis_risk":5,"migraine_risk":7,"frizz_risk":1,"updated_at":"2026-07-05T03:30:40.995322+05:30"},{"city":"Kanpur","state":"Uttar Pradesh","latitude":26.4499,"longitude":80.3319,"temp":27.6,"humidity":96,"rain":0.1,"pressure":982.6,"uv_index":8.1,"wind_gusts":35.3,"aqi":91,"pm10":30.3,"pm2_5":29.8,"no2":20.6,"co":341.0,"o3":53.0,"so2":5.5,"mosquito_risk":10,"arthritis_risk":5,"migraine_risk":7,"frizz_risk":1,"updated_at":"2026-07-05T03:30:40.995329+05:30"},{"city":"Chandigarh","state":"Chandigarh","latitude":30.7333,"longitude":76.7794,"temp":27.2,"humidity":93,"rain":0.0,"pressure":960.8,"uv_index":7.05,"wind_gusts":23.0,"aqi":116,"pm10":60.8,"pm2_5":60.5,"no2":48.3,"co":768.0,"o3":20.0,"so2":10.9,"mosquito_risk":7,"arthritis_risk":5,"migraine_risk":7,"frizz_risk":1,"updated_at":"2026-07-05T03:30:40.995335+05:30"},{"city":"Srinagar","state":"Jammu and Kashmir","latitude":34.0837,"longitude":74.7973,"temp":18.3,"humidity":95,"rain":0.0,"pressure":835.3,"uv_index":9.05,"wind_gusts":26.3,"aqi":81,"pm10":45.3,"pm2_5":41.4,"no2":29.7,"co":516.0,"o3":4.0,"so2":1.3,"mosquito_risk":3,"arthritis_risk":10,"migraine_risk":7,"frizz_risk":1,"updated_at":"2026-07-05T03:30:40.995342+05:30"},{"city":"Jammu","state":"Jammu and Kashmir","latitude":32.7266,"longitude":74.857,"temp":29.2,"humidity":81,"rain":0.0,"pressure":964.2,"uv_index":8.6,"wind_gusts":26.6,"aqi":113,"pm10":58.4,"pm2_5":57.3,"no2":55.6,"co":437.0,"o3":5.0,"so2":3.6,"mosquito_risk":7,"arthritis_risk":5,"migraine_risk":7,"frizz_risk":1,"updated_at":"2026-07-05T03:30:40.995349+05:30"},{"city":"Amritsar","state":"Punjab","latitude":31.634,"longitude":74.8723,"temp":29.5,"humidity":82,"rain":0.0,"pressure":971.8,"uv_index":8.45,"wind_gusts":48.2,"aqi":116,"pm10":49.6,"pm2_5":44.7,"no2":20.6,"co":494.0,"o3":78.0,"so2":11.1,"mosquito_risk":7,"arthritis_risk":5,"migraine_risk":7,"frizz_risk":1,"updated_at":"2026-07-05T03:30:40.995355+05:30"},{"city":"Ludhiana","state":"Punjab","latitude":30.901,"longitude":75.8573,"temp":28.4,"humidity":91,"rain":0.0,"pressure":970.1,"uv_index":7.9,"wind_gusts":28.1,"aqi":149,"pm10":85.2,"pm2_5":82.0,"no2":37.2,"co":574.0,"o3":45.0,"so2":10.6,"mosquito_risk":7,"arthritis_risk":5,"migraine_risk":7,"frizz_risk":1,"updated_at":"2026-07-05T03:30:40.995361+05:30"},{"city":"Jalandhar","state":"Punjab","latitude":31.326,"longitude":75.5762,"temp":28.6,"humidity":91,"rain":0.0,"pressure":971.1,"uv_index":7.45,"wind_gusts":34.6,"aqi":149,"pm10":77.3,"pm2_5":67.8,"no2":35.4,"co":720.0,"o3":48.0,"so2":7.0,"mosquito_risk":7,"arthritis_risk":5,"migraine_risk":7,"frizz_risk":1,"updated_at":"2026-07-05T03:30:40.995367+05:30"},{"city":"Dehradun","state":"Uttarakhand","latitude":30.6284,"longitude":78.0322,"temp":17.6,"humidity":99,"rain":0.0,"pressure":825.6,"uv_index":7.4,"wind_gusts":27.4,"aqi":40,"pm10":8.3,"pm2_5":8.1,"no2":8.0,"co":272.0,"o3":81.0,"so2":0.6,"mosquito_risk":3,"arthritis_risk":10,"migraine_risk":7,"frizz_risk":1,"updated_at":"2026-07-05T03:30:40.995373+05:30"},{"city":"Shimla","state":"Himachal Pradesh","latitude":31.1048,"longitude":77.1734,"temp":15.0,"humidity":97,"rain":0.0,"pressure":779.2,"uv_index":7.1,"wind_gusts":33.8,"aqi":53,"pm10":15.1,"pm2_5":14.9,"no2":18.0,"co":340.0,"o3":44.0,"so2":0.1,"mosquito_risk":3,"arthritis_risk":10,"migraine_risk":7,"frizz_risk":0,"updated_at":"2026-07-05T03:30:40.995380+05:30"},{"city":"Manali","state":"Himachal Pradesh","latitude":32.2396,"longitude":77.1887,"temp":18.2,"humidity":74,"rain":0.0,"pressure":813.9,"uv_index":9.25,"wind_gusts":36.0,"aqi":39,"pm10":5.6,"pm2_5":5.5,"no2":17.7,"co":201.0,"o3":97.0,"so2":0.0,"mosquito_risk":3,"arthritis_risk":5,"migraine_risk":7,"frizz_risk":0,"updated_at":"2026-07-05T03:30:40.995387+05:30"},{"city":"Gurgaon","state":"Haryana","latitude":28.4595,"longitude":77.0266,"temp":28.6,"humidity":92,"rain":0.0,"pressure":972.7,"uv_index":6.35,"wind_gusts":30.2,"aqi":135,"pm10":63.3,"pm2_5":51.3,"no2":34.2,"co":626.0,"o3":53.0,"so2":17.5,"mosquito_risk":7,"arthritis_risk":5,"migraine_risk":7,"frizz_risk":1,"updated_at":"2026-07-05T03:30:40.995395+05:30"},{"city":"Noida","state":"Uttar Pradesh","latitude":28.5355,"longitude":77.391,"temp":28.7,"humidity":92,"rain":0.0,"pressure":975.7,"uv_index":7.3,"wind_gusts":19.8,"aqi":135,"pm10":63.3,"pm2_5":51.3,"no2":34.2,"co":1382.0,"o3":53.0,"so2":17.5,"mosquito_risk":7,"arthritis_risk":5,"migraine_risk":7,"frizz_risk":1,"updated_at":"2026-07-05T03:30:40.995401+05:30"},{"city":"Ghaziabad","state":"Uttar Pradesh","latitude":28.6692,"longitude":77.4538,"temp":28.6,"humidity":95,"rain":0.0,"pressure":973.9,"uv_index":6.8,"wind_gusts":27.4,"aqi":128,"pm10":76.4,"pm2_5":76.4,"no2":45.8,"co":830.0,"o3":27.0,"so2":9.4,"mosquito_risk":7,"arthritis_risk":5,"migraine_risk":7,"frizz_risk":1,"updated_at":"2026-07-05T03:30:40.995407+05:30"},{"city":"Faridabad","state":"Haryana","latitude":28.4089,"longitude":77.3178,"temp":28.9,"humidity":91,"rain":0.0,"pressure":975.1,"uv_index":6.2,"wind_gusts":22.7,"aqi":135,"pm10":63.3,"pm2_5":51.3,"no2":34.2,"co":732.0,"o3":53.0,"so2":17.5,"mosquito_risk":7,"arthritis_risk":5,"migraine_risk":7,"frizz_risk":1,"updated_at":"2026-07-05T03:30:40.995413+05:30"},{"city":"Meerut","state":"Uttar Pradesh","latitude":28.9845,"longitude":77.7064,"temp":28.8,"humidity":92,"rain":0.0,"pressure":972.8,"uv_index":7.4,"wind_gusts":28.4,"aqi":128,"pm10":76.4,"pm2_5":76.4,"no2":45.8,"co":748.0,"o3":27.0,"so2":9.4,"mosquito_risk":7,"arthritis_risk":5,"migraine_risk":7,"frizz_risk":1,"updated_at":"2026-07-05T03:30:40.995420+05:30"},{"city":"Agra","state":"Uttar Pradesh","latitude":27.1767,"longitude":78.0081,"temp":28.7,"humidity":92,"rain":0.0,"pressure":978.7,"uv_index":7.25,"wind_gusts":32.8,"aqi":105,"pm10":45.8,"pm2_5":42.4,"no2":23.7,"co":379.0,"o3":63.0,"so2":8.4,"mosquito_risk":7,"arthritis_risk":5,"migraine_risk":7,"frizz_risk":1,"updated_at":"2026-07-05T03:30:40.995427+05:30"},{"city":"Varanasi","state":"Uttar Pradesh","latitude":25.3176,"longitude":82.9739,"temp":30.5,"humidity":75,"rain":0.0,"pressure":987.3,"uv_index":6.5,"wind_gusts":41.0,"aqi":80,"pm10":30.0,"pm2_5":29.8,"no2":18.7,"co":575.0,"o3":57.0,"so2":8.6,"mosquito_risk":3,"arthritis_risk":5,"migraine_risk":7,"frizz_risk":1,"updated_at":"2026-07-05T03:30:40.995433+05:30"},{"city":"Prayagraj","state":"Uttar Pradesh","latitude":25.4358,"longitude":81.8463,"temp":29.8,"humidity":78,"rain":0.0,"pressure":986.0,"uv_index":7.9,"wind_gusts":36.4,"aqi":83,"pm10":28.2,"pm2_5":27.9,"no2":18.3,"co":379.0,"o3":66.0,"so2":7.9,"mosquito_risk":7,"arthritis_risk":5,"migraine_risk":7,"frizz_risk":1,"updated_at":"2026-07-05T03:30:40.995439+05:30"},{"city":"Gorakhpur","state":"Uttar Pradesh","latitude":26.7606,"longitude":83.3732,"temp":30.0,"humidity":81,"rain":0.0,"pressure":987.6,"uv_index":8.5,"wind_gusts":42.5,"aqi":89,"pm10":33.6,"pm2_5":33.4,"no2":19.3,"co":450.0,"o3":64.0,"so2":8.8,"mosquito_risk":7,"arthritis_risk":5,"migraine_risk":7,"frizz_risk":1,"updated_at":"2026-07-05T03:30:40.995445+05:30"},{"city":"Bareilly","state":"Uttar Pradesh","latitude":28.367,"longitude":79.4304,"temp":28.2,"humidity":96,"rain":0.0,"pressure":978.5,"uv_index":5.7,"wind_gusts":25.6,"aqi":115,"pm10":30.6,"pm2_5":30.4,"no2":13.8,"co":337.0,"o3":68.0,"so2":3.5,"mosquito_risk":7,"arthritis_risk":5,"migraine_risk":3,"frizz_risk":1,"updated_at":"2026-07-05T03:30:40.995456+05:30"},{"city":"Aligarh","state":"Uttar Pradesh","latitude":27.8974,"longitude":78.088,"temp":28.4,"humidity":91,"rain":0.0,"pressure":976.7,"uv_index":7.2,"wind_gusts":22.7,"aqi":108,"pm10":54.1,"pm2_5":50.3,"no2":24.1,"co":455.0,"o3":67.0,"so2":10.5,"mosquito_risk":7,"arthritis_risk":5,"migraine_risk":7,"frizz_risk":1,"updated_at":"2026-07-05T03:30:40.995470+05:30"},{"city":"Moradabad","state":"Uttar Pradesh","latitude":28.8386,"longitude":78.7733,"temp":28.1,"humidity":88,"rain":0.0,"pressure":975.4,"uv_index":5.95,"wind_gusts":22.7,"aqi":129,"pm10":53.3,"pm2_5":52.6,"no2":23.0,"co":784.0,"o3":77.0,"so2":9.8,"mosquito_risk":7,"arthritis_risk":5,"migraine_risk":3,"frizz_risk":1,"updated_at":"2026-07-05T03:30:40.995476+05:30"},{"city":"Saharanpur","state":"Uttar Pradesh","latitude":29.9637,"longitude":77.546,"temp":28.4,"humidity":91,"rain":0.0,"pressure":967.4,"uv_index":7.1,"wind_gusts":25.6,"aqi":147,"pm10":106.2,"pm2_5":105.9,"no2":80.9,"co":860.0,"o3":6.0,"so2":24.4,"mosquito_risk":7,"arthritis_risk":5,"migraine_risk":7,"frizz_risk":1,"updated_at":"2026-07-05T03:30:40.995487+05:30"},{"city":"Jhansi","state":"Uttar Pradesh","latitude":25.4484,"longitude":78.5685,"temp":27.7,"humidity":86,"rain":0.0,"pressure":968.5,"uv_index":7.75,"wind_gusts":35.6,"aqi":74,"pm10":29.9,"pm2_5":29.7,"no2":21.8,"co":239.0,"o3":47.0,"so2":5.0,"mosquito_risk":7,"arthritis_risk":5,"migraine_risk":7,"frizz_risk":1,"updated_at":"2026-07-05T03:30:44.458786+05:30"},{"city":"Surat","state":"Gujarat","latitude":21.1702,"longitude":72.8311,"temp":25.4,"humidity":100,"rain":0.0,"pressure":996.5,"uv_index":6.35,"wind_gusts":29.9,"aqi":68,"pm10":18.2,"pm2_5":13.0,"no2":21.9,"co":466.0,"o3":32.0,"so2":30.9,"mosquito_risk":7,"arthritis_risk":5,"migraine_risk":7,"frizz_risk":1,"updated_at":"2026-07-05T03:30:44.458822+05:30"},{"city":"Vadodara","state":"Gujarat","latitude":22.3072,"longitude":73.1812,"temp":25.7,"humidity":99,"rain":0.0,"pressure":994.8,"uv_index":4.8,"wind_gusts":26.3,"aqi":54,"pm10":17.8,"pm2_5":10.0,"no2":9.5,"co":176.0,"o3":58.0,"so2":3.4,"mosquito_risk":7,"arthritis_risk":5,"migraine_risk":3,"frizz_risk":1,"updated_at":"2026-07-05T03:30:44.458834+05:30"},{"city":"Rajkot","state":"Gujarat","latitude":22.3039,"longitude":70.8022,"temp":27.3,"humidity":93,"rain":0.0,"pressure":984.5,"uv_index":5.95,"wind_gusts":41.0,"aqi":61,"pm10":26.1,"pm2_5":11.5,"no2":5.9,"co":92.0,"o3":39.0,"so2":5.5,"mosquito_risk":7,"arthritis_risk":5,"migraine_risk":3,"frizz_risk":1,"updated_at":"2026-07-05T03:30:44.458843+05:30"},{"city":"Thane","state":"Maharashtra","latitude":19.2183,"longitude":72.9781,"temp":25.6,"humidity":97,"rain":0.4,"pressure":998.1,"uv_index":0.55,"wind_gusts":54.7,"aqi":28,"pm10":14.2,"pm2_5":7.1,"no2":2.7,"co":114.0,"o3":52.0,"so2":2.2,"mosquito_risk":10,"arthritis_risk":5,"migraine_risk":3,"frizz_risk":1,"updated_at":"2026-07-05T03:30:44.458852+05:30"},{"city":"Nagpur","state":"Maharashtra","latitude":21.1458,"longitude":79.0882,"temp":25.2,"humidity":93,"rain":0.0,"pressure":964.0,"uv_index":7.9,"wind_gusts":36.4,"aqi":48,"pm10":11.4,"pm2_5":10.4,"no2":14.6,"co":195.0,"o3":43.0,"so2":12.5,"mosquito_risk":7,"arthritis_risk":5,"migraine_risk":7,"frizz_risk":1,"updated_at":"2026-07-05T03:30:44.458861+05:30"},{"city":"Nashik","state":"Maharashtra","latitude":19.9975,"longitude":73.7898,"temp":22.6,"humidity":98,"rain":0.1,"pressure":935.6,"uv_index":2.85,"wind_gusts":57.6,"aqi":20,"pm10":3.7,"pm2_5":2.3,"no2":3.0,"co":114.0,"o3":45.0,"so2":1.0,"mosquito_risk":6,"arthritis_risk":5,"migraine_risk":3,"frizz_risk":1,"updated_at":"2026-07-05T03:30:44.458870+05:30"},{"city":"Aurangabad","state":"Maharashtra","latitude":19.8762,"longitude":75.3433,"temp":22.8,"humidity":97,"rain":0.0,"pressure":935.2,"uv_index":5.55,"wind_gusts":58.0,"aqi":19,"pm10":4.1,"pm2_5":3.3,"no2":8.8,"co":160.0,"o3":46.0,"so2":5.2,"mosquito_risk":3,"arthritis_risk":5,"migraine_risk":3,"frizz_risk":1,"updated_at":"2026-07-05T03:30:44.458879+05:30"},{"city":"Solapur","state":"Maharashtra","latitude":17.6599,"longitude":75.9064,"temp":23.9,"humidity":86,"rain":0.0,"pressure":950.2,"uv_index":1.25,"wind_gusts":74.2,"aqi":20,"pm10":1.1,"pm2_5":1.0,"no2":2.6,"co":103.0,"o3":45.0,"so2":1.1,"mosquito_risk":3,"arthritis_risk":5,"migraine_risk":3,"frizz_risk":1,"updated_at":"2026-07-05T03:30:44.458889+05:30"},{"city":"Kolhapur","state":"Maharashtra","latitude":16.705,"longitude":74.2433,"temp":22.2,"humidity":95,"rain":0.2,"pressure":941.6,"uv_index":1.6,"wind_gusts":59.8,"aqi":22,"pm10":2.2,"pm2_5":1.6,"no2":1.8,"co":94.0,"o3":49.0,"so2":1.0,"mosquito_risk":6,"arthritis_risk":5,"migraine_risk":3,"frizz_risk":1,"updated_at":"2026-07-05T03:30:44.458898+05:30"},{"city":"Goa","state":"Goa","latitude":15.2993,"longitude":74.124,"temp":24.2,"humidity":97,"rain":0.4,"pressure":994.7,"uv_index":3.9,"wind_gusts":45.0,"aqi":45,"pm10":21.7,"pm2_5":10.9,"no2":1.0,"co":127.0,"o3":52.0,"so2":0.5,"mosquito_risk":6,"arthritis_risk":5,"migraine_risk":3,"frizz_risk":1,"updated_at":"2026-07-05T03:30:44.458907+05:30"},{"city":"Jodhpur","state":"Rajasthan","latitude":26.2389,"longitude":73.0243,"temp":28.0,"humidity":82,"rain":0.0,"pressure":973.1,"uv_index":8.4,"wind_gusts":29.9,"aqi":147,"pm10":123.4,"pm2_5":39.2,"no2":6.3,"co":160.0,"o3":45.0,"so2":3.6,"mosquito_risk":7,"arthritis_risk":5,"migraine_risk":7,"frizz_risk":1,"updated_at":"2026-07-05T03:30:44.458916+05:30"},{"city":"Udaipur","state":"Rajasthan","latitude":24.5854,"longitude":73.7125,"temp":23.7,"humidity":96,"rain":0.1,"pressure":936.8,"uv_index":8.5,"wind_gusts":34.9,"aqi":70,"pm10":21.9,"pm2_5":9.8,"no2":6.3,"co":141.0,"o3":56.0,"so2":2.1,"mosquito_risk":6,"arthritis_risk":5,"migraine_risk":7,"frizz_risk":1,"updated_at":"2026-07-05T03:30:44.458942+05:30"},{"city":"Kota","state":"Rajasthan","latitude":25.2138,"longitude":75.8648,"temp":27.2,"humidity":93,"rain":0.0,"pressure":969.1,"uv_index":8.25,"wind_gusts":26.6,"aqi":92,"pm10":37.8,"pm2_5":28.2,"no2":11.6,"co":337.0,"o3":62.0,"so2":4.4,"mosquito_risk":7,"arthritis_risk":5,"migraine_risk":7,"frizz_risk":1,"updated_at":"2026-07-05T03:30:44.458950+05:30"},{"city":"Bikaner","state":"Rajasthan","latitude":28.0229,"longitude":73.3119,"temp":32.4,"humidity":58,"rain":0.0,"pressure":971.9,"uv_index":8.45,"wind_gusts":29.2,"aqi":106,"pm10":151.3,"pm2_5":60.8,"no2":4.8,"co":250.0,"o3":65.0,"so2":4.7,"mosquito_risk":0,"arthritis_risk":5,"migraine_risk":7,"frizz_risk":1,"updated_at":"2026-07-05T03:30:44.458958+05:30"},{"city":"Ajmer","state":"Rajasthan","latitude":26.4499,"longitude":74.6399,"temp":27.7,"humidity":80,"rain":0.0,"pressure":945.6,"uv_index":8.35,"wind_gusts":29.2,"aqi":119,"pm10":114.3,"pm2_5":43.3,"no2":10.9,"co":202.0,"o3":48.0,"so2":6.8,"mosquito_risk":7,"arthritis_risk":5,"migraine_risk":7,"frizz_risk":1,"updated_at":"2026-07-05T03:30:44.458966+05:30"},{"city":"Gwalior","state":"Madhya Pradesh","latitude":26.2183,"longitude":78.1828,"temp":27.4,"humidity":95,"rain":0.0,"pressure":973.9,"uv_index":7.5,"wind_gusts":31.7,"aqi":74,"pm10":29.7,"pm2_5":28.2,"no2":15.8,"co":246.0,"o3":62.0,"so2":4.2,"mosquito_risk":7,"arthritis_risk":5,"migraine_risk":7,"frizz_risk":1,"updated_at":"2026-07-05T03:30:44.458974+05:30"},{"city":"Indore","state":"Madhya Pradesh","latitude":22.7196,"longitude":75.8577,"temp":23.8,"humidity":96,"rain":0.0,"pressure":938.7,"uv_index":7.45,"wind_gusts":28.4,"aqi":55,"pm10":25.4,"pm2_5":18.9,"no2":10.8,"co":268.0,"o3":50.0,"so2":4.0,"mosquito_risk":3,"arthritis_risk":5,"migraine_risk":7,"frizz_risk":1,"updated_at":"2026-07-05T03:30:44.458982+05:30"},{"city":"Bhopal","state":"Madhya Pradesh","latitude":23.2599,"longitude":77.4126,"temp":24.8,"humidity":99,"rain":0.0,"pressure":944.0,"uv_index":8.6,"wind_gusts":30.2,"aqi":52,"pm10":16.9,"pm2_5":16.4,"no2":15.8,"co":350.0,"o3":43.0,"so2":3.1,"mosquito_risk":3,"arthritis_risk":5,"migraine_risk":7,"frizz_risk":1,"updated_at":"2026-07-05T03:30:44.458989+05:30"},{"city":"Jabalpur","state":"Madhya Pradesh","latitude":23.1815,"longitude":79.9864,"temp":24.4,"humidity":98,"rain":0.1,"pressure":952.7,"uv_index":7.45,"wind_gusts":37.4,"aqi":65,"pm10":19.4,"pm2_5":19.3,"no2":9.4,"co":239.0,"o3":79.0,"so2":4.3,"mosquito_risk":6,"arthritis_risk":5,"migraine_risk":7,"frizz_risk":1,"updated_at":"2026-07-05T03:30:44.458996+05:30"},{"city":"Ujjain","state":"Madhya Pradesh","latitude":23.1765,"longitude":75.7885,"temp":23.9,"humidity":99,"rain":0.0,"pressure":944.3,"uv_index":8.5,"wind_gusts":23.4,"aqi":56,"pm10":19.6,"pm2_5":14.4,"no2":6.2,"co":229.0,"o3":65.0,"so2":2.4,"mosquito_risk":3,"arthritis_risk":5,"migraine_risk":7,"frizz_risk":1,"updated_at":"2026-07-05T03:30:44.459004+05:30"},{"city":"Visakhapatnam","state":"Andhra Pradesh","latitude":17.6868,"longitude":83.2185,"temp":25.1,"humidity":94,"rain":0.2,"pressure":992.5,"uv_index":2.8,"wind_gusts":59.4,"aqi":37,"pm10":8.1,"pm2_5":7.1,"no2":12.5,"co":198.0,"o3":38.0,"so2":17.4,"mosquito_risk":10,"arthritis_risk":5,"migraine_risk":3,"frizz_risk":1,"updated_at":"2026-07-05T03:30:44.459011+05:30"},{"city":"Vijayawada","state":"Andhra Pradesh","latitude":16.5062,"longitude":80.648,"temp":28.7,"humidity":67,"rain":0.0,"pressure":995.5,"uv_index":2.4,"wind_gusts":58.0,"aqi":28,"pm10":3.7,"pm2_5":3.2,"no2":6.5,"co":119.0,"o3":37.0,"so2":4.3,"mosquito_risk":7,"arthritis_risk":5,"migraine_risk":3,"frizz_risk":1,"updated_at":"2026-07-05T03:30:44.459018+05:30"},{"city":"Guntur","state":"Andhra Pradesh","latitude":16.3067,"longitude":80.4365,"temp":28.8,"humidity":65,"rain":0.0,"pressure":997.1,"uv_index":2.85,"wind_gusts":52.6,"aqi":25,"pm10":3.3,"pm2_5":2.9,"no2":6.3,"co":116.0,"o3":37.0,"so2":4.3,"mosquito_risk":7,"arthritis_risk":5,"migraine_risk":3,"frizz_risk":1,"updated_at":"2026-07-05T03:30:44.459025+05:30"},{"city":"Nellore","state":"Andhra Pradesh","latitude":14.4426,"longitude":79.9865,"temp":30.0,"humidity":56,"rain":0.0,"pressure":1000.5,"uv_index":1.45,"wind_gusts":56.9,"aqi":23,"pm10":3.1,"pm2_5":2.0,"no2":3.9,"co":103.0,"o3":43.0,"so2":2.4,"mosquito_risk":4,"arthritis_risk":5,"migraine_risk":0,"frizz_risk":1,"updated_at":"2026-07-05T03:30:44.459034+05:30"},{"city":"Kurnool","state":"Andhra Pradesh","latitude":15.8281,"longitude":78.0373,"temp":25.7,"humidity":77,"rain":0.0,"pressure":971.6,"uv_index":3.0,"wind_gusts":70.6,"aqi":19,"pm10":2.6,"pm2_5":1.8,"no2":3.8,"co":101.0,"o3":41.0,"so2":2.3,"mosquito_risk":7,"arthritis_risk":5,"migraine_risk":3,"frizz_risk":1,"updated_at":"2026-07-05T03:30:44.459042+05:30"},{"city":"Kakinada","state":"Andhra Pradesh","latitude":16.9891,"longitude":82.2475,"temp":27.1,"humidity":78,"rain":0.0,"pressure":998.7,"uv_index":2.05,"wind_gusts":61.9,"aqi":30,"pm10":5.9,"pm2_5":4.8,"no2":7.1,"co":141.0,"o3":42.0,"so2":4.5,"mosquito_risk":7,"arthritis_risk":5,"migraine_risk":3,"frizz_risk":1,"updated_at":"2026-07-05T03:30:44.459048+05:30"},{"city":"Tirupati","state":"Andhra Pradesh","latitude":13.6288,"longitude":79.4192,"temp":28.5,"humidity":58,"rain":0.0,"pressure":986.5,"uv_index":4.55,"wind_gusts":56.9,"aqi":24,"pm10":4.7,"pm2_5":3.1,"no2":4.1,"co":102.0,"o3":41.0,"so2":1.5,"mosquito_risk":4,"arthritis_risk":5,"migraine_risk":3,"frizz_risk":1,"updated_at":"2026-07-05T03:30:44.459055+05:30"},{"city":"Warangal","state":"Telangana","latitude":17.9689,"longitude":79.5941,"temp":24.8,"humidity":88,"rain":0.1,"pressure":971.2,"uv_index":1.0,"wind_gusts":48.2,"aqi":20,"pm10":2.6,"pm2_5":2.5,"no2":6.2,"co":123.0,"o3":36.0,"so2":2.5,"mosquito_risk":6,"arthritis_risk":5,"migraine_risk":3,"frizz_risk":1,"updated_at":"2026-07-05T03:30:44.459062+05:30"},{"city":"Nizamabad","state":"Telangana","latitude":18.6725,"longitude":78.0941,"temp":24.9,"humidity":83,"rain":0.0,"pressure":957.1,"uv_index":1.65,"wind_gusts":54.4,"aqi":19,"pm10":1.9,"pm2_5":1.8,"no2":4.7,"co":122.0,"o3":41.0,"so2":1.9,"mosquito_risk":3,"arthritis_risk":5,"migraine_risk":3,"frizz_risk":1,"updated_at":"2026-07-05T03:30:44.459069+05:30"},{"city":"Mysore","state":"Karnataka","latitude":12.2958,"longitude":76.6396,"temp":22.2,"humidity":88,"rain":0.0,"pressure":925.8,"uv_index":8.25,"wind_gusts":68.0,"aqi":19,"pm10":2.0,"pm2_5":1.4,"no2":3.3,"co":93.0,"o3":41.0,"so2":1.3,"mosquito_risk":3,"arthritis_risk":5,"migraine_risk":7,"frizz_risk":1,"updated_at":"2026-07-05T03:30:44.459076+05:30"},{"city":"Mangalore","state":"Karnataka","latitude":12.9141,"longitude":74.856,"temp":24.4,"humidity":96,"rain":0.0,"pressure":1005.6,"uv_index":5.55,"wind_gusts":59.8,"aqi":43,"pm10":12.8,"pm2_5":8.2,"no2":7.8,"co":91.0,"o3":30.0,"so2":2.1,"mosquito_risk":3,"arthritis_risk":5,"migraine_risk":0,"frizz_risk":1,"updated_at":"2026-07-05T03:30:44.459083+05:30"},{"city":"Hubli-Dharwad","state":"Karnataka","latitude":15.3647,"longitude":75.124,"temp":21.9,"humidity":98,"rain":0.1,"pressure":936.1,"uv_index":8.35,"wind_gusts":59.4,"aqi":21,"pm10":4.6,"pm2_5":2.5,"no2":1.2,"co":87.0,"o3":47.0,"so2":0.6,"mosquito_risk":6,"arthritis_risk":5,"migraine_risk":7,"frizz_risk":1,"updated_at":"2026-07-05T03:30:44.459090+05:30"},{"city":"Belgaum","state":"Karnataka","latitude":15.8497,"longitude":74.4977,"temp":21.0,"humidity":97,"rain":0.2,"pressure":920.3,"uv_index":3.15,"wind_gusts":61.6,"aqi":22,"pm10":1.8,"pm2_5":1.2,"no2":1.8,"co":89.0,"o3":49.0,"so2":0.7,"mosquito_risk":6,"arthritis_risk":5,"migraine_risk":3,"frizz_risk":1,"updated_at":"2026-07-05T03:30:47.805815+05:30"},{"city":"Coimbatore","state":"Tamil Nadu","latitude":11.0168,"longitude":76.9558,"temp":22.6,"humidity":95,"rain":0.0,"pressure":959.7,"uv_index":6.45,"wind_gusts":59.0,"aqi":19,"pm10":2.3,"pm2_5":1.6,"no2":2.9,"co":101.0,"o3":42.0,"so2":1.6,"mosquito_risk":3,"arthritis_risk":5,"migraine_risk":7,"frizz_risk":1,"updated_at":"2026-07-05T03:30:47.805850+05:30"},{"city":"Madurai","state":"Tamil Nadu","latitude":9.9252,"longitude":78.1198,"temp":28.6,"humidity":63,"rain":0.0,"pressure":990.8,"uv_index":8.0,"wind_gusts":68.0,"aqi":32,"pm10":14.6,"pm2_5":11.9,"no2":20.6,"co":96.0,"o3":15.0,"so2":4.2,"mosquito_risk":7,"arthritis_risk":5,"migraine_risk":7,"frizz_risk":1,"updated_at":"2026-07-05T03:30:47.805862+05:30"},{"city":"Trichy","state":"Tamil Nadu","latitude":10.7905,"longitude":78.7047,"temp":28.6,"humidity":61,"rain":0.0,"pressure":997.1,"uv_index":6.45,"wind_gusts":75.2,"aqi":22,"pm10":8.1,"pm2_5":4.9,"no2":4.8,"co":111.0,"o3":40.0,"so2":2.0,"mosquito_risk":7,"arthritis_risk":5,"migraine_risk":7,"frizz_risk":1,"updated_at":"2026-07-05T03:30:47.805872+05:30"},{"city":"Salem","state":"Tamil Nadu","latitude":11.6643,"longitude":78.146,"temp":24.3,"humidity":85,"rain":0.0,"pressure":975.2,"uv_index":7.7,"wind_gusts":42.1,"aqi":34,"pm10":11.8,"pm2_5":10.1,"no2":17.5,"co":158.0,"o3":23.0,"so2":5.6,"mosquito_risk":3,"arthritis_risk":5,"migraine_risk":7,"frizz_risk":1,"updated_at":"2026-07-05T03:30:47.805882+05:30"},{"city":"Tirunelveli","state":"Tamil Nadu","latitude":8.7139,"longitude":77.7567,"temp":27.6,"humidity":69,"rain":0.0,"pressure":1002.0,"uv_index":8.6,"wind_gusts":49.3,"aqi":18,"pm10":5.6,"pm2_5":4.0,"no2":6.5,"co":132.0,"o3":30.0,"so2":1.9,"mosquito_risk":7,"arthritis_risk":5,"migraine_risk":4,"frizz_risk":1,"updated_at":"2026-07-05T03:30:47.805892+05:30"},{"city":"Vellore","state":"Tamil Nadu","latitude":12.9165,"longitude":79.1325,"temp":27.7,"humidity":63,"rain":0.0,"pressure":980.8,"uv_index":8.25,"wind_gusts":62.3,"aqi":23,"pm10":3.1,"pm2_5":2.4,"no2":5.3,"co":111.0,"o3":39.0,"so2":2.3,"mosquito_risk":7,"arthritis_risk":5,"migraine_risk":7,"frizz_risk":1,"updated_at":"2026-07-05T03:30:47.805901+05:30"},{"city":"Erode","state":"Tamil Nadu","latitude":11.341,"longitude":77.7172,"temp":25.9,"humidity":77,"rain":0.0,"pressure":987.1,"uv_index":8.35,"wind_gusts":60.8,"aqi":24,"pm10":7.8,"pm2_5":6.9,"no2":12.1,"co":110.0,"o3":30.0,"so2":2.9,"mosquito_risk":7,"arthritis_risk":5,"migraine_risk":7,"frizz_risk":1,"updated_at":"2026-07-05T03:30:47.805910+05:30"},{"city":"Kochi","state":"Kerala","latitude":9.9312,"longitude":76.2673,"temp":26.0,"humidity":92,"rain":0.0,"pressure":1008.7,"uv_index":8.2,"wind_gusts":45.0,"aqi":43,"pm10":19.0,"pm2_5":11.9,"no2":10.8,"co":83.0,"o3":25.0,"so2":3.0,"mosquito_risk":7,"arthritis_risk":0,"migraine_risk":4,"frizz_risk":1,"updated_at":"2026-07-05T03:30:47.805918+05:30"},{"city":"Thiruvananthapuram","state":"Kerala","latitude":8.5241,"longitude":76.9366,"temp":24.3,"humidity":96,"rain":0.0,"pressure":1008.4,"uv_index":8.1,"wind_gusts":47.9,"aqi":34,"pm10":31.1,"pm2_5":14.2,"no2":1.5,"co":83.0,"o3":48.0,"so2":0.7,"mosquito_risk":3,"arthritis_risk":0,"migraine_risk":4,"frizz_risk":1,"updated_at":"2026-07-05T03:30:47.805964+05:30"},{"city":"Kozhikode","state":"Kerala","latitude":11.2588,"longitude":75.7804,"temp":22.7,"humidity":100,"rain":0.2,"pressure":1007.9,"uv_index":8.05,"wind_gusts":46.1,"aqi":32,"pm10":17.3,"pm2_5":8.4,"no2":1.1,"co":126.0,"o3":51.0,"so2":0.8,"mosquito_risk":6,"arthritis_risk":5,"migraine_risk":4,"frizz_risk":1,"updated_at":"2026-07-05T03:30:47.805978+05:30"},{"city":"Thrissur","state":"Kerala","latitude":10.5276,"longitude":76.2144,"temp":22.9,"humidity":99,"rain":0.3,"pressure":1007.1,"uv_index":6.05,"wind_gusts":49.3,"aqi":38,"pm10":11.8,"pm2_5":7.7,"no2":7.9,"co":123.0,"o3":30.0,"so2":2.7,"mosquito_risk":6,"arthritis_risk":5,"migraine_risk":4,"frizz_risk":1,"updated_at":"2026-07-05T03:30:47.805991+05:30"},{"city":"Kannur","state":"Kerala","latitude":11.8745,"longitude":75.3704,"temp":24.2,"humidity":94,"rain":0.0,"pressure":1006.5,"uv_index":8.0,"wind_gusts":55.1,"aqi":33,"pm10":8.8,"pm2_5":4.9,"no2":4.7,"co":149.0,"o3":36.0,"so2":1.5,"mosquito_risk":3,"arthritis_risk":5,"migraine_risk":4,"frizz_risk":1,"updated_at":"2026-07-05T03:30:47.806004+05:30"},{"city":"Patna","state":"Bihar","latitude":25.5941,"longitude":85.1376,"temp":29.6,"humidity":80,"rain":0.0,"pressure":990.4,"uv_index":8.0,"wind_gusts":48.2,"aqi":68,"pm10":20.7,"pm2_5":20.6,"no2":13.8,"co":309.0,"o3":77.0,"so2":10.7,"mosquito_risk":7,"arthritis_risk":5,"migraine_risk":7,"frizz_risk":1,"updated_at":"2026-07-05T03:30:47.806017+05:30"},{"city":"Gaya","state":"Bihar","latitude":24.7914,"longitude":85.0002,"temp":28.9,"humidity":76,"rain":0.0,"pressure":983.3,"uv_index":5.6,"wind_gusts":46.4,"aqi":59,"pm10":13.7,"pm2_5":13.5,"no2":12.3,"co":278.0,"o3":62.0,"so2":7.3,"mosquito_risk":7,"arthritis_risk":5,"migraine_risk":3,"frizz_risk":1,"updated_at":"2026-07-05T03:30:47.806026+05:30"},{"city":"Muzaffarpur","state":"Bihar","latitude":26.1209,"longitude":85.3647,"temp":29.7,"humidity":81,"rain":0.1,"pressure":990.8,"uv_index":7.5,"wind_gusts":48.2,"aqi":76,"pm10":25.8,"pm2_5":25.2,"no2":15.4,"co":314.0,"o3":70.0,"so2":8.7,"mosquito_risk":10,"arthritis_risk":5,"migraine_risk":7,"frizz_risk":1,"updated_at":"2026-07-05T03:30:47.806034+05:30"},{"city":"Bhagalpur","state":"Bihar","latitude":25.2425,"longitude":87.0117,"temp":26.7,"humidity":95,"rain":0.3,"pressure":991.9,"uv_index":8.5,"wind_gusts":50.0,"aqi":58,"pm10":19.5,"pm2_5":18.7,"no2":13.4,"co":271.0,"o3":61.0,"so2":6.4,"mosquito_risk":10,"arthritis_risk":5,"migraine_risk":7,"frizz_risk":1,"updated_at":"2026-07-05T03:30:47.806041+05:30"},{"city":"Ranchi","state":"Jharkhand","latitude":23.3441,"longitude":85.3096,"temp":23.7,"humidity":94,"rain":0.0,"pressure":926.7,"uv_index":8.65,"wind_gusts":49.7,"aqi":59,"pm10":7.5,"pm2_5":7.5,"no2":9.3,"co":194.0,"o3":60.0,"so2":13.5,"mosquito_risk":3,"arthritis_risk":5,"migraine_risk":7,"frizz_risk":1,"updated_at":"2026-07-05T03:30:47.806048+05:30"},{"city":"Jamshedpur","state":"Jharkhand","latitude":22.8046,"longitude":86.2029,"temp":26.6,"humidity":88,"rain":0.0,"pressure":978.3,"uv_index":7.2,"wind_gusts":46.4,"aqi":56,"pm10":19.2,"pm2_5":18.3,"no2":26.7,"co":291.0,"o3":34.0,"so2":34.6,"mosquito_risk":7,"arthritis_risk":5,"migraine_risk":7,"frizz_risk":1,"updated_at":"2026-07-05T03:30:47.806056+05:30"},{"city":"Dhanbad","state":"Jharkhand","latitude":23.7957,"longitude":86.4304,"temp":26.6,"humidity":85,"rain":0.1,"pressure":968.9,"uv_index":7.9,"wind_gusts":51.5,"aqi":70,"pm10":21.2,"pm2_5":20.7,"no2":20.2,"co":233.0,"o3":54.0,"so2":38.6,"mosquito_risk":10,"arthritis_risk":5,"migraine_risk":7,"frizz_risk":1,"updated_at":"2026-07-05T03:30:47.806063+05:30"},{"city":"Bokaro","state":"Jharkhand","latitude":23.6693,"longitude":86.1511,"temp":27.2,"humidity":83,"rain":0.0,"pressure":972.7,"uv_index":7.5,"wind_gusts":51.5,"aqi":71,"pm10":21.1,"pm2_5":20.8,"no2":19.2,"co":221.0,"o3":59.0,"so2":38.2,"mosquito_risk":7,"arthritis_risk":5,"migraine_risk":7,"frizz_risk":1,"updated_at":"2026-07-05T03:30:47.806071+05:30"},{"city":"Bhubaneswar","state":"Odisha","latitude":20.2961,"longitude":85.8245,"temp":25.1,"humidity":98,"rain":0.1,"pressure":987.2,"uv_index":7.05,"wind_gusts":47.2,"aqi":52,"pm10":12.9,"pm2_5":12.8,"no2":13.7,"co":248.0,"o3":46.0,"so2":6.4,"mosquito_risk":10,"arthritis_risk":5,"migraine_risk":7,"frizz_risk":1,"updated_at":"2026-07-05T03:30:47.806078+05:30"},{"city":"Cuttack","state":"Odisha","latitude":20.4625,"longitude":85.8828,"temp":25.4,"humidity":97,"rain":0.1,"pressure":988.9,"uv_index":8.2,"wind_gusts":36.7,"aqi":52,"pm10":12.9,"pm2_5":12.8,"no2":13.7,"co":236.0,"o3":46.0,"so2":6.4,"mosquito_risk":10,"arthritis_risk":5,"migraine_risk":7,"frizz_risk":1,"updated_at":"2026-07-05T03:30:47.806085+05:30"},{"city":"Rourkela","state":"Odisha","latitude":22.2604,"longitude":84.8536,"temp":25.9,"humidity":94,"rain":0.1,"pressure":972.3,"uv_index":7.15,"wind_gusts":57.2,"aqi":53,"pm10":12.3,"pm2_5":12.3,"no2":10.0,"co":438.0,"o3":60.0,"so2":12.2,"mosquito_risk":10,"arthritis_risk":5,"migraine_risk":7,"frizz_risk":1,"updated_at":"2026-07-05T03:30:47.806092+05:30"},{"city":"Raipur","state":"Chhattisgarh","latitude":21.2514,"longitude":81.6296,"temp":24.8,"humidity":97,"rain":0.3,"pressure":964.5,"uv_index":4.5,"wind_gusts":34.9,"aqi":69,"pm10":17.9,"pm2_5":17.8,"no2":25.2,"co":212.0,"o3":52.0,"so2":40.6,"mosquito_risk":6,"arthritis_risk":5,"migraine_risk":3,"frizz_risk":1,"updated_at":"2026-07-05T03:30:47.806099+05:30"},{"city":"Bhilai","state":"Chhattisgarh","latitude":21.1938,"longitude":81.3509,"temp":24.3,"humidity":97,"rain":0.3,"pressure":965.3,"uv_index":6.45,"wind_gusts":37.4,"aqi":64,"pm10":14.5,"pm2_5":14.4,"no2":21.1,"co":363.0,"o3":50.0,"so2":34.2,"mosquito_risk":6,"arthritis_risk":5,"migraine_risk":7,"frizz_risk":1,"updated_at":"2026-07-05T03:30:47.806106+05:30"},{"city":"Guwahati","state":"Assam","latitude":26.1158,"longitude":91.7086,"temp":27.4,"humidity":89,"rain":0.0,"pressure":993.4,"uv_index":7.7,"wind_gusts":32.4,"aqi":37,"pm10":9.4,"pm2_5":9.2,"no2":8.6,"co":268.0,"o3":33.0,"so2":1.0,"mosquito_risk":7,"arthritis_risk":5,"migraine_risk":7,"frizz_risk":1,"updated_at":"2026-07-05T03:30:47.806113+05:30"},{"city":"Agartala","state":"Tripura","latitude":23.8315,"longitude":91.2868,"temp":26.8,"humidity":89,"rain":0.0,"pressure":998.0,"uv_index":5.55,"wind_gusts":42.8,"aqi":32,"pm10":3.9,"pm2_5":3.7,"no2":5.5,"co":132.0,"o3":43.0,"so2":1.3,"mosquito_risk":7,"arthritis_risk":5,"migraine_risk":3,"frizz_risk":1,"updated_at":"2026-07-05T03:30:47.806120+05:30"},{"city":"Shillong","state":"Meghalaya","latitude":25.5788,"longitude":91.8933,"temp":19.5,"humidity":98,"rain":0.0,"pressure":852.3,"uv_index":6.05,"wind_gusts":34.9,"aqi":22,"pm10":1.5,"pm2_5":1.5,"no2":4.5,"co":166.0,"o3":45.0,"so2":1.4,"mosquito_risk":3,"arthritis_risk":10,"migraine_risk":7,"frizz_risk":1,"updated_at":"2026-07-05T03:30:47.806127+05:30"},{"city":"Imphal","state":"Manipur","latitude":24.817,"longitude":93.9368,"temp":22.7,"humidity":94,"rain":0.1,"pressure":918.0,"uv_index":3.25,"wind_gusts":24.1,"aqi":19,"pm10":4.4,"pm2_5":4.4,"no2":4.5,"co":251.0,"o3":40.0,"so2":1.2,"mosquito_risk":6,"arthritis_risk":5,"migraine_risk":3,"frizz_risk":1,"updated_at":"2026-07-05T03:30:47.806134+05:30"},{"city":"Aizawl","state":"Mizoram","latitude":23.7271,"longitude":92.7176,"temp":21.0,"humidity":99,"rain":0.2,"pressure":886.1,"uv_index":3.85,"wind_gusts":34.9,"aqi":16,"pm10":4.3,"pm2_5":4.3,"no2":7.3,"co":124.0,"o3":11.0,"so2":0.4,"mosquito_risk":6,"arthritis_risk":5,"migraine_risk":3,"frizz_risk":1,"updated_at":"2026-07-05T03:30:47.806141+05:30"},{"city":"Kohima","state":"Nagaland","latitude":25.6701,"longitude":94.1077,"temp":20.0,"humidity":92,"rain":0.0,"pressure":850.7,"uv_index":6.95,"wind_gusts":22.0,"aqi":20,"pm10":4.3,"pm2_5":4.2,"no2":6.4,"co":155.0,"o3":31.0,"so2":0.8,"mosquito_risk":3,"arthritis_risk":5,"migraine_risk":7,"frizz_risk":1,"updated_at":"2026-07-05T03:30:47.806148+05:30"},{"city":"Gangtok","state":"Sikkim","latitude":27.3314,"longitude":88.6138,"temp":18.9,"humidity":93,"rain":0.0,"pressure":834.0,"uv_index":9.0,"wind_gusts":33.8,"aqi":39,"pm10":9.2,"pm2_5":8.8,"no2":7.2,"co":298.0,"o3":75.0,"so2":0.9,"mosquito_risk":3,"arthritis_risk":10,"migraine_risk":7,"frizz_risk":1,"updated_at":"2026-07-05T03:30:47.806155+05:30"},{"city":"Siliguri","state":"West Bengal","latitude":26.7271,"longitude":88.3953,"temp":25.4,"humidity":96,"rain":0.4,"pressure":985.9,"uv_index":8.2,"wind_gusts":41.4,"aqi":68,"pm10":21.6,"pm2_5":21.1,"no2":11.7,"co":204.0,"o3":75.0,"so2":3.3,"mosquito_risk":10,"arthritis_risk":5,"migraine_risk":7,"frizz_risk":1,"updated_at":"2026-07-05T03:30:51.161639+05:30"},{"city":"Durgapur","state":"West Bengal","latitude":23.5204,"longitude":87.3119,"temp":27.3,"humidity":85,"rain":0.0,"pressure":983.8,"uv_index":7.85,"wind_gusts":46.4,"aqi":61,"pm10":16.7,"pm2_5":16.2,"no2":17.3,"co":229.0,"o3":44.0,"so2":16.3,"mosquito_risk":7,"arthritis_risk":5,"migraine_risk":7,"frizz_risk":1,"updated_at":"2026-07-05T03:30:51.161674+05:30"},{"city":"Asansol","state":"West Bengal","latitude":23.6739,"longitude":86.9524,"temp":26.3,"humidity":91,"rain":0.1,"pressure":982.6,"uv_index":7.05,"wind_gusts":46.4,"aqi":58,"pm10":16.2,"pm2_5":15.7,"no2":16.4,"co":226.0,"o3":51.0,"so2":16.5,"mosquito_risk":10,"arthritis_risk":5,"migraine_risk":7,"frizz_risk":1,"updated_at":"2026-07-05T03:30:51.161687+05:30"},{"city":"Pondicherry","state":"Puducherry","latitude":11.9139,"longitude":79.8145,"temp":27.9,"humidity":66,"rain":0.0,"pressure":1004.9,"uv_index":8.6,"wind_gusts":49.0,"aqi":40,"pm10":11.8,"pm2_5":9.5,"no2":13.6,"co":144.0,"o3":34.0,"so2":7.9,"mosquito_risk":7,"arthritis_risk":5,"migraine_risk":4,"frizz_risk":1,"updated_at":"2026-07-05T03:30:51.161697+05:30"},{"city":"Port Blair","state":"Andaman and Nicobar Islands","latitude":11.6234,"longitude":92.7265,"temp":26.3,"humidity":95,"rain":0.0,"pressure":1005.2,"uv_index":3.9,"wind_gusts":49.3,"aqi":39,"pm10":11.0,"pm2_5":6.3,"no2":0.2,"co":90.0,"o3":56.0,"so2":0.4,"mosquito_risk":7,"arthritis_risk":5,"migraine_risk":0,"frizz_risk":1,"updated_at":"2026-07-05T03:30:51.161707+05:30"},{"city":"Haridwar","state":"Uttarakhand","latitude":29.9457,"longitude":78.1642,"temp":28.1,"humidity":88,"rain":0.0,"pressure":965.9,"uv_index":6.95,"wind_gusts":22.0,"aqi":101,"pm10":52.9,"pm2_5":52.9,"no2":31.7,"co":412.0,"o3":43.0,"so2":11.7,"mosquito_risk":7,"arthritis_risk":5,"migraine_risk":7,"frizz_risk":1,"updated_at":"2026-07-05T03:30:51.161716+05:30"},{"city":"Rishikesh","state":"Uttarakhand","latitude":30.0869,"longitude":78.2676,"temp":26.2,"humidity":89,"rain":0.0,"pressure":958.8,"uv_index":7.05,"wind_gusts":25.9,"aqi":67,"pm10":24.2,"pm2_5":24.0,"no2":9.0,"co":400.0,"o3":96.0,"so2":6.0,"mosquito_risk":7,"arthritis_risk":5,"migraine_risk":7,"frizz_risk":1,"updated_at":"2026-07-05T03:30:51.161726+05:30"},{"city":"Nainital","state":"Uttarakhand","latitude":29.3919,"longitude":79.4542,"temp":16.5,"humidity":100,"rain":0.0,"pressure":801.3,"uv_index":5.9,"wind_gusts":26.3,"aqi":63,"pm10":12.5,"pm2_5":12.3,"no2":8.7,"co":222.0,"o3":77.0,"so2":1.7,"mosquito_risk":3,"arthritis_risk":10,"migraine_risk":3,"frizz_risk":1,"updated_at":"2026-07-05T03:30:51.161735+05:30"},{"city":"Mussoorie","state":"Uttarakhand","latitude":30.4599,"longitude":78.0664,"temp":17.7,"humidity":99,"rain":0.0,"pressure":799.4,"uv_index":7.65,"wind_gusts":35.3,"aqi":70,"pm10":21.7,"pm2_5":21.5,"no2":13.8,"co":307.0,"o3":88.0,"so2":6.5,"mosquito_risk":3,"arthritis_risk":10,"migraine_risk":7,"frizz_risk":1,"updated_at":"2026-07-05T03:30:51.161744+05:30"},{"city":"Dharamshala","state":"Himachal Pradesh","latitude":32.219,"longitude":76.3234,"temp":22.4,"humidity":84,"rain":0.0,"pressure":863.7,"uv_index":7.7,"wind_gusts":33.1,"aqi":35,"pm10":7.0,"pm2_5":6.8,"no2":11.7,"co":474.0,"o3":51.0,"so2":0.1,"mosquito_risk":3,"arthritis_risk":5,"migraine_risk":7,"frizz_risk":1,"updated_at":"2026-07-05T03:30:51.161752+05:30"},{"city":"Dalhousie","state":"Himachal Pradesh","latitude":32.5387,"longitude":75.971,"temp":15.7,"humidity":96,"rain":0.0,"pressure":798.6,"uv_index":7.85,"wind_gusts":26.3,"aqi":75,"pm10":28.2,"pm2_5":27.1,"no2":22.1,"co":500.0,"o3":50.0,"so2":1.2,"mosquito_risk":3,"arthritis_risk":10,"migraine_risk":7,"frizz_risk":0,"updated_at":"2026-07-05T03:30:51.161762+05:30"},{"city":"Patiala","state":"Punjab","latitude":30.3398,"longitude":76.3869,"temp":28.0,"humidity":93,"rain":0.0,"pressure":969.8,"uv_index":6.95,"wind_gusts":28.4,"aqi":149,"pm10":134.1,"pm2_5":92.0,"no2":43.5,"co":889.0,"o3":36.0,"so2":10.1,"mosquito_risk":7,"arthritis_risk":5,"migraine_risk":7,"frizz_risk":1,"updated_at":"2026-07-05T03:30:51.161771+05:30"},{"city":"Bhatinda","state":"Punjab","latitude":30.211,"longitude":74.9455,"temp":30.3,"humidity":82,"rain":0.0,"pressure":974.7,"uv_index":7.5,"wind_gusts":33.5,"aqi":132,"pm10":138.3,"pm2_5":58.3,"no2":22.4,"co":482.0,"o3":66.0,"so2":9.1,"mosquito_risk":3,"arthritis_risk":5,"migraine_risk":7,"frizz_risk":1,"updated_at":"2026-07-05T03:30:51.161779+05:30"},{"city":"Rohtak","state":"Haryana","latitude":28.8955,"longitude":76.6066,"temp":29.7,"humidity":87,"rain":0.0,"pressure":973.0,"uv_index":6.95,"wind_gusts":22.0,"aqi":159,"pm10":111.5,"pm2_5":71.5,"no2":40.7,"co":808.0,"o3":47.0,"so2":30.4,"mosquito_risk":7,"arthritis_risk":5,"migraine_risk":7,"frizz_risk":1,"updated_at":"2026-07-05T03:30:51.161788+05:30"},{"city":"Panipat","state":"Haryana","latitude":29.3909,"longitude":76.9635,"temp":29.1,"humidity":88,"rain":0.0,"pressure":971.8,"uv_index":6.95,"wind_gusts":22.3,"aqi":291,"pm10":351.1,"pm2_5":108.5,"no2":41.2,"co":706.0,"o3":41.0,"so2":21.1,"mosquito_risk":7,"arthritis_risk":5,"migraine_risk":7,"frizz_risk":1,"updated_at":"2026-07-05T03:30:51.161796+05:30"},{"city":"Mathura","state":"Uttar Pradesh","latitude":27.4924,"longitude":77.6737,"temp":28.5,"humidity":91,"rain":0.0,"pressure":977.9,"uv_index":7.7,"wind_gusts":21.2,"aqi":108,"pm10":45.4,"pm2_5":42.7,"no2":23.8,"co":369.0,"o3":65.0,"so2":5.7,"mosquito_risk":7,"arthritis_risk":5,"migraine_risk":7,"frizz_risk":1,"updated_at":"2026-07-05T03:30:51.161805+05:30"},{"city":"Vrindavan","state":"Uttar Pradesh","latitude":27.5823,"longitude":77.7027,"temp":28.7,"humidity":88,"rain":0.0,"pressure":978.4,"uv_index":7.65,"wind_gusts":20.2,"aqi":108,"pm10":45.4,"pm2_5":42.7,"no2":23.8,"co":376.0,"o3":65.0,"so2":5.7,"mosquito_risk":7,"arthritis_risk":5,"migraine_risk":7,"frizz_risk":1,"updated_at":"2026-07-05T03:30:51.161813+05:30"},{"city":"Ayodhya","state":"Uttar Pradesh","latitude":26.7922,"longitude":82.1998,"temp":30.1,"humidity":79,"rain":0.0,"pressure":985.9,"uv_index":6.6,"wind_gusts":29.9,"aqi":92,"pm10":37.7,"pm2_5":37.5,"no2":24.2,"co":406.0,"o3":53.0,"so2":8.4,"mosquito_risk":3,"arthritis_risk":5,"migraine_risk":7,"frizz_risk":1,"updated_at":"2026-07-05T03:30:51.161822+05:30"},{"city":"Ratlam","state":"Madhya Pradesh","latitude":23.3315,"longitude":75.0367,"temp":23.8,"humidity":98,"rain":0.1,"pressure":945.5,"uv_index":8.5,"wind_gusts":28.4,"aqi":53,"pm10":15.2,"pm2_5":10.8,"no2":4.8,"co":180.0,"o3":69.0,"so2":1.7,"mosquito_risk":6,"arthritis_risk":5,"migraine_risk":7,"frizz_risk":1,"updated_at":"2026-07-05T03:30:51.161830+05:30"},{"city":"Sagar","state":"Madhya Pradesh","latitude":23.8388,"longitude":78.7378,"temp":24.4,"humidity":98,"rain":0.0,"pressure":940.6,"uv_index":8.6,"wind_gusts":33.1,"aqi":59,"pm10":18.4,"pm2_5":18.2,"no2":10.4,"co":252.0,"o3":62.0,"so2":2.7,"mosquito_risk":3,"arthritis_risk":5,"migraine_risk":7,"frizz_risk":1,"updated_at":"2026-07-05T03:30:51.161839+05:30"},{"city":"Satna","state":"Madhya Pradesh","latitude":24.6005,"longitude":80.8322,"temp":26.6,"humidity":93,"rain":0.0,"pressure":961.6,"uv_index":7.85,"wind_gusts":34.6,"aqi":72,"pm10":16.6,"pm2_5":16.3,"no2":7.0,"co":255.0,"o3":87.0,"so2":2.0,"mosquito_risk":7,"arthritis_risk":5,"migraine_risk":7,"frizz_risk":1,"updated_at":"2026-07-05T03:30:51.161847+05:30"},{"city":"Akola","state":"Maharashtra","latitude":20.7002,"longitude":77.0082,"temp":25.2,"humidity":91,"rain":0.0,"pressure":966.4,"uv_index":7.9,"wind_gusts":35.6,"aqi":27,"pm10":9.3,"pm2_5":8.0,"no2":11.1,"co":164.0,"o3":50.0,"so2":7.5,"mosquito_risk":7,"arthritis_risk":5,"migraine_risk":7,"frizz_risk":1,"updated_at":"2026-07-05T03:30:51.161857+05:30"},{"city":"Amravati","state":"Maharashtra","latitude":20.9374,"longitude":77.7796,"temp":24.9,"humidity":90,"rain":0.0,"pressure":958.3,"uv_index":6.15,"wind_gusts":38.5,"aqi":28,"pm10":8.5,"pm2_5":7.2,"no2":10.7,"co":161.0,"o3":52.0,"so2":8.1,"mosquito_risk":3,"arthritis_risk":5,"migraine_risk":7,"frizz_risk":1,"updated_at":"2026-07-05T03:30:51.161866+05:30"},{"city":"Latur","state":"Maharashtra","latitude":18.4088,"longitude":76.5604,"temp":23.1,"humidity":91,"rain":0.0,"pressure":932.1,"uv_index":1.2,"wind_gusts":63.0,"aqi":21,"pm10":1.1,"pm2_5":1.0,"no2":2.9,"co":105.0,"o3":46.0,"so2":0.8,"mosquito_risk":3,"arthritis_risk":5,"migraine_risk":3,"frizz_risk":1,"updated_at":"2026-07-05T03:30:51.161875+05:30"},{"city":"Nanded","state":"Maharashtra","latitude":19.1383,"longitude":77.3091,"temp":25.3,"humidity":85,"rain":0.0,"pressure":960.7,"uv_index":2.8,"wind_gusts":50.8,"aqi":20,"pm10":1.9,"pm2_5":1.8,"no2":5.9,"co":128.0,"o3":39.0,"so2":3.0,"mosquito_risk":7,"arthritis_risk":5,"migraine_risk":3,"frizz_risk":1,"updated_at":"2026-07-05T03:30:51.161884+05:30"},{"city":"Gulbarga","state":"Karnataka","latitude":17.3297,"longitude":76.8343,"temp":23.3,"humidity":89,"rain":0.1,"pressure":952.0,"uv_index":1.0,"wind_gusts":73.4,"aqi":19,"pm10":1.9,"pm2_5":1.4,"no2":3.5,"co":106.0,"o3":43.0,"so2":1.7,"mosquito_risk":6,"arthritis_risk":5,"migraine_risk":3,"frizz_risk":1,"updated_at":"2026-07-05T03:30:51.161893+05:30"},{"city":"Bidar","state":"Karnataka","latitude":17.9104,"longitude":77.5199,"temp":22.6,"humidity":93,"rain":0.0,"pressure":928.2,"uv_index":1.75,"wind_gusts":60.8,"aqi":19,"pm10":1.4,"pm2_5":1.2,"no2":3.8,"co":113.0,"o3":42.0,"so2":1.5,"mosquito_risk":3,"arthritis_risk":5,"migraine_risk":3,"frizz_risk":1,"updated_at":"2026-07-05T03:30:51.161901+05:30"},{"city":"Hospet","state":"Karnataka","latitude":15.2689,"longitude":76.3909,"temp":23.2,"humidity":91,"rain":0.0,"pressure":951.2,"uv_index":4.7,"wind_gusts":75.2,"aqi":20,"pm10":1.4,"pm2_5":0.9,"no2":2.0,"co":94.0,"o3":45.0,"so2":0.9,"mosquito_risk":3,"arthritis_risk":5,"migraine_risk":3,"frizz_risk":1,"updated_at":"2026-07-05T03:30:51.161910+05:30"},{"city":"Tirupur","state":"Tamil Nadu","latitude":11.1085,"longitude":77.3411,"temp":24.0,"humidity":88,"rain":0.0,"pressure":973.1,"uv_index":8.55,"wind_gusts":73.4,"aqi":27,"pm10":9.2,"pm2_5":8.2,"no2":14.5,"co":102.0,"o3":25.0,"so2":3.3,"mosquito_risk":3,"arthritis_risk":5,"migraine_risk":7,"frizz_risk":1,"updated_at":"2026-07-05T03:30:51.161918+05:30"},{"city":"Alappuzha","state":"Kerala","latitude":9.4981,"longitude":76.3388,"temp":26.2,"humidity":89,"rain":0.0,"pressure":1008.8,"uv_index":8.1,"wind_gusts":42.5,"aqi":39,"pm10":21.4,"pm2_5":11.0,"no2":4.6,"co":83.0,"o3":40.0,"so2":1.5,"mosquito_risk":7,"arthritis_risk":0,"migraine_risk":4,"frizz_risk":1,"updated_at":"2026-07-05T03:30:51.161951+05:30"},{"city":"Munnar","state":"Kerala","latitude":10.0889,"longitude":77.0595,"temp":16.6,"humidity":100,"rain":0.2,"pressure":855.1,"uv_index":3.75,"wind_gusts":54.7,"aqi":15,"pm10":1.5,"pm2_5":1.2,"no2":3.6,"co":85.0,"o3":29.0,"so2":1.2,"mosquito_risk":6,"arthritis_risk":10,"migraine_risk":3,"frizz_risk":1,"updated_at":"2026-07-05T03:30:51.161961+05:30"},{"city":"Silchar","state":"Assam","latitude":24.8333,"longitude":92.7789,"temp":26.5,"humidity":97,"rain":0.0,"pressure":997.8,"uv_index":7.8,"wind_gusts":29.2,"aqi":45,"pm10":12.3,"pm2_5":12.1,"no2":7.2,"co":209.0,"o3":41.0,"so2":3.3,"mosquito_risk":7,"arthritis_risk":5,"migraine_risk":7,"frizz_risk":1,"updated_at":"2026-07-05T03:30:51.161970+05:30"},{"city":"Dibrugarh","state":"Assam","latitude":27.4728,"longitude":94.912,"temp":27.9,"humidity":80,"rain":0.0,"pressure":988.1,"uv_index":8.95,"wind_gusts":28.1,"aqi":61,"pm10":32.0,"pm2_5":31.5,"no2":28.7,"co":178.0,"o3":13.0,"so2":1.4,"mosquito_risk":7,"arthritis_risk":5,"migraine_risk":7,"frizz_risk":1,"updated_at":"2026-07-05T03:30:51.161978+05:30"}]