[{"city":"Delhi","state":"Delhi","latitude":28.6139,"longitude":77.209,"temp":29.7,"humidity":38,"rain":0.0,"pressure":985.4,"uv_index":6.0,"wind_gusts":28.8,"aqi":398,"pm10":315.7,"pm2_5":74.3,"mosquito_risk":4,"arthritis_risk":5,"migraine_risk":3,"frizz_risk":0,"updated_at":"2026-03-13T12:29:01.562959+05:30"},{"city":"Mumbai","state":"Maharashtra","latitude":19.076,"longitude":72.8777,"temp":28.9,"humidity":69,"rain":0.0,"pressure":1008.6,"uv_index":7.65,"wind_gusts":26.6,"aqi":154,"pm10":71.9,"pm2_5":69.6,"mosquito_risk":7,"arthritis_risk":0,"migraine_risk":4,"frizz_risk":1,"updated_at":"2026-03-13T12:29:01.563000+05:30"},{"city":"Bangalore","state":"Karnataka","latitude":12.9716,"longitude":77.5946,"temp":31.5,"humidity":23,"rain":0.0,"pressure":913.6,"uv_index":9.3,"wind_gusts":28.4,"aqi":80,"pm10":46.1,"pm2_5":35.0,"mosquito_risk":0,"arthritis_risk":5,"migraine_risk":7,"frizz_risk":0,"updated_at":"2026-03-13T12:29:01.563015+05:30"},{"city":"Hyderabad","state":"Telangana","latitude":17.385,"longitude":78.4867,"temp":36.2,"humidity":17,"rain":0.0,"pressure":954.9,"uv_index":8.65,"wind_gusts":18.7,"aqi":100,"pm10":45.5,"pm2_5":32.7,"mosquito_risk":0,"arthritis_risk":5,"migraine_risk":10,"frizz_risk":0,"updated_at":"2026-03-13T12:29:01.563025+05:30"},{"city":"Chennai","state":"Tamil Nadu","latitude":13.0827,"longitude":80.2707,"temp":33.0,"humidity":52,"rain":0.0,"pressure":1009.1,"uv_index":9.05,"wind_gusts":30.6,"aqi":69,"pm10":19.3,"pm2_5":15.3,"mosquito_risk":0,"arthritis_risk":0,"migraine_risk":4,"frizz_risk":1,"updated_at":"2026-03-13T12:29:01.563034+05:30"},{"city":"Kolkata","state":"West Bengal","latitude":22.5726,"longitude":88.3639,"temp":32.9,"humidity":60,"rain":0.0,"pressure":1006.4,"uv_index":8.0,"wind_gusts":28.4,"aqi":150,"pm10":56.9,"pm2_5":43.3,"mosquito_risk":0,"arthritis_risk":5,"migraine_risk":4,"frizz_risk":1,"updated_at":"2026-03-13T12:29:01.563043+05:30"},{"city":"Pune","state":"Maharashtra","latitude":18.5204,"longitude":73.8567,"temp":37.1,"humidity":18,"rain":0.0,"pressure":949.9,"uv_index":8.2,"wind_gusts":26.6,"aqi":148,"pm10":25.6,"pm2_5":21.7,"mosquito_risk":0,"arthritis_risk":5,"migraine_risk":10,"frizz_risk":0,"updated_at":"2026-03-13T12:29:01.563055+05:30"},{"city":"Ahmedabad","state":"Gujarat","latitude":23.0225,"longitude":72.5714,"temp":35.0,"humidity":31,"rain":0.0,"pressure":1003.7,"uv_index":7.5,"wind_gusts":21.6,"aqi":91,"pm10":77.8,"pm2_5":37.0,"mosquito_risk":0,"arthritis_risk":5,"migraine_risk":4,"frizz_risk":0,"updated_at":"2026-03-13T12:29:01.563062+05:30"},{"city":"Jaipur","state":"Rajasthan","latitude":26.9124,"longitude":75.7873,"temp":33.9,"humidity":28,"rain":0.0,"pressure":962.3,"uv_index":6.95,"wind_gusts":24.5,"aqi":119,"pm10":142.0,"pm2_5":36.9,"mosquito_risk":0,"arthritis_risk":5,"migraine_risk":7,"frizz_risk":0,"updated_at":"2026-03-13T12:29:01.563070+05:30"},{"city":"Lucknow","state":"Uttar Pradesh","latitude":26.8467,"longitude":80.9462,"temp":32.3,"humidity":42,"rain":0.0,"pressure":994.8,"uv_index":5.95,"wind_gusts":26.6,"aqi":174,"pm10":275.7,"pm2_5":85.9,"mosquito_risk":0,"arthritis_risk":5,"migraine_risk":3,"frizz_risk":1,"updated_at":"2026-03-13T12:29:01.563078+05:30"},{"city":"Kanpur","state":"Uttar Pradesh","latitude":26.4499,"longitude":80.3319,"temp":32.2,"humidity":47,"rain":0.0,"pressure":993.4,"uv_index":6.35,"wind_gusts":21.2,"aqi":292,"pm10":385.6,"pm2_5":89.4,"mosquito_risk":0,"arthritis_risk":5,"migraine_risk":7,"frizz_risk":1,"updated_at":"2026-03-13T12:29:01.563085+05:30"},{"city":"Chandigarh","state":"Chandigarh","latitude":30.7333,"longitude":76.7794,"temp":28.6,"humidity":41,"rain":0.0,"pressure":970.9,"uv_index":5.15,"wind_gusts":30.6,"aqi":84,"pm10":47.7,"pm2_5":21.7,"mosquito_risk":4,"arthritis_risk":5,"migraine_risk":3,"frizz_risk":0,"updated_at":"2026-03-13T12:29:01.563093+05:30"},{"city":"Srinagar","state":"Jammu and Kashmir","latitude":34.0837,"longitude":74.7973,"temp":13.7,"humidity":63,"rain":0.0,"pressure":845.2,"uv_index":6.85,"wind_gusts":14.0,"aqi":67,"pm10":25.8,"pm2_5":16.6,"mosquito_risk":3,"arthritis_risk":5,"migraine_risk":7,"frizz_risk":0,"updated_at":"2026-03-13T12:29:01.563100+05:30"},{"city":"Jammu","state":"Jammu and Kashmir","latitude":32.7266,"longitude":74.857,"temp":28.9,"humidity":38,"rain":0.0,"pressure":975.6,"uv_index":6.45,"wind_gusts":23.0,"aqi":82,"pm10":26.1,"pm2_5":13.6,"mosquito_risk":4,"arthritis_risk":5,"migraine_risk":7,"frizz_risk":0,"updated_at":"2026-03-13T12:29:01.563107+05:30"},{"city":"Amritsar","state":"Punjab","latitude":31.634,"longitude":74.8723,"temp":26.9,"humidity":54,"rain":0.0,"pressure":984.1,"uv_index":6.05,"wind_gusts":23.8,"aqi":107,"pm10":38.6,"pm2_5":23.6,"mosquito_risk":4,"arthritis_risk":5,"migraine_risk":7,"frizz_risk":1,"updated_at":"2026-03-13T12:29:01.563114+05:30"},{"city":"Ludhiana","state":"Punjab","latitude":30.901,"longitude":75.8573,"temp":28.1,"humidity":45,"rain":0.0,"pressure":981.5,"uv_index":5.75,"wind_gusts":28.8,"aqi":113,"pm10":50.2,"pm2_5":33.3,"mosquito_risk":4,"arthritis_risk":5,"migraine_risk":3,"frizz_risk":0,"updated_at":"2026-03-13T12:29:01.563121+05:30"},{"city":"Jalandhar","state":"Punjab","latitude":31.326,"longitude":75.5762,"temp":27.6,"humidity":48,"rain":0.0,"pressure":982.8,"uv_index":5.65,"wind_gusts":26.6,"aqi":113,"pm10":69.8,"pm2_5":34.5,"mosquito_risk":4,"arthritis_risk":5,"migraine_risk":3,"frizz_risk":0,"updated_at":"2026-03-13T12:29:01.563129+05:30"},{"city":"Dehradun","state":"Uttarakhand","latitude":30.6284,"longitude":78.0322,"temp":22.0,"humidity":29,"rain":0.0,"pressure":832.8,"uv_index":6.0,"wind_gusts":28.1,"aqi":43,"pm10":38.2,"pm2_5":12.2,"mosquito_risk":0,"arthritis_risk":5,"migraine_risk":3,"frizz_risk":0,"updated_at":"2026-03-13T12:29:01.563136+05:30"},{"city":"Shimla","state":"Himachal Pradesh","latitude":31.1048,"longitude":77.1734,"temp":19.8,"humidity":33,"rain":0.0,"pressure":788.0,"uv_index":5.2,"wind_gusts":38.5,"aqi":56,"pm10":32.7,"pm2_5":10.2,"mosquito_risk":0,"arthritis_risk":5,"migraine_risk":3,"frizz_risk":0,"updated_at":"2026-03-13T12:29:01.563143+05:30"},{"city":"Manali","state":"Himachal Pradesh","latitude":32.2396,"longitude":77.1887,"temp":19.9,"humidity":15,"rain":0.0,"pressure":822.8,"uv_index":8.15,"wind_gusts":38.5,"aqi":45,"pm10":18.3,"pm2_5":6.2,"mosquito_risk":0,"arthritis_risk":5,"migraine_risk":7,"frizz_risk":1,"updated_at":"2026-03-13T12:29:01.563150+05:30"},{"city":"Gurgaon","state":"Haryana","latitude":28.4595,"longitude":77.0266,"temp":29.9,"humidity":39,"rain":0.0,"pressure":984.0,"uv_index":6.1,"wind_gusts":26.6,"aqi":1216,"pm10":1080.3,"pm2_5":135.5,"mosquito_risk":4,"arthritis_risk":5,"migraine_risk":7,"frizz_risk":0,"updated_at":"2026-03-13T12:29:01.563157+05:30"},{"city":"Noida","state":"Uttar Pradesh","latitude":28.5355,"longitude":77.391,"temp":30.3,"humidity":36,"rain":0.0,"pressure":986.9,"uv_index":5.95,"wind_gusts":28.4,"aqi":1216,"pm10":1080.3,"pm2_5":135.5,"mosquito_risk":0,"arthritis_risk":5,"migraine_risk":3,"frizz_risk":0,"updated_at":"2026-03-13T12:29:01.563166+05:30"},{"city":"Ghaziabad","state":"Uttar Pradesh","latitude":28.6692,"longitude":77.4538,"temp":29.5,"humidity":44,"rain":0.0,"pressure":985.0,"uv_index":5.85,"wind_gusts":27.7,"aqi":241,"pm10":241.2,"pm2_5":66.1,"mosquito_risk":4,"arthritis_risk":5,"migraine_risk":3,"frizz_risk":0,"updated_at":"2026-03-13T12:29:01.563172+05:30"},{"city":"Faridabad","state":"Haryana","latitude":28.4089,"longitude":77.3178,"temp":30.0,"humidity":37,"rain":0.0,"pressure":986.3,"uv_index":6.0,"wind_gusts":27.0,"aqi":1216,"pm10":1080.3,"pm2_5":135.5,"mosquito_risk":4,"arthritis_risk":5,"migraine_risk":3,"frizz_risk":0,"updated_at":"2026-03-13T12:29:01.563179+05:30"},{"city":"Meerut","state":"Uttar Pradesh","latitude":28.9845,"longitude":77.7064,"temp":29.5,"humidity":47,"rain":0.0,"pressure":983.5,"uv_index":5.3,"wind_gusts":28.8,"aqi":241,"pm10":241.2,"pm2_5":66.1,"mosquito_risk":4,"arthritis_risk":5,"migraine_risk":3,"frizz_risk":1,"updated_at":"2026-03-13T12:29:01.563186+05:30"},{"city":"Agra","state":"Uttar Pradesh","latitude":27.1767,"longitude":78.0081,"temp":33.1,"humidity":37,"rain":0.0,"pressure":990.1,"uv_index":6.2,"wind_gusts":22.0,"aqi":557,"pm10":700.4,"pm2_5":124.3,"mosquito_risk":0,"arthritis_risk":5,"migraine_risk":7,"frizz_risk":1,"updated_at":"2026-03-13T12:29:01.563193+05:30"},{"city":"Varanasi","state":"Uttar Pradesh","latitude":25.3176,"longitude":82.9739,"temp":33.8,"humidity":33,"rain":0.0,"pressure":998.5,"uv_index":7.35,"wind_gusts":26.6,"aqi":130,"pm10":377.2,"pm2_5":69.8,"mosquito_risk":0,"arthritis_risk":5,"migraine_risk":7,"frizz_risk":0,"updated_at":"2026-03-13T12:29:01.563202+05:30"},{"city":"Prayagraj","state":"Uttar Pradesh","latitude":25.4358,"longitude":81.8463,"temp":34.0,"humidity":33,"rain":0.0,"pressure":997.0,"uv_index":7.05,"wind_gusts":22.0,"aqi":151,"pm10":476.8,"pm2_5":83.4,"mosquito_risk":0,"arthritis_risk":5,"migraine_risk":7,"frizz_risk":0,"updated_at":"2026-03-13T12:29:01.563208+05:30"},{"city":"Gorakhpur","state":"Uttar Pradesh","latitude":26.7606,"longitude":83.3732,"temp":31.4,"humidity":56,"rain":0.0,"pressure":997.9,"uv_index":7.0,"wind_gusts":28.1,"aqi":181,"pm10":135.5,"pm2_5":103.4,"mosquito_risk":0,"arthritis_risk":5,"migraine_risk":7,"frizz_risk":1,"updated_at":"2026-03-13T12:29:01.563215+05:30"},{"city":"Bareilly","state":"Uttar Pradesh","latitude":28.367,"longitude":79.4304,"temp":30.7,"humidity":50,"rain":0.0,"pressure":988.2,"uv_index":6.4,"wind_gusts":26.6,"aqi":154,"pm10":99.9,"pm2_5":58.0,"mosquito_risk":0,"arthritis_risk":5,"migraine_risk":7,"frizz_risk":1,"updated_at":"2026-03-13T12:29:01.563222+05:30"},{"city":"Aligarh","state":"Uttar Pradesh","latitude":27.8974,"longitude":78.088,"temp":32.8,"humidity":27,"rain":0.0,"pressure":987.6,"uv_index":6.0,"wind_gusts":29.2,"aqi":650,"pm10":620.3,"pm2_5":111.1,"mosquito_risk":0,"arthritis_risk":5,"migraine_risk":3,"frizz_risk":0,"updated_at":"2026-03-13T12:29:01.563228+05:30"},{"city":"Moradabad","state":"Uttar Pradesh","latitude":28.8386,"longitude":78.7733,"temp":30.3,"humidity":45,"rain":0.0,"pressure":985.2,"uv_index":5.65,"wind_gusts":27.0,"aqi":152,"pm10":75.4,"pm2_5":49.0,"mosquito_risk":0,"arthritis_risk":5,"migraine_risk":3,"frizz_risk":1,"updated_at":"2026-03-13T12:29:01.563234+05:30"},{"city":"Saharanpur","state":"Uttar Pradesh","latitude":29.9637,"longitude":77.546,"temp":28.7,"humidity":45,"rain":0.0,"pressure":977.4,"uv_index":4.85,"wind_gusts":28.1,"aqi":143,"pm10":61.2,"pm2_5":32.0,"mosquito_risk":4,"arthritis_risk":5,"migraine_risk":3,"frizz_risk":0,"updated_at":"2026-03-13T12:29:01.563240+05:30"},{"city":"Jhansi","state":"Uttar Pradesh","latitude":25.4484,"longitude":78.5685,"temp":33.9,"humidity":27,"rain":0.0,"pressure":980.1,"uv_index":6.85,"wind_gusts":18.7,"aqi":58,"pm10":244.0,"pm2_5":56.3,"mosquito_risk":0,"arthritis_risk":5,"migraine_risk":7,"frizz_risk":0,"updated_at":"2026-03-13T12:29:04.862169+05:30"},{"city":"Surat","state":"Gujarat","latitude":21.1702,"longitude":72.8311,"temp":33.8,"humidity":37,"rain":0.0,"pressure":1008.1,"uv_index":7.35,"wind_gusts":23.8,"aqi":147,"pm10":59.1,"pm2_5":51.7,"mosquito_risk":0,"arthritis_risk":0,"migraine_risk":4,"frizz_risk":1,"updated_at":"2026-03-13T12:29:04.862198+05:30"},{"city":"Vadodara","state":"Gujarat","latitude":22.3072,"longitude":73.1812,"temp":36.9,"humidity":23,"rain":0.0,"pressure":1005.7,"uv_index":7.5,"wind_gusts":22.0,"aqi":108,"pm10":39.7,"pm2_5":23.7,"mosquito_risk":0,"arthritis_risk":5,"migraine_risk":7,"frizz_risk":0,"updated_at":"2026-03-13T12:29:04.862208+05:30"},{"city":"Rajkot","state":"Gujarat","latitude":22.3039,"longitude":70.8022,"temp":34.3,"humidity":27,"rain":0.0,"pressure":996.1,"uv_index":7.3,"wind_gusts":30.2,"aqi":83,"pm10":91.3,"pm2_5":33.4,"mosquito_risk":0,"arthritis_risk":5,"migraine_risk":7,"frizz_risk":0,"updated_at":"2026-03-13T12:29:04.862217+05:30"},{"city":"Thane","state":"Maharashtra","latitude":19.2183,"longitude":72.9781,"temp":35.0,"humidity":37,"rain":0.0,"pressure":1008.2,"uv_index":7.65,"wind_gusts":38.9,"aqi":154,"pm10":71.9,"pm2_5":69.6,"mosquito_risk":0,"arthritis_risk":0,"migraine_risk":4,"frizz_risk":1,"updated_at":"2026-03-13T12:29:04.862225+05:30"},{"city":"Nagpur","state":"Maharashtra","latitude":21.1458,"longitude":79.0882,"temp":36.9,"humidity":17,"rain":0.0,"pressure":974.8,"uv_index":8.05,"wind_gusts":18.7,"aqi":91,"pm10":29.3,"pm2_5":20.1,"mosquito_risk":0,"arthritis_risk":5,"migraine_risk":10,"frizz_risk":0,"updated_at":"2026-03-13T12:29:04.862232+05:30"},{"city":"Nashik","state":"Maharashtra","latitude":19.9975,"longitude":73.7898,"temp":35.1,"humidity":19,"rain":0.0,"pressure":947.5,"uv_index":7.85,"wind_gusts":32.4,"aqi":73,"pm10":18.6,"pm2_5":14.8,"mosquito_risk":0,"arthritis_risk":5,"migraine_risk":10,"frizz_risk":0,"updated_at":"2026-03-13T12:29:04.862240+05:30"},{"city":"Aurangabad","state":"Maharashtra","latitude":19.8762,"longitude":75.3433,"temp":35.6,"humidity":16,"rain":0.0,"pressure":946.1,"uv_index":8.35,"wind_gusts":29.5,"aqi":85,"pm10":21.8,"pm2_5":19.9,"mosquito_risk":0,"arthritis_risk":5,"migraine_risk":10,"frizz_risk":0,"updated_at":"2026-03-13T12:29:04.862248+05:30"},{"city":"Solapur","state":"Maharashtra","latitude":17.6599,"longitude":75.9064,"temp":35.0,"humidity":29,"rain":0.0,"pressure":958.6,"uv_index":8.6,"wind_gusts":24.8,"aqi":90,"pm10":40.0,"pm2_5":32.7,"mosquito_risk":0,"arthritis_risk":5,"migraine_risk":7,"frizz_risk":0,"updated_at":"2026-03-13T12:29:04.862256+05:30"},{"city":"Kolhapur","state":"Maharashtra","latitude":16.705,"longitude":74.2433,"temp":33.6,"humidity":29,"rain":0.0,"pressure":949.4,"uv_index":8.7,"wind_gusts":44.6,"aqi":153,"pm10":42.7,"pm2_5":38.2,"mosquito_risk":0,"arthritis_risk":5,"migraine_risk":7,"frizz_risk":0,"updated_at":"2026-03-13T12:29:04.862263+05:30"},{"city":"Goa","state":"Goa","latitude":15.2993,"longitude":74.124,"temp":31.9,"humidity":62,"rain":0.0,"pressure":998.9,"uv_index":8.7,"wind_gusts":32.8,"aqi":141,"pm10":50.9,"pm2_5":43.5,"mosquito_risk":3,"arthritis_risk":5,"migraine_risk":7,"frizz_risk":1,"updated_at":"2026-03-13T12:29:04.862271+05:30"},{"city":"Jodhpur","state":"Rajasthan","latitude":26.2389,"longitude":73.0243,"temp":34.3,"humidity":28,"rain":0.0,"pressure":985.2,"uv_index":6.9,"wind_gusts":19.4,"aqi":73,"pm10":114.6,"pm2_5":31.1,"mosquito_risk":0,"arthritis_risk":5,"migraine_risk":7,"frizz_risk":0,"updated_at":"2026-03-13T12:29:04.862278+05:30"},{"city":"Udaipur","state":"Rajasthan","latitude":24.5854,"longitude":73.7125,"temp":34.3,"humidity":19,"rain":0.0,"pressure":949.1,"uv_index":7.85,"wind_gusts":32.8,"aqi":48,"pm10":61.5,"pm2_5":21.8,"mosquito_risk":0,"arthritis_risk":5,"migraine_risk":7,"frizz_risk":0,"updated_at":"2026-03-13T12:29:04.862285+05:30"},{"city":"Kota","state":"Rajasthan","latitude":25.2138,"longitude":75.8648,"temp":35.6,"humidity":18,"rain":0.0,"pressure":981.0,"uv_index":7.1,"wind_gusts":16.6,"aqi":70,"pm10":61.9,"pm2_5":21.7,"mosquito_risk":0,"arthritis_risk":5,"migraine_risk":10,"frizz_risk":0,"updated_at":"2026-03-13T12:29:04.862292+05:30"},{"city":"Bikaner","state":"Rajasthan","latitude":28.0229,"longitude":73.3119,"temp":31.3,"humidity":34,"rain":0.0,"pressure":985.0,"uv_index":6.6,"wind_gusts":24.8,"aqi":82,"pm10":62.6,"pm2_5":33.6,"mosquito_risk":0,"arthritis_risk":5,"migraine_risk":7,"frizz_risk":0,"updated_at":"2026-03-13T12:29:04.862299+05:30"},{"city":"Ajmer","state":"Rajasthan","latitude":26.4499,"longitude":74.6399,"temp":33.6,"humidity":27,"rain":0.0,"pressure":956.9,"uv_index":7.05,"wind_gusts":19.4,"aqi":64,"pm10":130.9,"pm2_5":39.5,"mosquito_risk":0,"arthritis_risk":5,"migraine_risk":7,"frizz_risk":0,"updated_at":"2026-03-13T12:29:04.862307+05:30"},{"city":"Gwalior","state":"Madhya Pradesh","latitude":26.2183,"longitude":78.1828,"temp":31.4,"humidity":45,"rain":0.0,"pressure":985.7,"uv_index":6.8,"wind_gusts":20.2,"aqi":86,"pm10":241.2,"pm2_5":77.5,"mosquito_risk":0,"arthritis_risk":5,"migraine_risk":7,"frizz_risk":1,"updated_at":"2026-03-13T12:29:04.862331+05:30"},{"city":"Indore","state":"Madhya Pradesh","latitude":22.7196,"longitude":75.8577,"temp":35.2,"humidity":13,"rain":0.0,"pressure":950.5,"uv_index":7.75,"wind_gusts":32.4,"aqi":60,"pm10":8.4,"pm2_5":7.2,"mosquito_risk":0,"arthritis_risk":5,"migraine_risk":10,"frizz_risk":0,"updated_at":"2026-03-13T12:29:04.862338+05:30"},{"city":"Bhopal","state":"Madhya Pradesh","latitude":23.2599,"longitude":77.4126,"temp":35.1,"humidity":17,"rain":0.0,"pressure":956.3,"uv_index":7.55,"wind_gusts":29.9,"aqi":76,"pm10":20.9,"pm2_5":18.9,"mosquito_risk":0,"arthritis_risk":5,"migraine_risk":10,"frizz_risk":0,"updated_at":"2026-03-13T12:29:04.862345+05:30"},{"city":"Jabalpur","state":"Madhya Pradesh","latitude":23.1815,"longitude":79.9864,"temp":35.0,"humidity":21,"rain":0.0,"pressure":963.5,"uv_index":7.75,"wind_gusts":18.7,"aqi":78,"pm10":23.5,"pm2_5":16.4,"mosquito_risk":0,"arthritis_risk":5,"migraine_risk":7,"frizz_risk":0,"updated_at":"2026-03-13T12:29:04.862353+05:30"},{"city":"Ujjain","state":"Madhya Pradesh","latitude":23.1765,"longitude":75.7885,"temp":34.2,"humidity":17,"rain":0.0,"pressure":956.3,"uv_index":7.7,"wind_gusts":25.2,"aqi":57,"pm10":12.4,"pm2_5":7.1,"mosquito_risk":0,"arthritis_risk":5,"migraine_risk":7,"frizz_risk":0,"updated_at":"2026-03-13T12:29:04.862361+05:30"},{"city":"Visakhapatnam","state":"Andhra Pradesh","latitude":17.6868,"longitude":83.2185,"temp":32.5,"humidity":56,"rain":0.0,"pressure":1005.5,"uv_index":8.65,"wind_gusts":39.6,"aqi":93,"pm10":36.2,"pm2_5":30.4,"mosquito_risk":0,"arthritis_risk":5,"migraine_risk":4,"frizz_risk":1,"updated_at":"2026-03-13T12:29:04.862368+05:30"},{"city":"Vijayawada","state":"Andhra Pradesh","latitude":16.5062,"longitude":80.648,"temp":33.6,"humidity":52,"rain":0.0,"pressure":1004.1,"uv_index":8.75,"wind_gusts":29.9,"aqi":92,"pm10":26.1,"pm2_5":21.5,"mosquito_risk":0,"arthritis_risk":5,"migraine_risk":4,"frizz_risk":1,"updated_at":"2026-03-13T12:29:04.862375+05:30"},{"city":"Guntur","state":"Andhra Pradesh","latitude":16.3067,"longitude":80.4365,"temp":34.4,"humidity":46,"rain":0.0,"pressure":1005.2,"uv_index":8.75,"wind_gusts":31.0,"aqi":84,"pm10":28.6,"pm2_5":23.0,"mosquito_risk":0,"arthritis_risk":5,"migraine_risk":4,"frizz_risk":1,"updated_at":"2026-03-13T12:29:04.862383+05:30"},{"city":"Nellore","state":"Andhra Pradesh","latitude":14.4426,"longitude":79.9865,"temp":35.1,"humidity":40,"rain":0.0,"pressure":1007.1,"uv_index":8.9,"wind_gusts":28.8,"aqi":76,"pm10":28.1,"pm2_5":24.7,"mosquito_risk":0,"arthritis_risk":5,"migraine_risk":7,"frizz_risk":1,"updated_at":"2026-03-13T12:29:04.862390+05:30"},{"city":"Kurnool","state":"Andhra Pradesh","latitude":15.8281,"longitude":78.0373,"temp":37.4,"humidity":21,"rain":0.0,"pressure":978.0,"uv_index":8.75,"wind_gusts":23.8,"aqi":91,"pm10":43.1,"pm2_5":34.2,"mosquito_risk":0,"arthritis_risk":5,"migraine_risk":10,"frizz_risk":0,"updated_at":"2026-03-13T12:29:04.862398+05:30"},{"city":"Kakinada","state":"Andhra Pradesh","latitude":16.9891,"longitude":82.2475,"temp":34.0,"humidity":52,"rain":0.0,"pressure":1009.0,"uv_index":8.7,"wind_gusts":31.3,"aqi":80,"pm10":24.8,"pm2_5":20.1,"mosquito_risk":0,"arthritis_risk":0,"migraine_risk":4,"frizz_risk":1,"updated_at":"2026-03-13T12:29:04.862405+05:30"},{"city":"Tirupati","state":"Andhra Pradesh","latitude":13.6288,"longitude":79.4192,"temp":34.1,"humidity":36,"rain":0.0,"pressure":993.1,"uv_index":9.05,"wind_gusts":32.4,"aqi":101,"pm10":25.4,"pm2_5":22.7,"mosquito_risk":0,"arthritis_risk":5,"migraine_risk":7,"frizz_risk":1,"updated_at":"2026-03-13T12:29:04.862412+05:30"},{"city":"Warangal","state":"Telangana","latitude":17.9689,"longitude":79.5941,"temp":34.9,"humidity":40,"rain":0.0,"pressure":980.0,"uv_index":8.5,"wind_gusts":29.5,"aqi":114,"pm10":38.6,"pm2_5":32.0,"mosquito_risk":0,"arthritis_risk":5,"migraine_risk":7,"frizz_risk":1,"updated_at":"2026-03-13T12:29:04.862419+05:30"},{"city":"Nizamabad","state":"Telangana","latitude":18.6725,"longitude":78.0941,"temp":35.1,"humidity":30,"rain":0.0,"pressure":966.4,"uv_index":8.4,"wind_gusts":23.4,"aqi":120,"pm10":43.8,"pm2_5":37.3,"mosquito_risk":0,"arthritis_risk":5,"migraine_risk":10,"frizz_risk":0,"updated_at":"2026-03-13T12:29:04.862425+05:30"},{"city":"Mysore","state":"Karnataka","latitude":12.2958,"longitude":76.6396,"temp":31.8,"humidity":28,"rain":0.0,"pressure":930.1,"uv_index":9.3,"wind_gusts":32.0,"aqi":74,"pm10":40.9,"pm2_5":31.5,"mosquito_risk":0,"arthritis_risk":5,"migraine_risk":7,"frizz_risk":0,"updated_at":"2026-03-13T12:29:04.862432+05:30"},{"city":"Mangalore","state":"Karnataka","latitude":12.9141,"longitude":74.856,"temp":28.8,"humidity":81,"rain":0.0,"pressure":1007.1,"uv_index":8.95,"wind_gusts":24.8,"aqi":116,"pm10":42.1,"pm2_5":37.1,"mosquito_risk":7,"arthritis_risk":5,"migraine_risk":4,"frizz_risk":1,"updated_at":"2026-03-13T12:29:04.862440+05:30"},{"city":"Hubli-Dharwad","state":"Karnataka","latitude":15.3647,"longitude":75.124,"temp":33.8,"humidity":31,"rain":0.0,"pressure":942.4,"uv_index":8.9,"wind_gusts":29.9,"aqi":74,"pm10":32.9,"pm2_5":27.0,"mosquito_risk":0,"arthritis_risk":5,"migraine_risk":7,"frizz_risk":0,"updated_at":"2026-03-13T12:29:04.862447+05:30"},{"city":"Belgaum","state":"Karnataka","latitude":15.8497,"longitude":74.4977,"temp":34.7,"humidity":21,"rain":0.0,"pressure":927.6,"uv_index":8.95,"wind_gusts":43.6,"aqi":114,"pm10":29.7,"pm2_5":24.6,"mosquito_risk":0,"arthritis_risk":5,"migraine_risk":7,"frizz_risk":0,"updated_at":"2026-03-13T12:29:08.159590+05:30"},{"city":"Coimbatore","state":"Tamil Nadu","latitude":11.0168,"longitude":76.9558,"temp":32.7,"humidity":38,"rain":0.0,"pressure":963.2,"uv_index":9.25,"wind_gusts":41.0,"aqi":77,"pm10":33.9,"pm2_5":26.7,"mosquito_risk":0,"arthritis_risk":5,"migraine_risk":7,"frizz_risk":1,"updated_at":"2026-03-13T12:29:08.159621+05:30"},{"city":"Madurai","state":"Tamil Nadu","latitude":9.9252,"longitude":78.1198,"temp":33.2,"humidity":46,"rain":0.0,"pressure":994.2,"uv_index":9.25,"wind_gusts":26.6,"aqi":83,"pm10":19.1,"pm2_5":15.0,"mosquito_risk":0,"arthritis_risk":5,"migraine_risk":7,"frizz_risk":1,"updated_at":"2026-03-13T12:29:08.159631+05:30"},{"city":"Trichy","state":"Tamil Nadu","latitude":10.7905,"longitude":78.7047,"temp":32.3,"humidity":52,"rain":0.0,"pressure":1001.3,"uv_index":9.15,"wind_gusts":23.8,"aqi":89,"pm10":22.9,"pm2_5":19.2,"mosquito_risk":0,"arthritis_risk":5,"migraine_risk":4,"frizz_risk":1,"updated_at":"2026-03-13T12:29:08.159640+05:30"},{"city":"Salem","state":"Tamil Nadu","latitude":11.6643,"longitude":78.146,"temp":32.3,"humidity":49,"rain":0.0,"pressure":978.9,"uv_index":9.2,"wind_gusts":24.1,"aqi":97,"pm10":38.4,"pm2_5":34.3,"mosquito_risk":0,"arthritis_risk":5,"migraine_risk":7,"frizz_risk":1,"updated_at":"2026-03-13T12:29:08.159647+05:30"},{"city":"Tirunelveli","state":"Tamil Nadu","latitude":8.7139,"longitude":77.7567,"temp":32.8,"humidity":48,"rain":0.0,"pressure":1004.3,"uv_index":9.2,"wind_gusts":29.9,"aqi":64,"pm10":13.8,"pm2_5":10.9,"mosquito_risk":0,"arthritis_risk":5,"migraine_risk":4,"frizz_risk":1,"updated_at":"2026-03-13T12:29:08.159654+05:30"},{"city":"Vellore","state":"Tamil Nadu","latitude":12.9165,"longitude":79.1325,"temp":33.9,"humidity":36,"rain":0.0,"pressure":986.1,"uv_index":9.1,"wind_gusts":32.8,"aqi":104,"pm10":28.9,"pm2_5":26.4,"mosquito_risk":0,"arthritis_risk":5,"migraine_risk":7,"frizz_risk":1,"updated_at":"2026-03-13T12:29:08.159661+05:30"},{"city":"Erode","state":"Tamil Nadu","latitude":11.341,"longitude":77.7172,"temp":33.1,"humidity":48,"rain":0.0,"pressure":990.5,"uv_index":9.15,"wind_gusts":22.3,"aqi":84,"pm10":30.5,"pm2_5":27.1,"mosquito_risk":0,"arthritis_risk":5,"migraine_risk":7,"frizz_risk":1,"updated_at":"2026-03-13T12:29:08.159668+05:30"},{"city":"Kochi","state":"Kerala","latitude":9.9312,"longitude":76.2673,"temp":28.4,"humidity":81,"rain":0.0,"pressure":1009.1,"uv_index":9.1,"wind_gusts":33.5,"aqi":98,"pm10":30.3,"pm2_5":28.1,"mosquito_risk":7,"arthritis_risk":0,"migraine_risk":4,"frizz_risk":1,"updated_at":"2026-03-13T12:29:08.159680+05:30"},{"city":"Thiruvananthapuram","state":"Kerala","latitude":8.5241,"longitude":76.9366,"temp":28.4,"humidity":78,"rain":0.0,"pressure":1008.4,"uv_index":9.1,"wind_gusts":24.1,"aqi":58,"pm10":23.4,"pm2_5":19.7,"mosquito_risk":7,"arthritis_risk":0,"migraine_risk":4,"frizz_risk":1,"updated_at":"2026-03-13T12:29:08.159687+05:30"},{"city":"Kozhikode","state":"Kerala","latitude":11.2588,"longitude":75.7804,"temp":29.5,"humidity":76,"rain":0.0,"pressure":1008.3,"uv_index":8.95,"wind_gusts":30.6,"aqi":97,"pm10":34.7,"pm2_5":31.8,"mosquito_risk":7,"arthritis_risk":0,"migraine_risk":4,"frizz_risk":1,"updated_at":"2026-03-13T12:29:08.159694+05:30"},{"city":"Thrissur","state":"Kerala","latitude":10.5276,"longitude":76.2144,"temp":34.0,"humidity":54,"rain":0.0,"pressure":1007.2,"uv_index":9.05,"wind_gusts":37.8,"aqi":96,"pm10":33.8,"pm2_5":30.2,"mosquito_risk":0,"arthritis_risk":5,"migraine_risk":4,"frizz_risk":1,"updated_at":"2026-03-13T12:29:08.159702+05:30"},{"city":"Kannur","state":"Kerala","latitude":11.8745,"longitude":75.3704,"temp":30.9,"humidity":69,"rain":0.0,"pressure":1007.7,"uv_index":9.0,"wind_gusts":29.5,"aqi":106,"pm10":37.0,"pm2_5":32.6,"mosquito_risk":3,"arthritis_risk":5,"migraine_risk":4,"frizz_risk":1,"updated_at":"2026-03-13T12:29:08.159709+05:30"},{"city":"Patna","state":"Bihar","latitude":25.5941,"longitude":85.1376,"temp":32.1,"humidity":50,"rain":0.0,"pressure":1000.9,"uv_index":7.5,"wind_gusts":25.2,"aqi":179,"pm10":133.6,"pm2_5":101.7,"mosquito_risk":0,"arthritis_risk":5,"migraine_risk":4,"frizz_risk":1,"updated_at":"2026-03-13T12:29:08.159716+05:30"},{"city":"Gaya","state":"Bihar","latitude":24.7914,"longitude":85.0002,"temp":33.1,"humidity":34,"rain":0.0,"pressure":994.7,"uv_index":7.6,"wind_gusts":23.0,"aqi":152,"pm10":140.2,"pm2_5":51.9,"mosquito_risk":0,"arthritis_risk":5,"migraine_risk":7,"frizz_risk":0,"updated_at":"2026-03-13T12:29:08.159723+05:30"},{"city":"Muzaffarpur","state":"Bihar","latitude":26.1209,"longitude":85.3647,"temp":31.1,"humidity":55,"rain":0.0,"pressure":1001.0,"uv_index":7.45,"wind_gusts":24.8,"aqi":185,"pm10":117.3,"pm2_5":93.1,"mosquito_risk":0,"arthritis_risk":5,"migraine_risk":4,"frizz_risk":1,"updated_at":"2026-03-13T12:29:08.159730+05:30"},{"city":"Bhagalpur","state":"Bihar","latitude":25.2425,"longitude":87.0117,"temp":32.5,"humidity":53,"rain":0.0,"pressure":1001.1,"uv_index":7.5,"wind_gusts":26.6,"aqi":177,"pm10":112.0,"pm2_5":91.0,"mosquito_risk":0,"arthritis_risk":5,"migraine_risk":4,"frizz_risk":1,"updated_at":"2026-03-13T12:29:08.159736+05:30"},{"city":"Ranchi","state":"Jharkhand","latitude":23.3441,"longitude":85.3096,"temp":32.9,"humidity":17,"rain":0.0,"pressure":939.7,"uv_index":8.2,"wind_gusts":29.9,"aqi":90,"pm10":39.6,"pm2_5":14.9,"mosquito_risk":0,"arthritis_risk":5,"migraine_risk":7,"frizz_risk":0,"updated_at":"2026-03-13T12:29:08.159743+05:30"},{"city":"Jamshedpur","state":"Jharkhand","latitude":22.8046,"longitude":86.2029,"temp":35.2,"humidity":31,"rain":0.0,"pressure":991.5,"uv_index":8.1,"wind_gusts":16.6,"aqi":162,"pm10":111.3,"pm2_5":65.7,"mosquito_risk":0,"arthritis_risk":5,"migraine_risk":10,"frizz_risk":0,"updated_at":"2026-03-13T12:29:08.159750+05:30"},{"city":"Dhanbad","state":"Jharkhand","latitude":23.7957,"longitude":86.4304,"temp":35.5,"humidity":18,"rain":0.0,"pressure":980.4,"uv_index":8.0,"wind_gusts":29.9,"aqi":176,"pm10":128.5,"pm2_5":73.8,"mosquito_risk":0,"arthritis_risk":5,"migraine_risk":10,"frizz_risk":0,"updated_at":"2026-03-13T12:29:08.159757+05:30"},{"city":"Bokaro","state":"Jharkhand","latitude":23.6693,"longitude":86.1511,"temp":35.5,"humidity":17,"rain":0.0,"pressure":984.5,"uv_index":8.0,"wind_gusts":31.0,"aqi":158,"pm10":106.2,"pm2_5":44.6,"mosquito_risk":0,"arthritis_risk":5,"migraine_risk":10,"frizz_risk":0,"updated_at":"2026-03-13T12:29:08.159764+05:30"},{"city":"Bhubaneswar","state":"Odisha","latitude":20.2961,"longitude":85.8245,"temp":32.8,"humidity":58,"rain":0.0,"pressure":1004.1,"uv_index":8.4,"wind_gusts":34.9,"aqi":115,"pm10":41.6,"pm2_5":33.5,"mosquito_risk":0,"arthritis_risk":5,"migraine_risk":4,"frizz_risk":1,"updated_at":"2026-03-13T12:29:08.159770+05:30"},{"city":"Cuttack","state":"Odisha","latitude":20.4625,"longitude":85.8828,"temp":34.4,"humidity":53,"rain":0.0,"pressure":1005.5,"uv_index":8.45,"wind_gusts":30.6,"aqi":115,"pm10":41.6,"pm2_5":33.5,"mosquito_risk":0,"arthritis_risk":5,"migraine_risk":4,"frizz_risk":1,"updated_at":"2026-03-13T12:29:08.159777+05:30"},{"city":"Rourkela","state":"Odisha","latitude":22.2604,"longitude":84.8536,"temp":36.7,"humidity":19,"rain":0.0,"pressure":985.9,"uv_index":8.0,"wind_gusts":26.3,"aqi":107,"pm10":78.0,"pm2_5":29.2,"mosquito_risk":0,"arthritis_risk":5,"migraine_risk":10,"frizz_risk":0,"updated_at":"2026-03-13T12:29:08.159784+05:30"},{"city":"Raipur","state":"Chhattisgarh","latitude":21.2514,"longitude":81.6296,"temp":37.4,"humidity":18,"rain":0.0,"pressure":975.8,"uv_index":8.15,"wind_gusts":17.6,"aqi":143,"pm10":81.7,"pm2_5":55.5,"mosquito_risk":0,"arthritis_risk":5,"migraine_risk":10,"frizz_risk":0,"updated_at":"2026-03-13T12:29:08.159790+05:30"},{"city":"Bhilai","state":"Chhattisgarh","latitude":21.1938,"longitude":81.3509,"temp":37.8,"humidity":17,"rain":0.0,"pressure":976.3,"uv_index":8.15,"wind_gusts":13.3,"aqi":142,"pm10":77.8,"pm2_5":54.9,"mosquito_risk":0,"arthritis_risk":5,"migraine_risk":10,"frizz_risk":0,"updated_at":"2026-03-13T12:29:08.159796+05:30"},{"city":"Guwahati","state":"Assam","latitude":26.1158,"longitude":91.7086,"temp":25.6,"humidity":79,"rain":0.0,"pressure":1002.2,"uv_index":6.9,"wind_gusts":32.8,"aqi":160,"pm10":62.9,"pm2_5":57.2,"mosquito_risk":7,"arthritis_risk":5,"migraine_risk":4,"frizz_risk":1,"updated_at":"2026-03-13T12:29:08.159803+05:30"},{"city":"Agartala","state":"Tripura","latitude":23.8315,"longitude":91.2868,"temp":26.8,"humidity":76,"rain":0.0,"pressure":1007.8,"uv_index":7.6,"wind_gusts":28.1,"aqi":150,"pm10":36.7,"pm2_5":31.5,"mosquito_risk":7,"arthritis_risk":5,"migraine_risk":4,"frizz_risk":1,"updated_at":"2026-03-13T12:29:08.159810+05:30"},{"city":"Shillong","state":"Meghalaya","latitude":25.5788,"longitude":91.8933,"temp":16.4,"humidity":75,"rain":0.0,"pressure":856.2,"uv_index":7.0,"wind_gusts":54.0,"aqi":152,"pm10":38.0,"pm2_5":32.8,"mosquito_risk":3,"arthritis_risk":5,"migraine_risk":7,"frizz_risk":0,"updated_at":"2026-03-13T12:29:08.159817+05:30"},{"city":"Imphal","state":"Manipur","latitude":24.817,"longitude":93.9368,"temp":22.5,"humidity":67,"rain":0.0,"pressure":923.8,"uv_index":7.4,"wind_gusts":62.6,"aqi":156,"pm10":68.9,"pm2_5":57.2,"mosquito_risk":3,"arthritis_risk":5,"migraine_risk":7,"frizz_risk":1,"updated_at":"2026-03-13T12:29:08.159824+05:30"},{"city":"Aizawl","state":"Mizoram","latitude":23.7271,"longitude":92.7176,"temp":24.6,"humidity":48,"rain":0.0,"pressure":894.2,"uv_index":7.15,"wind_gusts":72.4,"aqi":154,"pm10":64.7,"pm2_5":52.9,"mosquito_risk":0,"arthritis_risk":5,"migraine_risk":7,"frizz_risk":0,"updated_at":"2026-03-13T12:29:08.159831+05:30"},{"city":"Kohima","state":"Nagaland","latitude":25.6701,"longitude":94.1077,"temp":18.6,"humidity":77,"rain":0.0,"pressure":855.1,"uv_index":6.25,"wind_gusts":81.4,"aqi":136,"pm10":57.3,"pm2_5":47.5,"mosquito_risk":3,"arthritis_risk":5,"migraine_risk":7,"frizz_risk":0,"updated_at":"2026-03-13T12:29:08.159837+05:30"},{"city":"Gangtok","state":"Sikkim","latitude":27.3314,"longitude":88.6138,"temp":17.4,"humidity":81,"rain":0.0,"pressure":837.8,"uv_index":4.55,"wind_gusts":17.3,"aqi":113,"pm10":30.4,"pm2_5":27.2,"mosquito_risk":3,"arthritis_risk":10,"migraine_risk":3,"frizz_risk":0,"updated_at":"2026-03-13T12:29:08.159843+05:30"},{"city":"Siliguri","state":"West Bengal","latitude":26.7271,"longitude":88.3953,"temp":22.4,"humidity":80,"rain":0.0,"pressure":995.0,"uv_index":7.3,"wind_gusts":30.6,"aqi":160,"pm10":62.2,"pm2_5":56.3,"mosquito_risk":3,"arthritis_risk":5,"migraine_risk":7,"frizz_risk":1,"updated_at":"2026-03-13T12:29:11.463480+05:30"},{"city":"Durgapur","state":"West Bengal","latitude":23.5204,"longitude":87.3119,"temp":35.3,"humidity":34,"rain":0.0,"pressure":995.1,"uv_index":7.95,"wind_gusts":29.2,"aqi":177,"pm10":119.7,"pm2_5":88.2,"mosquito_risk":0,"arthritis_risk":5,"migraine_risk":10,"frizz_risk":1,"updated_at":"2026-03-13T12:29:11.463512+05:30"},{"city":"Asansol","state":"West Bengal","latitude":23.6739,"longitude":86.9524,"temp":35.2,"humidity":28,"rain":0.0,"pressure":993.8,"uv_index":7.95,"wind_gusts":27.0,"aqi":176,"pm10":122.9,"pm2_5":82.0,"mosquito_risk":0,"arthritis_risk":5,"migraine_risk":10,"frizz_risk":0,"updated_at":"2026-03-13T12:29:11.463523+05:30"},{"city":"Pondicherry","state":"Puducherry","latitude":11.9139,"longitude":79.8145,"temp":33.3,"humidity":54,"rain":0.0,"pressure":1009.9,"uv_index":9.0,"wind_gusts":27.7,"aqi":66,"pm10":18.7,"pm2_5":13.4,"mosquito_risk":0,"arthritis_risk":0,"migraine_risk":4,"frizz_risk":1,"updated_at":"2026-03-13T12:29:11.463530+05:30"},{"city":"Port Blair","state":"Andaman and Nicobar Islands","latitude":11.6234,"longitude":92.7265,"temp":28.9,"humidity":70,"rain":0.0,"pressure":1007.8,"uv_index":8.95,"wind_gusts":23.4,"aqi":60,"pm10":12.8,"pm2_5":10.2,"mosquito_risk":7,"arthritis_risk":5,"migraine_risk":4,"frizz_risk":1,"updated_at":"2026-03-13T12:29:11.463538+05:30"},{"city":"Haridwar","state":"Uttarakhand","latitude":29.9457,"longitude":78.1642,"temp":30.2,"humidity":38,"rain":0.0,"pressure":975.8,"uv_index":5.45,"wind_gusts":28.4,"aqi":95,"pm10":46.6,"pm2_5":21.1,"mosquito_risk":0,"arthritis_risk":5,"migraine_risk":3,"frizz_risk":0,"updated_at":"2026-03-13T12:29:11.463545+05:30"},{"city":"Rishikesh","state":"Uttarakhand","latitude":30.0869,"longitude":78.2676,"temp":30.5,"humidity":33,"rain":0.0,"pressure":968.3,"uv_index":5.7,"wind_gusts":28.4,"aqi":70,"pm10":45.1,"pm2_5":15.9,"mosquito_risk":0,"arthritis_risk":5,"migraine_risk":3,"frizz_risk":0,"updated_at":"2026-03-13T12:29:11.463553+05:30"},{"city":"Nainital","state":"Uttarakhand","latitude":29.3919,"longitude":79.4542,"temp":23.4,"humidity":48,"rain":0.0,"pressure":809.3,"uv_index":6.7,"wind_gusts":44.3,"aqi":92,"pm10":39.9,"pm2_5":19.6,"mosquito_risk":0,"arthritis_risk":5,"migraine_risk":7,"frizz_risk":0,"updated_at":"2026-03-13T12:29:11.463561+05:30"},{"city":"Mussoorie","state":"Uttarakhand","latitude":30.4599,"longitude":78.0664,"temp":22.8,"humidity":34,"rain":0.0,"pressure":806.1,"uv_index":5.45,"wind_gusts":30.2,"aqi":72,"pm10":47.0,"pm2_5":14.8,"mosquito_risk":0,"arthritis_risk":5,"migraine_risk":3,"frizz_risk":0,"updated_at":"2026-03-13T12:29:11.463569+05:30"},{"city":"Dharamshala","state":"Himachal Pradesh","latitude":32.219,"longitude":76.3234,"temp":24.4,"humidity":34,"rain":0.0,"pressure":871.7,"uv_index":6.0,"wind_gusts":26.6,"aqi":47,"pm10":23.3,"pm2_5":7.1,"mosquito_risk":0,"arthritis_risk":5,"migraine_risk":3,"frizz_risk":0,"updated_at":"2026-03-13T12:29:11.463576+05:30"},{"city":"Dalhousie","state":"Himachal Pradesh","latitude":32.5387,"longitude":75.971,"temp":22.3,"humidity":24,"rain":0.0,"pressure":807.0,"uv_index":6.45,"wind_gusts":31.0,"aqi":75,"pm10":39.7,"pm2_5":16.2,"mosquito_risk":0,"arthritis_risk":5,"migraine_risk":7,"frizz_risk":0,"updated_at":"2026-03-13T12:29:11.463584+05:30"},{"city":"Patiala","state":"Punjab","latitude":30.3398,"longitude":76.3869,"temp":28.4,"humidity":43,"rain":0.0,"pressure":980.6,"uv_index":5.2,"wind_gusts":29.2,"aqi":217,"pm10":426.5,"pm2_5":66.4,"mosquito_risk":4,"arthritis_risk":5,"migraine_risk":3,"frizz_risk":0,"updated_at":"2026-03-13T12:29:11.463590+05:30"},{"city":"Bhatinda","state":"Punjab","latitude":30.211,"longitude":74.9455,"temp":28.3,"humidity":46,"rain":0.0,"pressure":987.1,"uv_index":6.05,"wind_gusts":27.7,"aqi":137,"pm10":54.6,"pm2_5":30.4,"mosquito_risk":4,"arthritis_risk":5,"migraine_risk":7,"frizz_risk":0,"updated_at":"2026-03-13T12:29:11.463597+05:30"},{"city":"Rohtak","state":"Haryana","latitude":28.8955,"longitude":76.6066,"temp":29.4,"humidity":40,"rain":0.0,"pressure":984.4,"uv_index":5.35,"wind_gusts":24.8,"aqi":541,"pm10":412.6,"pm2_5":79.9,"mosquito_risk":4,"arthritis_risk":5,"migraine_risk":3,"frizz_risk":0,"updated_at":"2026-03-13T12:29:11.463604+05:30"},{"city":"Panipat","state":"Haryana","latitude":29.3909,"longitude":76.9635,"temp":29.2,"humidity":46,"rain":0.0,"pressure":982.7,"uv_index":5.15,"wind_gusts":25.9,"aqi":896,"pm10":700.4,"pm2_5":101.5,"mosquito_risk":4,"arthritis_risk":5,"migraine_risk":3,"frizz_risk":1,"updated_at":"2026-03-13T12:29:11.463611+05:30"},{"city":"Mathura","state":"Uttar Pradesh","latitude":27.4924,"longitude":77.6737,"temp":32.5,"humidity":33,"rain":0.0,"pressure":989.2,"uv_index":5.8,"wind_gusts":26.3,"aqi":626,"pm10":825.2,"pm2_5":130.4,"mosquito_risk":0,"arthritis_risk":5,"migraine_risk":3,"frizz_risk":0,"updated_at":"2026-03-13T12:29:11.463617+05:30"},{"city":"Vrindavan","state":"Uttar Pradesh","latitude":27.5823,"longitude":77.7027,"temp":32.9,"humidity":27,"rain":0.0,"pressure":989.5,"uv_index":5.85,"wind_gusts":29.2,"aqi":626,"pm10":825.2,"pm2_5":130.4,"mosquito_risk":0,"arthritis_risk":5,"migraine_risk":3,"frizz_risk":0,"updated_at":"2026-03-13T12:29:11.463624+05:30"},{"city":"Ayodhya","state":"Uttar Pradesh","latitude":26.7922,"longitude":82.1998,"temp":31.5,"humidity":49,"rain":0.0,"pressure":996.3,"uv_index":6.4,"wind_gusts":28.8,"aqi":159,"pm10":235.2,"pm2_5":112.9,"mosquito_risk":0,"arthritis_risk":5,"migraine_risk":7,"frizz_risk":1,"updated_at":"2026-03-13T12:29:11.463631+05:30"},{"city":"Ratlam","state":"Madhya Pradesh","latitude":23.3315,"longitude":75.0367,"temp":34.2,"humidity":18,"rain":0.0,"pressure":957.1,"uv_index":7.6,"wind_gusts":29.2,"aqi":51,"pm10":20.1,"pm2_5":9.4,"mosquito_risk":0,"arthritis_risk":5,"migraine_risk":7,"frizz_risk":0,"updated_at":"2026-03-13T12:29:11.463637+05:30"},{"city":"Sagar","state":"Madhya Pradesh","latitude":23.8388,"longitude":78.7378,"temp":35.5,"humidity":18,"rain":0.0,"pressure":952.4,"uv_index":7.5,"wind_gusts":28.1,"aqi":58,"pm10":14.4,"pm2_5":11.8,"mosquito_risk":0,"arthritis_risk":5,"migraine_risk":10,"frizz_risk":0,"updated_at":"2026-03-13T12:29:11.463644+05:30"},{"city":"Satna","state":"Madhya Pradesh","latitude":24.6005,"longitude":80.8322,"temp":36.5,"humidity":14,"rain":0.0,"pressure":972.8,"uv_index":7.15,"wind_gusts":29.9,"aqi":65,"pm10":125.7,"pm2_5":23.9,"mosquito_risk":0,"arthritis_risk":5,"migraine_risk":10,"frizz_risk":0,"updated_at":"2026-03-13T12:29:11.463651+05:30"},{"city":"Akola","state":"Maharashtra","latitude":20.7002,"longitude":77.0082,"temp":38.0,"humidity":19,"rain":0.0,"pressure":976.4,"uv_index":8.05,"wind_gusts":20.2,"aqi":80,"pm10":21.9,"pm2_5":17.2,"mosquito_risk":0,"arthritis_risk":5,"migraine_risk":10,"frizz_risk":0,"updated_at":"2026-03-13T12:29:11.463658+05:30"},{"city":"Amravati","state":"Maharashtra","latitude":20.9374,"longitude":77.7796,"temp":37.7,"humidity":17,"rain":0.0,"pressure":969.0,"uv_index":8.0,"wind_gusts":14.0,"aqi":87,"pm10":24.3,"pm2_5":17.5,"mosquito_risk":0,"arthritis_risk":5,"migraine_risk":10,"frizz_risk":0,"updated_at":"2026-03-13T12:29:11.463665+05:30"},{"city":"Latur","state":"Maharashtra","latitude":18.4088,"longitude":76.5604,"temp":33.6,"humidity":30,"rain":0.0,"pressure":941.7,"uv_index":8.5,"wind_gusts":21.2,"aqi":96,"pm10":43.3,"pm2_5":33.3,"mosquito_risk":0,"arthritis_risk":5,"migraine_risk":7,"frizz_risk":0,"updated_at":"2026-03-13T12:29:11.463672+05:30"},{"city":"Nanded","state":"Maharashtra","latitude":19.1383,"longitude":77.3091,"temp":37.0,"humidity":24,"rain":0.0,"pressure":970.2,"uv_index":8.3,"wind_gusts":20.9,"aqi":109,"pm10":26.1,"pm2_5":23.2,"mosquito_risk":0,"arthritis_risk":5,"migraine_risk":10,"frizz_risk":0,"updated_at":"2026-03-13T12:29:11.463678+05:30"},{"city":"Gulbarga","state":"Karnataka","latitude":17.3297,"longitude":76.8343,"temp":36.1,"humidity":24,"rain":0.0,"pressure":960.2,"uv_index":8.6,"wind_gusts":32.0,"aqi":90,"pm10":42.6,"pm2_5":34.7,"mosquito_risk":0,"arthritis_risk":5,"migraine_risk":10,"frizz_risk":0,"updated_at":"2026-03-13T12:29:11.463684+05:30"},{"city":"Bidar","state":"Karnataka","latitude":17.9104,"longitude":77.5199,"temp":34.4,"humidity":26,"rain":0.0,"pressure":937.5,"uv_index":8.55,"wind_gusts":26.6,"aqi":102,"pm10":33.6,"pm2_5":26.1,"mosquito_risk":0,"arthritis_risk":5,"migraine_risk":7,"frizz_risk":0,"updated_at":"2026-03-13T12:29:11.463690+05:30"},{"city":"Hospet","state":"Karnataka","latitude":15.2689,"longitude":76.3909,"temp":33.0,"humidity":37,"rain":0.0,"pressure":957.4,"uv_index":8.9,"wind_gusts":24.1,"aqi":86,"pm10":39.9,"pm2_5":32.6,"mosquito_risk":0,"arthritis_risk":5,"migraine_risk":7,"frizz_risk":1,"updated_at":"2026-03-13T12:29:11.463696+05:30"},{"city":"Tirupur","state":"Tamil Nadu","latitude":11.1085,"longitude":77.3411,"temp":33.1,"humidity":44,"rain":0.0,"pressure":976.8,"uv_index":9.25,"wind_gusts":29.9,"aqi":88,"pm10":32.8,"pm2_5":28.4,"mosquito_risk":0,"arthritis_risk":5,"migraine_risk":7,"frizz_risk":1,"updated_at":"2026-03-13T12:29:11.463703+05:30"},{"city":"Alappuzha","state":"Kerala","latitude":9.4981,"longitude":76.3388,"temp":28.3,"humidity":80,"rain":0.0,"pressure":1009.3,"uv_index":9.1,"wind_gusts":27.7,"aqi":91,"pm10":30.7,"pm2_5":28.9,"mosquito_risk":7,"arthritis_risk":0,"migraine_risk":4,"frizz_risk":1,"updated_at":"2026-03-13T12:29:11.463710+05:30"},{"city":"Munnar","state":"Kerala","latitude":10.0889,"longitude":77.0595,"temp":30.8,"humidity":27,"rain":0.0,"pressure":860.0,"uv_index":9.55,"wind_gusts":24.1,"aqi":72,"pm10":17.5,"pm2_5":14.2,"mosquito_risk":0,"arthritis_risk":5,"migraine_risk":7,"frizz_risk":0,"updated_at":"2026-03-13T12:29:11.463718+05:30"},{"city":"Silchar","state":"Assam","latitude":24.8333,"longitude":92.7789,"temp":27.0,"humidity":73,"rain":0.0,"pressure":1006.2,"uv_index":7.75,"wind_gusts":36.4,"aqi":165,"pm10":98.0,"pm2_5":80.8,"mosquito_risk":7,"arthritis_risk":5,"migraine_risk":4,"frizz_risk":1,"updated_at":"2026-03-13T12:29:11.463724+05:30"},{"city":"Dibrugarh","state":"Assam","latitude":27.4728,"longitude":94.912,"temp":23.4,"humidity":82,"rain":0.0,"pressure":996.8,"uv_index":5.5,"wind_gusts":24.8,"aqi":138,"pm10":64.5,"pm2_5":57.5,"mosquito_risk":3,"arthritis_risk":5,"migraine_risk":3,"frizz_risk":1,"updated_at":"2026-03-13T12:29:11.463731+05:30"}]