[{"city":"Delhi","state":"Delhi","latitude":28.6139,"longitude":77.209,"temp":34.6,"humidity":25,"rain":0.0,"pressure":986.7,"uv_index":6.15,"wind_gusts":23.8,"aqi":175,"pm10":273.8,"pm2_5":50.1,"mosquito_risk":0,"arthritis_risk":5,"migraine_risk":7,"frizz_risk":0,"updated_at":"2026-03-11T14:18:25.100939+05:30"},{"city":"Mumbai","state":"Maharashtra","latitude":19.076,"longitude":72.8777,"temp":27.3,"humidity":92,"rain":0.0,"pressure":1010.6,"uv_index":7.6,"wind_gusts":19.4,"aqi":153,"pm10":89.6,"pm2_5":82.4,"mosquito_risk":7,"arthritis_risk":0,"migraine_risk":4,"frizz_risk":1,"updated_at":"2026-03-11T14:18:25.100976+05:30"},{"city":"Bangalore","state":"Karnataka","latitude":12.9716,"longitude":77.5946,"temp":31.1,"humidity":24,"rain":0.0,"pressure":914.4,"uv_index":9.25,"wind_gusts":27.7,"aqi":67,"pm10":11.8,"pm2_5":10.3,"mosquito_risk":0,"arthritis_risk":5,"migraine_risk":7,"frizz_risk":0,"updated_at":"2026-03-11T14:18:25.100991+05:30"},{"city":"Hyderabad","state":"Telangana","latitude":17.385,"longitude":78.4867,"temp":35.3,"humidity":18,"rain":0.0,"pressure":956.7,"uv_index":8.6,"wind_gusts":22.0,"aqi":91,"pm10":32.8,"pm2_5":23.8,"mosquito_risk":0,"arthritis_risk":5,"migraine_risk":10,"frizz_risk":0,"updated_at":"2026-03-11T14:18:25.101000+05:30"},{"city":"Chennai","state":"Tamil Nadu","latitude":13.0827,"longitude":80.2707,"temp":32.3,"humidity":48,"rain":0.0,"pressure":1010.2,"uv_index":9.0,"wind_gusts":30.6,"aqi":67,"pm10":20.7,"pm2_5":16.8,"mosquito_risk":0,"arthritis_risk":0,"migraine_risk":4,"frizz_risk":1,"updated_at":"2026-03-11T14:18:25.101009+05:30"},{"city":"Kolkata","state":"West Bengal","latitude":22.5726,"longitude":88.3639,"temp":29.3,"humidity":66,"rain":0.0,"pressure":1008.5,"uv_index":6.85,"wind_gusts":21.6,"aqi":147,"pm10":65.0,"pm2_5":54.6,"mosquito_risk":7,"arthritis_risk":0,"migraine_risk":4,"frizz_risk":1,"updated_at":"2026-03-11T14:18:25.101018+05:30"},{"city":"Pune","state":"Maharashtra","latitude":18.5204,"longitude":73.8567,"temp":37.5,"humidity":20,"rain":0.0,"pressure":951.3,"uv_index":8.15,"wind_gusts":30.2,"aqi":121,"pm10":29.9,"pm2_5":24.2,"mosquito_risk":0,"arthritis_risk":5,"migraine_risk":10,"frizz_risk":0,"updated_at":"2026-03-11T14:18:25.101031+05:30"},{"city":"Ahmedabad","state":"Gujarat","latitude":23.0225,"longitude":72.5714,"temp":40.0,"humidity":14,"rain":0.0,"pressure":1005.0,"uv_index":7.4,"wind_gusts":26.3,"aqi":70,"pm10":17.6,"pm2_5":15.4,"mosquito_risk":0,"arthritis_risk":5,"migraine_risk":7,"frizz_risk":0,"updated_at":"2026-03-11T14:18:25.101038+05:30"},{"city":"Jaipur","state":"Rajasthan","latitude":26.9124,"longitude":75.7873,"temp":36.8,"humidity":10,"rain":0.0,"pressure":964.2,"uv_index":6.8,"wind_gusts":38.5,"aqi":98,"pm10":188.1,"pm2_5":31.8,"mosquito_risk":0,"arthritis_risk":5,"migraine_risk":10,"frizz_risk":0,"updated_at":"2026-03-11T14:18:25.101046+05:30"},{"city":"Lucknow","state":"Uttar Pradesh","latitude":26.8467,"longitude":80.9462,"temp":33.6,"humidity":38,"rain":0.0,"pressure":996.6,"uv_index":6.6,"wind_gusts":31.0,"aqi":191,"pm10":133.2,"pm2_5":56.9,"mosquito_risk":0,"arthritis_risk":5,"migraine_risk":7,"frizz_risk":1,"updated_at":"2026-03-11T14:18:25.101054+05:30"},{"city":"Kanpur","state":"Uttar Pradesh","latitude":26.4499,"longitude":80.3319,"temp":33.7,"humidity":40,"rain":0.0,"pressure":995.2,"uv_index":6.65,"wind_gusts":24.1,"aqi":177,"pm10":249.6,"pm2_5":61.0,"mosquito_risk":0,"arthritis_risk":5,"migraine_risk":7,"frizz_risk":1,"updated_at":"2026-03-11T14:18:25.101061+05:30"},{"city":"Chandigarh","state":"Chandigarh","latitude":30.7333,"longitude":76.7794,"temp":32.0,"humidity":38,"rain":0.0,"pressure":972.8,"uv_index":5.35,"wind_gusts":24.5,"aqi":152,"pm10":46.1,"pm2_5":28.5,"mosquito_risk":0,"arthritis_risk":5,"migraine_risk":3,"frizz_risk":0,"updated_at":"2026-03-11T14:18:25.101068+05:30"},{"city":"Srinagar","state":"Jammu and Kashmir","latitude":34.0837,"longitude":74.7973,"temp":9.9,"humidity":93,"rain":0.7,"pressure":846.7,"uv_index":4.1,"wind_gusts":28.1,"aqi":126,"pm10":29.1,"pm2_5":18.4,"mosquito_risk":6,"arthritis_risk":10,"migraine_risk":3,"frizz_risk":0,"updated_at":"2026-03-11T14:18:25.101076+05:30"},{"city":"Jammu","state":"Jammu and Kashmir","latitude":32.7266,"longitude":74.857,"temp":25.8,"humidity":57,"rain":0.0,"pressure":978.3,"uv_index":5.6,"wind_gusts":43.6,"aqi":113,"pm10":40.6,"pm2_5":20.7,"mosquito_risk":4,"arthritis_risk":5,"migraine_risk":3,"frizz_risk":1,"updated_at":"2026-03-11T14:18:25.101083+05:30"},{"city":"Amritsar","state":"Punjab","latitude":31.634,"longitude":74.8723,"temp":30.3,"humidity":54,"rain":0.0,"pressure":985.3,"uv_index":6.45,"wind_gusts":28.1,"aqi":158,"pm10":83.8,"pm2_5":48.2,"mosquito_risk":0,"arthritis_risk":5,"migraine_risk":7,"frizz_risk":1,"updated_at":"2026-03-11T14:18:25.101090+05:30"},{"city":"Ludhiana","state":"Punjab","latitude":30.901,"longitude":75.8573,"temp":32.7,"humidity":34,"rain":0.0,"pressure":982.7,"uv_index":6.3,"wind_gusts":15.5,"aqi":176,"pm10":87.1,"pm2_5":59.4,"mosquito_risk":0,"arthritis_risk":5,"migraine_risk":7,"frizz_risk":0,"updated_at":"2026-03-11T14:18:25.101096+05:30"},{"city":"Jalandhar","state":"Punjab","latitude":31.326,"longitude":75.5762,"temp":32.3,"humidity":38,"rain":0.0,"pressure":984.0,"uv_index":6.5,"wind_gusts":18.4,"aqi":168,"pm10":76.8,"pm2_5":43.4,"mosquito_risk":0,"arthritis_risk":5,"migraine_risk":7,"frizz_risk":1,"updated_at":"2026-03-11T14:18:25.101105+05:30"},{"city":"Dehradun","state":"Uttarakhand","latitude":30.6284,"longitude":78.0322,"temp":22.9,"humidity":53,"rain":0.0,"pressure":835.7,"uv_index":5.9,"wind_gusts":28.8,"aqi":84,"pm10":22.5,"pm2_5":14.2,"mosquito_risk":0,"arthritis_risk":5,"migraine_risk":3,"frizz_risk":0,"updated_at":"2026-03-11T14:18:25.101111+05:30"},{"city":"Shimla","state":"Himachal Pradesh","latitude":31.1048,"longitude":77.1734,"temp":20.4,"humidity":44,"rain":0.0,"pressure":790.8,"uv_index":5.85,"wind_gusts":45.0,"aqi":112,"pm10":18.7,"pm2_5":13.0,"mosquito_risk":0,"arthritis_risk":5,"migraine_risk":3,"frizz_risk":0,"updated_at":"2026-03-11T14:18:25.101133+05:30"},{"city":"Manali","state":"Himachal Pradesh","latitude":32.2396,"longitude":77.1887,"temp":19.5,"humidity":31,"rain":0.0,"pressure":825.9,"uv_index":6.7,"wind_gusts":42.5,"aqi":55,"pm10":25.4,"pm2_5":10.4,"mosquito_risk":0,"arthritis_risk":5,"migraine_risk":7,"frizz_risk":0,"updated_at":"2026-03-11T14:18:25.101142+05:30"},{"city":"Gurgaon","state":"Haryana","latitude":28.4595,"longitude":77.0266,"temp":34.9,"humidity":27,"rain":0.0,"pressure":985.2,"uv_index":6.15,"wind_gusts":23.4,"aqi":349,"pm10":994.7,"pm2_5":106.2,"mosquito_risk":0,"arthritis_risk":5,"migraine_risk":7,"frizz_risk":0,"updated_at":"2026-03-11T14:18:25.101149+05:30"},{"city":"Noida","state":"Uttar Pradesh","latitude":28.5355,"longitude":77.391,"temp":35.2,"humidity":24,"rain":0.0,"pressure":988.2,"uv_index":6.15,"wind_gusts":23.8,"aqi":349,"pm10":994.7,"pm2_5":106.2,"mosquito_risk":0,"arthritis_risk":5,"migraine_risk":10,"frizz_risk":0,"updated_at":"2026-03-11T14:18:25.101155+05:30"},{"city":"Ghaziabad","state":"Uttar Pradesh","latitude":28.6692,"longitude":77.4538,"temp":34.2,"humidity":27,"rain":0.0,"pressure":986.5,"uv_index":6.1,"wind_gusts":23.0,"aqi":170,"pm10":209.1,"pm2_5":55.1,"mosquito_risk":0,"arthritis_risk":5,"migraine_risk":7,"frizz_risk":0,"updated_at":"2026-03-11T14:18:25.101162+05:30"},{"city":"Faridabad","state":"Haryana","latitude":28.4089,"longitude":77.3178,"temp":34.9,"humidity":28,"rain":0.0,"pressure":987.5,"uv_index":6.15,"wind_gusts":22.0,"aqi":349,"pm10":994.7,"pm2_5":106.2,"mosquito_risk":0,"arthritis_risk":5,"migraine_risk":7,"frizz_risk":0,"updated_at":"2026-03-11T14:18:25.101169+05:30"},{"city":"Meerut","state":"Uttar Pradesh","latitude":28.9845,"longitude":77.7064,"temp":33.8,"humidity":30,"rain":0.0,"pressure":985.2,"uv_index":5.5,"wind_gusts":28.4,"aqi":170,"pm10":209.1,"pm2_5":55.1,"mosquito_risk":0,"arthritis_risk":5,"migraine_risk":3,"frizz_risk":0,"updated_at":"2026-03-11T14:18:25.101176+05:30"},{"city":"Agra","state":"Uttar Pradesh","latitude":27.1767,"longitude":78.0081,"temp":37.6,"humidity":21,"rain":0.0,"pressure":991.0,"uv_index":6.5,"wind_gusts":19.4,"aqi":242,"pm10":536.4,"pm2_5":64.5,"mosquito_risk":0,"arthritis_risk":5,"migraine_risk":10,"frizz_risk":0,"updated_at":"2026-03-11T14:18:25.101183+05:30"},{"city":"Varanasi","state":"Uttar Pradesh","latitude":25.3176,"longitude":82.9739,"temp":32.5,"humidity":46,"rain":0.0,"pressure":1000.5,"uv_index":7.3,"wind_gusts":23.0,"aqi":192,"pm10":148.5,"pm2_5":100.4,"mosquito_risk":0,"arthritis_risk":5,"migraine_risk":4,"frizz_risk":1,"updated_at":"2026-03-11T14:18:25.101195+05:30"},{"city":"Prayagraj","state":"Uttar Pradesh","latitude":25.4358,"longitude":81.8463,"temp":33.0,"humidity":38,"rain":0.0,"pressure":999.5,"uv_index":7.15,"wind_gusts":23.0,"aqi":191,"pm10":137.8,"pm2_5":87.8,"mosquito_risk":0,"arthritis_risk":5,"migraine_risk":7,"frizz_risk":1,"updated_at":"2026-03-11T14:18:25.101202+05:30"},{"city":"Gorakhpur","state":"Uttar Pradesh","latitude":26.7606,"longitude":83.3732,"temp":30.3,"humidity":64,"rain":0.0,"pressure":1000.1,"uv_index":7.0,"wind_gusts":25.9,"aqi":211,"pm10":151.8,"pm2_5":128.1,"mosquito_risk":3,"arthritis_risk":5,"migraine_risk":4,"frizz_risk":1,"updated_at":"2026-03-11T14:18:25.101209+05:30"},{"city":"Bareilly","state":"Uttar Pradesh","latitude":28.367,"longitude":79.4304,"temp":33.2,"humidity":36,"rain":0.0,"pressure":990.0,"uv_index":6.35,"wind_gusts":32.4,"aqi":207,"pm10":113.2,"pm2_5":80.8,"mosquito_risk":0,"arthritis_risk":5,"migraine_risk":7,"frizz_risk":1,"updated_at":"2026-03-11T14:18:25.101215+05:30"},{"city":"Aligarh","state":"Uttar Pradesh","latitude":27.8974,"longitude":78.088,"temp":35.9,"humidity":25,"rain":0.0,"pressure":989.0,"uv_index":6.25,"wind_gusts":23.8,"aqi":175,"pm10":446.1,"pm2_5":69.2,"mosquito_risk":0,"arthritis_risk":5,"migraine_risk":10,"frizz_risk":0,"updated_at":"2026-03-11T14:18:25.101221+05:30"},{"city":"Moradabad","state":"Uttar Pradesh","latitude":28.8386,"longitude":78.7733,"temp":33.6,"humidity":32,"rain":0.0,"pressure":986.9,"uv_index":6.15,"wind_gusts":34.9,"aqi":197,"pm10":112.2,"pm2_5":79.6,"mosquito_risk":0,"arthritis_risk":5,"migraine_risk":7,"frizz_risk":0,"updated_at":"2026-03-11T14:18:25.101229+05:30"},{"city":"Saharanpur","state":"Uttar Pradesh","latitude":29.9637,"longitude":77.546,"temp":32.7,"humidity":33,"rain":0.0,"pressure":979.3,"uv_index":5.4,"wind_gusts":37.1,"aqi":171,"pm10":64.0,"pm2_5":46.6,"mosquito_risk":0,"arthritis_risk":5,"migraine_risk":3,"frizz_risk":0,"updated_at":"2026-03-11T14:18:25.101235+05:30"},{"city":"Jhansi","state":"Uttar Pradesh","latitude":25.4484,"longitude":78.5685,"temp":37.9,"humidity":14,"rain":0.0,"pressure":981.5,"uv_index":7.1,"wind_gusts":27.4,"aqi":95,"pm10":55.6,"pm2_5":15.0,"mosquito_risk":0,"arthritis_risk":5,"migraine_risk":10,"frizz_risk":0,"updated_at":"2026-03-11T14:18:28.317287+05:30"},{"city":"Surat","state":"Gujarat","latitude":21.1702,"longitude":72.8311,"temp":39.5,"humidity":17,"rain":0.0,"pressure":1008.5,"uv_index":7.3,"wind_gusts":25.9,"aqi":113,"pm10":44.7,"pm2_5":40.2,"mosquito_risk":0,"arthritis_risk":0,"migraine_risk":7,"frizz_risk":0,"updated_at":"2026-03-11T14:18:28.317320+05:30"},{"city":"Vadodara","state":"Gujarat","latitude":22.3072,"longitude":73.1812,"temp":41.7,"humidity":13,"rain":0.0,"pressure":1006.6,"uv_index":7.45,"wind_gusts":20.2,"aqi":71,"pm10":23.7,"pm2_5":13.1,"mosquito_risk":0,"arthritis_risk":5,"migraine_risk":7,"frizz_risk":0,"updated_at":"2026-03-11T14:18:28.317332+05:30"},{"city":"Rajkot","state":"Gujarat","latitude":22.3039,"longitude":70.8022,"temp":37.9,"humidity":18,"rain":0.0,"pressure":998.0,"uv_index":7.25,"wind_gusts":29.9,"aqi":70,"pm10":19.0,"pm2_5":17.3,"mosquito_risk":0,"arthritis_risk":5,"migraine_risk":10,"frizz_risk":0,"updated_at":"2026-03-11T14:18:28.317341+05:30"},{"city":"Thane","state":"Maharashtra","latitude":19.2183,"longitude":72.9781,"temp":33.4,"humidity":49,"rain":0.0,"pressure":1010.3,"uv_index":7.6,"wind_gusts":36.7,"aqi":153,"pm10":89.6,"pm2_5":82.4,"mosquito_risk":0,"arthritis_risk":0,"migraine_risk":4,"frizz_risk":1,"updated_at":"2026-03-11T14:18:28.317350+05:30"},{"city":"Nagpur","state":"Maharashtra","latitude":21.1458,"longitude":79.0882,"temp":37.1,"humidity":20,"rain":0.0,"pressure":976.2,"uv_index":8.0,"wind_gusts":11.9,"aqi":83,"pm10":48.9,"pm2_5":23.1,"mosquito_risk":0,"arthritis_risk":5,"migraine_risk":10,"frizz_risk":0,"updated_at":"2026-03-11T14:18:28.317358+05:30"},{"city":"Nashik","state":"Maharashtra","latitude":19.9975,"longitude":73.7898,"temp":36.7,"humidity":17,"rain":0.0,"pressure":949.0,"uv_index":7.75,"wind_gusts":25.6,"aqi":76,"pm10":30.5,"pm2_5":24.7,"mosquito_risk":0,"arthritis_risk":5,"migraine_risk":10,"frizz_risk":0,"updated_at":"2026-03-11T14:18:28.317366+05:30"},{"city":"Aurangabad","state":"Maharashtra","latitude":19.8762,"longitude":75.3433,"temp":35.7,"humidity":22,"rain":0.0,"pressure":947.4,"uv_index":8.3,"wind_gusts":18.4,"aqi":98,"pm10":36.0,"pm2_5":28.3,"mosquito_risk":0,"arthritis_risk":5,"migraine_risk":10,"frizz_risk":0,"updated_at":"2026-03-11T14:18:28.317375+05:30"},{"city":"Solapur","state":"Maharashtra","latitude":17.6599,"longitude":75.9064,"temp":34.8,"humidity":27,"rain":0.0,"pressure":960.3,"uv_index":8.5,"wind_gusts":20.5,"aqi":120,"pm10":34.8,"pm2_5":27.6,"mosquito_risk":0,"arthritis_risk":5,"migraine_risk":7,"frizz_risk":0,"updated_at":"2026-03-11T14:18:28.317383+05:30"},{"city":"Kolhapur","state":"Maharashtra","latitude":16.705,"longitude":74.2433,"temp":34.5,"humidity":27,"rain":0.0,"pressure":950.8,"uv_index":8.65,"wind_gusts":30.2,"aqi":152,"pm10":39.1,"pm2_5":31.9,"mosquito_risk":0,"arthritis_risk":5,"migraine_risk":7,"frizz_risk":0,"updated_at":"2026-03-11T14:18:28.317390+05:30"},{"city":"Goa","state":"Goa","latitude":15.2993,"longitude":74.124,"temp":32.2,"humidity":56,"rain":0.0,"pressure":999.7,"uv_index":8.7,"wind_gusts":37.8,"aqi":153,"pm10":55.4,"pm2_5":47.3,"mosquito_risk":0,"arthritis_risk":5,"migraine_risk":7,"frizz_risk":1,"updated_at":"2026-03-11T14:18:28.317398+05:30"},{"city":"Jodhpur","state":"Rajasthan","latitude":26.2389,"longitude":73.0243,"temp":36.7,"humidity":16,"rain":0.0,"pressure":987.6,"uv_index":7.2,"wind_gusts":32.8,"aqi":86,"pm10":56.1,"pm2_5":19.6,"mosquito_risk":0,"arthritis_risk":5,"migraine_risk":10,"frizz_risk":0,"updated_at":"2026-03-11T14:18:28.317405+05:30"},{"city":"Udaipur","state":"Rajasthan","latitude":24.5854,"longitude":73.7125,"temp":36.2,"humidity":14,"rain":0.0,"pressure":951.5,"uv_index":7.8,"wind_gusts":26.3,"aqi":53,"pm10":17.8,"pm2_5":9.8,"mosquito_risk":0,"arthritis_risk":5,"migraine_risk":10,"frizz_risk":0,"updated_at":"2026-03-11T14:18:28.317413+05:30"},{"city":"Kota","state":"Rajasthan","latitude":25.2138,"longitude":75.8648,"temp":38.1,"humidity":15,"rain":0.0,"pressure":983.0,"uv_index":7.2,"wind_gusts":19.1,"aqi":74,"pm10":62.6,"pm2_5":17.6,"mosquito_risk":0,"arthritis_risk":5,"migraine_risk":10,"frizz_risk":0,"updated_at":"2026-03-11T14:18:28.317420+05:30"},{"city":"Bikaner","state":"Rajasthan","latitude":28.0229,"longitude":73.3119,"temp":35.6,"humidity":13,"rain":0.0,"pressure":986.2,"uv_index":6.2,"wind_gusts":29.9,"aqi":72,"pm10":13.0,"pm2_5":9.3,"mosquito_risk":0,"arthritis_risk":5,"migraine_risk":10,"frizz_risk":0,"updated_at":"2026-03-11T14:18:28.317427+05:30"},{"city":"Ajmer","state":"Rajasthan","latitude":26.4499,"longitude":74.6399,"temp":35.2,"humidity":16,"rain":0.0,"pressure":959.6,"uv_index":7.15,"wind_gusts":31.3,"aqi":84,"pm10":58.0,"pm2_5":18.0,"mosquito_risk":0,"arthritis_risk":5,"migraine_risk":10,"frizz_risk":0,"updated_at":"2026-03-11T14:18:28.317435+05:30"},{"city":"Gwalior","state":"Madhya Pradesh","latitude":26.2183,"longitude":78.1828,"temp":36.5,"humidity":18,"rain":0.0,"pressure":986.9,"uv_index":6.8,"wind_gusts":30.2,"aqi":110,"pm10":48.7,"pm2_5":14.8,"mosquito_risk":0,"arthritis_risk":5,"migraine_risk":10,"frizz_risk":0,"updated_at":"2026-03-11T14:18:28.317442+05:30"},{"city":"Indore","state":"Madhya Pradesh","latitude":22.7196,"longitude":75.8577,"temp":36.5,"humidity":13,"rain":0.0,"pressure":952.6,"uv_index":7.7,"wind_gusts":22.0,"aqi":66,"pm10":26.5,"pm2_5":12.7,"mosquito_risk":0,"arthritis_risk":5,"migraine_risk":10,"frizz_risk":0,"updated_at":"2026-03-11T14:18:28.317449+05:30"},{"city":"Bhopal","state":"Madhya Pradesh","latitude":23.2599,"longitude":77.4126,"temp":36.7,"humidity":18,"rain":0.0,"pressure":958.0,"uv_index":7.55,"wind_gusts":24.8,"aqi":61,"pm10":43.3,"pm2_5":15.5,"mosquito_risk":0,"arthritis_risk":5,"migraine_risk":10,"frizz_risk":0,"updated_at":"2026-03-11T14:18:28.317456+05:30"},{"city":"Jabalpur","state":"Madhya Pradesh","latitude":23.1815,"longitude":79.9864,"temp":35.1,"humidity":25,"rain":0.0,"pressure":965.3,"uv_index":7.7,"wind_gusts":24.8,"aqi":85,"pm10":82.9,"pm2_5":24.6,"mosquito_risk":0,"arthritis_risk":5,"migraine_risk":10,"frizz_risk":0,"updated_at":"2026-03-11T14:18:28.317464+05:30"},{"city":"Ujjain","state":"Madhya Pradesh","latitude":23.1765,"longitude":75.7885,"temp":35.7,"humidity":17,"rain":0.0,"pressure":958.3,"uv_index":7.65,"wind_gusts":15.1,"aqi":76,"pm10":23.5,"pm2_5":10.7,"mosquito_risk":0,"arthritis_risk":5,"migraine_risk":10,"frizz_risk":0,"updated_at":"2026-03-11T14:18:28.317472+05:30"},{"city":"Visakhapatnam","state":"Andhra Pradesh","latitude":17.6868,"longitude":83.2185,"temp":33.3,"humidity":38,"rain":0.0,"pressure":1005.9,"uv_index":8.6,"wind_gusts":38.5,"aqi":101,"pm10":33.3,"pm2_5":28.2,"mosquito_risk":0,"arthritis_risk":5,"migraine_risk":4,"frizz_risk":1,"updated_at":"2026-03-11T14:18:28.317479+05:30"},{"city":"Vijayawada","state":"Andhra Pradesh","latitude":16.5062,"longitude":80.648,"temp":34.6,"humidity":32,"rain":0.0,"pressure":1005.3,"uv_index":8.7,"wind_gusts":16.6,"aqi":92,"pm10":19.2,"pm2_5":16.1,"mosquito_risk":0,"arthritis_risk":5,"migraine_risk":4,"frizz_risk":0,"updated_at":"2026-03-11T14:18:28.317486+05:30"},{"city":"Guntur","state":"Andhra Pradesh","latitude":16.3067,"longitude":80.4365,"temp":34.7,"humidity":33,"rain":0.0,"pressure":1006.5,"uv_index":8.7,"wind_gusts":18.7,"aqi":79,"pm10":16.3,"pm2_5":13.1,"mosquito_risk":0,"arthritis_risk":5,"migraine_risk":4,"frizz_risk":0,"updated_at":"2026-03-11T14:18:28.317494+05:30"},{"city":"Nellore","state":"Andhra Pradesh","latitude":14.4426,"longitude":79.9865,"temp":34.8,"humidity":39,"rain":0.0,"pressure":1008.4,"uv_index":8.9,"wind_gusts":27.4,"aqi":69,"pm10":16.4,"pm2_5":14.1,"mosquito_risk":0,"arthritis_risk":0,"migraine_risk":4,"frizz_risk":1,"updated_at":"2026-03-11T14:18:28.317503+05:30"},{"city":"Kurnool","state":"Andhra Pradesh","latitude":15.8281,"longitude":78.0373,"temp":36.3,"humidity":18,"rain":0.0,"pressure":979.7,"uv_index":8.7,"wind_gusts":23.4,"aqi":67,"pm10":17.3,"pm2_5":13.4,"mosquito_risk":0,"arthritis_risk":5,"migraine_risk":10,"frizz_risk":0,"updated_at":"2026-03-11T14:18:28.317511+05:30"},{"city":"Kakinada","state":"Andhra Pradesh","latitude":16.9891,"longitude":82.2475,"temp":35.9,"humidity":29,"rain":0.0,"pressure":1009.5,"uv_index":8.65,"wind_gusts":20.5,"aqi":91,"pm10":25.0,"pm2_5":21.7,"mosquito_risk":0,"arthritis_risk":0,"migraine_risk":7,"frizz_risk":0,"updated_at":"2026-03-11T14:18:28.317519+05:30"},{"city":"Tirupati","state":"Andhra Pradesh","latitude":13.6288,"longitude":79.4192,"temp":34.0,"humidity":33,"rain":0.0,"pressure":994.0,"uv_index":9.0,"wind_gusts":32.8,"aqi":82,"pm10":15.8,"pm2_5":14.1,"mosquito_risk":0,"arthritis_risk":5,"migraine_risk":7,"frizz_risk":0,"updated_at":"2026-03-11T14:18:28.317527+05:30"},{"city":"Warangal","state":"Telangana","latitude":17.9689,"longitude":79.5941,"temp":34.5,"humidity":26,"rain":0.0,"pressure":982.0,"uv_index":8.45,"wind_gusts":23.4,"aqi":96,"pm10":24.2,"pm2_5":18.0,"mosquito_risk":0,"arthritis_risk":5,"migraine_risk":7,"frizz_risk":0,"updated_at":"2026-03-11T14:18:28.317535+05:30"},{"city":"Nizamabad","state":"Telangana","latitude":18.6725,"longitude":78.0941,"temp":35.8,"humidity":24,"rain":0.0,"pressure":968.0,"uv_index":8.35,"wind_gusts":24.5,"aqi":123,"pm10":49.0,"pm2_5":38.8,"mosquito_risk":0,"arthritis_risk":5,"migraine_risk":10,"frizz_risk":0,"updated_at":"2026-03-11T14:18:28.317542+05:30"},{"city":"Mysore","state":"Karnataka","latitude":12.2958,"longitude":76.6396,"temp":31.8,"humidity":27,"rain":0.0,"pressure":930.6,"uv_index":9.25,"wind_gusts":28.8,"aqi":65,"pm10":13.9,"pm2_5":11.5,"mosquito_risk":0,"arthritis_risk":5,"migraine_risk":7,"frizz_risk":0,"updated_at":"2026-03-11T14:18:28.317550+05:30"},{"city":"Mangalore","state":"Karnataka","latitude":12.9141,"longitude":74.856,"temp":28.5,"humidity":84,"rain":0.0,"pressure":1007.6,"uv_index":8.9,"wind_gusts":27.7,"aqi":113,"pm10":32.2,"pm2_5":28.3,"mosquito_risk":7,"arthritis_risk":5,"migraine_risk":4,"frizz_risk":1,"updated_at":"2026-03-11T14:18:28.317557+05:30"},{"city":"Hubli-Dharwad","state":"Karnataka","latitude":15.3647,"longitude":75.124,"temp":34.9,"humidity":17,"rain":0.0,"pressure":943.4,"uv_index":8.85,"wind_gusts":35.6,"aqi":98,"pm10":24.3,"pm2_5":18.6,"mosquito_risk":0,"arthritis_risk":5,"migraine_risk":7,"frizz_risk":0,"updated_at":"2026-03-11T14:18:28.317565+05:30"},{"city":"Belgaum","state":"Karnataka","latitude":15.8497,"longitude":74.4977,"temp":34.2,"humidity":20,"rain":0.0,"pressure":928.8,"uv_index":8.9,"wind_gusts":40.3,"aqi":120,"pm10":41.4,"pm2_5":32.7,"mosquito_risk":0,"arthritis_risk":5,"migraine_risk":7,"frizz_risk":0,"updated_at":"2026-03-11T14:18:31.535316+05:30"},{"city":"Coimbatore","state":"Tamil Nadu","latitude":11.0168,"longitude":76.9558,"temp":33.0,"humidity":33,"rain":0.0,"pressure":963.5,"uv_index":9.25,"wind_gusts":38.9,"aqi":72,"pm10":17.2,"pm2_5":14.8,"mosquito_risk":0,"arthritis_risk":5,"migraine_risk":7,"frizz_risk":0,"updated_at":"2026-03-11T14:18:31.535345+05:30"},{"city":"Madurai","state":"Tamil Nadu","latitude":9.9252,"longitude":78.1198,"temp":33.1,"humidity":43,"rain":0.0,"pressure":994.5,"uv_index":8.3,"wind_gusts":29.5,"aqi":67,"pm10":18.2,"pm2_5":15.8,"mosquito_risk":0,"arthritis_risk":5,"migraine_risk":7,"frizz_risk":1,"updated_at":"2026-03-11T14:18:31.535355+05:30"},{"city":"Trichy","state":"Tamil Nadu","latitude":10.7905,"longitude":78.7047,"temp":33.9,"humidity":40,"rain":0.0,"pressure":1001.4,"uv_index":9.15,"wind_gusts":28.1,"aqi":67,"pm10":22.4,"pm2_5":20.2,"mosquito_risk":0,"arthritis_risk":5,"migraine_risk":4,"frizz_risk":1,"updated_at":"2026-03-11T14:18:31.535364+05:30"},{"city":"Salem","state":"Tamil Nadu","latitude":11.6643,"longitude":78.146,"temp":33.4,"humidity":37,"rain":0.0,"pressure":979.2,"uv_index":9.15,"wind_gusts":25.2,"aqi":73,"pm10":18.6,"pm2_5":16.2,"mosquito_risk":0,"arthritis_risk":5,"migraine_risk":7,"frizz_risk":1,"updated_at":"2026-03-11T14:18:31.535371+05:30"},{"city":"Tirunelveli","state":"Tamil Nadu","latitude":8.7139,"longitude":77.7567,"temp":32.9,"humidity":48,"rain":0.0,"pressure":1004.9,"uv_index":6.2,"wind_gusts":25.9,"aqi":57,"pm10":11.6,"pm2_5":10.2,"mosquito_risk":0,"arthritis_risk":5,"migraine_risk":4,"frizz_risk":1,"updated_at":"2026-03-11T14:18:31.535379+05:30"},{"city":"Vellore","state":"Tamil Nadu","latitude":12.9165,"longitude":79.1325,"temp":32.7,"humidity":38,"rain":0.0,"pressure":987.1,"uv_index":9.1,"wind_gusts":33.1,"aqi":91,"pm10":19.6,"pm2_5":17.4,"mosquito_risk":0,"arthritis_risk":5,"migraine_risk":7,"frizz_risk":1,"updated_at":"2026-03-11T14:18:31.535385+05:30"},{"city":"Erode","state":"Tamil Nadu","latitude":11.341,"longitude":77.7172,"temp":34.5,"humidity":30,"rain":0.0,"pressure":990.8,"uv_index":9.15,"wind_gusts":20.5,"aqi":77,"pm10":20.8,"pm2_5":18.2,"mosquito_risk":0,"arthritis_risk":5,"migraine_risk":7,"frizz_risk":0,"updated_at":"2026-03-11T14:18:31.535392+05:30"},{"city":"Kochi","state":"Kerala","latitude":9.9312,"longitude":76.2673,"temp":28.5,"humidity":75,"rain":0.0,"pressure":1009.2,"uv_index":8.25,"wind_gusts":40.0,"aqi":122,"pm10":40.7,"pm2_5":34.7,"mosquito_risk":7,"arthritis_risk":0,"migraine_risk":4,"frizz_risk":1,"updated_at":"2026-03-11T14:18:31.535399+05:30"},{"city":"Thiruvananthapuram","state":"Kerala","latitude":8.5241,"longitude":76.9366,"temp":28.7,"humidity":74,"rain":0.0,"pressure":1008.5,"uv_index":7.3,"wind_gusts":29.2,"aqi":69,"pm10":17.2,"pm2_5":15.6,"mosquito_risk":7,"arthritis_risk":0,"migraine_risk":4,"frizz_risk":1,"updated_at":"2026-03-11T14:18:31.535406+05:30"},{"city":"Kozhikode","state":"Kerala","latitude":11.2588,"longitude":75.7804,"temp":29.5,"humidity":71,"rain":0.0,"pressure":1008.8,"uv_index":8.95,"wind_gusts":30.6,"aqi":125,"pm10":47.7,"pm2_5":40.3,"mosquito_risk":7,"arthritis_risk":0,"migraine_risk":4,"frizz_risk":1,"updated_at":"2026-03-11T14:18:31.535412+05:30"},{"city":"Thrissur","state":"Kerala","latitude":10.5276,"longitude":76.2144,"temp":37.2,"humidity":33,"rain":0.0,"pressure":1007.0,"uv_index":9.05,"wind_gusts":38.2,"aqi":92,"pm10":16.4,"pm2_5":14.4,"mosquito_risk":0,"arthritis_risk":5,"migraine_risk":7,"frizz_risk":1,"updated_at":"2026-03-11T14:18:31.535420+05:30"},{"city":"Kannur","state":"Kerala","latitude":11.8745,"longitude":75.3704,"temp":30.1,"humidity":69,"rain":0.0,"pressure":1008.5,"uv_index":8.95,"wind_gusts":36.7,"aqi":138,"pm10":47.3,"pm2_5":40.3,"mosquito_risk":3,"arthritis_risk":0,"migraine_risk":4,"frizz_risk":1,"updated_at":"2026-03-11T14:18:31.535428+05:30"},{"city":"Patna","state":"Bihar","latitude":25.5941,"longitude":85.1376,"temp":31.1,"humidity":56,"rain":0.0,"pressure":1003.0,"uv_index":6.85,"wind_gusts":24.1,"aqi":196,"pm10":147.6,"pm2_5":129.0,"mosquito_risk":0,"arthritis_risk":5,"migraine_risk":4,"frizz_risk":1,"updated_at":"2026-03-11T14:18:31.535434+05:30"},{"city":"Gaya","state":"Bihar","latitude":24.7914,"longitude":85.0002,"temp":30.6,"humidity":62,"rain":0.0,"pressure":996.5,"uv_index":7.5,"wind_gusts":21.2,"aqi":171,"pm10":104.3,"pm2_5":91.5,"mosquito_risk":3,"arthritis_risk":5,"migraine_risk":7,"frizz_risk":1,"updated_at":"2026-03-11T14:18:31.535441+05:30"},{"city":"Muzaffarpur","state":"Bihar","latitude":26.1209,"longitude":85.3647,"temp":31.1,"humidity":55,"rain":0.0,"pressure":1002.9,"uv_index":7.4,"wind_gusts":30.6,"aqi":211,"pm10":154.1,"pm2_5":133.6,"mosquito_risk":0,"arthritis_risk":5,"migraine_risk":4,"frizz_risk":1,"updated_at":"2026-03-11T14:18:31.535447+05:30"},{"city":"Bhagalpur","state":"Bihar","latitude":25.2425,"longitude":87.0117,"temp":30.5,"humidity":57,"rain":0.0,"pressure":1003.5,"uv_index":7.15,"wind_gusts":25.9,"aqi":173,"pm10":87.5,"pm2_5":75.7,"mosquito_risk":0,"arthritis_risk":5,"migraine_risk":4,"frizz_risk":1,"updated_at":"2026-03-11T14:18:31.535453+05:30"},{"city":"Ranchi","state":"Jharkhand","latitude":23.3441,"longitude":85.3096,"temp":31.1,"humidity":38,"rain":0.0,"pressure":940.0,"uv_index":8.15,"wind_gusts":29.9,"aqi":171,"pm10":102.7,"pm2_5":80.3,"mosquito_risk":0,"arthritis_risk":5,"migraine_risk":7,"frizz_risk":0,"updated_at":"2026-03-11T14:18:31.535459+05:30"},{"city":"Jamshedpur","state":"Jharkhand","latitude":22.8046,"longitude":86.2029,"temp":32.4,"humidity":49,"rain":0.0,"pressure":992.3,"uv_index":8.05,"wind_gusts":29.5,"aqi":158,"pm10":100.8,"pm2_5":83.4,"mosquito_risk":0,"arthritis_risk":5,"migraine_risk":7,"frizz_risk":1,"updated_at":"2026-03-11T14:18:31.535466+05:30"},{"city":"Dhanbad","state":"Jharkhand","latitude":23.7957,"longitude":86.4304,"temp":31.3,"humidity":53,"rain":0.0,"pressure":981.7,"uv_index":7.6,"wind_gusts":27.7,"aqi":189,"pm10":109.0,"pm2_5":95.2,"mosquito_risk":0,"arthritis_risk":5,"migraine_risk":7,"frizz_risk":1,"updated_at":"2026-03-11T14:18:31.535472+05:30"},{"city":"Bokaro","state":"Jharkhand","latitude":23.6693,"longitude":86.1511,"temp":31.9,"humidity":49,"rain":0.0,"pressure":985.5,"uv_index":7.75,"wind_gusts":40.7,"aqi":191,"pm10":128.5,"pm2_5":112.7,"mosquito_risk":0,"arthritis_risk":5,"migraine_risk":7,"frizz_risk":1,"updated_at":"2026-03-11T14:18:31.535479+05:30"},{"city":"Bhubaneswar","state":"Odisha","latitude":20.2961,"longitude":85.8245,"temp":33.4,"humidity":53,"rain":0.0,"pressure":1004.0,"uv_index":8.35,"wind_gusts":26.6,"aqi":121,"pm10":38.5,"pm2_5":32.2,"mosquito_risk":0,"arthritis_risk":5,"migraine_risk":4,"frizz_risk":1,"updated_at":"2026-03-11T14:18:31.535485+05:30"},{"city":"Cuttack","state":"Odisha","latitude":20.4625,"longitude":85.8828,"temp":35.2,"humidity":45,"rain":0.0,"pressure":1005.3,"uv_index":8.4,"wind_gusts":29.5,"aqi":121,"pm10":38.5,"pm2_5":32.2,"mosquito_risk":0,"arthritis_risk":5,"migraine_risk":7,"frizz_risk":1,"updated_at":"2026-03-11T14:18:31.535491+05:30"},{"city":"Rourkela","state":"Odisha","latitude":22.2604,"longitude":84.8536,"temp":34.8,"humidity":34,"rain":0.0,"pressure":986.5,"uv_index":7.95,"wind_gusts":27.4,"aqi":163,"pm10":97.6,"pm2_5":71.2,"mosquito_risk":0,"arthritis_risk":5,"migraine_risk":7,"frizz_risk":1,"updated_at":"2026-03-11T14:18:31.535498+05:30"},{"city":"Raipur","state":"Chhattisgarh","latitude":21.2514,"longitude":81.6296,"temp":37.1,"humidity":20,"rain":0.0,"pressure":977.2,"uv_index":8.05,"wind_gusts":24.8,"aqi":153,"pm10":85.9,"pm2_5":56.0,"mosquito_risk":0,"arthritis_risk":5,"migraine_risk":10,"frizz_risk":0,"updated_at":"2026-03-11T14:18:31.535504+05:30"},{"city":"Bhilai","state":"Chhattisgarh","latitude":21.1938,"longitude":81.3509,"temp":37.8,"humidity":19,"rain":0.0,"pressure":977.6,"uv_index":8.05,"wind_gusts":19.8,"aqi":150,"pm10":82.2,"pm2_5":52.3,"mosquito_risk":0,"arthritis_risk":5,"migraine_risk":10,"frizz_risk":0,"updated_at":"2026-03-11T14:18:31.535510+05:30"},{"city":"Guwahati","state":"Assam","latitude":26.1158,"longitude":91.7086,"temp":31.4,"humidity":49,"rain":0.0,"pressure":1002.1,"uv_index":7.35,"wind_gusts":23.8,"aqi":154,"pm10":68.2,"pm2_5":59.8,"mosquito_risk":0,"arthritis_risk":5,"migraine_risk":4,"frizz_risk":1,"updated_at":"2026-03-11T14:18:31.535516+05:30"},{"city":"Agartala","state":"Tripura","latitude":23.8315,"longitude":91.2868,"temp":30.6,"humidity":55,"rain":0.0,"pressure":1008.0,"uv_index":7.75,"wind_gusts":19.8,"aqi":169,"pm10":83.8,"pm2_5":72.6,"mosquito_risk":0,"arthritis_risk":0,"migraine_risk":4,"frizz_risk":1,"updated_at":"2026-03-11T14:18:31.535522+05:30"},{"city":"Shillong","state":"Meghalaya","latitude":25.5788,"longitude":91.8933,"temp":19.6,"humidity":54,"rain":0.0,"pressure":858.8,"uv_index":6.65,"wind_gusts":18.4,"aqi":136,"pm10":44.6,"pm2_5":39.3,"mosquito_risk":0,"arthritis_risk":5,"migraine_risk":7,"frizz_risk":0,"updated_at":"2026-03-11T14:18:31.535529+05:30"},{"city":"Imphal","state":"Manipur","latitude":24.817,"longitude":93.9368,"temp":24.6,"humidity":51,"rain":0.0,"pressure":924.8,"uv_index":7.95,"wind_gusts":36.4,"aqi":154,"pm10":53.6,"pm2_5":46.1,"mosquito_risk":0,"arthritis_risk":5,"migraine_risk":7,"frizz_risk":0,"updated_at":"2026-03-11T14:18:31.535535+05:30"},{"city":"Aizawl","state":"Mizoram","latitude":23.7271,"longitude":92.7176,"temp":24.7,"humidity":52,"rain":0.0,"pressure":895.1,"uv_index":7.9,"wind_gusts":28.8,"aqi":178,"pm10":93.8,"pm2_5":83.4,"mosquito_risk":0,"arthritis_risk":5,"migraine_risk":7,"frizz_risk":0,"updated_at":"2026-03-11T14:18:31.535542+05:30"},{"city":"Kohima","state":"Nagaland","latitude":25.6701,"longitude":94.1077,"temp":18.8,"humidity":72,"rain":0.0,"pressure":856.9,"uv_index":7.05,"wind_gusts":34.2,"aqi":140,"pm10":54.6,"pm2_5":48.5,"mosquito_risk":3,"arthritis_risk":5,"migraine_risk":7,"frizz_risk":0,"updated_at":"2026-03-11T14:18:31.535549+05:30"},{"city":"Gangtok","state":"Sikkim","latitude":27.3314,"longitude":88.6138,"temp":21.5,"humidity":56,"rain":0.0,"pressure":840.3,"uv_index":6.3,"wind_gusts":20.9,"aqi":133,"pm10":58.3,"pm2_5":51.0,"mosquito_risk":0,"arthritis_risk":5,"migraine_risk":7,"frizz_risk":0,"updated_at":"2026-03-11T14:18:31.535556+05:30"},{"city":"Siliguri","state":"West Bengal","latitude":26.7271,"longitude":88.3953,"temp":24.7,"humidity":73,"rain":0.0,"pressure":996.1,"uv_index":5.75,"wind_gusts":21.2,"aqi":165,"pm10":97.6,"pm2_5":84.1,"mosquito_risk":3,"arthritis_risk":5,"migraine_risk":3,"frizz_risk":1,"updated_at":"2026-03-11T14:18:34.749494+05:30"},{"city":"Durgapur","state":"West Bengal","latitude":23.5204,"longitude":87.3119,"temp":31.6,"humidity":53,"rain":0.0,"pressure":997.0,"uv_index":7.6,"wind_gusts":30.2,"aqi":162,"pm10":83.8,"pm2_5":72.9,"mosquito_risk":0,"arthritis_risk":5,"migraine_risk":7,"frizz_risk":1,"updated_at":"2026-03-11T14:18:34.749525+05:30"},{"city":"Asansol","state":"West Bengal","latitude":23.6739,"longitude":86.9524,"temp":30.4,"humidity":58,"rain":0.0,"pressure":995.7,"uv_index":7.85,"wind_gusts":22.3,"aqi":168,"pm10":87.1,"pm2_5":74.7,"mosquito_risk":0,"arthritis_risk":5,"migraine_risk":7,"frizz_risk":1,"updated_at":"2026-03-11T14:18:34.749538+05:30"},{"city":"Pondicherry","state":"Puducherry","latitude":11.9139,"longitude":79.8145,"temp":32.6,"humidity":51,"rain":0.0,"pressure":1010.7,"uv_index":9.0,"wind_gusts":31.7,"aqi":59,"pm10":20.9,"pm2_5":16.2,"mosquito_risk":0,"arthritis_risk":0,"migraine_risk":4,"frizz_risk":1,"updated_at":"2026-03-11T14:18:34.749548+05:30"},{"city":"Port Blair","state":"Andaman and Nicobar Islands","latitude":11.6234,"longitude":92.7265,"temp":28.4,"humidity":78,"rain":0.0,"pressure":1008.2,"uv_index":8.95,"wind_gusts":20.2,"aqi":62,"pm10":21.4,"pm2_5":18.5,"mosquito_risk":7,"arthritis_risk":0,"migraine_risk":4,"frizz_risk":1,"updated_at":"2026-03-11T14:18:34.749557+05:30"},{"city":"Haridwar","state":"Uttarakhand","latitude":29.9457,"longitude":78.1642,"temp":32.6,"humidity":39,"rain":0.0,"pressure":977.7,"uv_index":5.9,"wind_gusts":38.5,"aqi":159,"pm10":59.1,"pm2_5":38.5,"mosquito_risk":0,"arthritis_risk":5,"migraine_risk":3,"frizz_risk":1,"updated_at":"2026-03-11T14:18:34.749565+05:30"},{"city":"Rishikesh","state":"Uttarakhand","latitude":30.0869,"longitude":78.2676,"temp":31.6,"humidity":40,"rain":0.0,"pressure":970.5,"uv_index":5.9,"wind_gusts":34.2,"aqi":155,"pm10":54.5,"pm2_5":32.6,"mosquito_risk":0,"arthritis_risk":5,"migraine_risk":3,"frizz_risk":1,"updated_at":"2026-03-11T14:18:34.749574+05:30"},{"city":"Nainital","state":"Uttarakhand","latitude":29.3919,"longitude":79.4542,"temp":23.6,"humidity":66,"rain":0.0,"pressure":811.2,"uv_index":6.8,"wind_gusts":67.3,"aqi":174,"pm10":92.7,"pm2_5":67.5,"mosquito_risk":3,"arthritis_risk":5,"migraine_risk":7,"frizz_risk":1,"updated_at":"2026-03-11T14:18:34.749582+05:30"},{"city":"Mussoorie","state":"Uttarakhand","latitude":30.4599,"longitude":78.0664,"temp":23.1,"humidity":49,"rain":0.0,"pressure":808.5,"uv_index":5.6,"wind_gusts":40.7,"aqi":152,"pm10":44.1,"pm2_5":28.6,"mosquito_risk":0,"arthritis_risk":5,"migraine_risk":3,"frizz_risk":0,"updated_at":"2026-03-11T14:18:34.749590+05:30"},{"city":"Dharamshala","state":"Himachal Pradesh","latitude":32.219,"longitude":76.3234,"temp":24.9,"humidity":35,"rain":0.0,"pressure":874.6,"uv_index":5.5,"wind_gusts":25.9,"aqi":62,"pm10":34.0,"pm2_5":18.0,"mosquito_risk":0,"arthritis_risk":5,"migraine_risk":3,"frizz_risk":0,"updated_at":"2026-03-11T14:18:34.749599+05:30"},{"city":"Dalhousie","state":"Himachal Pradesh","latitude":32.5387,"longitude":75.971,"temp":23.5,"humidity":26,"rain":0.0,"pressure":810.0,"uv_index":4.75,"wind_gusts":19.8,"aqi":96,"pm10":15.4,"pm2_5":11.1,"mosquito_risk":0,"arthritis_risk":5,"migraine_risk":3,"frizz_risk":0,"updated_at":"2026-03-11T14:18:34.749608+05:30"},{"city":"Patiala","state":"Punjab","latitude":30.3398,"longitude":76.3869,"temp":32.8,"humidity":35,"rain":0.0,"pressure":982.1,"uv_index":5.3,"wind_gusts":17.6,"aqi":171,"pm10":93.6,"pm2_5":47.7,"mosquito_risk":0,"arthritis_risk":5,"migraine_risk":3,"frizz_risk":0,"updated_at":"2026-03-11T14:18:34.749616+05:30"},{"city":"Bhatinda","state":"Punjab","latitude":30.211,"longitude":74.9455,"temp":33.1,"humidity":34,"rain":0.0,"pressure":987.7,"uv_index":6.6,"wind_gusts":21.6,"aqi":152,"pm10":98.5,"pm2_5":40.7,"mosquito_risk":0,"arthritis_risk":5,"migraine_risk":7,"frizz_risk":0,"updated_at":"2026-03-11T14:18:34.749624+05:30"},{"city":"Rohtak","state":"Haryana","latitude":28.8955,"longitude":76.6066,"temp":34.4,"humidity":28,"rain":0.0,"pressure":985.6,"uv_index":6.1,"wind_gusts":25.6,"aqi":174,"pm10":333.4,"pm2_5":48.9,"mosquito_risk":0,"arthritis_risk":5,"migraine_risk":7,"frizz_risk":0,"updated_at":"2026-03-11T14:18:34.749631+05:30"},{"city":"Panipat","state":"Haryana","latitude":29.3909,"longitude":76.9635,"temp":33.8,"humidity":30,"rain":0.0,"pressure":984.3,"uv_index":5.35,"wind_gusts":22.7,"aqi":190,"pm10":380.0,"pm2_5":55.1,"mosquito_risk":0,"arthritis_risk":5,"migraine_risk":3,"frizz_risk":0,"updated_at":"2026-03-11T14:18:34.749640+05:30"},{"city":"Mathura","state":"Uttar Pradesh","latitude":27.4924,"longitude":77.6737,"temp":37.3,"humidity":23,"rain":0.0,"pressure":990.1,"uv_index":6.4,"wind_gusts":23.4,"aqi":198,"pm10":437.7,"pm2_5":59.6,"mosquito_risk":0,"arthritis_risk":5,"migraine_risk":10,"frizz_risk":0,"updated_at":"2026-03-11T14:18:34.749648+05:30"},{"city":"Vrindavan","state":"Uttar Pradesh","latitude":27.5823,"longitude":77.7027,"temp":36.7,"humidity":23,"rain":0.0,"pressure":990.6,"uv_index":6.4,"wind_gusts":24.1,"aqi":198,"pm10":437.7,"pm2_5":59.6,"mosquito_risk":0,"arthritis_risk":5,"migraine_risk":10,"frizz_risk":0,"updated_at":"2026-03-11T14:18:34.749656+05:30"},{"city":"Ayodhya","state":"Uttar Pradesh","latitude":26.7922,"longitude":82.1998,"temp":32.7,"humidity":46,"rain":0.0,"pressure":998.1,"uv_index":6.8,"wind_gusts":28.4,"aqi":198,"pm10":155.1,"pm2_5":108.7,"mosquito_risk":0,"arthritis_risk":5,"migraine_risk":7,"frizz_risk":1,"updated_at":"2026-03-11T14:18:34.749664+05:30"},{"city":"Ratlam","state":"Madhya Pradesh","latitude":23.3315,"longitude":75.0367,"temp":36.3,"humidity":17,"rain":0.0,"pressure":959.0,"uv_index":7.6,"wind_gusts":19.8,"aqi":69,"pm10":22.3,"pm2_5":10.6,"mosquito_risk":0,"arthritis_risk":5,"migraine_risk":10,"frizz_risk":0,"updated_at":"2026-03-11T14:18:34.749672+05:30"},{"city":"Sagar","state":"Madhya Pradesh","latitude":23.8388,"longitude":78.7378,"temp":36.2,"humidity":15,"rain":0.0,"pressure":954.5,"uv_index":7.55,"wind_gusts":25.2,"aqi":70,"pm10":64.7,"pm2_5":17.6,"mosquito_risk":0,"arthritis_risk":5,"migraine_risk":10,"frizz_risk":0,"updated_at":"2026-03-11T14:18:34.749679+05:30"},{"city":"Satna","state":"Madhya Pradesh","latitude":24.6005,"longitude":80.8322,"temp":36.5,"humidity":16,"rain":0.0,"pressure":974.9,"uv_index":7.55,"wind_gusts":34.2,"aqi":151,"pm10":70.8,"pm2_5":23.7,"mosquito_risk":0,"arthritis_risk":5,"migraine_risk":10,"frizz_risk":0,"updated_at":"2026-03-11T14:18:34.749687+05:30"},{"city":"Akola","state":"Maharashtra","latitude":20.7002,"longitude":77.0082,"temp":39.0,"humidity":16,"rain":0.0,"pressure":977.8,"uv_index":8.0,"wind_gusts":16.2,"aqi":69,"pm10":28.5,"pm2_5":16.6,"mosquito_risk":0,"arthritis_risk":5,"migraine_risk":10,"frizz_risk":0,"updated_at":"2026-03-11T14:18:34.749695+05:30"},{"city":"Amravati","state":"Maharashtra","latitude":20.9374,"longitude":77.7796,"temp":38.5,"humidity":17,"rain":0.0,"pressure":970.1,"uv_index":8.0,"wind_gusts":9.7,"aqi":72,"pm10":32.9,"pm2_5":17.7,"mosquito_risk":0,"arthritis_risk":5,"migraine_risk":10,"frizz_risk":0,"updated_at":"2026-03-11T14:18:34.749704+05:30"},{"city":"Latur","state":"Maharashtra","latitude":18.4088,"longitude":76.5604,"temp":34.4,"humidity":25,"rain":0.0,"pressure":943.2,"uv_index":8.45,"wind_gusts":24.1,"aqi":110,"pm10":26.0,"pm2_5":20.8,"mosquito_risk":0,"arthritis_risk":5,"migraine_risk":7,"frizz_risk":0,"updated_at":"2026-03-11T14:18:34.749712+05:30"},{"city":"Nanded","state":"Maharashtra","latitude":19.1383,"longitude":77.3091,"temp":37.4,"humidity":21,"rain":0.0,"pressure":971.6,"uv_index":8.25,"wind_gusts":18.0,"aqi":125,"pm10":37.0,"pm2_5":30.0,"mosquito_risk":0,"arthritis_risk":5,"migraine_risk":10,"frizz_risk":0,"updated_at":"2026-03-11T14:18:34.749720+05:30"},{"city":"Gulbarga","state":"Karnataka","latitude":17.3297,"longitude":76.8343,"temp":36.1,"humidity":21,"rain":0.0,"pressure":962.0,"uv_index":8.5,"wind_gusts":21.6,"aqi":106,"pm10":40.7,"pm2_5":31.7,"mosquito_risk":0,"arthritis_risk":5,"migraine_risk":10,"frizz_risk":0,"updated_at":"2026-03-11T14:18:34.749727+05:30"},{"city":"Bidar","state":"Karnataka","latitude":17.9104,"longitude":77.5199,"temp":34.5,"humidity":22,"rain":0.0,"pressure":939.0,"uv_index":8.5,"wind_gusts":22.7,"aqi":109,"pm10":38.9,"pm2_5":30.2,"mosquito_risk":0,"arthritis_risk":5,"migraine_risk":7,"frizz_risk":0,"updated_at":"2026-03-11T14:18:34.749735+05:30"},{"city":"Hospet","state":"Karnataka","latitude":15.2689,"longitude":76.3909,"temp":34.2,"humidity":19,"rain":0.0,"pressure":958.5,"uv_index":8.8,"wind_gusts":25.6,"aqi":81,"pm10":15.5,"pm2_5":13.1,"mosquito_risk":0,"arthritis_risk":5,"migraine_risk":7,"frizz_risk":0,"updated_at":"2026-03-11T14:18:34.749742+05:30"},{"city":"Tirupur","state":"Tamil Nadu","latitude":11.1085,"longitude":77.3411,"temp":34.1,"humidity":31,"rain":0.0,"pressure":977.1,"uv_index":9.3,"wind_gusts":31.0,"aqi":86,"pm10":22.1,"pm2_5":19.6,"mosquito_risk":0,"arthritis_risk":5,"migraine_risk":7,"frizz_risk":0,"updated_at":"2026-03-11T14:18:34.749749+05:30"},{"city":"Alappuzha","state":"Kerala","latitude":9.4981,"longitude":76.3388,"temp":28.3,"humidity":79,"rain":0.0,"pressure":1009.2,"uv_index":8.6,"wind_gusts":37.4,"aqi":121,"pm10":39.1,"pm2_5":32.9,"mosquito_risk":7,"arthritis_risk":0,"migraine_risk":4,"frizz_risk":1,"updated_at":"2026-03-11T14:18:34.749757+05:30"},{"city":"Munnar","state":"Kerala","latitude":10.0889,"longitude":77.0595,"temp":29.5,"humidity":39,"rain":0.0,"pressure":860.0,"uv_index":8.0,"wind_gusts":27.4,"aqi":63,"pm10":13.7,"pm2_5":11.8,"mosquito_risk":4,"arthritis_risk":5,"migraine_risk":7,"frizz_risk":0,"updated_at":"2026-03-11T14:18:34.749765+05:30"},{"city":"Silchar","state":"Assam","latitude":24.8333,"longitude":92.7789,"temp":31.1,"humidity":53,"rain":0.0,"pressure":1006.1,"uv_index":7.65,"wind_gusts":16.6,"aqi":168,"pm10":87.5,"pm2_5":75.4,"mosquito_risk":0,"arthritis_risk":5,"migraine_risk":4,"frizz_risk":1,"updated_at":"2026-03-11T14:18:34.749774+05:30"},{"city":"Dibrugarh","state":"Assam","latitude":27.4728,"longitude":94.912,"temp":28.9,"humidity":58,"rain":0.0,"pressure":996.8,"uv_index":7.45,"wind_gusts":21.6,"aqi":163,"pm10":78.9,"pm2_5":70.3,"mosquito_risk":4,"arthritis_risk":5,"migraine_risk":7,"frizz_risk":1,"updated_at":"2026-03-11T14:18:34.749781+05:30"}]