[{"city":"Delhi","state":"Delhi","latitude":28.6139,"longitude":77.209,"temp":30.0,"humidity":63,"rain":0.0,"pressure":977.5,"uv_index":7.65,"wind_gusts":26.6,"aqi":225,"pm10":334.3,"pm2_5":123.9,"no2":63.7,"co":772.0,"o3":21.0,"so2":33.6,"mosquito_risk":7,"arthritis_risk":5,"migraine_risk":7,"frizz_risk":1,"updated_at":"2026-06-25T04:36:13.567776+05:30"},{"city":"Mumbai","state":"Maharashtra","latitude":19.076,"longitude":72.8777,"temp":26.0,"humidity":90,"rain":0.0,"pressure":1005.3,"uv_index":0.95,"wind_gusts":35.6,"aqi":51,"pm10":33.8,"pm2_5":13.4,"no2":9.8,"co":154.0,"o3":43.0,"so2":9.2,"mosquito_risk":7,"arthritis_risk":5,"migraine_risk":0,"frizz_risk":1,"updated_at":"2026-06-25T04:36:13.567823+05:30"},{"city":"Bangalore","state":"Karnataka","latitude":12.9716,"longitude":77.5946,"temp":20.0,"humidity":95,"rain":0.0,"pressure":910.3,"uv_index":9.05,"wind_gusts":49.7,"aqi":28,"pm10":3.9,"pm2_5":3.3,"no2":8.1,"co":182.0,"o3":34.0,"so2":4.1,"mosquito_risk":3,"arthritis_risk":5,"migraine_risk":7,"frizz_risk":1,"updated_at":"2026-06-25T04:36:13.567839+05:30"},{"city":"Hyderabad","state":"Telangana","latitude":17.385,"longitude":78.4867,"temp":25.0,"humidity":75,"rain":0.0,"pressure":949.9,"uv_index":7.45,"wind_gusts":45.0,"aqi":23,"pm10":5.5,"pm2_5":4.4,"no2":9.4,"co":168.0,"o3":39.0,"so2":4.8,"mosquito_risk":7,"arthritis_risk":5,"migraine_risk":7,"frizz_risk":1,"updated_at":"2026-06-25T04:36:13.567849+05:30"},{"city":"Chennai","state":"Tamil Nadu","latitude":13.0827,"longitude":80.2707,"temp":28.6,"humidity":62,"rain":0.0,"pressure":1004.9,"uv_index":8.05,"wind_gusts":43.2,"aqi":62,"pm10":17.3,"pm2_5":14.9,"no2":18.4,"co":289.0,"o3":37.0,"so2":10.0,"mosquito_risk":7,"arthritis_risk":5,"migraine_risk":4,"frizz_risk":1,"updated_at":"2026-06-25T04:36:13.567857+05:30"},{"city":"Kolkata","state":"West Bengal","latitude":22.5726,"longitude":88.3639,"temp":28.9,"humidity":90,"rain":0.0,"pressure":1001.4,"uv_index":9.0,"wind_gusts":28.1,"aqi":144,"pm10":46.7,"pm2_5":46.0,"no2":17.5,"co":441.0,"o3":70.0,"so2":12.6,"mosquito_risk":7,"arthritis_risk":5,"migraine_risk":4,"frizz_risk":1,"updated_at":"2026-06-25T04:36:13.567865+05:30"},{"city":"Pune","state":"Maharashtra","latitude":18.5204,"longitude":73.8567,"temp":22.8,"humidity":90,"rain":0.0,"pressure":944.7,"uv_index":4.95,"wind_gusts":41.4,"aqi":32,"pm10":9.4,"pm2_5":6.6,"no2":6.9,"co":120.0,"o3":39.0,"so2":5.8,"mosquito_risk":3,"arthritis_risk":5,"migraine_risk":3,"frizz_risk":1,"updated_at":"2026-06-25T04:36:13.567872+05:30"},{"city":"Ahmedabad","state":"Gujarat","latitude":23.0225,"longitude":72.5714,"temp":29.7,"humidity":65,"rain":0.0,"pressure":997.5,"uv_index":8.0,"wind_gusts":38.5,"aqi":69,"pm10":37.8,"pm2_5":18.2,"no2":5.4,"co":110.0,"o3":38.0,"so2":4.1,"mosquito_risk":7,"arthritis_risk":5,"migraine_risk":7,"frizz_risk":1,"updated_at":"2026-06-25T04:36:13.567880+05:30"},{"city":"Jaipur","state":"Rajasthan","latitude":26.9124,"longitude":75.7873,"temp":28.6,"humidity":58,"rain":0.0,"pressure":954.8,"uv_index":8.15,"wind_gusts":24.1,"aqi":126,"pm10":125.7,"pm2_5":52.0,"no2":35.1,"co":203.0,"o3":18.0,"so2":10.7,"mosquito_risk":4,"arthritis_risk":5,"migraine_risk":7,"frizz_risk":1,"updated_at":"2026-06-25T04:36:13.567887+05:30"},{"city":"Lucknow","state":"Uttar Pradesh","latitude":26.8467,"longitude":80.9462,"temp":31.9,"humidity":48,"rain":0.0,"pressure":987.9,"uv_index":8.3,"wind_gusts":25.2,"aqi":158,"pm10":253.3,"pm2_5":78.9,"no2":47.0,"co":471.0,"o3":16.0,"so2":11.5,"mosquito_risk":0,"arthritis_risk":5,"migraine_risk":7,"frizz_risk":1,"updated_at":"2026-06-25T04:36:13.567898+05:30"},{"city":"Kanpur","state":"Uttar Pradesh","latitude":26.4499,"longitude":80.3319,"temp":33.0,"humidity":45,"rain":0.0,"pressure":986.1,"uv_index":4.05,"wind_gusts":32.0,"aqi":152,"pm10":214.2,"pm2_5":67.3,"no2":42.1,"co":209.0,"o3":15.0,"so2":8.4,"mosquito_risk":0,"arthritis_risk":5,"migraine_risk":3,"frizz_risk":1,"updated_at":"2026-06-25T04:36:13.567905+05:30"},{"city":"Chandigarh","state":"Chandigarh","latitude":30.7333,"longitude":76.7794,"temp":25.9,"humidity":73,"rain":0.0,"pressure":963.9,"uv_index":7.8,"wind_gusts":23.4,"aqi":151,"pm10":108.0,"pm2_5":76.8,"no2":58.0,"co":588.0,"o3":0.0,"so2":4.5,"mosquito_risk":7,"arthritis_risk":5,"migraine_risk":7,"frizz_risk":1,"updated_at":"2026-06-25T04:36:13.567912+05:30"},{"city":"Srinagar","state":"Jammu and Kashmir","latitude":34.0837,"longitude":74.7973,"temp":15.9,"humidity":97,"rain":0.0,"pressure":836.8,"uv_index":9.1,"wind_gusts":22.0,"aqi":70,"pm10":29.7,"pm2_5":28.6,"no2":21.4,"co":337.0,"o3":22.0,"so2":0.0,"mosquito_risk":3,"arthritis_risk":10,"migraine_risk":7,"frizz_risk":0,"updated_at":"2026-06-25T04:36:13.567919+05:30"},{"city":"Jammu","state":"Jammu and Kashmir","latitude":32.7266,"longitude":74.857,"temp":24.9,"humidity":89,"rain":0.3,"pressure":968.5,"uv_index":8.65,"wind_gusts":24.8,"aqi":93,"pm10":31.5,"pm2_5":28.3,"no2":39.4,"co":263.0,"o3":21.0,"so2":2.7,"mosquito_risk":6,"arthritis_risk":5,"migraine_risk":7,"frizz_risk":1,"updated_at":"2026-06-25T04:36:13.567925+05:30"},{"city":"Amritsar","state":"Punjab","latitude":31.634,"longitude":74.8723,"temp":24.5,"humidity":92,"rain":0.2,"pressure":975.8,"uv_index":8.5,"wind_gusts":38.5,"aqi":125,"pm10":112.0,"pm2_5":66.6,"no2":46.6,"co":592.0,"o3":27.0,"so2":9.3,"mosquito_risk":6,"arthritis_risk":5,"migraine_risk":7,"frizz_risk":1,"updated_at":"2026-06-25T04:36:13.567932+05:30"},{"city":"Ludhiana","state":"Punjab","latitude":30.901,"longitude":75.8573,"temp":28.0,"humidity":66,"rain":0.0,"pressure":973.7,"uv_index":8.05,"wind_gusts":20.2,"aqi":161,"pm10":249.6,"pm2_5":114.6,"no2":56.2,"co":717.0,"o3":17.0,"so2":12.6,"mosquito_risk":7,"arthritis_risk":5,"migraine_risk":7,"frizz_risk":1,"updated_at":"2026-06-25T04:36:13.567941+05:30"},{"city":"Jalandhar","state":"Punjab","latitude":31.326,"longitude":75.5762,"temp":27.6,"humidity":75,"rain":0.1,"pressure":975.0,"uv_index":4.15,"wind_gusts":24.1,"aqi":135,"pm10":130.9,"pm2_5":81.5,"no2":48.0,"co":506.0,"o3":30.0,"so2":11.2,"mosquito_risk":10,"arthritis_risk":5,"migraine_risk":3,"frizz_risk":1,"updated_at":"2026-06-25T04:36:13.567949+05:30"},{"city":"Dehradun","state":"Uttarakhand","latitude":30.6284,"longitude":78.0322,"temp":14.9,"humidity":98,"rain":0.0,"pressure":826.8,"uv_index":6.85,"wind_gusts":34.6,"aqi":74,"pm10":30.0,"pm2_5":29.9,"no2":26.6,"co":211.0,"o3":0.0,"so2":0.1,"mosquito_risk":3,"arthritis_risk":10,"migraine_risk":7,"frizz_risk":0,"updated_at":"2026-06-25T04:36:13.567956+05:30"},{"city":"Shimla","state":"Himachal Pradesh","latitude":31.1048,"longitude":77.1734,"temp":12.3,"humidity":82,"rain":0.0,"pressure":780.2,"uv_index":7.2,"wind_gusts":31.0,"aqi":89,"pm10":38.1,"pm2_5":36.8,"no2":27.3,"co":300.0,"o3":11.0,"so2":0.2,"mosquito_risk":3,"arthritis_risk":10,"migraine_risk":7,"frizz_risk":0,"updated_at":"2026-06-25T04:36:13.567962+05:30"},{"city":"Manali","state":"Himachal Pradesh","latitude":32.2396,"longitude":77.1887,"temp":15.3,"humidity":69,"rain":0.0,"pressure":815.7,"uv_index":8.1,"wind_gusts":33.5,"aqi":39,"pm10":3.4,"pm2_5":2.6,"no2":49.3,"co":209.0,"o3":42.0,"so2":0.0,"mosquito_risk":3,"arthritis_risk":5,"migraine_risk":7,"frizz_risk":0,"updated_at":"2026-06-25T04:36:13.567999+05:30"},{"city":"Gurgaon","state":"Haryana","latitude":28.4595,"longitude":77.0266,"temp":28.7,"humidity":62,"rain":0.0,"pressure":975.8,"uv_index":7.75,"wind_gusts":21.2,"aqi":592,"pm10":301.7,"pm2_5":117.1,"no2":66.7,"co":583.0,"o3":3.0,"so2":24.6,"mosquito_risk":7,"arthritis_risk":5,"migraine_risk":7,"frizz_risk":1,"updated_at":"2026-06-25T04:36:13.568008+05:30"},{"city":"Noida","state":"Uttar Pradesh","latitude":28.5355,"longitude":77.391,"temp":27.4,"humidity":74,"rain":0.0,"pressure":978.8,"uv_index":7.8,"wind_gusts":20.5,"aqi":592,"pm10":301.7,"pm2_5":117.1,"no2":66.7,"co":664.0,"o3":3.0,"so2":24.6,"mosquito_risk":7,"arthritis_risk":5,"migraine_risk":7,"frizz_risk":1,"updated_at":"2026-06-25T04:36:13.568014+05:30"},{"city":"Ghaziabad","state":"Uttar Pradesh","latitude":28.6692,"longitude":77.4538,"temp":26.9,"humidity":73,"rain":0.0,"pressure":977.0,"uv_index":7.8,"wind_gusts":23.0,"aqi":238,"pm10":361.4,"pm2_5":138.3,"no2":68.1,"co":841.0,"o3":11.0,"so2":15.6,"mosquito_risk":7,"arthritis_risk":5,"migraine_risk":7,"frizz_risk":1,"updated_at":"2026-06-25T04:36:13.568020+05:30"},{"city":"Faridabad","state":"Haryana","latitude":28.4089,"longitude":77.3178,"temp":28.6,"humidity":73,"rain":0.0,"pressure":978.2,"uv_index":7.8,"wind_gusts":24.1,"aqi":592,"pm10":301.7,"pm2_5":117.1,"no2":66.7,"co":718.0,"o3":3.0,"so2":24.6,"mosquito_risk":7,"arthritis_risk":5,"migraine_risk":7,"frizz_risk":1,"updated_at":"2026-06-25T04:36:13.568026+05:30"},{"city":"Meerut","state":"Uttar Pradesh","latitude":28.9845,"longitude":77.7064,"temp":28.5,"humidity":64,"rain":0.0,"pressure":976.1,"uv_index":7.1,"wind_gusts":20.9,"aqi":238,"pm10":361.4,"pm2_5":138.3,"no2":68.1,"co":624.0,"o3":11.0,"so2":15.6,"mosquito_risk":7,"arthritis_risk":5,"migraine_risk":7,"frizz_risk":1,"updated_at":"2026-06-25T04:36:13.568033+05:30"},{"city":"Agra","state":"Uttar Pradesh","latitude":27.1767,"longitude":78.0081,"temp":31.5,"humidity":49,"rain":0.0,"pressure":981.8,"uv_index":8.1,"wind_gusts":28.4,"aqi":230,"pm10":214.2,"pm2_5":58.9,"no2":27.0,"co":398.0,"o3":25.0,"so2":6.0,"mosquito_risk":0,"arthritis_risk":5,"migraine_risk":7,"frizz_risk":1,"updated_at":"2026-06-25T04:36:13.568039+05:30"},{"city":"Varanasi","state":"Uttar Pradesh","latitude":25.3176,"longitude":82.9739,"temp":31.8,"humidity":56,"rain":0.0,"pressure":992.3,"uv_index":8.15,"wind_gusts":24.8,"aqi":113,"pm10":29.6,"pm2_5":25.1,"no2":17.2,"co":303.0,"o3":49.0,"so2":10.4,"mosquito_risk":0,"arthritis_risk":5,"migraine_risk":7,"frizz_risk":1,"updated_at":"2026-06-25T04:36:13.568046+05:30"},{"city":"Prayagraj","state":"Uttar Pradesh","latitude":25.4358,"longitude":81.8463,"temp":31.9,"humidity":54,"rain":0.0,"pressure":990.4,"uv_index":8.25,"wind_gusts":28.4,"aqi":123,"pm10":57.5,"pm2_5":38.6,"no2":19.1,"co":228.0,"o3":53.0,"so2":7.5,"mosquito_risk":0,"arthritis_risk":5,"migraine_risk":7,"frizz_risk":1,"updated_at":"2026-06-25T04:36:13.568053+05:30"},{"city":"Gorakhpur","state":"Uttar Pradesh","latitude":26.7606,"longitude":83.3732,"temp":28.9,"humidity":71,"rain":0.0,"pressure":992.0,"uv_index":8.65,"wind_gusts":29.2,"aqi":160,"pm10":107.6,"pm2_5":71.7,"no2":32.3,"co":611.0,"o3":43.0,"so2":11.9,"mosquito_risk":7,"arthritis_risk":5,"migraine_risk":7,"frizz_risk":1,"updated_at":"2026-06-25T04:36:13.568059+05:30"},{"city":"Bareilly","state":"Uttar Pradesh","latitude":28.367,"longitude":79.4304,"temp":28.9,"humidity":66,"rain":0.0,"pressure":981.7,"uv_index":8.1,"wind_gusts":22.7,"aqi":166,"pm10":261.7,"pm2_5":123.9,"no2":67.3,"co":769.0,"o3":12.0,"so2":18.1,"mosquito_risk":7,"arthritis_risk":5,"migraine_risk":7,"frizz_risk":1,"updated_at":"2026-06-25T04:36:13.568067+05:30"},{"city":"Aligarh","state":"Uttar Pradesh","latitude":27.8974,"longitude":78.088,"temp":28.4,"humidity":60,"rain":0.0,"pressure":979.9,"uv_index":7.95,"wind_gusts":21.6,"aqi":416,"pm10":375.3,"pm2_5":126.2,"no2":66.1,"co":688.0,"o3":0.0,"so2":13.2,"mosquito_risk":4,"arthritis_risk":5,"migraine_risk":7,"frizz_risk":1,"updated_at":"2026-06-25T04:36:13.568073+05:30"},{"city":"Moradabad","state":"Uttar Pradesh","latitude":28.8386,"longitude":78.7733,"temp":30.4,"humidity":60,"rain":0.0,"pressure":978.9,"uv_index":7.4,"wind_gusts":28.8,"aqi":189,"pm10":255.2,"pm2_5":142.5,"no2":79.6,"co":1025.0,"o3":11.0,"so2":20.6,"mosquito_risk":0,"arthritis_risk":5,"migraine_risk":7,"frizz_risk":1,"updated_at":"2026-06-25T04:36:13.568080+05:30"},{"city":"Saharanpur","state":"Uttar Pradesh","latitude":29.9637,"longitude":77.546,"temp":27.1,"humidity":73,"rain":0.0,"pressure":970.8,"uv_index":6.85,"wind_gusts":21.2,"aqi":155,"pm10":98.3,"pm2_5":79.2,"no2":51.4,"co":713.0,"o3":11.0,"so2":12.0,"mosquito_risk":7,"arthritis_risk":5,"migraine_risk":7,"frizz_risk":1,"updated_at":"2026-06-25T04:36:13.568086+05:30"},{"city":"Jhansi","state":"Uttar Pradesh","latitude":25.4484,"longitude":78.5685,"temp":29.2,"humidity":60,"rain":0.0,"pressure":973.4,"uv_index":5.5,"wind_gusts":28.8,"aqi":75,"pm10":43.0,"pm2_5":25.1,"no2":10.4,"co":192.0,"o3":52.0,"so2":3.6,"mosquito_risk":4,"arthritis_risk":5,"migraine_risk":3,"frizz_risk":1,"updated_at":"2026-06-25T04:36:16.929114+05:30"},{"city":"Surat","state":"Gujarat","latitude":21.1702,"longitude":72.8311,"temp":28.5,"humidity":79,"rain":0.0,"pressure":1002.5,"uv_index":4.75,"wind_gusts":45.4,"aqi":76,"pm10":37.0,"pm2_5":21.3,"no2":25.2,"co":287.0,"o3":20.0,"so2":38.0,"mosquito_risk":7,"arthritis_risk":5,"migraine_risk":0,"frizz_risk":1,"updated_at":"2026-06-25T04:36:16.929147+05:30"},{"city":"Vadodara","state":"Gujarat","latitude":22.3072,"longitude":73.1812,"temp":30.1,"humidity":64,"rain":0.0,"pressure":999.8,"uv_index":8.0,"wind_gusts":46.1,"aqi":75,"pm10":32.2,"pm2_5":20.0,"no2":11.0,"co":119.0,"o3":31.0,"so2":7.2,"mosquito_risk":3,"arthritis_risk":5,"migraine_risk":7,"frizz_risk":1,"updated_at":"2026-06-25T04:36:16.929157+05:30"},{"city":"Rajkot","state":"Gujarat","latitude":22.3039,"longitude":70.8022,"temp":28.1,"humidity":75,"rain":0.0,"pressure":989.8,"uv_index":7.55,"wind_gusts":45.4,"aqi":68,"pm10":38.3,"pm2_5":17.5,"no2":5.0,"co":97.0,"o3":38.0,"so2":4.5,"mosquito_risk":7,"arthritis_risk":5,"migraine_risk":7,"frizz_risk":1,"updated_at":"2026-06-25T04:36:16.929165+05:30"},{"city":"Thane","state":"Maharashtra","latitude":19.2183,"longitude":72.9781,"temp":25.2,"humidity":93,"rain":0.0,"pressure":1004.8,"uv_index":2.05,"wind_gusts":32.0,"aqi":51,"pm10":33.8,"pm2_5":13.4,"no2":9.8,"co":141.0,"o3":43.0,"so2":9.2,"mosquito_risk":7,"arthritis_risk":5,"migraine_risk":0,"frizz_risk":1,"updated_at":"2026-06-25T04:36:16.929174+05:30"},{"city":"Nagpur","state":"Maharashtra","latitude":21.1458,"longitude":79.0882,"temp":25.7,"humidity":92,"rain":0.0,"pressure":968.9,"uv_index":7.75,"wind_gusts":29.9,"aqi":52,"pm10":24.2,"pm2_5":20.2,"no2":21.7,"co":244.0,"o3":38.0,"so2":16.3,"mosquito_risk":7,"arthritis_risk":5,"migraine_risk":7,"frizz_risk":1,"updated_at":"2026-06-25T04:36:16.929183+05:30"},{"city":"Nashik","state":"Maharashtra","latitude":19.9975,"longitude":73.7898,"temp":22.8,"humidity":94,"rain":0.0,"pressure":941.8,"uv_index":1.9,"wind_gusts":39.6,"aqi":48,"pm10":14.6,"pm2_5":9.1,"no2":14.8,"co":136.0,"o3":29.0,"so2":17.2,"mosquito_risk":3,"arthritis_risk":5,"migraine_risk":3,"frizz_risk":1,"updated_at":"2026-06-25T04:36:16.929193+05:30"},{"city":"Aurangabad","state":"Maharashtra","latitude":19.8762,"longitude":75.3433,"temp":23.6,"humidity":84,"rain":0.0,"pressure":940.6,"uv_index":2.95,"wind_gusts":41.4,"aqi":60,"pm10":19.6,"pm2_5":11.5,"no2":11.8,"co":152.0,"o3":39.0,"so2":17.8,"mosquito_risk":3,"arthritis_risk":5,"migraine_risk":3,"frizz_risk":1,"updated_at":"2026-06-25T04:36:16.929201+05:30"},{"city":"Solapur","state":"Maharashtra","latitude":17.6599,"longitude":75.9064,"temp":24.5,"humidity":82,"rain":0.0,"pressure":954.3,"uv_index":2.0,"wind_gusts":44.3,"aqi":19,"pm10":4.9,"pm2_5":4.5,"no2":9.4,"co":149.0,"o3":32.0,"so2":2.5,"mosquito_risk":3,"arthritis_risk":5,"migraine_risk":3,"frizz_risk":1,"updated_at":"2026-06-25T04:36:16.929208+05:30"},{"city":"Kolhapur","state":"Maharashtra","latitude":16.705,"longitude":74.2433,"temp":21.9,"humidity":97,"rain":0.0,"pressure":945.2,"uv_index":3.3,"wind_gusts":41.4,"aqi":19,"pm10":3.6,"pm2_5":3.4,"no2":5.0,"co":119.0,"o3":40.0,"so2":2.0,"mosquito_risk":3,"arthritis_risk":5,"migraine_risk":3,"frizz_risk":1,"updated_at":"2026-06-25T04:36:16.929215+05:30"},{"city":"Goa","state":"Goa","latitude":15.2993,"longitude":74.124,"temp":23.5,"humidity":99,"rain":0.1,"pressure":997.0,"uv_index":7.2,"wind_gusts":28.4,"aqi":47,"pm10":21.2,"pm2_5":13.7,"no2":5.6,"co":172.0,"o3":40.0,"so2":1.4,"mosquito_risk":6,"arthritis_risk":5,"migraine_risk":7,"frizz_risk":1,"updated_at":"2026-06-25T04:36:16.929222+05:30"},{"city":"Jodhpur","state":"Rajasthan","latitude":26.2389,"longitude":73.0243,"temp":30.9,"humidity":56,"rain":0.0,"pressure":977.0,"uv_index":4.3,"wind_gusts":55.8,"aqi":145,"pm10":228.6,"pm2_5":57.5,"no2":4.5,"co":110.0,"o3":43.0,"so2":2.5,"mosquito_risk":0,"arthritis_risk":5,"migraine_risk":3,"frizz_risk":1,"updated_at":"2026-06-25T04:36:16.929230+05:30"},{"city":"Udaipur","state":"Rajasthan","latitude":24.5854,"longitude":73.7125,"temp":25.2,"humidity":78,"rain":0.0,"pressure":941.8,"uv_index":8.8,"wind_gusts":33.1,"aqi":74,"pm10":30.2,"pm2_5":19.7,"no2":5.7,"co":134.0,"o3":45.0,"so2":3.1,"mosquito_risk":7,"arthritis_risk":5,"migraine_risk":7,"frizz_risk":1,"updated_at":"2026-06-25T04:36:16.929237+05:30"},{"city":"Kota","state":"Rajasthan","latitude":25.2138,"longitude":75.8648,"temp":28.4,"humidity":69,"rain":0.0,"pressure":973.6,"uv_index":7.8,"wind_gusts":37.1,"aqi":87,"pm10":44.6,"pm2_5":24.0,"no2":8.6,"co":179.0,"o3":52.0,"so2":5.3,"mosquito_risk":7,"arthritis_risk":5,"migraine_risk":7,"frizz_risk":1,"updated_at":"2026-06-25T04:36:16.929244+05:30"},{"city":"Bikaner","state":"Rajasthan","latitude":28.0229,"longitude":73.3119,"temp":29.4,"humidity":58,"rain":0.0,"pressure":975.2,"uv_index":8.45,"wind_gusts":27.7,"aqi":153,"pm10":122.9,"pm2_5":39.1,"no2":3.0,"co":150.0,"o3":50.0,"so2":2.7,"mosquito_risk":4,"arthritis_risk":5,"migraine_risk":7,"frizz_risk":1,"updated_at":"2026-06-25T04:36:16.929251+05:30"},{"city":"Ajmer","state":"Rajasthan","latitude":26.4499,"longitude":74.6399,"temp":26.6,"humidity":65,"rain":0.0,"pressure":949.3,"uv_index":8.3,"wind_gusts":50.0,"aqi":96,"pm10":56.6,"pm2_5":25.6,"no2":8.7,"co":151.0,"o3":42.0,"so2":4.3,"mosquito_risk":7,"arthritis_risk":5,"migraine_risk":7,"frizz_risk":1,"updated_at":"2026-06-25T04:36:16.929259+05:30"},{"city":"Gwalior","state":"Madhya Pradesh","latitude":26.2183,"longitude":78.1828,"temp":29.8,"humidity":55,"rain":0.0,"pressure":977.9,"uv_index":8.25,"wind_gusts":35.3,"aqi":87,"pm10":46.4,"pm2_5":22.8,"no2":10.9,"co":171.0,"o3":39.0,"so2":2.6,"mosquito_risk":4,"arthritis_risk":5,"migraine_risk":7,"frizz_risk":1,"updated_at":"2026-06-25T04:36:16.929265+05:30"},{"city":"Indore","state":"Madhya Pradesh","latitude":22.7196,"longitude":75.8577,"temp":23.9,"humidity":92,"rain":0.0,"pressure":944.1,"uv_index":5.3,"wind_gusts":37.8,"aqi":76,"pm10":36.3,"pm2_5":23.7,"no2":8.7,"co":203.0,"o3":58.0,"so2":9.7,"mosquito_risk":3,"arthritis_risk":5,"migraine_risk":3,"frizz_risk":1,"updated_at":"2026-06-25T04:36:16.929272+05:30"},{"city":"Bhopal","state":"Madhya Pradesh","latitude":23.2599,"longitude":77.4126,"temp":24.0,"humidity":90,"rain":0.0,"pressure":949.8,"uv_index":7.2,"wind_gusts":22.3,"aqi":68,"pm10":28.9,"pm2_5":21.7,"no2":7.6,"co":267.0,"o3":64.0,"so2":3.3,"mosquito_risk":3,"arthritis_risk":5,"migraine_risk":7,"frizz_risk":1,"updated_at":"2026-06-25T04:36:16.929279+05:30"},{"city":"Jabalpur","state":"Madhya Pradesh","latitude":23.1815,"longitude":79.9864,"temp":25.1,"humidity":94,"rain":0.0,"pressure":957.2,"uv_index":8.85,"wind_gusts":32.4,"aqi":56,"pm10":29.9,"pm2_5":21.2,"no2":10.0,"co":255.0,"o3":62.0,"so2":3.4,"mosquito_risk":7,"arthritis_risk":5,"migraine_risk":7,"frizz_risk":1,"updated_at":"2026-06-25T04:36:16.929286+05:30"},{"city":"Ujjain","state":"Madhya Pradesh","latitude":23.1765,"longitude":75.7885,"temp":24.7,"humidity":88,"rain":0.0,"pressure":949.8,"uv_index":6.45,"wind_gusts":36.7,"aqi":78,"pm10":33.8,"pm2_5":19.7,"no2":7.0,"co":199.0,"o3":56.0,"so2":10.4,"mosquito_risk":3,"arthritis_risk":5,"migraine_risk":7,"frizz_risk":1,"updated_at":"2026-06-25T04:36:16.929294+05:30"},{"city":"Visakhapatnam","state":"Andhra Pradesh","latitude":17.6868,"longitude":83.2185,"temp":28.2,"humidity":80,"rain":0.0,"pressure":999.2,"uv_index":8.25,"wind_gusts":31.7,"aqi":69,"pm10":19.4,"pm2_5":16.6,"no2":21.4,"co":345.0,"o3":50.0,"so2":33.9,"mosquito_risk":7,"arthritis_risk":5,"migraine_risk":7,"frizz_risk":1,"updated_at":"2026-06-25T04:36:16.929301+05:30"},{"city":"Vijayawada","state":"Andhra Pradesh","latitude":16.5062,"longitude":80.648,"temp":29.0,"humidity":63,"rain":0.0,"pressure":999.0,"uv_index":8.8,"wind_gusts":32.0,"aqi":54,"pm10":25.9,"pm2_5":23.3,"no2":19.0,"co":212.0,"o3":30.0,"so2":6.5,"mosquito_risk":7,"arthritis_risk":5,"migraine_risk":7,"frizz_risk":1,"updated_at":"2026-06-25T04:36:16.929307+05:30"},{"city":"Guntur","state":"Andhra Pradesh","latitude":16.3067,"longitude":80.4365,"temp":28.4,"humidity":65,"rain":0.0,"pressure":1000.3,"uv_index":8.7,"wind_gusts":34.2,"aqi":50,"pm10":15.2,"pm2_5":13.9,"no2":16.4,"co":214.0,"o3":31.0,"so2":7.6,"mosquito_risk":7,"arthritis_risk":5,"migraine_risk":4,"frizz_risk":1,"updated_at":"2026-06-25T04:36:16.929315+05:30"},{"city":"Nellore","state":"Andhra Pradesh","latitude":14.4426,"longitude":79.9865,"temp":29.4,"humidity":56,"rain":0.0,"pressure":1003.1,"uv_index":7.9,"wind_gusts":45.0,"aqi":34,"pm10":8.2,"pm2_5":5.1,"no2":6.6,"co":126.0,"o3":37.0,"so2":4.0,"mosquito_risk":4,"arthritis_risk":5,"migraine_risk":4,"frizz_risk":1,"updated_at":"2026-06-25T04:36:16.929323+05:30"},{"city":"Kurnool","state":"Andhra Pradesh","latitude":15.8281,"longitude":78.0373,"temp":26.0,"humidity":76,"rain":0.0,"pressure":974.6,"uv_index":6.65,"wind_gusts":46.1,"aqi":24,"pm10":5.8,"pm2_5":4.4,"no2":8.0,"co":126.0,"o3":34.0,"so2":2.2,"mosquito_risk":7,"arthritis_risk":5,"migraine_risk":7,"frizz_risk":1,"updated_at":"2026-06-25T04:36:16.929331+05:30"},{"city":"Kakinada","state":"Andhra Pradesh","latitude":16.9891,"longitude":82.2475,"temp":28.0,"humidity":85,"rain":0.0,"pressure":1003.3,"uv_index":8.95,"wind_gusts":34.9,"aqi":56,"pm10":21.9,"pm2_5":15.8,"no2":5.4,"co":215.0,"o3":87.0,"so2":4.8,"mosquito_risk":7,"arthritis_risk":5,"migraine_risk":4,"frizz_risk":1,"updated_at":"2026-06-25T04:36:16.929338+05:30"},{"city":"Tirupati","state":"Andhra Pradesh","latitude":13.6288,"longitude":79.4192,"temp":27.2,"humidity":61,"rain":0.0,"pressure":989.0,"uv_index":8.0,"wind_gusts":42.8,"aqi":44,"pm10":10.4,"pm2_5":8.5,"no2":15.1,"co":139.0,"o3":19.0,"so2":2.8,"mosquito_risk":7,"arthritis_risk":5,"migraine_risk":7,"frizz_risk":1,"updated_at":"2026-06-25T04:36:16.929345+05:30"},{"city":"Warangal","state":"Telangana","latitude":17.9689,"longitude":79.5941,"temp":26.2,"humidity":74,"rain":0.0,"pressure":975.0,"uv_index":5.25,"wind_gusts":37.1,"aqi":41,"pm10":26.1,"pm2_5":17.5,"no2":10.8,"co":209.0,"o3":46.0,"so2":5.3,"mosquito_risk":7,"arthritis_risk":5,"migraine_risk":3,"frizz_risk":1,"updated_at":"2026-06-25T04:36:16.929352+05:30"},{"city":"Nizamabad","state":"Telangana","latitude":18.6725,"longitude":78.0941,"temp":25.5,"humidity":77,"rain":0.0,"pressure":961.3,"uv_index":6.7,"wind_gusts":42.5,"aqi":41,"pm10":38.3,"pm2_5":23.6,"no2":13.1,"co":240.0,"o3":40.0,"so2":5.8,"mosquito_risk":7,"arthritis_risk":5,"migraine_risk":7,"frizz_risk":1,"updated_at":"2026-06-25T04:36:16.929359+05:30"},{"city":"Mysore","state":"Karnataka","latitude":12.2958,"longitude":76.6396,"temp":21.5,"humidity":93,"rain":0.0,"pressure":927.7,"uv_index":9.0,"wind_gusts":50.0,"aqi":22,"pm10":2.5,"pm2_5":2.2,"no2":5.2,"co":117.0,"o3":36.0,"so2":1.8,"mosquito_risk":3,"arthritis_risk":5,"migraine_risk":7,"frizz_risk":1,"updated_at":"2026-06-25T04:36:16.929367+05:30"},{"city":"Mangalore","state":"Karnataka","latitude":12.9141,"longitude":74.856,"temp":24.1,"humidity":99,"rain":0.3,"pressure":1006.7,"uv_index":8.7,"wind_gusts":37.8,"aqi":44,"pm10":14.5,"pm2_5":10.7,"no2":9.3,"co":199.0,"o3":26.0,"so2":3.1,"mosquito_risk":6,"arthritis_risk":5,"migraine_risk":4,"frizz_risk":1,"updated_at":"2026-06-25T04:36:16.929374+05:30"},{"city":"Hubli-Dharwad","state":"Karnataka","latitude":15.3647,"longitude":75.124,"temp":21.5,"humidity":96,"rain":0.0,"pressure":938.5,"uv_index":7.3,"wind_gusts":51.5,"aqi":20,"pm10":2.9,"pm2_5":1.7,"no2":1.9,"co":95.0,"o3":45.0,"so2":1.1,"mosquito_risk":3,"arthritis_risk":5,"migraine_risk":7,"frizz_risk":1,"updated_at":"2026-06-25T04:36:16.929381+05:30"},{"city":"Belgaum","state":"Karnataka","latitude":15.8497,"longitude":74.4977,"temp":20.6,"humidity":98,"rain":0.0,"pressure":923.1,"uv_index":2.2,"wind_gusts":42.5,"aqi":19,"pm10":1.8,"pm2_5":1.7,"no2":4.3,"co":106.0,"o3":38.0,"so2":1.4,"mosquito_risk":3,"arthritis_risk":5,"migraine_risk":3,"frizz_risk":1,"updated_at":"2026-06-25T04:36:20.291841+05:30"},{"city":"Coimbatore","state":"Tamil Nadu","latitude":11.0168,"longitude":76.9558,"temp":22.7,"humidity":95,"rain":0.0,"pressure":961.1,"uv_index":8.05,"wind_gusts":53.6,"aqi":28,"pm10":4.2,"pm2_5":3.7,"no2":5.7,"co":159.0,"o3":33.0,"so2":2.7,"mosquito_risk":3,"arthritis_risk":5,"migraine_risk":7,"frizz_risk":1,"updated_at":"2026-06-25T04:36:20.291873+05:30"},{"city":"Madurai","state":"Tamil Nadu","latitude":9.9252,"longitude":78.1198,"temp":28.4,"humidity":63,"rain":0.0,"pressure":991.6,"uv_index":8.55,"wind_gusts":35.6,"aqi":68,"pm10":26.1,"pm2_5":25.0,"no2":38.7,"co":147.0,"o3":0.0,"so2":7.0,"mosquito_risk":7,"arthritis_risk":5,"migraine_risk":7,"frizz_risk":1,"updated_at":"2026-06-25T04:36:20.291885+05:30"},{"city":"Trichy","state":"Tamil Nadu","latitude":10.7905,"longitude":78.7047,"temp":27.6,"humidity":68,"rain":0.0,"pressure":998.5,"uv_index":8.45,"wind_gusts":50.4,"aqi":44,"pm10":2.7,"pm2_5":2.5,"no2":4.7,"co":110.0,"o3":35.0,"so2":2.6,"mosquito_risk":7,"arthritis_risk":5,"migraine_risk":7,"frizz_risk":1,"updated_at":"2026-06-25T04:36:20.291894+05:30"},{"city":"Salem","state":"Tamil Nadu","latitude":11.6643,"longitude":78.146,"temp":24.3,"humidity":88,"rain":0.0,"pressure":976.7,"uv_index":8.6,"wind_gusts":35.3,"aqi":57,"pm10":12.9,"pm2_5":11.9,"no2":19.4,"co":303.0,"o3":22.0,"so2":7.3,"mosquito_risk":3,"arthritis_risk":5,"migraine_risk":7,"frizz_risk":1,"updated_at":"2026-06-25T04:36:20.291904+05:30"},{"city":"Tirunelveli","state":"Tamil Nadu","latitude":8.7139,"longitude":77.7567,"temp":28.1,"humidity":71,"rain":0.0,"pressure":1002.4,"uv_index":8.0,"wind_gusts":49.3,"aqi":22,"pm10":3.0,"pm2_5":2.7,"no2":4.9,"co":146.0,"o3":34.0,"so2":2.2,"mosquito_risk":7,"arthritis_risk":5,"migraine_risk":4,"frizz_risk":1,"updated_at":"2026-06-25T04:36:20.291912+05:30"},{"city":"Vellore","state":"Tamil Nadu","latitude":12.9165,"longitude":79.1325,"temp":25.7,"humidity":69,"rain":0.0,"pressure":982.8,"uv_index":8.05,"wind_gusts":45.4,"aqi":48,"pm10":10.0,"pm2_5":7.6,"no2":11.2,"co":177.0,"o3":30.0,"so2":4.1,"mosquito_risk":7,"arthritis_risk":5,"migraine_risk":7,"frizz_risk":1,"updated_at":"2026-06-25T04:36:20.291919+05:30"},{"city":"Erode","state":"Tamil Nadu","latitude":11.341,"longitude":77.7172,"temp":25.3,"humidity":83,"rain":0.0,"pressure":988.4,"uv_index":7.95,"wind_gusts":44.3,"aqi":49,"pm10":9.4,"pm2_5":8.7,"no2":14.0,"co":145.0,"o3":27.0,"so2":3.4,"mosquito_risk":7,"arthritis_risk":5,"migraine_risk":7,"frizz_risk":1,"updated_at":"2026-06-25T04:36:20.291926+05:30"},{"city":"Kochi","state":"Kerala","latitude":9.9312,"longitude":76.2673,"temp":25.0,"humidity":96,"rain":0.1,"pressure":1009.5,"uv_index":8.3,"wind_gusts":42.5,"aqi":39,"pm10":10.5,"pm2_5":8.7,"no2":9.2,"co":85.0,"o3":23.0,"so2":3.3,"mosquito_risk":10,"arthritis_risk":0,"migraine_risk":4,"frizz_risk":1,"updated_at":"2026-06-25T04:36:20.291934+05:30"},{"city":"Thiruvananthapuram","state":"Kerala","latitude":8.5241,"longitude":76.9366,"temp":24.5,"humidity":97,"rain":0.1,"pressure":1008.8,"uv_index":8.0,"wind_gusts":54.7,"aqi":29,"pm10":8.6,"pm2_5":5.7,"no2":3.2,"co":114.0,"o3":43.0,"so2":1.6,"mosquito_risk":6,"arthritis_risk":0,"migraine_risk":4,"frizz_risk":1,"updated_at":"2026-06-25T04:36:20.291942+05:30"},{"city":"Kozhikode","state":"Kerala","latitude":11.2588,"longitude":75.7804,"temp":23.7,"humidity":99,"rain":0.1,"pressure":1008.7,"uv_index":8.05,"wind_gusts":32.4,"aqi":26,"pm10":8.6,"pm2_5":4.7,"no2":1.0,"co":122.0,"o3":53.0,"so2":0.7,"mosquito_risk":6,"arthritis_risk":0,"migraine_risk":4,"frizz_risk":1,"updated_at":"2026-06-25T04:36:20.291951+05:30"},{"city":"Thrissur","state":"Kerala","latitude":10.5276,"longitude":76.2144,"temp":23.7,"humidity":99,"rain":0.2,"pressure":1008.1,"uv_index":7.85,"wind_gusts":36.7,"aqi":41,"pm10":10.3,"pm2_5":8.8,"no2":7.8,"co":127.0,"o3":28.0,"so2":2.7,"mosquito_risk":6,"arthritis_risk":0,"migraine_risk":4,"frizz_risk":1,"updated_at":"2026-06-25T04:36:20.291959+05:30"},{"city":"Kannur","state":"Kerala","latitude":11.8745,"longitude":75.3704,"temp":23.2,"humidity":97,"rain":0.3,"pressure":1007.8,"uv_index":8.65,"wind_gusts":33.1,"aqi":29,"pm10":7.6,"pm2_5":5.0,"no2":7.7,"co":150.0,"o3":26.0,"so2":1.7,"mosquito_risk":6,"arthritis_risk":5,"migraine_risk":4,"frizz_risk":1,"updated_at":"2026-06-25T04:36:20.291965+05:30"},{"city":"Patna","state":"Bihar","latitude":25.5941,"longitude":85.1376,"temp":28.0,"humidity":77,"rain":0.0,"pressure":995.8,"uv_index":8.85,"wind_gusts":26.6,"aqi":155,"pm10":58.1,"pm2_5":51.5,"no2":31.2,"co":266.0,"o3":25.0,"so2":11.9,"mosquito_risk":7,"arthritis_risk":5,"migraine_risk":7,"frizz_risk":1,"updated_at":"2026-06-25T04:36:20.291998+05:30"},{"city":"Gaya","state":"Bihar","latitude":24.7914,"longitude":85.0002,"temp":28.9,"humidity":74,"rain":0.0,"pressure":989.3,"uv_index":8.65,"wind_gusts":22.0,"aqi":97,"pm10":17.1,"pm2_5":16.3,"no2":12.3,"co":253.0,"o3":53.0,"so2":5.0,"mosquito_risk":7,"arthritis_risk":5,"migraine_risk":7,"frizz_risk":1,"updated_at":"2026-06-25T04:36:20.292006+05:30"},{"city":"Muzaffarpur","state":"Bihar","latitude":26.1209,"longitude":85.3647,"temp":25.5,"humidity":93,"rain":0.3,"pressure":996.0,"uv_index":8.8,"wind_gusts":28.1,"aqi":159,"pm10":88.5,"pm2_5":78.7,"no2":28.0,"co":818.0,"o3":45.0,"so2":14.6,"mosquito_risk":10,"arthritis_risk":5,"migraine_risk":7,"frizz_risk":1,"updated_at":"2026-06-25T04:36:20.292013+05:30"},{"city":"Bhagalpur","state":"Bihar","latitude":25.2425,"longitude":87.0117,"temp":28.5,"humidity":75,"rain":0.0,"pressure":996.6,"uv_index":8.85,"wind_gusts":26.6,"aqi":153,"pm10":95.2,"pm2_5":78.0,"no2":24.4,"co":665.0,"o3":51.0,"so2":12.1,"mosquito_risk":7,"arthritis_risk":5,"migraine_risk":7,"frizz_risk":1,"updated_at":"2026-06-25T04:36:20.292020+05:30"},{"city":"Ranchi","state":"Jharkhand","latitude":23.3441,"longitude":85.3096,"temp":24.7,"humidity":80,"rain":0.0,"pressure":934.0,"uv_index":9.3,"wind_gusts":24.5,"aqi":79,"pm10":31.1,"pm2_5":31.0,"no2":11.6,"co":268.0,"o3":72.0,"so2":10.2,"mosquito_risk":3,"arthritis_risk":5,"migraine_risk":7,"frizz_risk":1,"updated_at":"2026-06-25T04:36:20.292028+05:30"},{"city":"Jamshedpur","state":"Jharkhand","latitude":22.8046,"longitude":86.2029,"temp":27.1,"humidity":79,"rain":0.0,"pressure":986.6,"uv_index":9.1,"wind_gusts":31.3,"aqi":102,"pm10":33.4,"pm2_5":33.1,"no2":20.3,"co":350.0,"o3":67.0,"so2":33.4,"mosquito_risk":7,"arthritis_risk":5,"migraine_risk":7,"frizz_risk":1,"updated_at":"2026-06-25T04:36:20.292035+05:30"},{"city":"Dhanbad","state":"Jharkhand","latitude":23.7957,"longitude":86.4304,"temp":27.7,"humidity":79,"rain":0.0,"pressure":975.4,"uv_index":9.05,"wind_gusts":23.4,"aqi":146,"pm10":51.9,"pm2_5":51.2,"no2":50.0,"co":294.0,"o3":36.0,"so2":117.9,"mosquito_risk":7,"arthritis_risk":5,"migraine_risk":7,"frizz_risk":1,"updated_at":"2026-06-25T04:36:20.292042+05:30"},{"city":"Bokaro","state":"Jharkhand","latitude":23.6693,"longitude":86.1511,"temp":28.0,"humidity":76,"rain":0.0,"pressure":979.3,"uv_index":9.1,"wind_gusts":29.2,"aqi":122,"pm10":41.3,"pm2_5":41.2,"no2":32.0,"co":304.0,"o3":51.0,"so2":77.7,"mosquito_risk":7,"arthritis_risk":5,"migraine_risk":7,"frizz_risk":1,"updated_at":"2026-06-25T04:36:20.292050+05:30"},{"city":"Bhubaneswar","state":"Odisha","latitude":20.2961,"longitude":85.8245,"temp":27.3,"humidity":94,"rain":0.0,"pressure":998.0,"uv_index":8.8,"wind_gusts":29.9,"aqi":82,"pm10":36.0,"pm2_5":34.8,"no2":20.3,"co":370.0,"o3":45.0,"so2":6.8,"mosquito_risk":7,"arthritis_risk":5,"migraine_risk":7,"frizz_risk":1,"updated_at":"2026-06-25T04:36:20.292056+05:30"},{"city":"Cuttack","state":"Odisha","latitude":20.4625,"longitude":85.8828,"temp":27.4,"humidity":93,"rain":0.0,"pressure":999.8,"uv_index":8.7,"wind_gusts":29.5,"aqi":82,"pm10":36.0,"pm2_5":34.8,"no2":20.3,"co":434.0,"o3":45.0,"so2":6.8,"mosquito_risk":7,"arthritis_risk":5,"migraine_risk":7,"frizz_risk":1,"updated_at":"2026-06-25T04:36:20.292064+05:30"},{"city":"Rourkela","state":"Odisha","latitude":22.2604,"longitude":84.8536,"temp":26.5,"humidity":87,"rain":0.0,"pressure":981.0,"uv_index":9.0,"wind_gusts":34.9,"aqi":94,"pm10":37.8,"pm2_5":37.6,"no2":18.4,"co":474.0,"o3":43.0,"so2":7.9,"mosquito_risk":7,"arthritis_risk":5,"migraine_risk":7,"frizz_risk":1,"updated_at":"2026-06-25T04:36:20.292071+05:30"},{"city":"Raipur","state":"Chhattisgarh","latitude":21.2514,"longitude":81.6296,"temp":28.5,"humidity":64,"rain":0.0,"pressure":970.8,"uv_index":8.85,"wind_gusts":29.2,"aqi":63,"pm10":31.0,"pm2_5":31.0,"no2":55.5,"co":639.0,"o3":12.0,"so2":79.2,"mosquito_risk":7,"arthritis_risk":5,"migraine_risk":7,"frizz_risk":1,"updated_at":"2026-06-25T04:36:20.292078+05:30"},{"city":"Bhilai","state":"Chhattisgarh","latitude":21.1938,"longitude":81.3509,"temp":27.9,"humidity":68,"rain":0.0,"pressure":971.2,"uv_index":8.9,"wind_gusts":38.2,"aqi":58,"pm10":25.3,"pm2_5":25.2,"no2":41.1,"co":825.0,"o3":26.0,"so2":63.0,"mosquito_risk":7,"arthritis_risk":5,"migraine_risk":7,"frizz_risk":1,"updated_at":"2026-06-25T04:36:20.292085+05:30"},{"city":"Guwahati","state":"Assam","latitude":26.1158,"longitude":91.7086,"temp":24.8,"humidity":98,"rain":0.0,"pressure":999.0,"uv_index":8.8,"wind_gusts":25.9,"aqi":63,"pm10":25.3,"pm2_5":20.0,"no2":6.4,"co":335.0,"o3":73.0,"so2":3.0,"mosquito_risk":3,"arthritis_risk":5,"migraine_risk":7,"frizz_risk":1,"updated_at":"2026-06-25T04:36:20.292092+05:30"},{"city":"Agartala","state":"Tripura","latitude":23.8315,"longitude":91.2868,"temp":26.0,"humidity":97,"rain":0.1,"pressure":1003.1,"uv_index":8.8,"wind_gusts":25.2,"aqi":75,"pm10":23.6,"pm2_5":19.9,"no2":14.3,"co":253.0,"o3":45.0,"so2":4.7,"mosquito_risk":10,"arthritis_risk":5,"migraine_risk":4,"frizz_risk":1,"updated_at":"2026-06-25T04:36:20.292099+05:30"},{"city":"Shillong","state":"Meghalaya","latitude":25.5788,"longitude":91.8933,"temp":19.2,"humidity":98,"rain":0.0,"pressure":855.4,"uv_index":8.85,"wind_gusts":18.7,"aqi":39,"pm10":9.4,"pm2_5":6.6,"no2":4.0,"co":268.0,"o3":85.0,"so2":4.4,"mosquito_risk":3,"arthritis_risk":10,"migraine_risk":7,"frizz_risk":1,"updated_at":"2026-06-25T04:36:20.292106+05:30"},{"city":"Imphal","state":"Manipur","latitude":24.817,"longitude":93.9368,"temp":22.6,"humidity":96,"rain":0.0,"pressure":920.5,"uv_index":8.15,"wind_gusts":23.0,"aqi":50,"pm10":8.8,"pm2_5":7.5,"no2":7.1,"co":432.0,"o3":42.0,"so2":2.0,"mosquito_risk":3,"arthritis_risk":5,"migraine_risk":7,"frizz_risk":1,"updated_at":"2026-06-25T04:36:20.292113+05:30"},{"city":"Aizawl","state":"Mizoram","latitude":23.7271,"longitude":92.7176,"temp":19.5,"humidity":98,"rain":0.0,"pressure":889.9,"uv_index":9.0,"wind_gusts":20.5,"aqi":34,"pm10":8.5,"pm2_5":7.0,"no2":4.7,"co":213.0,"o3":39.0,"so2":0.9,"mosquito_risk":3,"arthritis_risk":10,"migraine_risk":7,"frizz_risk":1,"updated_at":"2026-06-25T04:36:20.292121+05:30"},{"city":"Kohima","state":"Nagaland","latitude":25.6701,"longitude":94.1077,"temp":20.0,"humidity":92,"rain":0.1,"pressure":853.3,"uv_index":8.85,"wind_gusts":19.8,"aqi":31,"pm10":6.7,"pm2_5":4.4,"no2":4.6,"co":249.0,"o3":53.0,"so2":0.8,"mosquito_risk":6,"arthritis_risk":5,"migraine_risk":7,"frizz_risk":1,"updated_at":"2026-06-25T04:36:20.292128+05:30"},{"city":"Gangtok","state":"Sikkim","latitude":27.3314,"longitude":88.6138,"temp":16.6,"humidity":90,"rain":0.0,"pressure":834.6,"uv_index":8.9,"wind_gusts":37.8,"aqi":43,"pm10":8.4,"pm2_5":7.4,"no2":14.3,"co":696.0,"o3":29.0,"so2":1.0,"mosquito_risk":3,"arthritis_risk":10,"migraine_risk":7,"frizz_risk":0,"updated_at":"2026-06-25T04:36:20.292135+05:30"},{"city":"Siliguri","state":"West Bengal","latitude":26.7271,"longitude":88.3953,"temp":24.0,"humidity":97,"rain":0.0,"pressure":989.8,"uv_index":8.75,"wind_gusts":27.0,"aqi":90,"pm10":46.9,"pm2_5":38.1,"no2":22.7,"co":541.0,"o3":64.0,"so2":4.3,"mosquito_risk":3,"arthritis_risk":5,"migraine_risk":7,"frizz_risk":1,"updated_at":"2026-06-25T04:36:23.766111+05:30"},{"city":"Durgapur","state":"West Bengal","latitude":23.5204,"longitude":87.3119,"temp":27.6,"humidity":85,"rain":0.0,"pressure":990.4,"uv_index":9.0,"wind_gusts":28.1,"aqi":158,"pm10":57.0,"pm2_5":56.3,"no2":51.3,"co":1051.0,"o3":31.0,"so2":78.1,"mosquito_risk":7,"arthritis_risk":5,"migraine_risk":7,"frizz_risk":1,"updated_at":"2026-06-25T04:36:23.766141+05:30"},{"city":"Asansol","state":"West Bengal","latitude":23.6739,"longitude":86.9524,"temp":27.8,"humidity":82,"rain":0.0,"pressure":989.0,"uv_index":8.85,"wind_gusts":34.6,"aqi":151,"pm10":46.3,"pm2_5":45.5,"no2":47.0,"co":497.0,"o3":36.0,"so2":76.9,"mosquito_risk":7,"arthritis_risk":5,"migraine_risk":7,"frizz_risk":1,"updated_at":"2026-06-25T04:36:23.766152+05:30"},{"city":"Pondicherry","state":"Puducherry","latitude":11.9139,"longitude":79.8145,"temp":27.2,"humidity":74,"rain":0.0,"pressure":1006.5,"uv_index":7.95,"wind_gusts":40.7,"aqi":62,"pm10":19.0,"pm2_5":16.6,"no2":19.1,"co":407.0,"o3":36.0,"so2":10.2,"mosquito_risk":7,"arthritis_risk":5,"migraine_risk":4,"frizz_risk":1,"updated_at":"2026-06-25T04:36:23.766161+05:30"},{"city":"Port Blair","state":"Andaman and Nicobar Islands","latitude":11.6234,"longitude":92.7265,"temp":26.4,"humidity":90,"rain":0.1,"pressure":1006.0,"uv_index":6.9,"wind_gusts":47.5,"aqi":31,"pm10":11.4,"pm2_5":7.0,"no2":0.3,"co":92.0,"o3":51.0,"so2":0.3,"mosquito_risk":10,"arthritis_risk":5,"migraine_risk":4,"frizz_risk":1,"updated_at":"2026-06-25T04:36:23.766170+05:30"},{"city":"Haridwar","state":"Uttarakhand","latitude":29.9457,"longitude":78.1642,"temp":25.5,"humidity":81,"rain":0.0,"pressure":969.6,"uv_index":7.05,"wind_gusts":26.6,"aqi":127,"pm10":78.7,"pm2_5":64.7,"no2":45.7,"co":315.0,"o3":18.0,"so2":8.5,"mosquito_risk":7,"arthritis_risk":5,"migraine_risk":7,"frizz_risk":1,"updated_at":"2026-06-25T04:36:23.766178+05:30"},{"city":"Rishikesh","state":"Uttarakhand","latitude":30.0869,"longitude":78.2676,"temp":23.8,"humidity":85,"rain":0.0,"pressure":962.6,"uv_index":7.15,"wind_gusts":22.0,"aqi":92,"pm10":53.3,"pm2_5":40.4,"no2":16.4,"co":381.0,"o3":91.0,"so2":6.8,"mosquito_risk":3,"arthritis_risk":5,"migraine_risk":7,"frizz_risk":1,"updated_at":"2026-06-25T04:36:23.766186+05:30"},{"city":"Nainital","state":"Uttarakhand","latitude":29.3919,"longitude":79.4542,"temp":14.0,"humidity":99,"rain":0.0,"pressure":802.8,"uv_index":5.15,"wind_gusts":29.5,"aqi":106,"pm10":58.2,"pm2_5":38.5,"no2":28.7,"co":307.0,"o3":40.0,"so2":2.8,"mosquito_risk":3,"arthritis_risk":10,"migraine_risk":3,"frizz_risk":0,"updated_at":"2026-06-25T04:36:23.766194+05:30"},{"city":"Mussoorie","state":"Uttarakhand","latitude":30.4599,"longitude":78.0664,"temp":15.4,"humidity":82,"rain":0.0,"pressure":800.4,"uv_index":6.35,"wind_gusts":31.0,"aqi":90,"pm10":49.5,"pm2_5":44.7,"no2":44.5,"co":314.0,"o3":18.0,"so2":6.5,"mosquito_risk":3,"arthritis_risk":10,"migraine_risk":7,"frizz_risk":0,"updated_at":"2026-06-25T04:36:23.766202+05:30"},{"city":"Dharamshala","state":"Himachal Pradesh","latitude":32.219,"longitude":76.3234,"temp":19.6,"humidity":71,"rain":0.1,"pressure":865.6,"uv_index":8.5,"wind_gusts":41.8,"aqi":46,"pm10":7.3,"pm2_5":6.5,"no2":14.7,"co":246.0,"o3":52.0,"so2":0.0,"mosquito_risk":6,"arthritis_risk":5,"migraine_risk":7,"frizz_risk":0,"updated_at":"2026-06-25T04:36:23.766210+05:30"},{"city":"Dalhousie","state":"Himachal Pradesh","latitude":32.5387,"longitude":75.971,"temp":14.1,"humidity":84,"rain":0.0,"pressure":800.8,"uv_index":7.8,"wind_gusts":31.7,"aqi":78,"pm10":22.7,"pm2_5":20.5,"no2":21.9,"co":309.0,"o3":33.0,"so2":0.3,"mosquito_risk":3,"arthritis_risk":10,"migraine_risk":7,"frizz_risk":0,"updated_at":"2026-06-25T04:36:23.766218+05:30"},{"city":"Patiala","state":"Punjab","latitude":30.3398,"longitude":76.3869,"temp":27.0,"humidity":74,"rain":0.0,"pressure":973.1,"uv_index":7.65,"wind_gusts":22.0,"aqi":232,"pm10":246.8,"pm2_5":109.0,"no2":40.3,"co":627.0,"o3":31.0,"so2":9.6,"mosquito_risk":7,"arthritis_risk":5,"migraine_risk":7,"frizz_risk":1,"updated_at":"2026-06-25T04:36:23.766226+05:30"},{"city":"Bhatinda","state":"Punjab","latitude":30.211,"longitude":74.9455,"temp":28.8,"humidity":65,"rain":0.0,"pressure":977.9,"uv_index":8.3,"wind_gusts":24.5,"aqi":155,"pm10":165.3,"pm2_5":70.1,"no2":39.4,"co":343.0,"o3":37.0,"so2":9.9,"mosquito_risk":7,"arthritis_risk":5,"migraine_risk":7,"frizz_risk":1,"updated_at":"2026-06-25T04:36:23.766233+05:30"},{"city":"Rohtak","state":"Haryana","latitude":28.8955,"longitude":76.6066,"temp":27.5,"humidity":79,"rain":0.0,"pressure":976.1,"uv_index":7.75,"wind_gusts":20.5,"aqi":237,"pm10":329.7,"pm2_5":123.9,"no2":72.7,"co":518.0,"o3":0.0,"so2":23.3,"mosquito_risk":7,"arthritis_risk":5,"migraine_risk":7,"frizz_risk":1,"updated_at":"2026-06-25T04:36:23.766240+05:30"},{"city":"Panipat","state":"Haryana","latitude":29.3909,"longitude":76.9635,"temp":26.8,"humidity":75,"rain":0.0,"pressure":974.9,"uv_index":7.65,"wind_gusts":18.7,"aqi":530,"pm10":389.3,"pm2_5":137.8,"no2":70.1,"co":761.0,"o3":3.0,"so2":14.1,"mosquito_risk":7,"arthritis_risk":5,"migraine_risk":7,"frizz_risk":1,"updated_at":"2026-06-25T04:36:23.766247+05:30"},{"city":"Mathura","state":"Uttar Pradesh","latitude":27.4924,"longitude":77.6737,"temp":29.0,"humidity":57,"rain":0.0,"pressure":981.1,"uv_index":7.95,"wind_gusts":18.0,"aqi":377,"pm10":360.4,"pm2_5":77.3,"no2":22.9,"co":401.0,"o3":36.0,"so2":4.1,"mosquito_risk":4,"arthritis_risk":5,"migraine_risk":7,"frizz_risk":1,"updated_at":"2026-06-25T04:36:23.766254+05:30"},{"city":"Vrindavan","state":"Uttar Pradesh","latitude":27.5823,"longitude":77.7027,"temp":28.5,"humidity":62,"rain":0.0,"pressure":981.5,"uv_index":7.9,"wind_gusts":15.5,"aqi":377,"pm10":360.4,"pm2_5":77.3,"no2":22.9,"co":462.0,"o3":36.0,"so2":4.1,"mosquito_risk":7,"arthritis_risk":5,"migraine_risk":7,"frizz_risk":1,"updated_at":"2026-06-25T04:36:23.766261+05:30"},{"city":"Ayodhya","state":"Uttar Pradesh","latitude":26.7922,"longitude":82.1998,"temp":28.9,"humidity":67,"rain":0.0,"pressure":989.9,"uv_index":8.4,"wind_gusts":17.6,"aqi":162,"pm10":215.6,"pm2_5":106.4,"no2":66.6,"co":523.0,"o3":12.0,"so2":15.5,"mosquito_risk":7,"arthritis_risk":5,"migraine_risk":7,"frizz_risk":1,"updated_at":"2026-06-25T04:36:23.766268+05:30"},{"city":"Ratlam","state":"Madhya Pradesh","latitude":23.3315,"longitude":75.0367,"temp":25.1,"humidity":84,"rain":0.0,"pressure":950.7,"uv_index":8.45,"wind_gusts":37.4,"aqi":74,"pm10":29.0,"pm2_5":16.4,"no2":8.0,"co":155.0,"o3":45.0,"so2":11.8,"mosquito_risk":7,"arthritis_risk":5,"migraine_risk":7,"frizz_risk":1,"updated_at":"2026-06-25T04:36:23.766275+05:30"},{"city":"Sagar","state":"Madhya Pradesh","latitude":23.8388,"longitude":78.7378,"temp":24.4,"humidity":87,"rain":0.0,"pressure":946.1,"uv_index":7.9,"wind_gusts":29.5,"aqi":68,"pm10":29.0,"pm2_5":20.5,"no2":8.3,"co":244.0,"o3":65.0,"so2":3.0,"mosquito_risk":3,"arthritis_risk":5,"migraine_risk":7,"frizz_risk":1,"updated_at":"2026-06-25T04:36:23.766282+05:30"},{"city":"Satna","state":"Madhya Pradesh","latitude":24.6005,"longitude":80.8322,"temp":28.7,"humidity":65,"rain":0.0,"pressure":966.7,"uv_index":8.3,"wind_gusts":26.6,"aqi":79,"pm10":23.6,"pm2_5":17.8,"no2":9.3,"co":204.0,"o3":65.0,"so2":3.6,"mosquito_risk":7,"arthritis_risk":5,"migraine_risk":7,"frizz_risk":1,"updated_at":"2026-06-25T04:36:23.766289+05:30"},{"city":"Akola","state":"Maharashtra","latitude":20.7002,"longitude":77.0082,"temp":24.9,"humidity":95,"rain":0.4,"pressure":971.4,"uv_index":8.35,"wind_gusts":40.7,"aqi":55,"pm10":28.3,"pm2_5":18.5,"no2":10.0,"co":219.0,"o3":62.0,"so2":9.3,"mosquito_risk":6,"arthritis_risk":5,"migraine_risk":7,"frizz_risk":1,"updated_at":"2026-06-25T04:36:23.766296+05:30"},{"city":"Amravati","state":"Maharashtra","latitude":20.9374,"longitude":77.7796,"temp":24.5,"humidity":96,"rain":0.1,"pressure":963.2,"uv_index":8.55,"wind_gusts":41.0,"aqi":52,"pm10":27.7,"pm2_5":19.2,"no2":10.4,"co":183.0,"o3":59.0,"so2":7.9,"mosquito_risk":6,"arthritis_risk":5,"migraine_risk":7,"frizz_risk":1,"updated_at":"2026-06-25T04:36:23.766305+05:30"},{"city":"Latur","state":"Maharashtra","latitude":18.4088,"longitude":76.5604,"temp":24.1,"humidity":79,"rain":0.0,"pressure":936.4,"uv_index":4.9,"wind_gusts":41.0,"aqi":35,"pm10":12.2,"pm2_5":7.4,"no2":12.3,"co":161.0,"o3":32.0,"so2":4.3,"mosquito_risk":3,"arthritis_risk":5,"migraine_risk":3,"frizz_risk":1,"updated_at":"2026-06-25T04:36:23.766312+05:30"},{"city":"Nanded","state":"Maharashtra","latitude":19.1383,"longitude":77.3091,"temp":26.0,"humidity":77,"rain":0.0,"pressure":965.1,"uv_index":6.7,"wind_gusts":39.6,"aqi":47,"pm10":23.0,"pm2_5":14.8,"no2":11.2,"co":371.0,"o3":43.0,"so2":4.6,"mosquito_risk":7,"arthritis_risk":5,"migraine_risk":7,"frizz_risk":1,"updated_at":"2026-06-25T04:36:23.766320+05:30"},{"city":"Gulbarga","state":"Karnataka","latitude":17.3297,"longitude":76.8343,"temp":24.6,"humidity":80,"rain":0.0,"pressure":955.7,"uv_index":4.2,"wind_gusts":53.6,"aqi":20,"pm10":4.0,"pm2_5":3.3,"no2":8.0,"co":133.0,"o3":36.0,"so2":3.0,"mosquito_risk":3,"arthritis_risk":5,"migraine_risk":3,"frizz_risk":1,"updated_at":"2026-06-25T04:36:23.766327+05:30"},{"city":"Bidar","state":"Karnataka","latitude":17.9104,"longitude":77.5199,"temp":24.8,"humidity":72,"rain":0.0,"pressure":932.1,"uv_index":7.4,"wind_gusts":40.0,"aqi":29,"pm10":11.6,"pm2_5":6.5,"no2":9.3,"co":148.0,"o3":39.0,"so2":2.8,"mosquito_risk":3,"arthritis_risk":5,"migraine_risk":7,"frizz_risk":1,"updated_at":"2026-06-25T04:36:23.766334+05:30"},{"city":"Hospet","state":"Karnataka","latitude":15.2689,"longitude":76.3909,"temp":23.2,"humidity":89,"rain":0.0,"pressure":954.0,"uv_index":8.1,"wind_gusts":46.8,"aqi":19,"pm10":4.5,"pm2_5":2.9,"no2":3.0,"co":104.0,"o3":41.0,"so2":1.3,"mosquito_risk":3,"arthritis_risk":5,"migraine_risk":7,"frizz_risk":1,"updated_at":"2026-06-25T04:36:23.766340+05:30"},{"city":"Tirupur","state":"Tamil Nadu","latitude":11.1085,"longitude":77.3411,"temp":24.0,"humidity":91,"rain":0.0,"pressure":974.6,"uv_index":7.95,"wind_gusts":49.3,"aqi":53,"pm10":12.0,"pm2_5":11.2,"no2":17.5,"co":137.0,"o3":20.0,"so2":4.3,"mosquito_risk":3,"arthritis_risk":5,"migraine_risk":7,"frizz_risk":1,"updated_at":"2026-06-25T04:36:23.766347+05:30"},{"city":"Alappuzha","state":"Kerala","latitude":9.4981,"longitude":76.3388,"temp":25.5,"humidity":95,"rain":0.1,"pressure":1009.3,"uv_index":8.3,"wind_gusts":43.9,"aqi":34,"pm10":9.4,"pm2_5":6.8,"no2":5.9,"co":78.0,"o3":36.0,"so2":2.7,"mosquito_risk":10,"arthritis_risk":0,"migraine_risk":4,"frizz_risk":1,"updated_at":"2026-06-25T04:36:23.766354+05:30"},{"city":"Munnar","state":"Kerala","latitude":10.0889,"longitude":77.0595,"temp":16.1,"humidity":99,"rain":0.1,"pressure":856.3,"uv_index":8.75,"wind_gusts":43.9,"aqi":19,"pm10":1.9,"pm2_5":1.8,"no2":4.7,"co":87.0,"o3":27.0,"so2":1.3,"mosquito_risk":6,"arthritis_risk":10,"migraine_risk":7,"frizz_risk":0,"updated_at":"2026-06-25T04:36:23.766361+05:30"},{"city":"Silchar","state":"Assam","latitude":24.8333,"longitude":92.7789,"temp":26.0,"humidity":93,"rain":0.0,"pressure":1002.5,"uv_index":8.7,"wind_gusts":23.0,"aqi":60,"pm10":22.5,"pm2_5":15.0,"no2":6.4,"co":242.0,"o3":83.0,"so2":3.3,"mosquito_risk":7,"arthritis_risk":5,"migraine_risk":4,"frizz_risk":1,"updated_at":"2026-06-25T04:36:23.766368+05:30"},{"city":"Dibrugarh","state":"Assam","latitude":27.4728,"longitude":94.912,"temp":26.1,"humidity":98,"rain":0.0,"pressure":992.1,"uv_index":8.85,"wind_gusts":23.8,"aqi":55,"pm10":16.5,"pm2_5":15.1,"no2":11.3,"co":241.0,"o3":56.0,"so2":1.3,"mosquito_risk":7,"arthritis_risk":5,"migraine_risk":7,"frizz_risk":1,"updated_at":"2026-06-25T04:36:23.766375+05:30"}]