[{"city":"Delhi","state":"Delhi","latitude":28.6139,"longitude":77.209,"temp":39.0,"humidity":27,"rain":0.0,"pressure":975.9,"uv_index":7.8,"wind_gusts":50.8,"aqi":209,"pm10":403.3,"pm2_5":78.2,"no2":4.9,"co":208.0,"o3":132.0,"so2":10.8,"mosquito_risk":0,"arthritis_risk":5,"migraine_risk":10,"frizz_risk":1,"updated_at":"2026-06-07T17:19:57.142149+05:30"},{"city":"Mumbai","state":"Maharashtra","latitude":19.076,"longitude":72.8777,"temp":32.3,"humidity":65,"rain":0.0,"pressure":1005.2,"uv_index":7.7,"wind_gusts":40.3,"aqi":73,"pm10":65.0,"pm2_5":22.1,"no2":4.6,"co":153.0,"o3":80.0,"so2":5.1,"mosquito_risk":3,"arthritis_risk":5,"migraine_risk":4,"frizz_risk":1,"updated_at":"2026-06-07T17:19:57.142187+05:30"},{"city":"Bangalore","state":"Karnataka","latitude":12.9716,"longitude":77.5946,"temp":25.4,"humidity":70,"rain":0.0,"pressure":910.1,"uv_index":8.25,"wind_gusts":45.0,"aqi":31,"pm10":4.0,"pm2_5":3.9,"no2":9.3,"co":340.0,"o3":62.0,"so2":3.2,"mosquito_risk":7,"arthritis_risk":5,"migraine_risk":7,"frizz_risk":1,"updated_at":"2026-06-07T17:19:57.142201+05:30"},{"city":"Hyderabad","state":"Telangana","latitude":17.385,"longitude":78.4867,"temp":32.6,"humidity":44,"rain":0.0,"pressure":949.3,"uv_index":8.45,"wind_gusts":44.3,"aqi":82,"pm10":47.0,"pm2_5":27.8,"no2":1.2,"co":217.0,"o3":130.0,"so2":5.2,"mosquito_risk":0,"arthritis_risk":5,"migraine_risk":7,"frizz_risk":1,"updated_at":"2026-06-07T17:19:57.142210+05:30"},{"city":"Chennai","state":"Tamil Nadu","latitude":13.0827,"longitude":80.2707,"temp":34.0,"humidity":56,"rain":0.1,"pressure":1002.4,"uv_index":8.05,"wind_gusts":43.2,"aqi":50,"pm10":22.4,"pm2_5":16.3,"no2":3.2,"co":206.0,"o3":114.0,"so2":5.4,"mosquito_risk":3,"arthritis_risk":5,"migraine_risk":4,"frizz_risk":1,"updated_at":"2026-06-07T17:19:57.142218+05:30"},{"city":"Kolkata","state":"West Bengal","latitude":22.5726,"longitude":88.3639,"temp":28.0,"humidity":92,"rain":0.2,"pressure":999.8,"uv_index":7.4,"wind_gusts":26.6,"aqi":132,"pm10":35.7,"pm2_5":32.2,"no2":12.6,"co":504.0,"o3":83.0,"so2":8.4,"mosquito_risk":10,"arthritis_risk":5,"migraine_risk":7,"frizz_risk":1,"updated_at":"2026-06-07T17:19:57.142226+05:30"},{"city":"Pune","state":"Maharashtra","latitude":18.5204,"longitude":73.8567,"temp":29.4,"humidity":64,"rain":0.1,"pressure":945.5,"uv_index":7.8,"wind_gusts":45.4,"aqi":57,"pm10":32.1,"pm2_5":14.1,"no2":3.2,"co":138.0,"o3":86.0,"so2":3.7,"mosquito_risk":10,"arthritis_risk":5,"migraine_risk":7,"frizz_risk":1,"updated_at":"2026-06-07T17:19:57.142233+05:30"},{"city":"Ahmedabad","state":"Gujarat","latitude":23.0225,"longitude":72.5714,"temp":41.1,"humidity":28,"rain":0.0,"pressure":995.4,"uv_index":8.05,"wind_gusts":42.5,"aqi":78,"pm10":64.5,"pm2_5":23.9,"no2":1.3,"co":141.0,"o3":99.0,"so2":3.4,"mosquito_risk":0,"arthritis_risk":5,"migraine_risk":10,"frizz_risk":1,"updated_at":"2026-06-07T17:19:57.142240+05:30"},{"city":"Jaipur","state":"Rajasthan","latitude":26.9124,"longitude":75.7873,"temp":37.9,"humidity":29,"rain":0.0,"pressure":954.4,"uv_index":8.25,"wind_gusts":32.0,"aqi":136,"pm10":205.4,"pm2_5":45.3,"no2":0.0,"co":140.0,"o3":101.0,"so2":2.7,"mosquito_risk":0,"arthritis_risk":5,"migraine_risk":10,"frizz_risk":1,"updated_at":"2026-06-07T17:19:57.142250+05:30"},{"city":"Lucknow","state":"Uttar Pradesh","latitude":26.8467,"longitude":80.9462,"temp":38.5,"humidity":27,"rain":0.0,"pressure":986.0,"uv_index":8.3,"wind_gusts":34.9,"aqi":153,"pm10":210.5,"pm2_5":54.8,"no2":2.0,"co":234.0,"o3":140.0,"so2":5.4,"mosquito_risk":0,"arthritis_risk":5,"migraine_risk":10,"frizz_risk":1,"updated_at":"2026-06-07T17:19:57.142258+05:30"},{"city":"Kanpur","state":"Uttar Pradesh","latitude":26.4499,"longitude":80.3319,"temp":39.9,"humidity":22,"rain":0.0,"pressure":984.2,"uv_index":8.3,"wind_gusts":35.6,"aqi":177,"pm10":428.4,"pm2_5":72.4,"no2":1.5,"co":181.0,"o3":139.0,"so2":5.8,"mosquito_risk":0,"arthritis_risk":5,"migraine_risk":10,"frizz_risk":0,"updated_at":"2026-06-07T17:19:57.142265+05:30"},{"city":"Chandigarh","state":"Chandigarh","latitude":30.7333,"longitude":76.7794,"temp":35.7,"humidity":32,"rain":0.0,"pressure":962.4,"uv_index":7.8,"wind_gusts":25.9,"aqi":168,"pm10":36.9,"pm2_5":27.0,"no2":1.8,"co":349.0,"o3":188.0,"so2":9.5,"mosquito_risk":0,"arthritis_risk":5,"migraine_risk":10,"frizz_risk":1,"updated_at":"2026-06-07T17:19:57.142297+05:30"},{"city":"Srinagar","state":"Jammu and Kashmir","latitude":34.0837,"longitude":74.7973,"temp":25.7,"humidity":32,"rain":0.0,"pressure":842.1,"uv_index":9.0,"wind_gusts":19.8,"aqi":116,"pm10":13.4,"pm2_5":8.7,"no2":1.1,"co":218.0,"o3":148.0,"so2":1.8,"mosquito_risk":4,"arthritis_risk":5,"migraine_risk":7,"frizz_risk":0,"updated_at":"2026-06-07T17:19:57.142306+05:30"},{"city":"Jammu","state":"Jammu and Kashmir","latitude":32.7266,"longitude":74.857,"temp":38.1,"humidity":17,"rain":0.0,"pressure":966.7,"uv_index":8.6,"wind_gusts":27.7,"aqi":136,"pm10":15.3,"pm2_5":9.5,"no2":0.7,"co":159.0,"o3":166.0,"so2":2.2,"mosquito_risk":0,"arthritis_risk":5,"migraine_risk":10,"frizz_risk":0,"updated_at":"2026-06-07T17:19:57.142312+05:30"},{"city":"Amritsar","state":"Punjab","latitude":31.634,"longitude":74.8723,"temp":38.8,"humidity":20,"rain":0.0,"pressure":974.3,"uv_index":8.45,"wind_gusts":25.2,"aqi":159,"pm10":39.9,"pm2_5":26.6,"no2":0.3,"co":235.0,"o3":195.0,"so2":7.4,"mosquito_risk":0,"arthritis_risk":5,"migraine_risk":10,"frizz_risk":0,"updated_at":"2026-06-07T17:19:57.142319+05:30"},{"city":"Ludhiana","state":"Punjab","latitude":30.901,"longitude":75.8573,"temp":38.8,"humidity":19,"rain":0.0,"pressure":972.0,"uv_index":8.05,"wind_gusts":32.4,"aqi":162,"pm10":49.5,"pm2_5":29.9,"no2":0.9,"co":216.0,"o3":173.0,"so2":5.1,"mosquito_risk":0,"arthritis_risk":5,"migraine_risk":10,"frizz_risk":0,"updated_at":"2026-06-07T17:19:57.142328+05:30"},{"city":"Jalandhar","state":"Punjab","latitude":31.326,"longitude":75.5762,"temp":39.4,"humidity":18,"rain":0.0,"pressure":972.9,"uv_index":8.25,"wind_gusts":28.8,"aqi":159,"pm10":44.0,"pm2_5":25.0,"no2":0.1,"co":203.0,"o3":177.0,"so2":4.8,"mosquito_risk":0,"arthritis_risk":5,"migraine_risk":10,"frizz_risk":0,"updated_at":"2026-06-07T17:19:57.142335+05:30"},{"city":"Dehradun","state":"Uttarakhand","latitude":30.6284,"longitude":78.0322,"temp":23.5,"humidity":56,"rain":0.0,"pressure":829.1,"uv_index":8.3,"wind_gusts":48.6,"aqi":125,"pm10":21.7,"pm2_5":14.1,"no2":0.1,"co":216.0,"o3":158.0,"so2":3.5,"mosquito_risk":0,"arthritis_risk":5,"migraine_risk":7,"frizz_risk":0,"updated_at":"2026-06-07T17:19:57.142345+05:30"},{"city":"Shimla","state":"Himachal Pradesh","latitude":31.1048,"longitude":77.1734,"temp":22.5,"humidity":32,"rain":0.0,"pressure":785.0,"uv_index":8.35,"wind_gusts":44.3,"aqi":129,"pm10":18.2,"pm2_5":12.7,"no2":0.5,"co":182.0,"o3":169.0,"so2":5.1,"mosquito_risk":0,"arthritis_risk":5,"migraine_risk":7,"frizz_risk":0,"updated_at":"2026-06-07T17:19:57.142352+05:30"},{"city":"Manali","state":"Himachal Pradesh","latitude":32.2396,"longitude":77.1887,"temp":22.3,"humidity":51,"rain":0.1,"pressure":818.6,"uv_index":9.55,"wind_gusts":37.4,"aqi":126,"pm10":11.2,"pm2_5":8.9,"no2":2.1,"co":142.0,"o3":166.0,"so2":0.4,"mosquito_risk":3,"arthritis_risk":5,"migraine_risk":7,"frizz_risk":0,"updated_at":"2026-06-07T17:19:57.142359+05:30"},{"city":"Gurgaon","state":"Haryana","latitude":28.4595,"longitude":77.0266,"temp":38.5,"humidity":30,"rain":0.0,"pressure":974.5,"uv_index":7.9,"wind_gusts":47.2,"aqi":465,"pm10":356.7,"pm2_5":67.1,"no2":4.1,"co":160.0,"o3":127.0,"so2":8.4,"mosquito_risk":0,"arthritis_risk":5,"migraine_risk":10,"frizz_risk":1,"updated_at":"2026-06-07T17:19:57.142365+05:30"},{"city":"Noida","state":"Uttar Pradesh","latitude":28.5355,"longitude":77.391,"temp":38.9,"humidity":26,"rain":0.0,"pressure":977.2,"uv_index":7.85,"wind_gusts":41.0,"aqi":465,"pm10":356.7,"pm2_5":67.1,"no2":4.1,"co":235.0,"o3":127.0,"so2":8.4,"mosquito_risk":0,"arthritis_risk":5,"migraine_risk":10,"frizz_risk":1,"updated_at":"2026-06-07T17:19:57.142371+05:30"},{"city":"Ghaziabad","state":"Uttar Pradesh","latitude":28.6692,"longitude":77.4538,"temp":37.1,"humidity":34,"rain":0.0,"pressure":975.6,"uv_index":7.8,"wind_gusts":41.4,"aqi":182,"pm10":308.3,"pm2_5":72.2,"no2":2.6,"co":221.0,"o3":155.0,"so2":13.4,"mosquito_risk":0,"arthritis_risk":5,"migraine_risk":10,"frizz_risk":1,"updated_at":"2026-06-07T17:19:57.142377+05:30"},{"city":"Faridabad","state":"Haryana","latitude":28.4089,"longitude":77.3178,"temp":39.0,"humidity":26,"rain":0.0,"pressure":976.7,"uv_index":7.85,"wind_gusts":50.4,"aqi":465,"pm10":356.7,"pm2_5":67.1,"no2":4.1,"co":209.0,"o3":127.0,"so2":8.4,"mosquito_risk":0,"arthritis_risk":5,"migraine_risk":10,"frizz_risk":0,"updated_at":"2026-06-07T17:19:57.142384+05:30"},{"city":"Meerut","state":"Uttar Pradesh","latitude":28.9845,"longitude":77.7064,"temp":36.2,"humidity":38,"rain":0.0,"pressure":974.7,"uv_index":7.7,"wind_gusts":35.6,"aqi":182,"pm10":308.3,"pm2_5":72.2,"no2":2.6,"co":217.0,"o3":155.0,"so2":13.4,"mosquito_risk":0,"arthritis_risk":5,"migraine_risk":10,"frizz_risk":1,"updated_at":"2026-06-07T17:19:57.142390+05:30"},{"city":"Agra","state":"Uttar Pradesh","latitude":27.1767,"longitude":78.0081,"temp":39.0,"humidity":28,"rain":0.0,"pressure":980.8,"uv_index":8.15,"wind_gusts":31.3,"aqi":386,"pm10":698.5,"pm2_5":98.5,"no2":1.6,"co":148.0,"o3":120.0,"so2":4.0,"mosquito_risk":0,"arthritis_risk":5,"migraine_risk":10,"frizz_risk":1,"updated_at":"2026-06-07T17:19:57.142396+05:30"},{"city":"Varanasi","state":"Uttar Pradesh","latitude":25.3176,"longitude":82.9739,"temp":38.4,"humidity":27,"rain":0.0,"pressure":989.9,"uv_index":8.8,"wind_gusts":40.3,"aqi":145,"pm10":103.4,"pm2_5":39.5,"no2":2.3,"co":235.0,"o3":174.0,"so2":9.1,"mosquito_risk":0,"arthritis_risk":5,"migraine_risk":10,"frizz_risk":1,"updated_at":"2026-06-07T17:19:57.142403+05:30"},{"city":"Prayagraj","state":"Uttar Pradesh","latitude":25.4358,"longitude":81.8463,"temp":39.1,"humidity":25,"rain":0.0,"pressure":988.5,"uv_index":8.7,"wind_gusts":34.9,"aqi":163,"pm10":154.6,"pm2_5":47.1,"no2":2.5,"co":211.0,"o3":164.0,"so2":9.4,"mosquito_risk":0,"arthritis_risk":5,"migraine_risk":10,"frizz_risk":0,"updated_at":"2026-06-07T17:19:57.142409+05:30"},{"city":"Gorakhpur","state":"Uttar Pradesh","latitude":26.7606,"longitude":83.3732,"temp":35.1,"humidity":46,"rain":0.0,"pressure":989.4,"uv_index":8.7,"wind_gusts":29.9,"aqi":141,"pm10":92.9,"pm2_5":42.6,"no2":1.1,"co":293.0,"o3":159.0,"so2":6.6,"mosquito_risk":0,"arthritis_risk":5,"migraine_risk":10,"frizz_risk":1,"updated_at":"2026-06-07T17:19:57.142418+05:30"},{"city":"Bareilly","state":"Uttar Pradesh","latitude":28.367,"longitude":79.4304,"temp":36.0,"humidity":42,"rain":0.0,"pressure":979.4,"uv_index":8.15,"wind_gusts":39.6,"aqi":158,"pm10":87.1,"pm2_5":41.1,"no2":1.7,"co":254.0,"o3":171.0,"so2":7.9,"mosquito_risk":0,"arthritis_risk":5,"migraine_risk":10,"frizz_risk":1,"updated_at":"2026-06-07T17:19:57.142425+05:30"},{"city":"Aligarh","state":"Uttar Pradesh","latitude":27.8974,"longitude":78.088,"temp":37.4,"humidity":33,"rain":0.0,"pressure":978.7,"uv_index":8.0,"wind_gusts":30.6,"aqi":374,"pm10":543.9,"pm2_5":91.7,"no2":1.6,"co":176.0,"o3":152.0,"so2":10.0,"mosquito_risk":0,"arthritis_risk":5,"migraine_risk":10,"frizz_risk":1,"updated_at":"2026-06-07T17:19:57.142431+05:30"},{"city":"Moradabad","state":"Uttar Pradesh","latitude":28.8386,"longitude":78.7733,"temp":36.8,"humidity":35,"rain":0.0,"pressure":976.6,"uv_index":7.95,"wind_gusts":35.6,"aqi":189,"pm10":109.9,"pm2_5":46.9,"no2":2.6,"co":261.0,"o3":169.0,"so2":8.8,"mosquito_risk":0,"arthritis_risk":5,"migraine_risk":10,"frizz_risk":1,"updated_at":"2026-06-07T17:19:57.142436+05:30"},{"city":"Saharanpur","state":"Uttar Pradesh","latitude":29.9637,"longitude":77.546,"temp":34.8,"humidity":41,"rain":0.0,"pressure":968.9,"uv_index":7.55,"wind_gusts":32.0,"aqi":174,"pm10":70.5,"pm2_5":36.4,"no2":3.3,"co":274.0,"o3":174.0,"so2":12.7,"mosquito_risk":0,"arthritis_risk":5,"migraine_risk":7,"frizz_risk":1,"updated_at":"2026-06-07T17:19:57.142442+05:30"},{"city":"Jhansi","state":"Uttar Pradesh","latitude":25.4484,"longitude":78.5685,"temp":38.2,"humidity":29,"rain":0.0,"pressure":971.8,"uv_index":8.5,"wind_gusts":32.8,"aqi":97,"pm10":95.7,"pm2_5":31.0,"no2":0.5,"co":125.0,"o3":112.0,"so2":3.6,"mosquito_risk":0,"arthritis_risk":5,"migraine_risk":10,"frizz_risk":1,"updated_at":"2026-06-07T17:20:18.254931+05:30"},{"city":"Surat","state":"Gujarat","latitude":21.1702,"longitude":72.8311,"temp":33.6,"humidity":56,"rain":0.0,"pressure":1002.3,"uv_index":7.6,"wind_gusts":46.1,"aqi":90,"pm10":56.5,"pm2_5":23.9,"no2":10.8,"co":231.0,"o3":56.0,"so2":31.1,"mosquito_risk":0,"arthritis_risk":5,"migraine_risk":4,"frizz_risk":1,"updated_at":"2026-06-07T17:20:18.254960+05:30"},{"city":"Vadodara","state":"Gujarat","latitude":22.3072,"longitude":73.1812,"temp":38.5,"humidity":33,"rain":0.0,"pressure":998.5,"uv_index":7.65,"wind_gusts":42.8,"aqi":88,"pm10":76.8,"pm2_5":30.5,"no2":1.4,"co":129.0,"o3":110.0,"so2":4.9,"mosquito_risk":0,"arthritis_risk":5,"migraine_risk":10,"frizz_risk":1,"updated_at":"2026-06-07T17:20:18.254970+05:30"},{"city":"Rajkot","state":"Gujarat","latitude":22.3039,"longitude":70.8022,"temp":36.8,"humidity":50,"rain":0.0,"pressure":988.5,"uv_index":7.3,"wind_gusts":50.4,"aqi":69,"pm10":61.2,"pm2_5":24.2,"no2":1.2,"co":113.0,"o3":98.0,"so2":4.8,"mosquito_risk":0,"arthritis_risk":5,"migraine_risk":10,"frizz_risk":1,"updated_at":"2026-06-07T17:20:18.254978+05:30"},{"city":"Thane","state":"Maharashtra","latitude":19.2183,"longitude":72.9781,"temp":33.9,"humidity":55,"rain":0.0,"pressure":1004.3,"uv_index":7.7,"wind_gusts":40.3,"aqi":73,"pm10":65.0,"pm2_5":22.1,"no2":4.6,"co":143.0,"o3":80.0,"so2":5.1,"mosquito_risk":0,"arthritis_risk":5,"migraine_risk":4,"frizz_risk":1,"updated_at":"2026-06-07T17:20:18.254986+05:30"},{"city":"Nagpur","state":"Maharashtra","latitude":21.1458,"longitude":79.0882,"temp":39.7,"humidity":24,"rain":0.0,"pressure":967.2,"uv_index":8.65,"wind_gusts":42.1,"aqi":96,"pm10":73.8,"pm2_5":31.9,"no2":4.8,"co":167.0,"o3":124.0,"so2":14.6,"mosquito_risk":0,"arthritis_risk":5,"migraine_risk":10,"frizz_risk":0,"updated_at":"2026-06-07T17:20:18.254993+05:30"},{"city":"Nashik","state":"Maharashtra","latitude":19.9975,"longitude":73.7898,"temp":33.1,"humidity":44,"rain":0.0,"pressure":942.6,"uv_index":7.9,"wind_gusts":45.7,"aqi":63,"pm10":67.5,"pm2_5":22.4,"no2":1.0,"co":123.0,"o3":78.0,"so2":1.2,"mosquito_risk":0,"arthritis_risk":5,"migraine_risk":7,"frizz_risk":1,"updated_at":"2026-06-07T17:20:18.255000+05:30"},{"city":"Aurangabad","state":"Maharashtra","latitude":19.8762,"longitude":75.3433,"temp":37.0,"humidity":25,"rain":0.0,"pressure":940.2,"uv_index":9.0,"wind_gusts":50.0,"aqi":65,"pm10":68.5,"pm2_5":24.0,"no2":0.9,"co":127.0,"o3":105.0,"so2":2.2,"mosquito_risk":0,"arthritis_risk":5,"migraine_risk":10,"frizz_risk":0,"updated_at":"2026-06-07T17:20:18.255007+05:30"},{"city":"Solapur","state":"Maharashtra","latitude":17.6599,"longitude":75.9064,"temp":34.2,"humidity":42,"rain":0.0,"pressure":953.5,"uv_index":5.55,"wind_gusts":56.2,"aqi":64,"pm10":47.1,"pm2_5":22.0,"no2":1.1,"co":129.0,"o3":113.0,"so2":3.6,"mosquito_risk":0,"arthritis_risk":5,"migraine_risk":3,"frizz_risk":1,"updated_at":"2026-06-07T17:20:18.255014+05:30"},{"city":"Kolhapur","state":"Maharashtra","latitude":16.705,"longitude":74.2433,"temp":26.7,"humidity":72,"rain":0.0,"pressure":946.0,"uv_index":8.35,"wind_gusts":44.3,"aqi":34,"pm10":19.0,"pm2_5":10.4,"no2":2.2,"co":131.0,"o3":80.0,"so2":1.8,"mosquito_risk":7,"arthritis_risk":5,"migraine_risk":7,"frizz_risk":1,"updated_at":"2026-06-07T17:20:18.255021+05:30"},{"city":"Goa","state":"Goa","latitude":15.2993,"longitude":74.124,"temp":26.0,"humidity":97,"rain":0.4,"pressure":997.1,"uv_index":2.65,"wind_gusts":23.4,"aqi":42,"pm10":7.4,"pm2_5":4.7,"no2":1.2,"co":140.0,"o3":69.0,"so2":1.3,"mosquito_risk":10,"arthritis_risk":5,"migraine_risk":3,"frizz_risk":1,"updated_at":"2026-06-07T17:20:18.255028+05:30"},{"city":"Jodhpur","state":"Rajasthan","latitude":26.2389,"longitude":73.0243,"temp":40.0,"humidity":28,"rain":0.0,"pressure":976.5,"uv_index":8.4,"wind_gusts":37.1,"aqi":127,"pm10":286.8,"pm2_5":52.7,"no2":0.5,"co":122.0,"o3":95.0,"so2":1.7,"mosquito_risk":0,"arthritis_risk":5,"migraine_risk":10,"frizz_risk":1,"updated_at":"2026-06-07T17:20:18.255035+05:30"},{"city":"Udaipur","state":"Rajasthan","latitude":24.5854,"longitude":73.7125,"temp":35.8,"humidity":35,"rain":0.0,"pressure":942.4,"uv_index":8.8,"wind_gusts":34.2,"aqi":78,"pm10":61.0,"pm2_5":22.9,"no2":0.5,"co":122.0,"o3":96.0,"so2":2.8,"mosquito_risk":0,"arthritis_risk":5,"migraine_risk":10,"frizz_risk":1,"updated_at":"2026-06-07T17:20:18.255042+05:30"},{"city":"Kota","state":"Rajasthan","latitude":25.2138,"longitude":75.8648,"temp":38.4,"humidity":34,"rain":0.0,"pressure":972.7,"uv_index":8.4,"wind_gusts":40.3,"aqi":107,"pm10":106.6,"pm2_5":32.6,"no2":0.0,"co":145.0,"o3":114.0,"so2":4.0,"mosquito_risk":0,"arthritis_risk":5,"migraine_risk":10,"frizz_risk":1,"updated_at":"2026-06-07T17:20:18.255048+05:30"},{"city":"Bikaner","state":"Rajasthan","latitude":28.0229,"longitude":73.3119,"temp":41.9,"humidity":18,"rain":0.0,"pressure":974.5,"uv_index":8.45,"wind_gusts":31.3,"aqi":130,"pm10":125.7,"pm2_5":43.5,"no2":0.2,"co":144.0,"o3":102.0,"so2":2.6,"mosquito_risk":0,"arthritis_risk":5,"migraine_risk":10,"frizz_risk":0,"updated_at":"2026-06-07T17:20:18.255054+05:30"},{"city":"Ajmer","state":"Rajasthan","latitude":26.4499,"longitude":74.6399,"temp":36.2,"humidity":37,"rain":0.0,"pressure":949.3,"uv_index":8.35,"wind_gusts":37.4,"aqi":93,"pm10":181.1,"pm2_5":41.4,"no2":0.3,"co":131.0,"o3":100.0,"so2":2.7,"mosquito_risk":0,"arthritis_risk":5,"migraine_risk":10,"frizz_risk":1,"updated_at":"2026-06-07T17:20:18.255060+05:30"},{"city":"Gwalior","state":"Madhya Pradesh","latitude":26.2183,"longitude":78.1828,"temp":39.0,"humidity":25,"rain":0.0,"pressure":976.7,"uv_index":8.3,"wind_gusts":34.6,"aqi":103,"pm10":153.2,"pm2_5":38.8,"no2":0.0,"co":143.0,"o3":119.0,"so2":2.3,"mosquito_risk":0,"arthritis_risk":5,"migraine_risk":10,"frizz_risk":0,"updated_at":"2026-06-07T17:20:18.255067+05:30"},{"city":"Indore","state":"Madhya Pradesh","latitude":22.7196,"longitude":75.8577,"temp":34.9,"humidity":39,"rain":0.0,"pressure":944.3,"uv_index":8.65,"wind_gusts":35.3,"aqi":95,"pm10":65.0,"pm2_5":28.5,"no2":0.7,"co":165.0,"o3":111.0,"so2":4.4,"mosquito_risk":0,"arthritis_risk":5,"migraine_risk":7,"frizz_risk":1,"updated_at":"2026-06-07T17:20:18.255073+05:30"},{"city":"Bhopal","state":"Madhya Pradesh","latitude":23.2599,"longitude":77.4126,"temp":32.9,"humidity":48,"rain":0.0,"pressure":949.4,"uv_index":8.7,"wind_gusts":48.2,"aqi":105,"pm10":70.3,"pm2_5":29.9,"no2":0.0,"co":135.0,"o3":107.0,"so2":3.4,"mosquito_risk":0,"arthritis_risk":5,"migraine_risk":7,"frizz_risk":1,"updated_at":"2026-06-07T17:20:18.255079+05:30"},{"city":"Jabalpur","state":"Madhya Pradesh","latitude":23.1815,"longitude":79.9864,"temp":36.4,"humidity":33,"rain":0.0,"pressure":956.2,"uv_index":8.9,"wind_gusts":33.8,"aqi":112,"pm10":91.3,"pm2_5":33.5,"no2":0.3,"co":137.0,"o3":113.0,"so2":2.8,"mosquito_risk":0,"arthritis_risk":5,"migraine_risk":10,"frizz_risk":1,"updated_at":"2026-06-07T17:20:18.255086+05:30"},{"city":"Ujjain","state":"Madhya Pradesh","latitude":23.1765,"longitude":75.7885,"temp":34.9,"humidity":40,"rain":0.0,"pressure":949.5,"uv_index":8.6,"wind_gusts":34.9,"aqi":91,"pm10":65.4,"pm2_5":28.5,"no2":0.5,"co":132.0,"o3":111.0,"so2":4.7,"mosquito_risk":0,"arthritis_risk":5,"migraine_risk":7,"frizz_risk":1,"updated_at":"2026-06-07T17:20:18.255093+05:30"},{"city":"Visakhapatnam","state":"Andhra Pradesh","latitude":17.6868,"longitude":83.2185,"temp":35.2,"humidity":59,"rain":0.0,"pressure":997.0,"uv_index":8.35,"wind_gusts":41.0,"aqi":140,"pm10":53.9,"pm2_5":43.2,"no2":16.4,"co":309.0,"o3":171.0,"so2":44.5,"mosquito_risk":0,"arthritis_risk":5,"migraine_risk":10,"frizz_risk":1,"updated_at":"2026-06-07T17:20:18.255099+05:30"},{"city":"Vijayawada","state":"Andhra Pradesh","latitude":16.5062,"longitude":80.648,"temp":36.3,"humidity":45,"rain":0.0,"pressure":996.6,"uv_index":8.0,"wind_gusts":37.8,"aqi":84,"pm10":41.7,"pm2_5":26.3,"no2":4.0,"co":184.0,"o3":120.0,"so2":4.9,"mosquito_risk":0,"arthritis_risk":5,"migraine_risk":10,"frizz_risk":1,"updated_at":"2026-06-07T17:20:18.255106+05:30"},{"city":"Guntur","state":"Andhra Pradesh","latitude":16.3067,"longitude":80.4365,"temp":36.5,"humidity":42,"rain":0.0,"pressure":998.0,"uv_index":7.9,"wind_gusts":43.9,"aqi":84,"pm10":45.6,"pm2_5":26.8,"no2":1.9,"co":192.0,"o3":127.0,"so2":4.3,"mosquito_risk":0,"arthritis_risk":5,"migraine_risk":10,"frizz_risk":1,"updated_at":"2026-06-07T17:20:18.255113+05:30"},{"city":"Nellore","state":"Andhra Pradesh","latitude":14.4426,"longitude":79.9865,"temp":34.0,"humidity":53,"rain":0.0,"pressure":1001.1,"uv_index":8.2,"wind_gusts":37.4,"aqi":57,"pm10":26.0,"pm2_5":18.6,"no2":2.2,"co":169.0,"o3":131.0,"so2":5.1,"mosquito_risk":0,"arthritis_risk":5,"migraine_risk":4,"frizz_risk":1,"updated_at":"2026-06-07T17:20:18.255120+05:30"},{"city":"Kurnool","state":"Andhra Pradesh","latitude":15.8281,"longitude":78.0373,"temp":33.6,"humidity":50,"rain":0.0,"pressure":972.8,"uv_index":8.4,"wind_gusts":36.0,"aqi":62,"pm10":46.2,"pm2_5":26.0,"no2":1.2,"co":161.0,"o3":136.0,"so2":8.8,"mosquito_risk":0,"arthritis_risk":5,"migraine_risk":7,"frizz_risk":1,"updated_at":"2026-06-07T17:20:18.255127+05:30"},{"city":"Kakinada","state":"Andhra Pradesh","latitude":16.9891,"longitude":82.2475,"temp":36.4,"humidity":47,"rain":0.0,"pressure":1000.8,"uv_index":7.95,"wind_gusts":38.9,"aqi":129,"pm10":41.3,"pm2_5":30.7,"no2":2.6,"co":258.0,"o3":154.0,"so2":3.9,"mosquito_risk":0,"arthritis_risk":5,"migraine_risk":7,"frizz_risk":1,"updated_at":"2026-06-07T17:20:18.255134+05:30"},{"city":"Tirupati","state":"Andhra Pradesh","latitude":13.6288,"longitude":79.4192,"temp":32.7,"humidity":54,"rain":0.0,"pressure":987.1,"uv_index":8.4,"wind_gusts":28.4,"aqi":41,"pm10":15.4,"pm2_5":11.9,"no2":4.7,"co":159.0,"o3":87.0,"so2":1.5,"mosquito_risk":0,"arthritis_risk":5,"migraine_risk":7,"frizz_risk":1,"updated_at":"2026-06-07T17:20:18.255140+05:30"},{"city":"Warangal","state":"Telangana","latitude":17.9689,"longitude":79.5941,"temp":35.8,"humidity":38,"rain":0.0,"pressure":973.4,"uv_index":7.75,"wind_gusts":40.3,"aqi":100,"pm10":74.0,"pm2_5":40.2,"no2":1.7,"co":178.0,"o3":134.0,"so2":7.3,"mosquito_risk":0,"arthritis_risk":5,"migraine_risk":10,"frizz_risk":1,"updated_at":"2026-06-07T17:20:18.255146+05:30"},{"city":"Nizamabad","state":"Telangana","latitude":18.6725,"longitude":78.0941,"temp":32.1,"humidity":55,"rain":0.1,"pressure":959.9,"uv_index":8.7,"wind_gusts":44.6,"aqi":89,"pm10":51.6,"pm2_5":27.4,"no2":1.0,"co":147.0,"o3":116.0,"so2":4.0,"mosquito_risk":3,"arthritis_risk":5,"migraine_risk":7,"frizz_risk":1,"updated_at":"2026-06-07T17:20:18.255153+05:30"},{"city":"Mysore","state":"Karnataka","latitude":12.2958,"longitude":76.6396,"temp":26.7,"humidity":68,"rain":0.0,"pressure":927.0,"uv_index":6.95,"wind_gusts":46.8,"aqi":29,"pm10":2.9,"pm2_5":2.7,"no2":5.6,"co":152.0,"o3":55.0,"so2":1.4,"mosquito_risk":7,"arthritis_risk":5,"migraine_risk":7,"frizz_risk":1,"updated_at":"2026-06-07T17:20:18.255159+05:30"},{"city":"Mangalore","state":"Karnataka","latitude":12.9141,"longitude":74.856,"temp":27.5,"humidity":81,"rain":0.1,"pressure":1006.1,"uv_index":2.0,"wind_gusts":28.8,"aqi":26,"pm10":9.7,"pm2_5":5.8,"no2":3.3,"co":133.0,"o3":54.0,"so2":1.0,"mosquito_risk":10,"arthritis_risk":5,"migraine_risk":0,"frizz_risk":1,"updated_at":"2026-06-07T17:20:18.255165+05:30"},{"city":"Hubli-Dharwad","state":"Karnataka","latitude":15.3647,"longitude":75.124,"temp":24.9,"humidity":84,"rain":0.1,"pressure":939.2,"uv_index":4.25,"wind_gusts":38.5,"aqi":31,"pm10":12.4,"pm2_5":6.2,"no2":2.4,"co":138.0,"o3":74.0,"so2":1.1,"mosquito_risk":6,"arthritis_risk":5,"migraine_risk":3,"frizz_risk":1,"updated_at":"2026-06-07T17:20:18.255172+05:30"},{"city":"Belgaum","state":"Karnataka","latitude":15.8497,"longitude":74.4977,"temp":24.6,"humidity":85,"rain":0.1,"pressure":924.1,"uv_index":3.9,"wind_gusts":37.4,"aqi":26,"pm10":16.4,"pm2_5":7.8,"no2":2.7,"co":136.0,"o3":62.0,"so2":1.4,"mosquito_risk":6,"arthritis_risk":5,"migraine_risk":3,"frizz_risk":1,"updated_at":"2026-06-07T17:20:21.601958+05:30"},{"city":"Coimbatore","state":"Tamil Nadu","latitude":11.0168,"longitude":76.9558,"temp":26.8,"humidity":74,"rain":0.1,"pressure":960.4,"uv_index":5.4,"wind_gusts":63.0,"aqi":27,"pm10":2.8,"pm2_5":2.3,"no2":2.4,"co":163.0,"o3":57.0,"so2":1.2,"mosquito_risk":10,"arthritis_risk":5,"migraine_risk":3,"frizz_risk":1,"updated_at":"2026-06-07T17:20:21.601991+05:30"},{"city":"Madurai","state":"Tamil Nadu","latitude":9.9252,"longitude":78.1198,"temp":33.6,"humidity":46,"rain":0.0,"pressure":990.6,"uv_index":8.55,"wind_gusts":66.2,"aqi":30,"pm10":3.6,"pm2_5":2.5,"no2":2.0,"co":108.0,"o3":68.0,"so2":1.1,"mosquito_risk":0,"arthritis_risk":5,"migraine_risk":7,"frizz_risk":1,"updated_at":"2026-06-07T17:20:21.602004+05:30"},{"city":"Trichy","state":"Tamil Nadu","latitude":10.7905,"longitude":78.7047,"temp":34.2,"humidity":50,"rain":0.0,"pressure":996.3,"uv_index":7.9,"wind_gusts":50.0,"aqi":35,"pm10":5.6,"pm2_5":3.7,"no2":2.0,"co":156.0,"o3":78.0,"so2":1.5,"mosquito_risk":0,"arthritis_risk":5,"migraine_risk":7,"frizz_risk":1,"updated_at":"2026-06-07T17:20:21.602014+05:30"},{"city":"Salem","state":"Tamil Nadu","latitude":11.6643,"longitude":78.146,"temp":32.1,"humidity":53,"rain":0.0,"pressure":974.5,"uv_index":8.6,"wind_gusts":47.2,"aqi":36,"pm10":3.9,"pm2_5":3.4,"no2":3.0,"co":135.0,"o3":84.0,"so2":4.0,"mosquito_risk":0,"arthritis_risk":5,"migraine_risk":7,"frizz_risk":1,"updated_at":"2026-06-07T17:20:21.602023+05:30"},{"city":"Tirunelveli","state":"Tamil Nadu","latitude":8.7139,"longitude":77.7567,"temp":32.9,"humidity":50,"rain":0.0,"pressure":1001.8,"uv_index":8.0,"wind_gusts":49.0,"aqi":24,"pm10":6.3,"pm2_5":3.5,"no2":1.6,"co":98.0,"o3":53.0,"so2":0.5,"mosquito_risk":0,"arthritis_risk":5,"migraine_risk":4,"frizz_risk":1,"updated_at":"2026-06-07T17:20:21.602030+05:30"},{"city":"Vellore","state":"Tamil Nadu","latitude":12.9165,"longitude":79.1325,"temp":32.6,"humidity":56,"rain":0.0,"pressure":980.2,"uv_index":7.85,"wind_gusts":44.3,"aqi":38,"pm10":5.9,"pm2_5":5.1,"no2":3.7,"co":198.0,"o3":84.0,"so2":1.9,"mosquito_risk":0,"arthritis_risk":5,"migraine_risk":7,"frizz_risk":1,"updated_at":"2026-06-07T17:20:21.602038+05:30"},{"city":"Erode","state":"Tamil Nadu","latitude":11.341,"longitude":77.7172,"temp":31.9,"humidity":53,"rain":0.0,"pressure":986.5,"uv_index":8.0,"wind_gusts":59.4,"aqi":31,"pm10":3.0,"pm2_5":2.4,"no2":2.2,"co":140.0,"o3":72.0,"so2":1.4,"mosquito_risk":0,"arthritis_risk":5,"migraine_risk":7,"frizz_risk":1,"updated_at":"2026-06-07T17:20:21.602045+05:30"},{"city":"Kochi","state":"Kerala","latitude":9.9312,"longitude":76.2673,"temp":26.7,"humidity":87,"rain":0.2,"pressure":1009.3,"uv_index":6.45,"wind_gusts":41.8,"aqi":40,"pm10":11.0,"pm2_5":6.3,"no2":4.0,"co":114.0,"o3":47.0,"so2":1.6,"mosquito_risk":10,"arthritis_risk":0,"migraine_risk":4,"frizz_risk":1,"updated_at":"2026-06-07T17:20:21.602052+05:30"},{"city":"Thiruvananthapuram","state":"Kerala","latitude":8.5241,"longitude":76.9366,"temp":25.4,"humidity":92,"rain":0.1,"pressure":1009.4,"uv_index":6.9,"wind_gusts":46.1,"aqi":31,"pm10":12.8,"pm2_5":6.7,"no2":0.9,"co":95.0,"o3":55.0,"so2":0.3,"mosquito_risk":10,"arthritis_risk":0,"migraine_risk":4,"frizz_risk":1,"updated_at":"2026-06-07T17:20:21.602059+05:30"},{"city":"Kozhikode","state":"Kerala","latitude":11.2588,"longitude":75.7804,"temp":27.1,"humidity":84,"rain":0.1,"pressure":1007.6,"uv_index":4.3,"wind_gusts":36.0,"aqi":28,"pm10":7.7,"pm2_5":4.1,"no2":0.5,"co":139.0,"o3":60.0,"so2":0.3,"mosquito_risk":10,"arthritis_risk":5,"migraine_risk":0,"frizz_risk":1,"updated_at":"2026-06-07T17:20:21.602066+05:30"},{"city":"Thrissur","state":"Kerala","latitude":10.5276,"longitude":76.2144,"temp":25.7,"humidity":95,"rain":0.1,"pressure":1007.7,"uv_index":4.55,"wind_gusts":37.4,"aqi":39,"pm10":9.2,"pm2_5":5.7,"no2":3.5,"co":127.0,"o3":47.0,"so2":1.3,"mosquito_risk":10,"arthritis_risk":5,"migraine_risk":0,"frizz_risk":1,"updated_at":"2026-06-07T17:20:21.602074+05:30"},{"city":"Kannur","state":"Kerala","latitude":11.8745,"longitude":75.3704,"temp":27.5,"humidity":81,"rain":0.1,"pressure":1006.9,"uv_index":1.25,"wind_gusts":35.3,"aqi":26,"pm10":7.4,"pm2_5":4.6,"no2":1.6,"co":136.0,"o3":59.0,"so2":0.6,"mosquito_risk":10,"arthritis_risk":5,"migraine_risk":0,"frizz_risk":1,"updated_at":"2026-06-07T17:20:21.602080+05:30"},{"city":"Patna","state":"Bihar","latitude":25.5941,"longitude":85.1376,"temp":34.5,"humidity":52,"rain":0.0,"pressure":992.6,"uv_index":8.7,"wind_gusts":30.2,"aqi":174,"pm10":107.3,"pm2_5":61.7,"no2":3.5,"co":292.0,"o3":176.0,"so2":8.1,"mosquito_risk":0,"arthritis_risk":5,"migraine_risk":7,"frizz_risk":1,"updated_at":"2026-06-07T17:20:21.602087+05:30"},{"city":"Gaya","state":"Bihar","latitude":24.7914,"longitude":85.0002,"temp":36.1,"humidity":39,"rain":0.0,"pressure":986.3,"uv_index":8.65,"wind_gusts":26.3,"aqi":155,"pm10":102.4,"pm2_5":55.6,"no2":4.8,"co":276.0,"o3":139.0,"so2":6.2,"mosquito_risk":0,"arthritis_risk":5,"migraine_risk":10,"frizz_risk":1,"updated_at":"2026-06-07T17:20:21.602094+05:30"},{"city":"Muzaffarpur","state":"Bihar","latitude":26.1209,"longitude":85.3647,"temp":33.5,"humidity":62,"rain":0.0,"pressure":992.8,"uv_index":8.6,"wind_gusts":27.0,"aqi":169,"pm10":99.7,"pm2_5":58.8,"no2":4.8,"co":318.0,"o3":173.0,"so2":9.5,"mosquito_risk":3,"arthritis_risk":5,"migraine_risk":7,"frizz_risk":1,"updated_at":"2026-06-07T17:20:21.602101+05:30"},{"city":"Bhagalpur","state":"Bihar","latitude":25.2425,"longitude":87.0117,"temp":33.3,"humidity":63,"rain":0.0,"pressure":993.7,"uv_index":8.85,"wind_gusts":37.4,"aqi":177,"pm10":73.3,"pm2_5":54.7,"no2":4.9,"co":331.0,"o3":180.0,"so2":14.2,"mosquito_risk":3,"arthritis_risk":5,"migraine_risk":7,"frizz_risk":1,"updated_at":"2026-06-07T17:20:21.602108+05:30"},{"city":"Ranchi","state":"Jharkhand","latitude":23.3441,"longitude":85.3096,"temp":31.3,"humidity":49,"rain":0.0,"pressure":932.4,"uv_index":9.05,"wind_gusts":43.6,"aqi":149,"pm10":106.9,"pm2_5":51.7,"no2":2.7,"co":244.0,"o3":177.0,"so2":11.4,"mosquito_risk":0,"arthritis_risk":5,"migraine_risk":7,"frizz_risk":1,"updated_at":"2026-06-07T17:20:21.602115+05:30"},{"city":"Jamshedpur","state":"Jharkhand","latitude":22.8046,"longitude":86.2029,"temp":31.3,"humidity":69,"rain":0.0,"pressure":984.6,"uv_index":9.1,"wind_gusts":38.9,"aqi":191,"pm10":91.5,"pm2_5":71.2,"no2":7.6,"co":269.0,"o3":181.0,"so2":22.5,"mosquito_risk":3,"arthritis_risk":5,"migraine_risk":7,"frizz_risk":1,"updated_at":"2026-06-07T17:20:21.602121+05:30"},{"city":"Dhanbad","state":"Jharkhand","latitude":23.7957,"longitude":86.4304,"temp":32.8,"humidity":58,"rain":0.1,"pressure":973.4,"uv_index":8.45,"wind_gusts":34.6,"aqi":178,"pm10":99.2,"pm2_5":71.5,"no2":19.1,"co":269.0,"o3":168.0,"so2":52.7,"mosquito_risk":3,"arthritis_risk":5,"migraine_risk":7,"frizz_risk":1,"updated_at":"2026-06-07T17:20:21.602128+05:30"},{"city":"Bokaro","state":"Jharkhand","latitude":23.6693,"longitude":86.1511,"temp":32.6,"humidity":59,"rain":0.0,"pressure":977.1,"uv_index":8.55,"wind_gusts":37.8,"aqi":167,"pm10":110.4,"pm2_5":68.2,"no2":17.1,"co":244.0,"o3":160.0,"so2":55.0,"mosquito_risk":0,"arthritis_risk":5,"migraine_risk":7,"frizz_risk":1,"updated_at":"2026-06-07T17:20:21.602134+05:30"},{"city":"Bhubaneswar","state":"Odisha","latitude":20.2961,"longitude":85.8245,"temp":32.0,"humidity":73,"rain":0.0,"pressure":996.0,"uv_index":9.1,"wind_gusts":43.2,"aqi":129,"pm10":47.1,"pm2_5":35.0,"no2":6.6,"co":302.0,"o3":127.0,"so2":7.8,"mosquito_risk":3,"arthritis_risk":5,"migraine_risk":7,"frizz_risk":1,"updated_at":"2026-06-07T17:20:21.602140+05:30"},{"city":"Cuttack","state":"Odisha","latitude":20.4625,"longitude":85.8828,"temp":28.9,"humidity":87,"rain":0.2,"pressure":998.2,"uv_index":9.2,"wind_gusts":41.8,"aqi":129,"pm10":47.1,"pm2_5":35.0,"no2":6.6,"co":330.0,"o3":127.0,"so2":7.8,"mosquito_risk":10,"arthritis_risk":5,"migraine_risk":7,"frizz_risk":1,"updated_at":"2026-06-07T17:20:21.602147+05:30"},{"city":"Rourkela","state":"Odisha","latitude":22.2604,"longitude":84.8536,"temp":30.6,"humidity":71,"rain":0.0,"pressure":978.6,"uv_index":8.75,"wind_gusts":58.0,"aqi":151,"pm10":117.8,"pm2_5":47.8,"no2":5.6,"co":192.0,"o3":135.0,"so2":7.0,"mosquito_risk":3,"arthritis_risk":5,"migraine_risk":7,"frizz_risk":1,"updated_at":"2026-06-07T17:20:21.602153+05:30"},{"city":"Raipur","state":"Chhattisgarh","latitude":21.2514,"longitude":81.6296,"temp":39.3,"humidity":23,"rain":0.0,"pressure":968.4,"uv_index":8.55,"wind_gusts":33.5,"aqi":138,"pm10":77.5,"pm2_5":36.3,"no2":5.9,"co":148.0,"o3":161.0,"so2":25.3,"mosquito_risk":0,"arthritis_risk":5,"migraine_risk":10,"frizz_risk":0,"updated_at":"2026-06-07T17:20:21.602160+05:30"},{"city":"Bhilai","state":"Chhattisgarh","latitude":21.1938,"longitude":81.3509,"temp":38.7,"humidity":25,"rain":0.0,"pressure":968.8,"uv_index":8.4,"wind_gusts":29.5,"aqi":139,"pm10":75.2,"pm2_5":34.5,"no2":6.2,"co":165.0,"o3":141.0,"so2":20.8,"mosquito_risk":0,"arthritis_risk":5,"migraine_risk":10,"frizz_risk":0,"updated_at":"2026-06-07T17:20:21.602167+05:30"},{"city":"Guwahati","state":"Assam","latitude":26.1158,"longitude":91.7086,"temp":31.0,"humidity":72,"rain":0.0,"pressure":993.8,"uv_index":8.8,"wind_gusts":33.1,"aqi":123,"pm10":49.7,"pm2_5":43.7,"no2":2.8,"co":296.0,"o3":118.0,"so2":3.6,"mosquito_risk":3,"arthritis_risk":5,"migraine_risk":7,"frizz_risk":1,"updated_at":"2026-06-07T17:20:21.602174+05:30"},{"city":"Agartala","state":"Tripura","latitude":23.8315,"longitude":91.2868,"temp":29.8,"humidity":84,"rain":0.0,"pressure":1000.1,"uv_index":8.6,"wind_gusts":33.8,"aqi":135,"pm10":35.9,"pm2_5":31.5,"no2":7.4,"co":201.0,"o3":116.0,"so2":5.2,"mosquito_risk":7,"arthritis_risk":5,"migraine_risk":4,"frizz_risk":1,"updated_at":"2026-06-07T17:20:21.602181+05:30"},{"city":"Shillong","state":"Meghalaya","latitude":25.5788,"longitude":91.8933,"temp":22.0,"humidity":85,"rain":0.1,"pressure":853.5,"uv_index":8.6,"wind_gusts":24.1,"aqi":100,"pm10":25.9,"pm2_5":23.1,"no2":3.4,"co":264.0,"o3":112.0,"so2":2.2,"mosquito_risk":6,"arthritis_risk":5,"migraine_risk":7,"frizz_risk":1,"updated_at":"2026-06-07T17:20:21.602188+05:30"},{"city":"Imphal","state":"Manipur","latitude":24.817,"longitude":93.9368,"temp":27.0,"humidity":73,"rain":0.0,"pressure":917.8,"uv_index":8.5,"wind_gusts":31.3,"aqi":82,"pm10":7.3,"pm2_5":6.7,"no2":4.2,"co":215.0,"o3":84.0,"so2":1.6,"mosquito_risk":7,"arthritis_risk":5,"migraine_risk":7,"frizz_risk":1,"updated_at":"2026-06-07T17:20:21.602195+05:30"},{"city":"Aizawl","state":"Mizoram","latitude":23.7271,"longitude":92.7176,"temp":23.5,"humidity":79,"rain":0.0,"pressure":888.3,"uv_index":9.05,"wind_gusts":28.4,"aqi":87,"pm10":27.1,"pm2_5":21.0,"no2":1.9,"co":175.0,"o3":92.0,"so2":1.6,"mosquito_risk":3,"arthritis_risk":5,"migraine_risk":7,"frizz_risk":1,"updated_at":"2026-06-07T17:20:21.602201+05:30"},{"city":"Kohima","state":"Nagaland","latitude":25.6701,"longitude":94.1077,"temp":21.6,"humidity":97,"rain":0.1,"pressure":851.2,"uv_index":9.2,"wind_gusts":25.2,"aqi":79,"pm10":18.6,"pm2_5":15.9,"no2":1.8,"co":209.0,"o3":104.0,"so2":1.5,"mosquito_risk":6,"arthritis_risk":5,"migraine_risk":7,"frizz_risk":1,"updated_at":"2026-06-07T17:20:21.602207+05:30"},{"city":"Gangtok","state":"Sikkim","latitude":27.3314,"longitude":88.6138,"temp":18.9,"humidity":93,"rain":0.1,"pressure":833.6,"uv_index":9.1,"wind_gusts":37.1,"aqi":101,"pm10":29.0,"pm2_5":25.3,"no2":3.3,"co":287.0,"o3":121.0,"so2":2.0,"mosquito_risk":6,"arthritis_risk":10,"migraine_risk":7,"frizz_risk":1,"updated_at":"2026-06-07T17:20:21.602214+05:30"},{"city":"Siliguri","state":"West Bengal","latitude":26.7271,"longitude":88.3953,"temp":27.5,"humidity":92,"rain":0.1,"pressure":985.8,"uv_index":8.75,"wind_gusts":27.7,"aqi":139,"pm10":33.1,"pm2_5":28.9,"no2":3.3,"co":500.0,"o3":152.0,"so2":5.4,"mosquito_risk":10,"arthritis_risk":5,"migraine_risk":7,"frizz_risk":1,"updated_at":"2026-06-07T17:20:24.950957+05:30"},{"city":"Durgapur","state":"West Bengal","latitude":23.5204,"longitude":87.3119,"temp":29.1,"humidity":88,"rain":0.1,"pressure":989.0,"uv_index":8.9,"wind_gusts":41.4,"aqi":188,"pm10":93.6,"pm2_5":85.7,"no2":27.9,"co":449.0,"o3":167.0,"so2":53.9,"mosquito_risk":10,"arthritis_risk":5,"migraine_risk":7,"frizz_risk":1,"updated_at":"2026-06-07T17:20:24.950992+05:30"},{"city":"Asansol","state":"West Bengal","latitude":23.6739,"longitude":86.9524,"temp":31.3,"humidity":72,"rain":0.0,"pressure":987.1,"uv_index":8.9,"wind_gusts":37.4,"aqi":177,"pm10":97.1,"pm2_5":83.6,"no2":28.2,"co":367.0,"o3":170.0,"so2":51.6,"mosquito_risk":3,"arthritis_risk":5,"migraine_risk":7,"frizz_risk":1,"updated_at":"2026-06-07T17:20:24.951006+05:30"},{"city":"Pondicherry","state":"Puducherry","latitude":11.9139,"longitude":79.8145,"temp":30.3,"humidity":83,"rain":0.1,"pressure":1004.0,"uv_index":7.55,"wind_gusts":45.4,"aqi":49,"pm10":16.9,"pm2_5":12.4,"no2":4.3,"co":170.0,"o3":97.0,"so2":5.9,"mosquito_risk":6,"arthritis_risk":5,"migraine_risk":4,"frizz_risk":1,"updated_at":"2026-06-07T17:20:24.951017+05:30"},{"city":"Port Blair","state":"Andaman and Nicobar Islands","latitude":11.6234,"longitude":92.7265,"temp":28.3,"humidity":86,"rain":0.0,"pressure":1006.2,"uv_index":5.95,"wind_gusts":38.2,"aqi":24,"pm10":11.1,"pm2_5":6.2,"no2":0.4,"co":93.0,"o3":45.0,"so2":0.4,"mosquito_risk":7,"arthritis_risk":5,"migraine_risk":0,"frizz_risk":1,"updated_at":"2026-06-07T17:20:24.951027+05:30"},{"city":"Haridwar","state":"Uttarakhand","latitude":29.9457,"longitude":78.1642,"temp":35.0,"humidity":42,"rain":0.0,"pressure":967.2,"uv_index":7.6,"wind_gusts":32.4,"aqi":163,"pm10":46.9,"pm2_5":31.2,"no2":1.4,"co":271.0,"o3":175.0,"so2":9.1,"mosquito_risk":0,"arthritis_risk":5,"migraine_risk":7,"frizz_risk":1,"updated_at":"2026-06-07T17:20:24.951036+05:30"},{"city":"Rishikesh","state":"Uttarakhand","latitude":30.0869,"longitude":78.2676,"temp":34.6,"humidity":41,"rain":0.0,"pressure":960.2,"uv_index":7.7,"wind_gusts":37.1,"aqi":151,"pm10":39.8,"pm2_5":25.8,"no2":0.7,"co":239.0,"o3":168.0,"so2":6.8,"mosquito_risk":0,"arthritis_risk":5,"migraine_risk":7,"frizz_risk":1,"updated_at":"2026-06-07T17:20:24.951045+05:30"},{"city":"Nainital","state":"Uttarakhand","latitude":29.3919,"longitude":79.4542,"temp":22.2,"humidity":52,"rain":0.0,"pressure":804.5,"uv_index":8.6,"wind_gusts":35.3,"aqi":151,"pm10":53.3,"pm2_5":30.2,"no2":1.1,"co":222.0,"o3":168.0,"so2":8.0,"mosquito_risk":0,"arthritis_risk":5,"migraine_risk":7,"frizz_risk":0,"updated_at":"2026-06-07T17:20:24.951054+05:30"},{"city":"Mussoorie","state":"Uttarakhand","latitude":30.4599,"longitude":78.0664,"temp":21.1,"humidity":58,"rain":0.0,"pressure":802.1,"uv_index":8.15,"wind_gusts":47.5,"aqi":161,"pm10":41.2,"pm2_5":28.0,"no2":0.9,"co":213.0,"o3":176.0,"so2":7.6,"mosquito_risk":0,"arthritis_risk":5,"migraine_risk":7,"frizz_risk":0,"updated_at":"2026-06-07T17:20:24.951063+05:30"},{"city":"Dharamshala","state":"Himachal Pradesh","latitude":32.219,"longitude":76.3234,"temp":26.9,"humidity":34,"rain":0.0,"pressure":867.0,"uv_index":8.5,"wind_gusts":43.9,"aqi":118,"pm10":14.0,"pm2_5":9.9,"no2":0.1,"co":165.0,"o3":154.0,"so2":1.4,"mosquito_risk":4,"arthritis_risk":5,"migraine_risk":7,"frizz_risk":0,"updated_at":"2026-06-07T17:20:24.951072+05:30"},{"city":"Dalhousie","state":"Himachal Pradesh","latitude":32.5387,"longitude":75.971,"temp":23.3,"humidity":36,"rain":0.0,"pressure":804.8,"uv_index":8.75,"wind_gusts":39.6,"aqi":139,"pm10":20.8,"pm2_5":14.9,"no2":0.2,"co":169.0,"o3":172.0,"so2":3.0,"mosquito_risk":0,"arthritis_risk":5,"migraine_risk":7,"frizz_risk":0,"updated_at":"2026-06-07T17:20:24.951082+05:30"},{"city":"Patiala","state":"Punjab","latitude":30.3398,"longitude":76.3869,"temp":38.5,"humidity":21,"rain":0.0,"pressure":971.4,"uv_index":7.7,"wind_gusts":33.8,"aqi":153,"pm10":195.1,"pm2_5":48.8,"no2":0.8,"co":206.0,"o3":171.0,"so2":6.9,"mosquito_risk":0,"arthritis_risk":5,"migraine_risk":10,"frizz_risk":0,"updated_at":"2026-06-07T17:20:24.951091+05:30"},{"city":"Bhatinda","state":"Punjab","latitude":30.211,"longitude":74.9455,"temp":40.0,"humidity":20,"rain":0.0,"pressure":976.6,"uv_index":8.3,"wind_gusts":20.9,"aqi":157,"pm10":68.7,"pm2_5":31.3,"no2":1.1,"co":183.0,"o3":168.0,"so2":10.9,"mosquito_risk":0,"arthritis_risk":5,"migraine_risk":10,"frizz_risk":0,"updated_at":"2026-06-07T17:20:24.951101+05:30"},{"city":"Rohtak","state":"Haryana","latitude":28.8955,"longitude":76.6066,"temp":38.5,"humidity":28,"rain":0.0,"pressure":974.7,"uv_index":7.8,"wind_gusts":43.9,"aqi":277,"pm10":325.0,"pm2_5":63.6,"no2":0.7,"co":150.0,"o3":126.0,"so2":5.8,"mosquito_risk":0,"arthritis_risk":5,"migraine_risk":10,"frizz_risk":1,"updated_at":"2026-06-07T17:20:24.951110+05:30"},{"city":"Panipat","state":"Haryana","latitude":29.3909,"longitude":76.9635,"temp":38.1,"humidity":30,"rain":0.0,"pressure":973.0,"uv_index":7.65,"wind_gusts":32.8,"aqi":562,"pm10":756.2,"pm2_5":108.0,"no2":2.1,"co":210.0,"o3":141.0,"so2":12.9,"mosquito_risk":0,"arthritis_risk":5,"migraine_risk":10,"frizz_risk":1,"updated_at":"2026-06-07T17:20:24.951118+05:30"},{"city":"Mathura","state":"Uttar Pradesh","latitude":27.4924,"longitude":77.6737,"temp":37.6,"humidity":36,"rain":0.0,"pressure":979.8,"uv_index":8.1,"wind_gusts":27.0,"aqi":290,"pm10":345.5,"pm2_5":64.3,"no2":1.3,"co":187.0,"o3":112.0,"so2":2.8,"mosquito_risk":0,"arthritis_risk":5,"migraine_risk":10,"frizz_risk":1,"updated_at":"2026-06-07T17:20:24.951127+05:30"},{"city":"Vrindavan","state":"Uttar Pradesh","latitude":27.5823,"longitude":77.7027,"temp":37.9,"humidity":34,"rain":0.0,"pressure":980.2,"uv_index":8.05,"wind_gusts":25.9,"aqi":290,"pm10":345.5,"pm2_5":64.3,"no2":1.3,"co":163.0,"o3":112.0,"so2":2.8,"mosquito_risk":0,"arthritis_risk":5,"migraine_risk":10,"frizz_risk":1,"updated_at":"2026-06-07T17:20:24.951135+05:30"},{"city":"Ayodhya","state":"Uttar Pradesh","latitude":26.7922,"longitude":82.1998,"temp":36.0,"humidity":43,"rain":0.0,"pressure":987.5,"uv_index":8.4,"wind_gusts":25.6,"aqi":151,"pm10":135.0,"pm2_5":45.4,"no2":3.0,"co":271.0,"o3":148.0,"so2":7.9,"mosquito_risk":0,"arthritis_risk":5,"migraine_risk":10,"frizz_risk":1,"updated_at":"2026-06-07T17:20:24.951143+05:30"},{"city":"Ratlam","state":"Madhya Pradesh","latitude":23.3315,"longitude":75.0367,"temp":35.9,"humidity":37,"rain":0.0,"pressure":950.5,"uv_index":8.5,"wind_gusts":38.5,"aqi":88,"pm10":63.8,"pm2_5":27.9,"no2":0.5,"co":128.0,"o3":109.0,"so2":4.3,"mosquito_risk":0,"arthritis_risk":5,"migraine_risk":10,"frizz_risk":1,"updated_at":"2026-06-07T17:20:24.951152+05:30"},{"city":"Sagar","state":"Madhya Pradesh","latitude":23.8388,"longitude":78.7378,"temp":35.8,"humidity":32,"rain":0.0,"pressure":945.6,"uv_index":8.2,"wind_gusts":38.2,"aqi":97,"pm10":93.8,"pm2_5":32.5,"no2":0.1,"co":137.0,"o3":113.0,"so2":3.7,"mosquito_risk":0,"arthritis_risk":5,"migraine_risk":10,"frizz_risk":1,"updated_at":"2026-06-07T17:20:24.951161+05:30"},{"city":"Satna","state":"Madhya Pradesh","latitude":24.6005,"longitude":80.8322,"temp":37.9,"humidity":24,"rain":0.0,"pressure":965.4,"uv_index":8.8,"wind_gusts":37.1,"aqi":137,"pm10":114.8,"pm2_5":36.0,"no2":0.2,"co":140.0,"o3":119.0,"so2":2.6,"mosquito_risk":0,"arthritis_risk":5,"migraine_risk":10,"frizz_risk":0,"updated_at":"2026-06-07T17:20:24.951170+05:30"},{"city":"Akola","state":"Maharashtra","latitude":20.7002,"longitude":77.0082,"temp":38.2,"humidity":30,"rain":0.0,"pressure":969.8,"uv_index":8.8,"wind_gusts":38.5,"aqi":89,"pm10":69.4,"pm2_5":29.7,"no2":1.1,"co":124.0,"o3":117.0,"so2":6.1,"mosquito_risk":0,"arthritis_risk":5,"migraine_risk":10,"frizz_risk":1,"updated_at":"2026-06-07T17:20:24.951179+05:30"},{"city":"Amravati","state":"Maharashtra","latitude":20.9374,"longitude":77.7796,"temp":37.8,"humidity":32,"rain":0.0,"pressure":962.2,"uv_index":8.85,"wind_gusts":41.8,"aqi":97,"pm10":72.6,"pm2_5":32.5,"no2":1.5,"co":141.0,"o3":123.0,"so2":7.3,"mosquito_risk":0,"arthritis_risk":5,"migraine_risk":10,"frizz_risk":1,"updated_at":"2026-06-07T17:20:24.951189+05:30"},{"city":"Latur","state":"Maharashtra","latitude":18.4088,"longitude":76.5604,"temp":33.8,"humidity":40,"rain":0.0,"pressure":936.2,"uv_index":8.5,"wind_gusts":35.6,"aqi":79,"pm10":50.6,"pm2_5":23.6,"no2":0.0,"co":125.0,"o3":113.0,"so2":3.5,"mosquito_risk":0,"arthritis_risk":5,"migraine_risk":7,"frizz_risk":1,"updated_at":"2026-06-07T17:20:24.951197+05:30"},{"city":"Nanded","state":"Maharashtra","latitude":19.1383,"longitude":77.3091,"temp":33.5,"humidity":53,"rain":0.3,"pressure":963.7,"uv_index":8.9,"wind_gusts":36.4,"aqi":85,"pm10":59.8,"pm2_5":27.9,"no2":0.3,"co":139.0,"o3":114.0,"so2":3.0,"mosquito_risk":3,"arthritis_risk":5,"migraine_risk":7,"frizz_risk":1,"updated_at":"2026-06-07T17:20:24.951206+05:30"},{"city":"Gulbarga","state":"Karnataka","latitude":17.3297,"longitude":76.8343,"temp":33.5,"humidity":47,"rain":0.0,"pressure":954.9,"uv_index":8.9,"wind_gusts":44.3,"aqi":63,"pm10":38.1,"pm2_5":20.8,"no2":0.9,"co":192.0,"o3":119.0,"so2":4.7,"mosquito_risk":0,"arthritis_risk":5,"migraine_risk":7,"frizz_risk":1,"updated_at":"2026-06-07T17:20:24.951214+05:30"},{"city":"Bidar","state":"Karnataka","latitude":17.9104,"longitude":77.5199,"temp":33.1,"humidity":46,"rain":0.0,"pressure":931.9,"uv_index":9.0,"wind_gusts":32.4,"aqi":85,"pm10":49.5,"pm2_5":26.8,"no2":0.7,"co":153.0,"o3":117.0,"so2":6.1,"mosquito_risk":0,"arthritis_risk":5,"migraine_risk":7,"frizz_risk":1,"updated_at":"2026-06-07T17:20:24.951222+05:30"},{"city":"Hospet","state":"Karnataka","latitude":15.2689,"longitude":76.3909,"temp":26.0,"humidity":82,"rain":0.0,"pressure":953.3,"uv_index":8.45,"wind_gusts":42.5,"aqi":39,"pm10":28.1,"pm2_5":15.3,"no2":3.5,"co":171.0,"o3":94.0,"so2":1.8,"mosquito_risk":7,"arthritis_risk":5,"migraine_risk":7,"frizz_risk":1,"updated_at":"2026-06-07T17:20:24.951231+05:30"},{"city":"Tirupur","state":"Tamil Nadu","latitude":11.1085,"longitude":77.3411,"temp":29.3,"humidity":64,"rain":0.0,"pressure":973.1,"uv_index":8.55,"wind_gusts":67.0,"aqi":31,"pm10":3.5,"pm2_5":2.8,"no2":2.5,"co":121.0,"o3":70.0,"so2":1.8,"mosquito_risk":7,"arthritis_risk":5,"migraine_risk":7,"frizz_risk":1,"updated_at":"2026-06-07T17:20:24.951239+05:30"},{"city":"Alappuzha","state":"Kerala","latitude":9.4981,"longitude":76.3388,"temp":26.5,"humidity":89,"rain":0.1,"pressure":1009.6,"uv_index":6.95,"wind_gusts":47.5,"aqi":35,"pm10":12.2,"pm2_5":6.6,"no2":2.1,"co":86.0,"o3":54.0,"so2":0.8,"mosquito_risk":10,"arthritis_risk":0,"migraine_risk":4,"frizz_risk":1,"updated_at":"2026-06-07T17:20:24.951248+05:30"},{"city":"Munnar","state":"Kerala","latitude":10.0889,"longitude":77.0595,"temp":17.1,"humidity":100,"rain":0.5,"pressure":855.9,"uv_index":4.3,"wind_gusts":47.5,"aqi":23,"pm10":2.2,"pm2_5":1.8,"no2":2.7,"co":111.0,"o3":52.0,"so2":1.0,"mosquito_risk":6,"arthritis_risk":10,"migraine_risk":3,"frizz_risk":1,"updated_at":"2026-06-07T17:20:24.951257+05:30"},{"city":"Silchar","state":"Assam","latitude":24.8333,"longitude":92.7789,"temp":28.8,"humidity":88,"rain":0.2,"pressure":998.6,"uv_index":8.1,"wind_gusts":27.7,"aqi":102,"pm10":36.7,"pm2_5":30.2,"no2":2.7,"co":249.0,"o3":114.0,"so2":4.5,"mosquito_risk":10,"arthritis_risk":5,"migraine_risk":7,"frizz_risk":1,"updated_at":"2026-06-07T17:20:24.951266+05:30"},{"city":"Dibrugarh","state":"Assam","latitude":27.4728,"longitude":94.912,"temp":30.3,"humidity":78,"rain":0.0,"pressure":987.3,"uv_index":8.5,"wind_gusts":27.4,"aqi":95,"pm10":30.2,"pm2_5":26.7,"no2":4.6,"co":297.0,"o3":116.0,"so2":2.1,"mosquito_risk":3,"arthritis_risk":5,"migraine_risk":7,"frizz_risk":1,"updated_at":"2026-06-07T17:20:24.951301+05:30"}]