[{"city":"Delhi","state":"Delhi","latitude":28.6139,"longitude":77.209,"temp":27.3,"humidity":61,"rain":0.0,"pressure":987.9,"uv_index":5.5,"wind_gusts":25.6,"aqi":172,"pm10":457.3,"pm2_5":108.5,"mosquito_risk":7,"arthritis_risk":5,"migraine_risk":3,"frizz_risk":1,"updated_at":"2026-03-09T21:31:32.394505+05:30"},{"city":"Mumbai","state":"Maharashtra","latitude":19.076,"longitude":72.8777,"temp":30.6,"humidity":56,"rain":0.0,"pressure":1009.1,"uv_index":7.55,"wind_gusts":24.5,"aqi":220,"pm10":29.9,"pm2_5":29.1,"mosquito_risk":0,"arthritis_risk":0,"migraine_risk":4,"frizz_risk":1,"updated_at":"2026-03-09T21:31:32.394591+05:30"},{"city":"Bangalore","state":"Karnataka","latitude":12.9716,"longitude":77.5946,"temp":24.5,"humidity":55,"rain":0.0,"pressure":914.8,"uv_index":9.2,"wind_gusts":38.2,"aqi":111,"pm10":39.2,"pm2_5":35.2,"mosquito_risk":0,"arthritis_risk":5,"migraine_risk":7,"frizz_risk":0,"updated_at":"2026-03-09T21:31:32.394610+05:30"},{"city":"Hyderabad","state":"Telangana","latitude":17.385,"longitude":78.4867,"temp":25.8,"humidity":59,"rain":0.0,"pressure":957.2,"uv_index":8.55,"wind_gusts":31.3,"aqi":138,"pm10":46.9,"pm2_5":42.1,"mosquito_risk":4,"arthritis_risk":5,"migraine_risk":7,"frizz_risk":1,"updated_at":"2026-03-09T21:31:32.394621+05:30"},{"city":"Chennai","state":"Tamil Nadu","latitude":13.0827,"longitude":80.2707,"temp":26.3,"humidity":74,"rain":0.0,"pressure":1012.6,"uv_index":8.95,"wind_gusts":34.6,"aqi":88,"pm10":38.2,"pm2_5":27.5,"mosquito_risk":7,"arthritis_risk":0,"migraine_risk":4,"frizz_risk":1,"updated_at":"2026-03-09T21:31:32.394631+05:30"},{"city":"Kolkata","state":"West Bengal","latitude":22.5726,"longitude":88.3639,"temp":24.9,"humidity":87,"rain":0.0,"pressure":1012.6,"uv_index":7.9,"wind_gusts":16.6,"aqi":130,"pm10":81.5,"pm2_5":74.3,"mosquito_risk":3,"arthritis_risk":0,"migraine_risk":4,"frizz_risk":1,"updated_at":"2026-03-09T21:31:32.394641+05:30"},{"city":"Pune","state":"Maharashtra","latitude":18.5204,"longitude":73.8567,"temp":27.0,"humidity":35,"rain":0.0,"pressure":950.7,"uv_index":8.1,"wind_gusts":31.0,"aqi":113,"pm10":19.2,"pm2_5":17.3,"mosquito_risk":4,"arthritis_risk":5,"migraine_risk":7,"frizz_risk":0,"updated_at":"2026-03-09T21:31:32.394656+05:30"},{"city":"Ahmedabad","state":"Gujarat","latitude":23.0225,"longitude":72.5714,"temp":29.4,"humidity":33,"rain":0.0,"pressure":1005.6,"uv_index":7.35,"wind_gusts":21.6,"aqi":96,"pm10":18.1,"pm2_5":16.5,"mosquito_risk":4,"arthritis_risk":5,"migraine_risk":4,"frizz_risk":0,"updated_at":"2026-03-09T21:31:32.394666+05:30"},{"city":"Jaipur","state":"Rajasthan","latitude":26.9124,"longitude":75.7873,"temp":28.1,"humidity":20,"rain":0.0,"pressure":964.2,"uv_index":6.75,"wind_gusts":27.7,"aqi":78,"pm10":91.7,"pm2_5":29.7,"mosquito_risk":4,"arthritis_risk":5,"migraine_risk":7,"frizz_risk":0,"updated_at":"2026-03-09T21:31:32.394675+05:30"},{"city":"Lucknow","state":"Uttar Pradesh","latitude":26.8467,"longitude":80.9462,"temp":27.8,"humidity":60,"rain":0.0,"pressure":999.1,"uv_index":6.55,"wind_gusts":22.0,"aqi":176,"pm10":178.8,"pm2_5":92.9,"mosquito_risk":4,"arthritis_risk":5,"migraine_risk":7,"frizz_risk":1,"updated_at":"2026-03-09T21:31:32.394683+05:30"},{"city":"Kanpur","state":"Uttar Pradesh","latitude":26.4499,"longitude":80.3319,"temp":26.7,"humidity":66,"rain":0.0,"pressure":996.9,"uv_index":6.55,"wind_gusts":18.0,"aqi":164,"pm10":205.4,"pm2_5":76.6,"mosquito_risk":7,"arthritis_risk":5,"migraine_risk":7,"frizz_risk":1,"updated_at":"2026-03-09T21:31:32.394691+05:30"},{"city":"Chandigarh","state":"Chandigarh","latitude":30.7333,"longitude":76.7794,"temp":24.6,"humidity":68,"rain":0.0,"pressure":973.4,"uv_index":5.95,"wind_gusts":24.1,"aqi":103,"pm10":69.6,"pm2_5":59.8,"mosquito_risk":3,"arthritis_risk":5,"migraine_risk":3,"frizz_risk":1,"updated_at":"2026-03-09T21:31:32.394699+05:30"},{"city":"Srinagar","state":"Jammu and Kashmir","latitude":34.0837,"longitude":74.7973,"temp":11.6,"humidity":76,"rain":0.0,"pressure":844.7,"uv_index":6.5,"wind_gusts":25.2,"aqi":143,"pm10":100.4,"pm2_5":65.0,"mosquito_risk":3,"arthritis_risk":5,"migraine_risk":7,"frizz_risk":0,"updated_at":"2026-03-09T21:31:32.394707+05:30"},{"city":"Jammu","state":"Jammu and Kashmir","latitude":32.7266,"longitude":74.857,"temp":23.2,"humidity":71,"rain":0.0,"pressure":976.9,"uv_index":6.55,"wind_gusts":18.0,"aqi":93,"pm10":60.1,"pm2_5":47.4,"mosquito_risk":3,"arthritis_risk":5,"migraine_risk":7,"frizz_risk":1,"updated_at":"2026-03-09T21:31:32.394716+05:30"},{"city":"Amritsar","state":"Punjab","latitude":31.634,"longitude":74.8723,"temp":24.5,"humidity":74,"rain":0.0,"pressure":985.1,"uv_index":6.5,"wind_gusts":13.3,"aqi":162,"pm10":138.3,"pm2_5":115.9,"mosquito_risk":3,"arthritis_risk":5,"migraine_risk":7,"frizz_risk":1,"updated_at":"2026-03-09T21:31:32.394723+05:30"},{"city":"Ludhiana","state":"Punjab","latitude":30.901,"longitude":75.8573,"temp":25.2,"humidity":68,"rain":0.0,"pressure":983.3,"uv_index":6.15,"wind_gusts":18.7,"aqi":156,"pm10":167.6,"pm2_5":113.9,"mosquito_risk":7,"arthritis_risk":5,"migraine_risk":7,"frizz_risk":1,"updated_at":"2026-03-09T21:31:32.394731+05:30"},{"city":"Jalandhar","state":"Punjab","latitude":31.326,"longitude":75.5762,"temp":24.2,"humidity":78,"rain":0.0,"pressure":984.4,"uv_index":6.35,"wind_gusts":16.2,"aqi":158,"pm10":130.4,"pm2_5":95.7,"mosquito_risk":3,"arthritis_risk":5,"migraine_risk":7,"frizz_risk":1,"updated_at":"2026-03-09T21:31:32.394744+05:30"},{"city":"Dehradun","state":"Uttarakhand","latitude":30.6284,"longitude":78.0322,"temp":15.3,"humidity":94,"rain":0.0,"pressure":834.4,"uv_index":6.3,"wind_gusts":28.4,"aqi":100,"pm10":50.1,"pm2_5":35.4,"mosquito_risk":3,"arthritis_risk":10,"migraine_risk":7,"frizz_risk":0,"updated_at":"2026-03-09T21:31:32.394752+05:30"},{"city":"Shimla","state":"Himachal Pradesh","latitude":31.1048,"longitude":77.1734,"temp":14.8,"humidity":70,"rain":0.0,"pressure":788.7,"uv_index":6.35,"wind_gusts":48.2,"aqi":71,"pm10":44.5,"pm2_5":29.6,"mosquito_risk":3,"arthritis_risk":5,"migraine_risk":7,"frizz_risk":0,"updated_at":"2026-03-09T21:31:32.394760+05:30"},{"city":"Manali","state":"Himachal Pradesh","latitude":32.2396,"longitude":77.1887,"temp":18.5,"humidity":33,"rain":0.0,"pressure":826.0,"uv_index":8.05,"wind_gusts":35.6,"aqi":77,"pm10":28.1,"pm2_5":14.0,"mosquito_risk":0,"arthritis_risk":5,"migraine_risk":7,"frizz_risk":0,"updated_at":"2026-03-09T21:31:32.394768+05:30"},{"city":"Gurgaon","state":"Haryana","latitude":28.4595,"longitude":77.0266,"temp":24.1,"humidity":72,"rain":0.0,"pressure":986.2,"uv_index":5.85,"wind_gusts":24.5,"aqi":508,"pm10":419.1,"pm2_5":108.7,"mosquito_risk":3,"arthritis_risk":5,"migraine_risk":3,"frizz_risk":1,"updated_at":"2026-03-09T21:31:32.394776+05:30"},{"city":"Noida","state":"Uttar Pradesh","latitude":28.5355,"longitude":77.391,"temp":27.5,"humidity":58,"rain":0.0,"pressure":989.5,"uv_index":5.45,"wind_gusts":24.8,"aqi":508,"pm10":419.1,"pm2_5":108.7,"mosquito_risk":4,"arthritis_risk":5,"migraine_risk":3,"frizz_risk":1,"updated_at":"2026-03-09T21:31:32.394784+05:30"},{"city":"Ghaziabad","state":"Uttar Pradesh","latitude":28.6692,"longitude":77.4538,"temp":26.5,"humidity":67,"rain":0.0,"pressure":987.6,"uv_index":5.3,"wind_gusts":24.1,"aqi":163,"pm10":364.1,"pm2_5":104.3,"mosquito_risk":7,"arthritis_risk":5,"migraine_risk":3,"frizz_risk":1,"updated_at":"2026-03-09T21:31:32.394791+05:30"},{"city":"Faridabad","state":"Haryana","latitude":28.4089,"longitude":77.3178,"temp":25.7,"humidity":62,"rain":0.0,"pressure":988.6,"uv_index":5.85,"wind_gusts":23.0,"aqi":508,"pm10":419.1,"pm2_5":108.7,"mosquito_risk":7,"arthritis_risk":5,"migraine_risk":3,"frizz_risk":1,"updated_at":"2026-03-09T21:31:32.394799+05:30"},{"city":"Meerut","state":"Uttar Pradesh","latitude":28.9845,"longitude":77.7064,"temp":24.6,"humidity":77,"rain":0.0,"pressure":986.4,"uv_index":5.7,"wind_gusts":25.2,"aqi":163,"pm10":364.1,"pm2_5":104.3,"mosquito_risk":3,"arthritis_risk":5,"migraine_risk":3,"frizz_risk":1,"updated_at":"2026-03-09T21:31:32.394806+05:30"},{"city":"Agra","state":"Uttar Pradesh","latitude":27.1767,"longitude":78.0081,"temp":25.4,"humidity":70,"rain":0.0,"pressure":992.4,"uv_index":6.4,"wind_gusts":19.8,"aqi":184,"pm10":235.6,"pm2_5":98.0,"mosquito_risk":7,"arthritis_risk":5,"migraine_risk":7,"frizz_risk":1,"updated_at":"2026-03-09T21:31:32.394814+05:30"},{"city":"Varanasi","state":"Uttar Pradesh","latitude":25.3176,"longitude":82.9739,"temp":24.4,"humidity":83,"rain":0.0,"pressure":1003.6,"uv_index":7.2,"wind_gusts":14.8,"aqi":186,"pm10":144.4,"pm2_5":137.8,"mosquito_risk":3,"arthritis_risk":5,"migraine_risk":4,"frizz_risk":1,"updated_at":"2026-03-09T21:31:32.394823+05:30"},{"city":"Prayagraj","state":"Uttar Pradesh","latitude":25.4358,"longitude":81.8463,"temp":25.9,"humidity":71,"rain":0.0,"pressure":1001.5,"uv_index":7.05,"wind_gusts":15.1,"aqi":190,"pm10":129.5,"pm2_5":112.7,"mosquito_risk":7,"arthritis_risk":5,"migraine_risk":4,"frizz_risk":1,"updated_at":"2026-03-09T21:31:32.394831+05:30"},{"city":"Gorakhpur","state":"Uttar Pradesh","latitude":26.7606,"longitude":83.3732,"temp":22.7,"humidity":89,"rain":0.0,"pressure":1003.9,"uv_index":6.9,"wind_gusts":27.0,"aqi":206,"pm10":147.6,"pm2_5":138.3,"mosquito_risk":3,"arthritis_risk":5,"migraine_risk":4,"frizz_risk":1,"updated_at":"2026-03-09T21:31:32.394839+05:30"},{"city":"Bareilly","state":"Uttar Pradesh","latitude":28.367,"longitude":79.4304,"temp":25.3,"humidity":71,"rain":0.0,"pressure":992.0,"uv_index":6.2,"wind_gusts":16.6,"aqi":169,"pm10":126.2,"pm2_5":94.1,"mosquito_risk":7,"arthritis_risk":5,"migraine_risk":7,"frizz_risk":1,"updated_at":"2026-03-09T21:31:32.394846+05:30"},{"city":"Aligarh","state":"Uttar Pradesh","latitude":27.8974,"longitude":78.088,"temp":24.1,"humidity":72,"rain":0.0,"pressure":990.4,"uv_index":6.15,"wind_gusts":23.8,"aqi":192,"pm10":249.6,"pm2_5":126.7,"mosquito_risk":3,"arthritis_risk":5,"migraine_risk":7,"frizz_risk":1,"updated_at":"2026-03-09T21:31:32.394853+05:30"},{"city":"Moradabad","state":"Uttar Pradesh","latitude":28.8386,"longitude":78.7733,"temp":24.3,"humidity":76,"rain":0.0,"pressure":988.8,"uv_index":6.05,"wind_gusts":18.0,"aqi":174,"pm10":152.7,"pm2_5":113.9,"mosquito_risk":3,"arthritis_risk":5,"migraine_risk":7,"frizz_risk":1,"updated_at":"2026-03-09T21:31:32.394862+05:30"},{"city":"Saharanpur","state":"Uttar Pradesh","latitude":29.9637,"longitude":77.546,"temp":23.5,"humidity":78,"rain":0.0,"pressure":980.6,"uv_index":5.65,"wind_gusts":23.8,"aqi":159,"pm10":236.6,"pm2_5":99.4,"mosquito_risk":3,"arthritis_risk":5,"migraine_risk":3,"frizz_risk":1,"updated_at":"2026-03-09T21:31:32.394869+05:30"},{"city":"Jhansi","state":"Uttar Pradesh","latitude":25.4484,"longitude":78.5685,"temp":24.9,"humidity":55,"rain":0.0,"pressure":982.4,"uv_index":7.0,"wind_gusts":25.6,"aqi":71,"pm10":51.8,"pm2_5":25.4,"mosquito_risk":0,"arthritis_risk":5,"migraine_risk":7,"frizz_risk":0,"updated_at":"2026-03-09T21:31:35.757012+05:30"},{"city":"Surat","state":"Gujarat","latitude":21.1702,"longitude":72.8311,"temp":29.4,"humidity":44,"rain":0.0,"pressure":1008.8,"uv_index":7.25,"wind_gusts":23.8,"aqi":99,"pm10":35.0,"pm2_5":34.2,"mosquito_risk":4,"arthritis_risk":0,"migraine_risk":4,"frizz_risk":0,"updated_at":"2026-03-09T21:31:35.757047+05:30"},{"city":"Vadodara","state":"Gujarat","latitude":22.3072,"longitude":73.1812,"temp":30.9,"humidity":34,"rain":0.0,"pressure":1007.1,"uv_index":7.4,"wind_gusts":17.3,"aqi":111,"pm10":32.0,"pm2_5":30.7,"mosquito_risk":0,"arthritis_risk":5,"migraine_risk":4,"frizz_risk":0,"updated_at":"2026-03-09T21:31:35.757058+05:30"},{"city":"Rajkot","state":"Gujarat","latitude":22.3039,"longitude":70.8022,"temp":28.8,"humidity":38,"rain":0.0,"pressure":998.1,"uv_index":7.2,"wind_gusts":23.0,"aqi":109,"pm10":23.2,"pm2_5":21.0,"mosquito_risk":4,"arthritis_risk":5,"migraine_risk":7,"frizz_risk":0,"updated_at":"2026-03-09T21:31:35.757068+05:30"},{"city":"Thane","state":"Maharashtra","latitude":19.2183,"longitude":72.9781,"temp":31.6,"humidity":38,"rain":0.0,"pressure":1008.7,"uv_index":7.55,"wind_gusts":37.1,"aqi":220,"pm10":29.9,"pm2_5":29.1,"mosquito_risk":0,"arthritis_risk":0,"migraine_risk":4,"frizz_risk":0,"updated_at":"2026-03-09T21:31:35.757077+05:30"},{"city":"Nagpur","state":"Maharashtra","latitude":21.1458,"longitude":79.0882,"temp":27.3,"humidity":32,"rain":0.0,"pressure":976.8,"uv_index":7.95,"wind_gusts":26.6,"aqi":84,"pm10":75.7,"pm2_5":60.3,"mosquito_risk":4,"arthritis_risk":5,"migraine_risk":7,"frizz_risk":0,"updated_at":"2026-03-09T21:31:35.757087+05:30"},{"city":"Nashik","state":"Maharashtra","latitude":19.9975,"longitude":73.7898,"temp":27.6,"humidity":23,"rain":0.0,"pressure":948.6,"uv_index":7.75,"wind_gusts":31.0,"aqi":116,"pm10":14.7,"pm2_5":13.7,"mosquito_risk":4,"arthritis_risk":5,"migraine_risk":7,"frizz_risk":0,"updated_at":"2026-03-09T21:31:35.757096+05:30"},{"city":"Aurangabad","state":"Maharashtra","latitude":19.8762,"longitude":75.3433,"temp":26.4,"humidity":41,"rain":0.0,"pressure":946.9,"uv_index":8.25,"wind_gusts":34.2,"aqi":109,"pm10":31.9,"pm2_5":28.7,"mosquito_risk":4,"arthritis_risk":5,"migraine_risk":7,"frizz_risk":0,"updated_at":"2026-03-09T21:31:35.757105+05:30"},{"city":"Solapur","state":"Maharashtra","latitude":17.6599,"longitude":75.9064,"temp":26.4,"humidity":51,"rain":0.0,"pressure":959.6,"uv_index":8.45,"wind_gusts":25.9,"aqi":146,"pm10":28.4,"pm2_5":25.6,"mosquito_risk":4,"arthritis_risk":5,"migraine_risk":7,"frizz_risk":0,"updated_at":"2026-03-09T21:31:35.757114+05:30"},{"city":"Kolhapur","state":"Maharashtra","latitude":16.705,"longitude":74.2433,"temp":26.2,"humidity":33,"rain":0.0,"pressure":950.2,"uv_index":8.6,"wind_gusts":38.5,"aqi":130,"pm10":64.0,"pm2_5":61.5,"mosquito_risk":4,"arthritis_risk":5,"migraine_risk":7,"frizz_risk":0,"updated_at":"2026-03-09T21:31:35.757122+05:30"},{"city":"Goa","state":"Goa","latitude":15.2993,"longitude":74.124,"temp":27.9,"humidity":85,"rain":0.0,"pressure":999.8,"uv_index":8.65,"wind_gusts":36.0,"aqi":136,"pm10":51.3,"pm2_5":46.3,"mosquito_risk":7,"arthritis_risk":5,"migraine_risk":7,"frizz_risk":1,"updated_at":"2026-03-09T21:31:35.757131+05:30"},{"city":"Jodhpur","state":"Rajasthan","latitude":26.2389,"longitude":73.0243,"temp":28.5,"humidity":26,"rain":0.0,"pressure":987.4,"uv_index":7.1,"wind_gusts":23.4,"aqi":83,"pm10":76.1,"pm2_5":24.3,"mosquito_risk":4,"arthritis_risk":5,"migraine_risk":7,"frizz_risk":0,"updated_at":"2026-03-09T21:31:35.757139+05:30"},{"city":"Udaipur","state":"Rajasthan","latitude":24.5854,"longitude":73.7125,"temp":25.3,"humidity":28,"rain":0.0,"pressure":951.5,"uv_index":7.7,"wind_gusts":17.3,"aqi":89,"pm10":15.3,"pm2_5":12.3,"mosquito_risk":4,"arthritis_risk":5,"migraine_risk":7,"frizz_risk":0,"updated_at":"2026-03-09T21:31:35.757147+05:30"},{"city":"Kota","state":"Rajasthan","latitude":25.2138,"longitude":75.8648,"temp":28.5,"humidity":31,"rain":0.0,"pressure":982.9,"uv_index":7.1,"wind_gusts":17.3,"aqi":70,"pm10":32.7,"pm2_5":27.6,"mosquito_risk":4,"arthritis_risk":5,"migraine_risk":7,"frizz_risk":0,"updated_at":"2026-03-09T21:31:35.757155+05:30"},{"city":"Bikaner","state":"Rajasthan","latitude":28.0229,"longitude":73.3119,"temp":28.0,"humidity":25,"rain":0.0,"pressure":986.3,"uv_index":6.7,"wind_gusts":22.7,"aqi":68,"pm10":22.9,"pm2_5":11.1,"mosquito_risk":4,"arthritis_risk":5,"migraine_risk":7,"frizz_risk":0,"updated_at":"2026-03-09T21:31:35.757164+05:30"},{"city":"Ajmer","state":"Rajasthan","latitude":26.4499,"longitude":74.6399,"temp":26.9,"humidity":29,"rain":0.0,"pressure":959.3,"uv_index":7.05,"wind_gusts":22.7,"aqi":74,"pm10":44.1,"pm2_5":18.1,"mosquito_risk":4,"arthritis_risk":5,"migraine_risk":7,"frizz_risk":0,"updated_at":"2026-03-09T21:31:35.757172+05:30"},{"city":"Gwalior","state":"Madhya Pradesh","latitude":26.2183,"longitude":78.1828,"temp":27.1,"humidity":55,"rain":0.0,"pressure":987.8,"uv_index":6.7,"wind_gusts":21.2,"aqi":75,"pm10":110.8,"pm2_5":38.0,"mosquito_risk":4,"arthritis_risk":5,"migraine_risk":7,"frizz_risk":1,"updated_at":"2026-03-09T21:31:35.757179+05:30"},{"city":"Indore","state":"Madhya Pradesh","latitude":22.7196,"longitude":75.8577,"temp":23.5,"humidity":47,"rain":0.0,"pressure":951.6,"uv_index":7.65,"wind_gusts":26.6,"aqi":81,"pm10":37.8,"pm2_5":29.5,"mosquito_risk":0,"arthritis_risk":5,"migraine_risk":7,"frizz_risk":0,"updated_at":"2026-03-09T21:31:35.757188+05:30"},{"city":"Bhopal","state":"Madhya Pradesh","latitude":23.2599,"longitude":77.4126,"temp":24.7,"humidity":49,"rain":0.0,"pressure":957.6,"uv_index":7.5,"wind_gusts":20.5,"aqi":93,"pm10":46.3,"pm2_5":25.6,"mosquito_risk":0,"arthritis_risk":5,"migraine_risk":7,"frizz_risk":0,"updated_at":"2026-03-09T21:31:35.757197+05:30"},{"city":"Jabalpur","state":"Madhya Pradesh","latitude":23.1815,"longitude":79.9864,"temp":27.2,"humidity":41,"rain":0.0,"pressure":965.5,"uv_index":7.65,"wind_gusts":21.6,"aqi":94,"pm10":53.2,"pm2_5":31.5,"mosquito_risk":4,"arthritis_risk":5,"migraine_risk":7,"frizz_risk":0,"updated_at":"2026-03-09T21:31:35.757205+05:30"},{"city":"Ujjain","state":"Madhya Pradesh","latitude":23.1765,"longitude":75.7885,"temp":25.9,"humidity":46,"rain":0.0,"pressure":957.7,"uv_index":7.55,"wind_gusts":18.4,"aqi":92,"pm10":47.7,"pm2_5":43.9,"mosquito_risk":4,"arthritis_risk":5,"migraine_risk":7,"frizz_risk":0,"updated_at":"2026-03-09T21:31:35.757214+05:30"},{"city":"Visakhapatnam","state":"Andhra Pradesh","latitude":17.6868,"longitude":83.2185,"temp":25.5,"humidity":84,"rain":0.0,"pressure":1009.8,"uv_index":8.2,"wind_gusts":33.5,"aqi":102,"pm10":58.0,"pm2_5":46.8,"mosquito_risk":7,"arthritis_risk":0,"migraine_risk":4,"frizz_risk":1,"updated_at":"2026-03-09T21:31:35.757222+05:30"},{"city":"Vijayawada","state":"Andhra Pradesh","latitude":16.5062,"longitude":80.648,"temp":26.5,"humidity":77,"rain":0.0,"pressure":1008.1,"uv_index":8.6,"wind_gusts":25.6,"aqi":97,"pm10":52.9,"pm2_5":46.1,"mosquito_risk":7,"arthritis_risk":0,"migraine_risk":4,"frizz_risk":1,"updated_at":"2026-03-09T21:31:35.757230+05:30"},{"city":"Guntur","state":"Andhra Pradesh","latitude":16.3067,"longitude":80.4365,"temp":25.4,"humidity":82,"rain":0.0,"pressure":1009.2,"uv_index":8.65,"wind_gusts":27.7,"aqi":93,"pm10":49.8,"pm2_5":43.7,"mosquito_risk":7,"arthritis_risk":0,"migraine_risk":4,"frizz_risk":1,"updated_at":"2026-03-09T21:31:35.757239+05:30"},{"city":"Nellore","state":"Andhra Pradesh","latitude":14.4426,"longitude":79.9865,"temp":25.3,"humidity":79,"rain":0.0,"pressure":1011.5,"uv_index":8.8,"wind_gusts":34.2,"aqi":81,"pm10":42.3,"pm2_5":31.3,"mosquito_risk":7,"arthritis_risk":0,"migraine_risk":4,"frizz_risk":1,"updated_at":"2026-03-09T21:31:35.757248+05:30"},{"city":"Kurnool","state":"Andhra Pradesh","latitude":15.8281,"longitude":78.0373,"temp":29.2,"humidity":54,"rain":0.0,"pressure":980.9,"uv_index":8.65,"wind_gusts":34.6,"aqi":136,"pm10":41.0,"pm2_5":36.6,"mosquito_risk":4,"arthritis_risk":5,"migraine_risk":7,"frizz_risk":1,"updated_at":"2026-03-09T21:31:35.757257+05:30"},{"city":"Kakinada","state":"Andhra Pradesh","latitude":16.9891,"longitude":82.2475,"temp":24.1,"humidity":86,"rain":0.0,"pressure":1013.5,"uv_index":8.55,"wind_gusts":30.2,"aqi":94,"pm10":55.2,"pm2_5":40.5,"mosquito_risk":3,"arthritis_risk":0,"migraine_risk":4,"frizz_risk":1,"updated_at":"2026-03-09T21:31:35.757264+05:30"},{"city":"Tirupati","state":"Andhra Pradesh","latitude":13.6288,"longitude":79.4192,"temp":24.2,"humidity":77,"rain":0.0,"pressure":997.0,"uv_index":8.95,"wind_gusts":36.7,"aqi":96,"pm10":55.1,"pm2_5":45.8,"mosquito_risk":3,"arthritis_risk":5,"migraine_risk":7,"frizz_risk":1,"updated_at":"2026-03-09T21:31:35.757271+05:30"},{"city":"Warangal","state":"Telangana","latitude":17.9689,"longitude":79.5941,"temp":27.2,"humidity":71,"rain":0.0,"pressure":983.0,"uv_index":8.4,"wind_gusts":28.1,"aqi":117,"pm10":55.4,"pm2_5":50.9,"mosquito_risk":7,"arthritis_risk":5,"migraine_risk":7,"frizz_risk":1,"updated_at":"2026-03-09T21:31:35.757278+05:30"},{"city":"Nizamabad","state":"Telangana","latitude":18.6725,"longitude":78.0941,"temp":27.0,"humidity":53,"rain":0.0,"pressure":968.3,"uv_index":8.3,"wind_gusts":31.3,"aqi":122,"pm10":58.0,"pm2_5":51.5,"mosquito_risk":4,"arthritis_risk":5,"migraine_risk":7,"frizz_risk":1,"updated_at":"2026-03-09T21:31:35.757284+05:30"},{"city":"Mysore","state":"Karnataka","latitude":12.2958,"longitude":76.6396,"temp":25.7,"humidity":46,"rain":0.0,"pressure":930.4,"uv_index":9.25,"wind_gusts":38.2,"aqi":129,"pm10":40.6,"pm2_5":36.0,"mosquito_risk":4,"arthritis_risk":5,"migraine_risk":7,"frizz_risk":0,"updated_at":"2026-03-09T21:31:35.757291+05:30"},{"city":"Mangalore","state":"Karnataka","latitude":12.9141,"longitude":74.856,"temp":29.1,"humidity":81,"rain":0.0,"pressure":1008.8,"uv_index":8.85,"wind_gusts":26.3,"aqi":123,"pm10":37.5,"pm2_5":31.9,"mosquito_risk":7,"arthritis_risk":0,"migraine_risk":4,"frizz_risk":1,"updated_at":"2026-03-09T21:31:35.757297+05:30"},{"city":"Hubli-Dharwad","state":"Karnataka","latitude":15.3647,"longitude":75.124,"temp":28.2,"humidity":35,"rain":0.0,"pressure":943.1,"uv_index":8.8,"wind_gusts":37.1,"aqi":148,"pm10":34.9,"pm2_5":30.7,"mosquito_risk":4,"arthritis_risk":5,"migraine_risk":7,"frizz_risk":0,"updated_at":"2026-03-09T21:31:35.757304+05:30"},{"city":"Belgaum","state":"Karnataka","latitude":15.8497,"longitude":74.4977,"temp":24.8,"humidity":55,"rain":0.0,"pressure":927.8,"uv_index":8.85,"wind_gusts":44.6,"aqi":145,"pm10":34.7,"pm2_5":31.7,"mosquito_risk":0,"arthritis_risk":5,"migraine_risk":7,"frizz_risk":0,"updated_at":"2026-03-09T21:31:39.123203+05:30"},{"city":"Coimbatore","state":"Tamil Nadu","latitude":11.0168,"longitude":76.9558,"temp":26.7,"humidity":53,"rain":0.0,"pressure":964.8,"uv_index":9.25,"wind_gusts":49.0,"aqi":113,"pm10":48.0,"pm2_5":42.3,"mosquito_risk":4,"arthritis_risk":5,"migraine_risk":7,"frizz_risk":1,"updated_at":"2026-03-09T21:31:39.123238+05:30"},{"city":"Madurai","state":"Tamil Nadu","latitude":9.9252,"longitude":78.1198,"temp":26.6,"humidity":64,"rain":0.0,"pressure":996.9,"uv_index":9.2,"wind_gusts":38.2,"aqi":95,"pm10":48.1,"pm2_5":41.2,"mosquito_risk":7,"arthritis_risk":5,"migraine_risk":7,"frizz_risk":1,"updated_at":"2026-03-09T21:31:39.123250+05:30"},{"city":"Trichy","state":"Tamil Nadu","latitude":10.7905,"longitude":78.7047,"temp":25.8,"humidity":73,"rain":0.0,"pressure":1004.2,"uv_index":9.1,"wind_gusts":35.6,"aqi":88,"pm10":48.4,"pm2_5":41.8,"mosquito_risk":7,"arthritis_risk":5,"migraine_risk":4,"frizz_risk":1,"updated_at":"2026-03-09T21:31:39.123261+05:30"},{"city":"Salem","state":"Tamil Nadu","latitude":11.6643,"longitude":78.146,"temp":26.3,"humidity":66,"rain":0.0,"pressure":981.0,"uv_index":9.15,"wind_gusts":34.9,"aqi":126,"pm10":53.3,"pm2_5":46.1,"mosquito_risk":7,"arthritis_risk":5,"migraine_risk":7,"frizz_risk":1,"updated_at":"2026-03-09T21:31:39.123271+05:30"},{"city":"Tirunelveli","state":"Tamil Nadu","latitude":8.7139,"longitude":77.7567,"temp":27.0,"humidity":63,"rain":0.0,"pressure":1006.8,"uv_index":9.15,"wind_gusts":37.8,"aqi":96,"pm10":45.9,"pm2_5":36.4,"mosquito_risk":7,"arthritis_risk":5,"migraine_risk":4,"frizz_risk":1,"updated_at":"2026-03-09T21:31:39.123280+05:30"},{"city":"Vellore","state":"Tamil Nadu","latitude":12.9165,"longitude":79.1325,"temp":25.1,"humidity":70,"rain":0.0,"pressure":989.6,"uv_index":9.0,"wind_gusts":41.8,"aqi":107,"pm10":56.1,"pm2_5":47.1,"mosquito_risk":7,"arthritis_risk":5,"migraine_risk":7,"frizz_risk":1,"updated_at":"2026-03-09T21:31:39.123289+05:30"},{"city":"Erode","state":"Tamil Nadu","latitude":11.341,"longitude":77.7172,"temp":28.0,"humidity":60,"rain":0.0,"pressure":992.5,"uv_index":9.15,"wind_gusts":31.3,"aqi":124,"pm10":49.7,"pm2_5":44.2,"mosquito_risk":4,"arthritis_risk":5,"migraine_risk":7,"frizz_risk":1,"updated_at":"2026-03-09T21:31:39.123298+05:30"},{"city":"Kochi","state":"Kerala","latitude":9.9312,"longitude":76.2673,"temp":28.1,"humidity":81,"rain":0.0,"pressure":1011.1,"uv_index":8.9,"wind_gusts":28.8,"aqi":137,"pm10":43.5,"pm2_5":41.9,"mosquito_risk":7,"arthritis_risk":0,"migraine_risk":4,"frizz_risk":1,"updated_at":"2026-03-09T21:31:39.123307+05:30"},{"city":"Thiruvananthapuram","state":"Kerala","latitude":8.5241,"longitude":76.9366,"temp":27.7,"humidity":78,"rain":0.0,"pressure":1010.4,"uv_index":9.05,"wind_gusts":27.4,"aqi":115,"pm10":32.8,"pm2_5":22.3,"mosquito_risk":7,"arthritis_risk":0,"migraine_risk":4,"frizz_risk":1,"updated_at":"2026-03-09T21:31:39.123317+05:30"},{"city":"Kozhikode","state":"Kerala","latitude":11.2588,"longitude":75.7804,"temp":28.4,"humidity":82,"rain":0.0,"pressure":1009.9,"uv_index":8.55,"wind_gusts":24.5,"aqi":105,"pm10":30.4,"pm2_5":26.8,"mosquito_risk":7,"arthritis_risk":0,"migraine_risk":4,"frizz_risk":1,"updated_at":"2026-03-09T21:31:39.123326+05:30"},{"city":"Thrissur","state":"Kerala","latitude":10.5276,"longitude":76.2144,"temp":28.1,"humidity":84,"rain":0.0,"pressure":1009.1,"uv_index":9.0,"wind_gusts":40.0,"aqi":128,"pm10":41.4,"pm2_5":39.8,"mosquito_risk":7,"arthritis_risk":0,"migraine_risk":4,"frizz_risk":1,"updated_at":"2026-03-09T21:31:39.123336+05:30"},{"city":"Kannur","state":"Kerala","latitude":11.8745,"longitude":75.3704,"temp":28.8,"humidity":80,"rain":0.0,"pressure":1009.1,"uv_index":8.9,"wind_gusts":27.0,"aqi":122,"pm10":33.2,"pm2_5":30.4,"mosquito_risk":7,"arthritis_risk":0,"migraine_risk":4,"frizz_risk":1,"updated_at":"2026-03-09T21:31:39.123345+05:30"},{"city":"Patna","state":"Bihar","latitude":25.5941,"longitude":85.1376,"temp":24.7,"humidity":82,"rain":0.0,"pressure":1007.2,"uv_index":7.4,"wind_gusts":29.5,"aqi":183,"pm10":128.5,"pm2_5":122.0,"mosquito_risk":3,"arthritis_risk":5,"migraine_risk":4,"frizz_risk":1,"updated_at":"2026-03-09T21:31:39.123354+05:30"},{"city":"Gaya","state":"Bihar","latitude":24.7914,"longitude":85.0002,"temp":24.1,"humidity":92,"rain":0.0,"pressure":1000.3,"uv_index":7.5,"wind_gusts":25.9,"aqi":181,"pm10":112.7,"pm2_5":106.9,"mosquito_risk":3,"arthritis_risk":5,"migraine_risk":4,"frizz_risk":1,"updated_at":"2026-03-09T21:31:39.123363+05:30"},{"city":"Muzaffarpur","state":"Bihar","latitude":26.1209,"longitude":85.3647,"temp":24.0,"humidity":86,"rain":0.0,"pressure":1007.4,"uv_index":7.3,"wind_gusts":34.2,"aqi":184,"pm10":129.9,"pm2_5":121.5,"mosquito_risk":3,"arthritis_risk":5,"migraine_risk":4,"frizz_risk":1,"updated_at":"2026-03-09T21:31:39.123371+05:30"},{"city":"Bhagalpur","state":"Bihar","latitude":25.2425,"longitude":87.0117,"temp":24.7,"humidity":86,"rain":0.0,"pressure":1007.9,"uv_index":3.9,"wind_gusts":25.9,"aqi":172,"pm10":125.3,"pm2_5":114.6,"mosquito_risk":3,"arthritis_risk":5,"migraine_risk":0,"frizz_risk":1,"updated_at":"2026-03-09T21:31:39.123379+05:30"},{"city":"Ranchi","state":"Jharkhand","latitude":23.3441,"longitude":85.3096,"temp":23.2,"humidity":77,"rain":0.0,"pressure":943.1,"uv_index":8.15,"wind_gusts":25.6,"aqi":168,"pm10":100.6,"pm2_5":91.7,"mosquito_risk":3,"arthritis_risk":5,"migraine_risk":7,"frizz_risk":1,"updated_at":"2026-03-09T21:31:39.123388+05:30"},{"city":"Jamshedpur","state":"Jharkhand","latitude":22.8046,"longitude":86.2029,"temp":24.8,"humidity":83,"rain":0.0,"pressure":997.5,"uv_index":8.0,"wind_gusts":31.3,"aqi":159,"pm10":50.9,"pm2_5":46.8,"mosquito_risk":3,"arthritis_risk":5,"migraine_risk":7,"frizz_risk":1,"updated_at":"2026-03-09T21:31:39.123397+05:30"},{"city":"Dhanbad","state":"Jharkhand","latitude":23.7957,"longitude":86.4304,"temp":23.9,"humidity":79,"rain":0.0,"pressure":986.5,"uv_index":7.75,"wind_gusts":28.8,"aqi":173,"pm10":102.0,"pm2_5":91.3,"mosquito_risk":3,"arthritis_risk":5,"migraine_risk":7,"frizz_risk":1,"updated_at":"2026-03-09T21:31:39.123406+05:30"},{"city":"Bokaro","state":"Jharkhand","latitude":23.6693,"longitude":86.1511,"temp":22.8,"humidity":87,"rain":0.0,"pressure":991.0,"uv_index":7.8,"wind_gusts":25.6,"aqi":180,"pm10":96.9,"pm2_5":87.8,"mosquito_risk":3,"arthritis_risk":5,"migraine_risk":7,"frizz_risk":1,"updated_at":"2026-03-09T21:31:39.123415+05:30"},{"city":"Bhubaneswar","state":"Odisha","latitude":20.2961,"longitude":85.8245,"temp":25.7,"humidity":83,"rain":0.0,"pressure":1008.8,"uv_index":8.3,"wind_gusts":32.8,"aqi":90,"pm10":37.0,"pm2_5":32.6,"mosquito_risk":7,"arthritis_risk":0,"migraine_risk":4,"frizz_risk":1,"updated_at":"2026-03-09T21:31:39.123424+05:30"},{"city":"Cuttack","state":"Odisha","latitude":20.4625,"longitude":85.8828,"temp":26.1,"humidity":82,"rain":0.0,"pressure":1010.8,"uv_index":8.35,"wind_gusts":30.6,"aqi":90,"pm10":37.0,"pm2_5":32.6,"mosquito_risk":7,"arthritis_risk":0,"migraine_risk":4,"frizz_risk":1,"updated_at":"2026-03-09T21:31:39.123433+05:30"},{"city":"Rourkela","state":"Odisha","latitude":22.2604,"longitude":84.8536,"temp":28.9,"humidity":58,"rain":0.0,"pressure":988.8,"uv_index":7.9,"wind_gusts":26.6,"aqi":165,"pm10":89.9,"pm2_5":78.2,"mosquito_risk":4,"arthritis_risk":5,"migraine_risk":7,"frizz_risk":1,"updated_at":"2026-03-09T21:31:39.123442+05:30"},{"city":"Raipur","state":"Chhattisgarh","latitude":21.2514,"longitude":81.6296,"temp":29.7,"humidity":31,"rain":0.0,"pressure":978.3,"uv_index":8.0,"wind_gusts":24.8,"aqi":163,"pm10":119.2,"pm2_5":96.9,"mosquito_risk":4,"arthritis_risk":5,"migraine_risk":7,"frizz_risk":0,"updated_at":"2026-03-09T21:31:39.123451+05:30"},{"city":"Bhilai","state":"Chhattisgarh","latitude":21.1938,"longitude":81.3509,"temp":28.9,"humidity":35,"rain":0.0,"pressure":978.6,"uv_index":8.05,"wind_gusts":24.5,"aqi":156,"pm10":105.9,"pm2_5":85.9,"mosquito_risk":4,"arthritis_risk":5,"migraine_risk":7,"frizz_risk":0,"updated_at":"2026-03-09T21:31:39.123459+05:30"},{"city":"Guwahati","state":"Assam","latitude":26.1158,"longitude":91.7086,"temp":24.4,"humidity":78,"rain":0.0,"pressure":1009.1,"uv_index":7.3,"wind_gusts":11.5,"aqi":155,"pm10":67.8,"pm2_5":62.9,"mosquito_risk":3,"arthritis_risk":0,"migraine_risk":4,"frizz_risk":1,"updated_at":"2026-03-09T21:31:39.123468+05:30"},{"city":"Agartala","state":"Tripura","latitude":23.8315,"longitude":91.2868,"temp":23.8,"humidity":80,"rain":0.0,"pressure":1013.2,"uv_index":7.7,"wind_gusts":12.2,"aqi":162,"pm10":113.6,"pm2_5":101.5,"mosquito_risk":3,"arthritis_risk":0,"migraine_risk":4,"frizz_risk":1,"updated_at":"2026-03-09T21:31:39.123476+05:30"},{"city":"Shillong","state":"Meghalaya","latitude":25.5788,"longitude":91.8933,"temp":11.6,"humidity":98,"rain":0.0,"pressure":860.8,"uv_index":6.45,"wind_gusts":22.0,"aqi":153,"pm10":76.8,"pm2_5":70.5,"mosquito_risk":3,"arthritis_risk":10,"migraine_risk":7,"frizz_risk":0,"updated_at":"2026-03-09T21:31:39.123485+05:30"},{"city":"Imphal","state":"Manipur","latitude":24.817,"longitude":93.9368,"temp":17.1,"humidity":94,"rain":0.0,"pressure":929.4,"uv_index":7.95,"wind_gusts":31.0,"aqi":161,"pm10":104.8,"pm2_5":100.4,"mosquito_risk":3,"arthritis_risk":10,"migraine_risk":7,"frizz_risk":1,"updated_at":"2026-03-09T21:31:39.123494+05:30"},{"city":"Aizawl","state":"Mizoram","latitude":23.7271,"longitude":92.7176,"temp":17.7,"humidity":81,"rain":0.0,"pressure":898.1,"uv_index":7.85,"wind_gusts":26.3,"aqi":165,"pm10":95.7,"pm2_5":86.6,"mosquito_risk":3,"arthritis_risk":10,"migraine_risk":7,"frizz_risk":0,"updated_at":"2026-03-09T21:31:39.123503+05:30"},{"city":"Kohima","state":"Nagaland","latitude":25.6701,"longitude":94.1077,"temp":15.0,"humidity":81,"rain":0.0,"pressure":860.3,"uv_index":7.0,"wind_gusts":53.3,"aqi":154,"pm10":77.1,"pm2_5":73.6,"mosquito_risk":3,"arthritis_risk":10,"migraine_risk":7,"frizz_risk":0,"updated_at":"2026-03-09T21:31:39.123511+05:30"},{"city":"Gangtok","state":"Sikkim","latitude":27.3314,"longitude":88.6138,"temp":13.8,"humidity":76,"rain":0.0,"pressure":842.7,"uv_index":4.8,"wind_gusts":16.9,"aqi":158,"pm10":96.9,"pm2_5":79.2,"mosquito_risk":3,"arthritis_risk":5,"migraine_risk":3,"frizz_risk":0,"updated_at":"2026-03-09T21:31:39.123519+05:30"},{"city":"Siliguri","state":"West Bengal","latitude":26.7271,"longitude":88.3953,"temp":21.6,"humidity":57,"rain":0.0,"pressure":1001.5,"uv_index":7.35,"wind_gusts":18.4,"aqi":164,"pm10":112.2,"pm2_5":89.4,"mosquito_risk":0,"arthritis_risk":5,"migraine_risk":4,"frizz_risk":0,"updated_at":"2026-03-09T21:31:42.498189+05:30"},{"city":"Durgapur","state":"West Bengal","latitude":23.5204,"longitude":87.3119,"temp":24.6,"humidity":84,"rain":0.0,"pressure":1001.7,"uv_index":7.8,"wind_gusts":25.2,"aqi":163,"pm10":87.5,"pm2_5":78.9,"mosquito_risk":3,"arthritis_risk":5,"migraine_risk":4,"frizz_risk":1,"updated_at":"2026-03-09T21:31:42.498222+05:30"},{"city":"Asansol","state":"West Bengal","latitude":23.6739,"longitude":86.9524,"temp":24.3,"humidity":84,"rain":0.0,"pressure":1000.7,"uv_index":7.55,"wind_gusts":25.6,"aqi":164,"pm10":97.8,"pm2_5":87.1,"mosquito_risk":3,"arthritis_risk":5,"migraine_risk":4,"frizz_risk":1,"updated_at":"2026-03-09T21:31:42.498233+05:30"},{"city":"Pondicherry","state":"Puducherry","latitude":11.9139,"longitude":79.8145,"temp":24.6,"humidity":84,"rain":0.0,"pressure":1013.5,"uv_index":8.95,"wind_gusts":33.1,"aqi":83,"pm10":36.9,"pm2_5":26.0,"mosquito_risk":3,"arthritis_risk":0,"migraine_risk":4,"frizz_risk":1,"updated_at":"2026-03-09T21:31:42.498243+05:30"},{"city":"Port Blair","state":"Andaman and Nicobar Islands","latitude":11.6234,"longitude":92.7265,"temp":27.8,"humidity":81,"rain":0.0,"pressure":1010.9,"uv_index":8.9,"wind_gusts":23.8,"aqi":86,"pm10":30.9,"pm2_5":26.6,"mosquito_risk":7,"arthritis_risk":0,"migraine_risk":4,"frizz_risk":1,"updated_at":"2026-03-09T21:31:42.498252+05:30"},{"city":"Haridwar","state":"Uttarakhand","latitude":29.9457,"longitude":78.1642,"temp":23.4,"humidity":88,"rain":0.0,"pressure":979.6,"uv_index":5.8,"wind_gusts":24.5,"aqi":157,"pm10":85.0,"pm2_5":66.4,"mosquito_risk":3,"arthritis_risk":5,"migraine_risk":3,"frizz_risk":1,"updated_at":"2026-03-09T21:31:42.498261+05:30"},{"city":"Rishikesh","state":"Uttarakhand","latitude":30.0869,"longitude":78.2676,"temp":22.6,"humidity":87,"rain":0.0,"pressure":972.5,"uv_index":5.85,"wind_gusts":24.8,"aqi":152,"pm10":77.1,"pm2_5":54.1,"mosquito_risk":3,"arthritis_risk":5,"migraine_risk":3,"frizz_risk":1,"updated_at":"2026-03-09T21:31:42.498270+05:30"},{"city":"Nainital","state":"Uttarakhand","latitude":29.3919,"longitude":79.4542,"temp":18.0,"humidity":84,"rain":0.0,"pressure":810.7,"uv_index":6.65,"wind_gusts":54.0,"aqi":160,"pm10":125.3,"pm2_5":86.8,"mosquito_risk":3,"arthritis_risk":10,"migraine_risk":7,"frizz_risk":0,"updated_at":"2026-03-09T21:31:42.498280+05:30"},{"city":"Mussoorie","state":"Uttarakhand","latitude":30.4599,"longitude":78.0664,"temp":16.1,"humidity":87,"rain":0.0,"pressure":806.9,"uv_index":6.2,"wind_gusts":40.7,"aqi":160,"pm10":87.3,"pm2_5":62.6,"mosquito_risk":3,"arthritis_risk":10,"migraine_risk":7,"frizz_risk":0,"updated_at":"2026-03-09T21:31:42.498290+05:30"},{"city":"Dharamshala","state":"Himachal Pradesh","latitude":32.219,"longitude":76.3234,"temp":22.0,"humidity":50,"rain":0.0,"pressure":874.1,"uv_index":6.4,"wind_gusts":23.0,"aqi":62,"pm10":38.1,"pm2_5":21.7,"mosquito_risk":0,"arthritis_risk":5,"migraine_risk":7,"frizz_risk":0,"updated_at":"2026-03-09T21:31:42.498298+05:30"},{"city":"Dalhousie","state":"Himachal Pradesh","latitude":32.5387,"longitude":75.971,"temp":18.8,"humidity":51,"rain":0.0,"pressure":808.2,"uv_index":6.65,"wind_gusts":22.0,"aqi":79,"pm10":57.9,"pm2_5":43.1,"mosquito_risk":0,"arthritis_risk":5,"migraine_risk":7,"frizz_risk":0,"updated_at":"2026-03-09T21:31:42.498308+05:30"},{"city":"Patiala","state":"Punjab","latitude":30.3398,"longitude":76.3869,"temp":24.6,"humidity":71,"rain":0.0,"pressure":982.8,"uv_index":5.25,"wind_gusts":20.9,"aqi":170,"pm10":220.3,"pm2_5":99.2,"mosquito_risk":3,"arthritis_risk":5,"migraine_risk":3,"frizz_risk":1,"updated_at":"2026-03-09T21:31:42.498317+05:30"},{"city":"Bhatinda","state":"Punjab","latitude":30.211,"longitude":74.9455,"temp":25.0,"humidity":63,"rain":0.0,"pressure":988.0,"uv_index":6.35,"wind_gusts":20.5,"aqi":155,"pm10":105.5,"pm2_5":81.0,"mosquito_risk":7,"arthritis_risk":5,"migraine_risk":7,"frizz_risk":1,"updated_at":"2026-03-09T21:31:42.498325+05:30"},{"city":"Rohtak","state":"Haryana","latitude":28.8955,"longitude":76.6066,"temp":24.4,"humidity":68,"rain":0.0,"pressure":986.5,"uv_index":6.05,"wind_gusts":25.9,"aqi":184,"pm10":510.4,"pm2_5":118.3,"mosquito_risk":3,"arthritis_risk":5,"migraine_risk":7,"frizz_risk":1,"updated_at":"2026-03-09T21:31:42.498334+05:30"},{"city":"Panipat","state":"Haryana","latitude":29.3909,"longitude":76.9635,"temp":24.0,"humidity":78,"rain":0.0,"pressure":985.3,"uv_index":5.75,"wind_gusts":25.6,"aqi":558,"pm10":631.4,"pm2_5":123.9,"mosquito_risk":3,"arthritis_risk":5,"migraine_risk":3,"frizz_risk":1,"updated_at":"2026-03-09T21:31:42.498343+05:30"},{"city":"Mathura","state":"Uttar Pradesh","latitude":27.4924,"longitude":77.6737,"temp":24.1,"humidity":64,"rain":0.0,"pressure":991.2,"uv_index":6.3,"wind_gusts":23.8,"aqi":171,"pm10":229.6,"pm2_5":95.5,"mosquito_risk":3,"arthritis_risk":5,"migraine_risk":7,"frizz_risk":1,"updated_at":"2026-03-09T21:31:42.498351+05:30"},{"city":"Vrindavan","state":"Uttar Pradesh","latitude":27.5823,"longitude":77.7027,"temp":24.1,"humidity":65,"rain":0.0,"pressure":991.8,"uv_index":6.25,"wind_gusts":25.2,"aqi":171,"pm10":229.6,"pm2_5":95.5,"mosquito_risk":3,"arthritis_risk":5,"migraine_risk":7,"frizz_risk":1,"updated_at":"2026-03-09T21:31:42.498359+05:30"},{"city":"Ayodhya","state":"Uttar Pradesh","latitude":26.7922,"longitude":82.1998,"temp":24.2,"humidity":87,"rain":0.0,"pressure":1001.5,"uv_index":6.7,"wind_gusts":18.7,"aqi":198,"pm10":157.9,"pm2_5":149.9,"mosquito_risk":3,"arthritis_risk":5,"migraine_risk":4,"frizz_risk":1,"updated_at":"2026-03-09T21:31:42.498367+05:30"},{"city":"Ratlam","state":"Madhya Pradesh","latitude":23.3315,"longitude":75.0367,"temp":23.9,"humidity":61,"rain":0.0,"pressure":958.1,"uv_index":7.5,"wind_gusts":12.2,"aqi":90,"pm10":28.1,"pm2_5":27.2,"mosquito_risk":3,"arthritis_risk":5,"migraine_risk":7,"frizz_risk":0,"updated_at":"2026-03-09T21:31:42.498375+05:30"},{"city":"Sagar","state":"Madhya Pradesh","latitude":23.8388,"longitude":78.7378,"temp":27.0,"humidity":36,"rain":0.0,"pressure":954.2,"uv_index":7.5,"wind_gusts":17.3,"aqi":82,"pm10":28.4,"pm2_5":14.4,"mosquito_risk":4,"arthritis_risk":5,"migraine_risk":7,"frizz_risk":0,"updated_at":"2026-03-09T21:31:42.498384+05:30"},{"city":"Satna","state":"Madhya Pradesh","latitude":24.6005,"longitude":80.8322,"temp":25.9,"humidity":57,"rain":0.0,"pressure":976.4,"uv_index":7.45,"wind_gusts":18.7,"aqi":132,"pm10":79.6,"pm2_5":29.6,"mosquito_risk":4,"arthritis_risk":5,"migraine_risk":7,"frizz_risk":1,"updated_at":"2026-03-09T21:31:42.498392+05:30"},{"city":"Akola","state":"Maharashtra","latitude":20.7002,"longitude":77.0082,"temp":29.0,"humidity":44,"rain":0.0,"pressure":978.0,"uv_index":7.95,"wind_gusts":16.9,"aqi":102,"pm10":28.3,"pm2_5":24.0,"mosquito_risk":4,"arthritis_risk":5,"migraine_risk":7,"frizz_risk":0,"updated_at":"2026-03-09T21:31:42.498401+05:30"},{"city":"Amravati","state":"Maharashtra","latitude":20.9374,"longitude":77.7796,"temp":27.9,"humidity":41,"rain":0.0,"pressure":970.2,"uv_index":7.9,"wind_gusts":24.8,"aqi":89,"pm10":34.0,"pm2_5":28.4,"mosquito_risk":4,"arthritis_risk":5,"migraine_risk":7,"frizz_risk":0,"updated_at":"2026-03-09T21:31:42.498411+05:30"},{"city":"Latur","state":"Maharashtra","latitude":18.4088,"longitude":76.5604,"temp":25.3,"humidity":44,"rain":0.0,"pressure":943.0,"uv_index":8.4,"wind_gusts":29.5,"aqi":130,"pm10":39.7,"pm2_5":32.7,"mosquito_risk":4,"arthritis_risk":5,"migraine_risk":7,"frizz_risk":0,"updated_at":"2026-03-09T21:31:42.498420+05:30"},{"city":"Nanded","state":"Maharashtra","latitude":19.1383,"longitude":77.3091,"temp":28.3,"humidity":39,"rain":0.0,"pressure":971.9,"uv_index":8.15,"wind_gusts":29.5,"aqi":109,"pm10":52.5,"pm2_5":42.8,"mosquito_risk":4,"arthritis_risk":5,"migraine_risk":7,"frizz_risk":0,"updated_at":"2026-03-09T21:31:42.498429+05:30"},{"city":"Gulbarga","state":"Karnataka","latitude":17.3297,"longitude":76.8343,"temp":29.4,"humidity":33,"rain":0.0,"pressure":961.7,"uv_index":8.5,"wind_gusts":34.6,"aqi":156,"pm10":36.8,"pm2_5":33.1,"mosquito_risk":4,"arthritis_risk":5,"migraine_risk":7,"frizz_risk":0,"updated_at":"2026-03-09T21:31:42.498437+05:30"},{"city":"Bidar","state":"Karnataka","latitude":17.9104,"longitude":77.5199,"temp":27.0,"humidity":46,"rain":0.0,"pressure":939.1,"uv_index":8.45,"wind_gusts":33.5,"aqi":133,"pm10":46.3,"pm2_5":40.5,"mosquito_risk":4,"arthritis_risk":5,"migraine_risk":7,"frizz_risk":0,"updated_at":"2026-03-09T21:31:42.498445+05:30"},{"city":"Hospet","state":"Karnataka","latitude":15.2689,"longitude":76.3909,"temp":30.0,"humidity":33,"rain":0.0,"pressure":958.6,"uv_index":8.75,"wind_gusts":35.3,"aqi":144,"pm10":46.4,"pm2_5":40.3,"mosquito_risk":4,"arthritis_risk":5,"migraine_risk":7,"frizz_risk":0,"updated_at":"2026-03-09T21:31:42.498452+05:30"},{"city":"Tirupur","state":"Tamil Nadu","latitude":11.1085,"longitude":77.3411,"temp":28.1,"humidity":54,"rain":0.0,"pressure":978.5,"uv_index":9.25,"wind_gusts":39.2,"aqi":127,"pm10":49.2,"pm2_5":44.2,"mosquito_risk":4,"arthritis_risk":5,"migraine_risk":7,"frizz_risk":1,"updated_at":"2026-03-09T21:31:42.498460+05:30"},{"city":"Alappuzha","state":"Kerala","latitude":9.4981,"longitude":76.3388,"temp":27.6,"humidity":83,"rain":0.0,"pressure":1011.4,"uv_index":8.95,"wind_gusts":25.9,"aqi":128,"pm10":45.8,"pm2_5":43.0,"mosquito_risk":7,"arthritis_risk":0,"migraine_risk":4,"frizz_risk":1,"updated_at":"2026-03-09T21:31:42.498468+05:30"},{"city":"Munnar","state":"Kerala","latitude":10.0889,"longitude":77.0595,"temp":21.1,"humidity":72,"rain":0.0,"pressure":858.6,"uv_index":9.55,"wind_gusts":24.8,"aqi":98,"pm10":46.7,"pm2_5":40.0,"mosquito_risk":3,"arthritis_risk":5,"migraine_risk":7,"frizz_risk":0,"updated_at":"2026-03-09T21:31:42.498477+05:30"},{"city":"Silchar","state":"Assam","latitude":24.8333,"longitude":92.7789,"temp":23.9,"humidity":88,"rain":0.0,"pressure":1012.3,"uv_index":7.65,"wind_gusts":14.0,"aqi":170,"pm10":130.9,"pm2_5":119.7,"mosquito_risk":3,"arthritis_risk":0,"migraine_risk":4,"frizz_risk":1,"updated_at":"2026-03-09T21:31:42.498485+05:30"},{"city":"Dibrugarh","state":"Assam","latitude":27.4728,"longitude":94.912,"temp":24.6,"humidity":86,"rain":0.0,"pressure":1002.5,"uv_index":7.4,"wind_gusts":15.8,"aqi":163,"pm10":96.2,"pm2_5":87.5,"mosquito_risk":3,"arthritis_risk":5,"migraine_risk":4,"frizz_risk":1,"updated_at":"2026-03-09T21:31:42.498493+05:30"}]