[{"city":"Delhi","state":"Delhi","latitude":28.6139,"longitude":77.209,"temp":32.1,"humidity":50,"rain":0.0,"pressure":978.1,"uv_index":7.75,"wind_gusts":33.5,"aqi":233,"pm10":364.1,"pm2_5":113.9,"no2":58.5,"co":607.0,"o3":48.0,"so2":30.5,"mosquito_risk":0,"arthritis_risk":5,"migraine_risk":7,"frizz_risk":1,"updated_at":"2026-06-24T23:26:37.686828+05:30"},{"city":"Mumbai","state":"Maharashtra","latitude":19.076,"longitude":72.8777,"temp":25.7,"humidity":91,"rain":0.5,"pressure":1007.0,"uv_index":3.6,"wind_gusts":29.2,"aqi":51,"pm10":30.7,"pm2_5":12.5,"no2":12.8,"co":325.0,"o3":45.0,"so2":11.0,"mosquito_risk":10,"arthritis_risk":5,"migraine_risk":0,"frizz_risk":1,"updated_at":"2026-06-24T23:26:37.686876+05:30"},{"city":"Bangalore","state":"Karnataka","latitude":12.9716,"longitude":77.5946,"temp":21.7,"humidity":84,"rain":0.0,"pressure":911.5,"uv_index":7.95,"wind_gusts":53.6,"aqi":30,"pm10":8.2,"pm2_5":6.5,"no2":16.1,"co":309.0,"o3":32.0,"so2":4.8,"mosquito_risk":3,"arthritis_risk":5,"migraine_risk":7,"frizz_risk":1,"updated_at":"2026-06-24T23:26:37.686891+05:30"},{"city":"Hyderabad","state":"Telangana","latitude":17.385,"longitude":78.4867,"temp":25.9,"humidity":78,"rain":0.0,"pressure":951.5,"uv_index":6.8,"wind_gusts":45.7,"aqi":35,"pm10":6.1,"pm2_5":5.5,"no2":9.2,"co":320.0,"o3":52.0,"so2":3.8,"mosquito_risk":7,"arthritis_risk":5,"migraine_risk":7,"frizz_risk":1,"updated_at":"2026-06-24T23:26:37.686901+05:30"},{"city":"Chennai","state":"Tamil Nadu","latitude":13.0827,"longitude":80.2707,"temp":27.7,"humidity":77,"rain":0.0,"pressure":1006.0,"uv_index":8.8,"wind_gusts":39.2,"aqi":63,"pm10":21.8,"pm2_5":17.1,"no2":16.7,"co":367.0,"o3":68.0,"so2":7.8,"mosquito_risk":7,"arthritis_risk":5,"migraine_risk":4,"frizz_risk":1,"updated_at":"2026-06-24T23:26:37.686909+05:30"},{"city":"Kolkata","state":"West Bengal","latitude":22.5726,"longitude":88.3639,"temp":28.6,"humidity":90,"rain":0.0,"pressure":1002.2,"uv_index":8.85,"wind_gusts":37.4,"aqi":150,"pm10":46.3,"pm2_5":44.2,"no2":13.6,"co":465.0,"o3":103.0,"so2":14.1,"mosquito_risk":7,"arthritis_risk":5,"migraine_risk":4,"frizz_risk":1,"updated_at":"2026-06-24T23:26:37.686917+05:30"},{"city":"Pune","state":"Maharashtra","latitude":18.5204,"longitude":73.8567,"temp":22.4,"humidity":88,"rain":0.0,"pressure":946.3,"uv_index":1.0,"wind_gusts":34.6,"aqi":23,"pm10":12.3,"pm2_5":10.7,"no2":23.9,"co":190.0,"o3":22.0,"so2":10.2,"mosquito_risk":3,"arthritis_risk":5,"migraine_risk":3,"frizz_risk":1,"updated_at":"2026-06-24T23:26:37.686924+05:30"},{"city":"Ahmedabad","state":"Gujarat","latitude":23.0225,"longitude":72.5714,"temp":30.5,"humidity":77,"rain":0.0,"pressure":997.9,"uv_index":8.0,"wind_gusts":42.5,"aqi":69,"pm10":42.6,"pm2_5":23.3,"no2":7.9,"co":169.0,"o3":60.0,"so2":4.7,"mosquito_risk":3,"arthritis_risk":5,"migraine_risk":7,"frizz_risk":1,"updated_at":"2026-06-24T23:26:37.686932+05:30"},{"city":"Jaipur","state":"Rajasthan","latitude":26.9124,"longitude":75.7873,"temp":30.0,"humidity":56,"rain":0.0,"pressure":955.4,"uv_index":8.2,"wind_gusts":49.3,"aqi":115,"pm10":138.8,"pm2_5":64.0,"no2":49.1,"co":598.0,"o3":22.0,"so2":16.3,"mosquito_risk":4,"arthritis_risk":5,"migraine_risk":7,"frizz_risk":1,"updated_at":"2026-06-24T23:26:37.686941+05:30"},{"city":"Lucknow","state":"Uttar Pradesh","latitude":26.8467,"longitude":80.9462,"temp":33.9,"humidity":42,"rain":0.0,"pressure":988.4,"uv_index":8.3,"wind_gusts":27.4,"aqi":158,"pm10":165.8,"pm2_5":64.5,"no2":22.4,"co":366.0,"o3":60.0,"so2":8.3,"mosquito_risk":0,"arthritis_risk":5,"migraine_risk":7,"frizz_risk":1,"updated_at":"2026-06-24T23:26:37.686949+05:30"},{"city":"Kanpur","state":"Uttar Pradesh","latitude":26.4499,"longitude":80.3319,"temp":34.4,"humidity":41,"rain":0.0,"pressure":986.7,"uv_index":8.3,"wind_gusts":31.7,"aqi":155,"pm10":159.7,"pm2_5":56.0,"no2":23.4,"co":352.0,"o3":54.0,"so2":7.4,"mosquito_risk":0,"arthritis_risk":5,"migraine_risk":7,"frizz_risk":1,"updated_at":"2026-06-24T23:26:37.686956+05:30"},{"city":"Chandigarh","state":"Chandigarh","latitude":30.7333,"longitude":76.7794,"temp":27.9,"humidity":74,"rain":0.0,"pressure":963.6,"uv_index":7.8,"wind_gusts":25.2,"aqi":158,"pm10":180.2,"pm2_5":81.3,"no2":50.4,"co":1219.0,"o3":85.0,"so2":19.1,"mosquito_risk":7,"arthritis_risk":5,"migraine_risk":7,"frizz_risk":1,"updated_at":"2026-06-24T23:26:37.686962+05:30"},{"city":"Srinagar","state":"Jammu and Kashmir","latitude":34.0837,"longitude":74.7973,"temp":18.8,"humidity":87,"rain":0.0,"pressure":836.6,"uv_index":9.1,"wind_gusts":22.0,"aqi":69,"pm10":39.2,"pm2_5":38.1,"no2":35.4,"co":1211.0,"o3":26.0,"so2":1.6,"mosquito_risk":3,"arthritis_risk":10,"migraine_risk":7,"frizz_risk":1,"updated_at":"2026-06-24T23:26:37.686969+05:30"},{"city":"Jammu","state":"Jammu and Kashmir","latitude":32.7266,"longitude":74.857,"temp":31.9,"humidity":49,"rain":0.0,"pressure":967.1,"uv_index":8.65,"wind_gusts":31.3,"aqi":89,"pm10":61.5,"pm2_5":52.3,"no2":62.4,"co":521.0,"o3":33.0,"so2":8.0,"mosquito_risk":0,"arthritis_risk":5,"migraine_risk":7,"frizz_risk":1,"updated_at":"2026-06-24T23:26:37.686975+05:30"},{"city":"Amritsar","state":"Punjab","latitude":31.634,"longitude":74.8723,"temp":30.2,"humidity":59,"rain":0.0,"pressure":974.4,"uv_index":8.45,"wind_gusts":41.4,"aqi":123,"pm10":82.7,"pm2_5":58.0,"no2":36.5,"co":505.0,"o3":65.0,"so2":10.4,"mosquito_risk":0,"arthritis_risk":5,"migraine_risk":7,"frizz_risk":1,"updated_at":"2026-06-24T23:26:37.686980+05:30"},{"city":"Ludhiana","state":"Punjab","latitude":30.901,"longitude":75.8573,"temp":31.0,"humidity":58,"rain":0.0,"pressure":973.2,"uv_index":8.05,"wind_gusts":34.9,"aqi":159,"pm10":177.4,"pm2_5":93.4,"no2":47.0,"co":737.0,"o3":59.0,"so2":11.7,"mosquito_risk":0,"arthritis_risk":5,"migraine_risk":7,"frizz_risk":1,"updated_at":"2026-06-24T23:26:37.686986+05:30"},{"city":"Jalandhar","state":"Punjab","latitude":31.326,"longitude":75.5762,"temp":30.3,"humidity":56,"rain":0.0,"pressure":974.0,"uv_index":8.25,"wind_gusts":29.9,"aqi":137,"pm10":109.9,"pm2_5":57.4,"no2":24.2,"co":746.0,"o3":94.0,"so2":9.4,"mosquito_risk":0,"arthritis_risk":5,"migraine_risk":7,"frizz_risk":1,"updated_at":"2026-06-24T23:26:37.686991+05:30"},{"city":"Dehradun","state":"Uttarakhand","latitude":30.6284,"longitude":78.0322,"temp":15.4,"humidity":98,"rain":0.0,"pressure":826.9,"uv_index":7.65,"wind_gusts":27.0,"aqi":101,"pm10":31.9,"pm2_5":31.8,"no2":27.9,"co":223.0,"o3":70.0,"so2":2.2,"mosquito_risk":3,"arthritis_risk":10,"migraine_risk":7,"frizz_risk":0,"updated_at":"2026-06-24T23:26:37.686999+05:30"},{"city":"Shimla","state":"Himachal Pradesh","latitude":31.1048,"longitude":77.1734,"temp":13.0,"humidity":96,"rain":0.0,"pressure":780.4,"uv_index":7.7,"wind_gusts":36.7,"aqi":129,"pm10":58.9,"pm2_5":49.5,"no2":31.8,"co":496.0,"o3":62.0,"so2":2.3,"mosquito_risk":3,"arthritis_risk":10,"migraine_risk":7,"frizz_risk":0,"updated_at":"2026-06-24T23:26:37.687005+05:30"},{"city":"Manali","state":"Himachal Pradesh","latitude":32.2396,"longitude":77.1887,"temp":15.3,"humidity":85,"rain":0.0,"pressure":814.9,"uv_index":9.15,"wind_gusts":36.4,"aqi":45,"pm10":12.8,"pm2_5":11.6,"no2":90.5,"co":359.0,"o3":5.0,"so2":0.0,"mosquito_risk":3,"arthritis_risk":10,"migraine_risk":7,"frizz_risk":0,"updated_at":"2026-06-24T23:26:37.687013+05:30"},{"city":"Gurgaon","state":"Haryana","latitude":28.4595,"longitude":77.0266,"temp":30.3,"humidity":57,"rain":0.0,"pressure":976.2,"uv_index":7.8,"wind_gusts":30.2,"aqi":615,"pm10":425.6,"pm2_5":123.9,"no2":83.1,"co":1527.0,"o3":21.0,"so2":29.3,"mosquito_risk":0,"arthritis_risk":5,"migraine_risk":7,"frizz_risk":1,"updated_at":"2026-06-24T23:26:37.687019+05:30"},{"city":"Noida","state":"Uttar Pradesh","latitude":28.5355,"longitude":77.391,"temp":29.6,"humidity":69,"rain":0.0,"pressure":979.4,"uv_index":7.75,"wind_gusts":25.9,"aqi":615,"pm10":425.6,"pm2_5":123.9,"no2":83.1,"co":1375.0,"o3":21.0,"so2":29.3,"mosquito_risk":7,"arthritis_risk":5,"migraine_risk":7,"frizz_risk":1,"updated_at":"2026-06-24T23:26:37.687025+05:30"},{"city":"Ghaziabad","state":"Uttar Pradesh","latitude":28.6692,"longitude":77.4538,"temp":29.6,"humidity":64,"rain":0.0,"pressure":977.7,"uv_index":7.75,"wind_gusts":26.3,"aqi":257,"pm10":356.7,"pm2_5":126.2,"no2":53.3,"co":753.0,"o3":54.0,"so2":23.6,"mosquito_risk":7,"arthritis_risk":5,"migraine_risk":7,"frizz_risk":1,"updated_at":"2026-06-24T23:26:37.687032+05:30"},{"city":"Faridabad","state":"Haryana","latitude":28.4089,"longitude":77.3178,"temp":32.0,"humidity":51,"rain":0.0,"pressure":978.8,"uv_index":7.8,"wind_gusts":30.6,"aqi":615,"pm10":425.6,"pm2_5":123.9,"no2":83.1,"co":929.0,"o3":21.0,"so2":29.3,"mosquito_risk":0,"arthritis_risk":5,"migraine_risk":7,"frizz_risk":1,"updated_at":"2026-06-24T23:26:37.687037+05:30"},{"city":"Meerut","state":"Uttar Pradesh","latitude":28.9845,"longitude":77.7064,"temp":31.0,"humidity":55,"rain":0.0,"pressure":976.5,"uv_index":7.7,"wind_gusts":29.9,"aqi":257,"pm10":356.7,"pm2_5":126.2,"no2":53.3,"co":592.0,"o3":54.0,"so2":23.6,"mosquito_risk":0,"arthritis_risk":5,"migraine_risk":7,"frizz_risk":1,"updated_at":"2026-06-24T23:26:37.687043+05:30"},{"city":"Agra","state":"Uttar Pradesh","latitude":27.1767,"longitude":78.0081,"temp":32.0,"humidity":47,"rain":0.0,"pressure":982.7,"uv_index":8.1,"wind_gusts":27.0,"aqi":321,"pm10":265.4,"pm2_5":89.6,"no2":56.3,"co":646.0,"o3":21.0,"so2":14.8,"mosquito_risk":0,"arthritis_risk":5,"migraine_risk":7,"frizz_risk":1,"updated_at":"2026-06-24T23:26:37.687049+05:30"},{"city":"Varanasi","state":"Uttar Pradesh","latitude":25.3176,"longitude":82.9739,"temp":34.7,"humidity":43,"rain":0.0,"pressure":992.6,"uv_index":8.75,"wind_gusts":37.8,"aqi":115,"pm10":96.9,"pm2_5":58.6,"no2":35.8,"co":397.0,"o3":54.0,"so2":22.8,"mosquito_risk":0,"arthritis_risk":5,"migraine_risk":7,"frizz_risk":1,"updated_at":"2026-06-24T23:26:37.687055+05:30"},{"city":"Prayagraj","state":"Uttar Pradesh","latitude":25.4358,"longitude":81.8463,"temp":34.0,"humidity":47,"rain":0.0,"pressure":990.9,"uv_index":8.65,"wind_gusts":37.1,"aqi":117,"pm10":143.9,"pm2_5":72.6,"no2":35.2,"co":242.0,"o3":48.0,"so2":14.1,"mosquito_risk":0,"arthritis_risk":5,"migraine_risk":7,"frizz_risk":1,"updated_at":"2026-06-24T23:26:37.687061+05:30"},{"city":"Gorakhpur","state":"Uttar Pradesh","latitude":26.7606,"longitude":83.3732,"temp":31.9,"humidity":59,"rain":0.0,"pressure":992.2,"uv_index":8.6,"wind_gusts":23.0,"aqi":159,"pm10":144.8,"pm2_5":99.7,"no2":52.1,"co":415.0,"o3":38.0,"so2":18.3,"mosquito_risk":0,"arthritis_risk":5,"migraine_risk":7,"frizz_risk":1,"updated_at":"2026-06-24T23:26:37.687066+05:30"},{"city":"Bareilly","state":"Uttar Pradesh","latitude":28.367,"longitude":79.4304,"temp":30.7,"humidity":57,"rain":0.0,"pressure":982.0,"uv_index":7.9,"wind_gusts":28.4,"aqi":160,"pm10":229.1,"pm2_5":94.1,"no2":33.0,"co":672.0,"o3":66.0,"so2":14.0,"mosquito_risk":0,"arthritis_risk":5,"migraine_risk":7,"frizz_risk":1,"updated_at":"2026-06-24T23:26:37.687073+05:30"},{"city":"Aligarh","state":"Uttar Pradesh","latitude":27.8974,"longitude":78.088,"temp":30.2,"humidity":59,"rain":0.0,"pressure":980.5,"uv_index":7.8,"wind_gusts":25.2,"aqi":424,"pm10":510.4,"pm2_5":153.2,"no2":70.5,"co":794.0,"o3":21.0,"so2":18.4,"mosquito_risk":0,"arthritis_risk":5,"migraine_risk":7,"frizz_risk":1,"updated_at":"2026-06-24T23:26:37.687079+05:30"},{"city":"Moradabad","state":"Uttar Pradesh","latitude":28.8386,"longitude":78.7733,"temp":31.2,"humidity":57,"rain":0.0,"pressure":978.9,"uv_index":7.9,"wind_gusts":25.6,"aqi":189,"pm10":256.1,"pm2_5":125.3,"no2":53.6,"co":771.0,"o3":62.0,"so2":20.9,"mosquito_risk":0,"arthritis_risk":5,"migraine_risk":7,"frizz_risk":1,"updated_at":"2026-06-24T23:26:37.687085+05:30"},{"city":"Saharanpur","state":"Uttar Pradesh","latitude":29.9637,"longitude":77.546,"temp":29.1,"humidity":69,"rain":0.0,"pressure":970.9,"uv_index":7.45,"wind_gusts":29.5,"aqi":158,"pm10":169.0,"pm2_5":97.3,"no2":50.7,"co":899.0,"o3":76.0,"so2":22.9,"mosquito_risk":7,"arthritis_risk":5,"migraine_risk":7,"frizz_risk":1,"updated_at":"2026-06-24T23:26:37.687090+05:30"},{"city":"Jhansi","state":"Uttar Pradesh","latitude":25.4484,"longitude":78.5685,"temp":32.0,"humidity":55,"rain":0.0,"pressure":973.3,"uv_index":8.45,"wind_gusts":30.6,"aqi":75,"pm10":53.3,"pm2_5":26.9,"no2":11.8,"co":243.0,"o3":53.0,"so2":3.5,"mosquito_risk":0,"arthritis_risk":5,"migraine_risk":7,"frizz_risk":1,"updated_at":"2026-06-24T23:26:41.020190+05:30"},{"city":"Surat","state":"Gujarat","latitude":21.1702,"longitude":72.8311,"temp":28.9,"humidity":80,"rain":0.0,"pressure":1003.8,"uv_index":7.1,"wind_gusts":50.4,"aqi":79,"pm10":36.2,"pm2_5":19.4,"no2":18.2,"co":217.0,"o3":33.0,"so2":29.0,"mosquito_risk":7,"arthritis_risk":5,"migraine_risk":4,"frizz_risk":1,"updated_at":"2026-06-24T23:26:41.020226+05:30"},{"city":"Vadodara","state":"Gujarat","latitude":22.3072,"longitude":73.1812,"temp":29.2,"humidity":76,"rain":0.0,"pressure":1000.6,"uv_index":6.1,"wind_gusts":55.8,"aqi":74,"pm10":28.6,"pm2_5":18.5,"no2":19.8,"co":208.0,"o3":34.0,"so2":21.3,"mosquito_risk":7,"arthritis_risk":5,"migraine_risk":4,"frizz_risk":1,"updated_at":"2026-06-24T23:26:41.020238+05:30"},{"city":"Rajkot","state":"Gujarat","latitude":22.3039,"longitude":70.8022,"temp":29.7,"humidity":67,"rain":0.0,"pressure":990.5,"uv_index":7.5,"wind_gusts":43.6,"aqi":67,"pm10":38.4,"pm2_5":18.6,"no2":4.9,"co":116.0,"o3":45.0,"so2":4.4,"mosquito_risk":7,"arthritis_risk":5,"migraine_risk":7,"frizz_risk":1,"updated_at":"2026-06-24T23:26:41.020248+05:30"},{"city":"Thane","state":"Maharashtra","latitude":19.2183,"longitude":72.9781,"temp":25.8,"humidity":92,"rain":0.1,"pressure":1006.4,"uv_index":3.65,"wind_gusts":22.3,"aqi":51,"pm10":30.7,"pm2_5":12.5,"no2":12.8,"co":325.0,"o3":45.0,"so2":11.0,"mosquito_risk":10,"arthritis_risk":5,"migraine_risk":0,"frizz_risk":1,"updated_at":"2026-06-24T23:26:41.020259+05:30"},{"city":"Nagpur","state":"Maharashtra","latitude":21.1458,"longitude":79.0882,"temp":26.0,"humidity":95,"rain":0.0,"pressure":970.1,"uv_index":8.7,"wind_gusts":33.1,"aqi":43,"pm10":16.9,"pm2_5":15.8,"no2":22.3,"co":362.0,"o3":50.0,"so2":18.4,"mosquito_risk":7,"arthritis_risk":5,"migraine_risk":7,"frizz_risk":1,"updated_at":"2026-06-24T23:26:41.020268+05:30"},{"city":"Nashik","state":"Maharashtra","latitude":19.9975,"longitude":73.7898,"temp":22.5,"humidity":89,"rain":0.0,"pressure":943.4,"uv_index":1.15,"wind_gusts":39.2,"aqi":43,"pm10":23.1,"pm2_5":13.5,"no2":15.7,"co":207.0,"o3":52.0,"so2":16.5,"mosquito_risk":3,"arthritis_risk":5,"migraine_risk":3,"frizz_risk":1,"updated_at":"2026-06-24T23:26:41.020277+05:30"},{"city":"Aurangabad","state":"Maharashtra","latitude":19.8762,"longitude":75.3433,"temp":24.6,"humidity":77,"rain":0.0,"pressure":942.0,"uv_index":7.5,"wind_gusts":45.7,"aqi":55,"pm10":32.4,"pm2_5":19.0,"no2":10.8,"co":183.0,"o3":74.0,"so2":12.1,"mosquito_risk":3,"arthritis_risk":5,"migraine_risk":7,"frizz_risk":1,"updated_at":"2026-06-24T23:26:41.020286+05:30"},{"city":"Solapur","state":"Maharashtra","latitude":17.6599,"longitude":75.9064,"temp":26.5,"humidity":68,"rain":0.0,"pressure":955.8,"uv_index":5.3,"wind_gusts":48.2,"aqi":29,"pm10":5.0,"pm2_5":4.6,"no2":8.3,"co":158.0,"o3":45.0,"so2":2.6,"mosquito_risk":7,"arthritis_risk":5,"migraine_risk":3,"frizz_risk":1,"updated_at":"2026-06-24T23:26:41.020295+05:30"},{"city":"Kolhapur","state":"Maharashtra","latitude":16.705,"longitude":74.2433,"temp":22.5,"humidity":92,"rain":0.0,"pressure":947.2,"uv_index":4.65,"wind_gusts":49.3,"aqi":24,"pm10":7.0,"pm2_5":6.6,"no2":9.4,"co":182.0,"o3":40.0,"so2":2.8,"mosquito_risk":3,"arthritis_risk":5,"migraine_risk":3,"frizz_risk":1,"updated_at":"2026-06-24T23:26:41.020304+05:30"},{"city":"Goa","state":"Goa","latitude":15.2993,"longitude":74.124,"temp":23.8,"humidity":98,"rain":0.1,"pressure":998.8,"uv_index":4.6,"wind_gusts":29.5,"aqi":40,"pm10":23.6,"pm2_5":16.4,"no2":5.8,"co":249.0,"o3":42.0,"so2":1.4,"mosquito_risk":6,"arthritis_risk":5,"migraine_risk":3,"frizz_risk":1,"updated_at":"2026-06-24T23:26:41.020329+05:30"},{"city":"Jodhpur","state":"Rajasthan","latitude":26.2389,"longitude":73.0243,"temp":33.6,"humidity":44,"rain":0.0,"pressure":977.2,"uv_index":8.4,"wind_gusts":42.1,"aqi":145,"pm10":211.4,"pm2_5":51.7,"no2":10.2,"co":188.0,"o3":46.0,"so2":2.5,"mosquito_risk":0,"arthritis_risk":5,"migraine_risk":7,"frizz_risk":1,"updated_at":"2026-06-24T23:26:41.020338+05:30"},{"city":"Udaipur","state":"Rajasthan","latitude":24.5854,"longitude":73.7125,"temp":29.9,"humidity":48,"rain":0.0,"pressure":942.4,"uv_index":8.75,"wind_gusts":34.6,"aqi":74,"pm10":49.5,"pm2_5":23.3,"no2":6.5,"co":227.0,"o3":59.0,"so2":2.4,"mosquito_risk":4,"arthritis_risk":5,"migraine_risk":7,"frizz_risk":1,"updated_at":"2026-06-24T23:26:41.020347+05:30"},{"city":"Kota","state":"Rajasthan","latitude":25.2138,"longitude":75.8648,"temp":30.0,"humidity":61,"rain":0.0,"pressure":974.3,"uv_index":8.3,"wind_gusts":40.7,"aqi":85,"pm10":57.0,"pm2_5":36.1,"no2":17.7,"co":230.0,"o3":54.0,"so2":5.8,"mosquito_risk":7,"arthritis_risk":5,"migraine_risk":7,"frizz_risk":1,"updated_at":"2026-06-24T23:26:41.020354+05:30"},{"city":"Bikaner","state":"Rajasthan","latitude":28.0229,"longitude":73.3119,"temp":31.1,"humidity":59,"rain":0.0,"pressure":975.4,"uv_index":8.45,"wind_gusts":30.6,"aqi":156,"pm10":113.2,"pm2_5":40.2,"no2":7.0,"co":144.0,"o3":57.0,"so2":2.9,"mosquito_risk":0,"arthritis_risk":5,"migraine_risk":7,"frizz_risk":1,"updated_at":"2026-06-24T23:26:41.020361+05:30"},{"city":"Ajmer","state":"Rajasthan","latitude":26.4499,"longitude":74.6399,"temp":28.8,"humidity":60,"rain":0.0,"pressure":950.0,"uv_index":8.3,"wind_gusts":44.6,"aqi":93,"pm10":85.7,"pm2_5":35.7,"no2":13.9,"co":203.0,"o3":49.0,"so2":4.1,"mosquito_risk":4,"arthritis_risk":5,"migraine_risk":7,"frizz_risk":1,"updated_at":"2026-06-24T23:26:41.020369+05:30"},{"city":"Gwalior","state":"Madhya Pradesh","latitude":26.2183,"longitude":78.1828,"temp":32.5,"humidity":44,"rain":0.0,"pressure":978.5,"uv_index":8.25,"wind_gusts":33.5,"aqi":97,"pm10":63.6,"pm2_5":28.3,"no2":11.6,"co":219.0,"o3":51.0,"so2":3.8,"mosquito_risk":0,"arthritis_risk":5,"migraine_risk":7,"frizz_risk":1,"updated_at":"2026-06-24T23:26:41.020376+05:30"},{"city":"Indore","state":"Madhya Pradesh","latitude":22.7196,"longitude":75.8577,"temp":24.6,"humidity":88,"rain":0.0,"pressure":945.5,"uv_index":2.35,"wind_gusts":45.0,"aqi":76,"pm10":24.6,"pm2_5":19.5,"no2":15.9,"co":534.0,"o3":58.0,"so2":3.8,"mosquito_risk":3,"arthritis_risk":5,"migraine_risk":3,"frizz_risk":1,"updated_at":"2026-06-24T23:26:41.020383+05:30"},{"city":"Bhopal","state":"Madhya Pradesh","latitude":23.2599,"longitude":77.4126,"temp":24.3,"humidity":94,"rain":0.0,"pressure":950.4,"uv_index":7.2,"wind_gusts":48.2,"aqi":62,"pm10":30.2,"pm2_5":23.1,"no2":7.1,"co":358.0,"o3":77.0,"so2":2.9,"mosquito_risk":3,"arthritis_risk":5,"migraine_risk":7,"frizz_risk":1,"updated_at":"2026-06-24T23:26:41.020391+05:30"},{"city":"Jabalpur","state":"Madhya Pradesh","latitude":23.1815,"longitude":79.9864,"temp":25.1,"humidity":92,"rain":0.2,"pressure":958.8,"uv_index":8.8,"wind_gusts":41.0,"aqi":51,"pm10":23.5,"pm2_5":17.7,"no2":8.4,"co":255.0,"o3":73.0,"so2":3.6,"mosquito_risk":10,"arthritis_risk":5,"migraine_risk":7,"frizz_risk":1,"updated_at":"2026-06-24T23:26:41.020399+05:30"},{"city":"Ujjain","state":"Madhya Pradesh","latitude":23.1765,"longitude":75.7885,"temp":23.8,"humidity":94,"rain":1.0,"pressure":950.8,"uv_index":2.65,"wind_gusts":35.3,"aqi":78,"pm10":39.6,"pm2_5":28.7,"no2":11.5,"co":274.0,"o3":60.0,"so2":4.5,"mosquito_risk":6,"arthritis_risk":5,"migraine_risk":3,"frizz_risk":1,"updated_at":"2026-06-24T23:26:41.020407+05:30"},{"city":"Visakhapatnam","state":"Andhra Pradesh","latitude":17.6868,"longitude":83.2185,"temp":29.4,"humidity":66,"rain":0.0,"pressure":1000.5,"uv_index":8.75,"wind_gusts":41.4,"aqi":70,"pm10":27.2,"pm2_5":22.5,"no2":27.6,"co":361.0,"o3":56.0,"so2":37.1,"mosquito_risk":7,"arthritis_risk":5,"migraine_risk":4,"frizz_risk":1,"updated_at":"2026-06-24T23:26:41.020415+05:30"},{"city":"Vijayawada","state":"Andhra Pradesh","latitude":16.5062,"longitude":80.648,"temp":29.6,"humidity":71,"rain":0.0,"pressure":999.9,"uv_index":8.1,"wind_gusts":42.1,"aqi":60,"pm10":21.1,"pm2_5":17.9,"no2":10.7,"co":363.0,"o3":60.0,"so2":4.4,"mosquito_risk":7,"arthritis_risk":5,"migraine_risk":7,"frizz_risk":1,"updated_at":"2026-06-24T23:26:41.020422+05:30"},{"city":"Guntur","state":"Andhra Pradesh","latitude":16.3067,"longitude":80.4365,"temp":30.0,"humidity":65,"rain":0.0,"pressure":1001.0,"uv_index":8.3,"wind_gusts":40.7,"aqi":53,"pm10":21.3,"pm2_5":19.0,"no2":16.3,"co":382.0,"o3":45.0,"so2":5.8,"mosquito_risk":7,"arthritis_risk":5,"migraine_risk":4,"frizz_risk":1,"updated_at":"2026-06-24T23:26:41.020430+05:30"},{"city":"Nellore","state":"Andhra Pradesh","latitude":14.4426,"longitude":79.9865,"temp":31.0,"humidity":54,"rain":0.0,"pressure":1003.9,"uv_index":8.7,"wind_gusts":44.6,"aqi":46,"pm10":10.7,"pm2_5":8.1,"no2":8.5,"co":135.0,"o3":43.0,"so2":3.8,"mosquito_risk":0,"arthritis_risk":5,"migraine_risk":4,"frizz_risk":1,"updated_at":"2026-06-24T23:26:41.020438+05:30"},{"city":"Kurnool","state":"Andhra Pradesh","latitude":15.8281,"longitude":78.0373,"temp":27.8,"humidity":64,"rain":0.0,"pressure":975.9,"uv_index":7.05,"wind_gusts":48.6,"aqi":31,"pm10":9.8,"pm2_5":7.3,"no2":8.0,"co":144.0,"o3":48.0,"so2":2.4,"mosquito_risk":7,"arthritis_risk":5,"migraine_risk":7,"frizz_risk":1,"updated_at":"2026-06-24T23:26:41.020446+05:30"},{"city":"Kakinada","state":"Andhra Pradesh","latitude":16.9891,"longitude":82.2475,"temp":28.6,"humidity":79,"rain":0.0,"pressure":1004.8,"uv_index":8.1,"wind_gusts":38.5,"aqi":60,"pm10":19.7,"pm2_5":14.7,"no2":4.7,"co":302.0,"o3":72.0,"so2":3.2,"mosquito_risk":7,"arthritis_risk":5,"migraine_risk":4,"frizz_risk":1,"updated_at":"2026-06-24T23:26:41.020454+05:30"},{"city":"Tirupati","state":"Andhra Pradesh","latitude":13.6288,"longitude":79.4192,"temp":26.1,"humidity":92,"rain":0.0,"pressure":990.0,"uv_index":8.7,"wind_gusts":40.7,"aqi":50,"pm10":17.5,"pm2_5":15.3,"no2":19.2,"co":164.0,"o3":32.0,"so2":3.5,"mosquito_risk":7,"arthritis_risk":5,"migraine_risk":7,"frizz_risk":1,"updated_at":"2026-06-24T23:26:41.020461+05:30"},{"city":"Warangal","state":"Telangana","latitude":17.9689,"longitude":79.5941,"temp":26.3,"humidity":83,"rain":0.0,"pressure":976.3,"uv_index":8.05,"wind_gusts":37.8,"aqi":37,"pm10":19.0,"pm2_5":14.9,"no2":11.4,"co":403.0,"o3":53.0,"so2":4.0,"mosquito_risk":7,"arthritis_risk":5,"migraine_risk":7,"frizz_risk":1,"updated_at":"2026-06-24T23:26:41.020468+05:30"},{"city":"Nizamabad","state":"Telangana","latitude":18.6725,"longitude":78.0941,"temp":25.8,"humidity":78,"rain":0.0,"pressure":962.6,"uv_index":5.05,"wind_gusts":45.0,"aqi":30,"pm10":26.7,"pm2_5":17.5,"no2":10.0,"co":261.0,"o3":54.0,"so2":4.9,"mosquito_risk":7,"arthritis_risk":5,"migraine_risk":3,"frizz_risk":1,"updated_at":"2026-06-24T23:26:41.020475+05:30"},{"city":"Mysore","state":"Karnataka","latitude":12.2958,"longitude":76.6396,"temp":21.7,"humidity":90,"rain":0.0,"pressure":928.7,"uv_index":4.95,"wind_gusts":49.3,"aqi":25,"pm10":5.9,"pm2_5":4.9,"no2":10.0,"co":142.0,"o3":37.0,"so2":2.3,"mosquito_risk":3,"arthritis_risk":5,"migraine_risk":3,"frizz_risk":1,"updated_at":"2026-06-24T23:26:41.020482+05:30"},{"city":"Mangalore","state":"Karnataka","latitude":12.9141,"longitude":74.856,"temp":24.0,"humidity":96,"rain":0.4,"pressure":1008.7,"uv_index":8.25,"wind_gusts":41.0,"aqi":43,"pm10":22.4,"pm2_5":15.3,"no2":13.0,"co":446.0,"o3":28.0,"so2":3.3,"mosquito_risk":6,"arthritis_risk":0,"migraine_risk":4,"frizz_risk":1,"updated_at":"2026-06-24T23:26:41.020489+05:30"},{"city":"Hubli-Dharwad","state":"Karnataka","latitude":15.3647,"longitude":75.124,"temp":21.4,"humidity":96,"rain":0.0,"pressure":940.4,"uv_index":7.85,"wind_gusts":58.7,"aqi":23,"pm10":3.3,"pm2_5":2.4,"no2":4.7,"co":125.0,"o3":43.0,"so2":1.0,"mosquito_risk":3,"arthritis_risk":5,"migraine_risk":7,"frizz_risk":1,"updated_at":"2026-06-24T23:26:41.020497+05:30"},{"city":"Belgaum","state":"Karnataka","latitude":15.8497,"longitude":74.4977,"temp":20.8,"humidity":98,"rain":0.0,"pressure":924.9,"uv_index":6.15,"wind_gusts":46.1,"aqi":23,"pm10":4.6,"pm2_5":4.0,"no2":6.1,"co":121.0,"o3":41.0,"so2":1.7,"mosquito_risk":3,"arthritis_risk":5,"migraine_risk":7,"frizz_risk":1,"updated_at":"2026-06-24T23:26:44.356539+05:30"},{"city":"Coimbatore","state":"Tamil Nadu","latitude":11.0168,"longitude":76.9558,"temp":23.4,"humidity":94,"rain":0.0,"pressure":962.2,"uv_index":8.45,"wind_gusts":46.1,"aqi":33,"pm10":5.5,"pm2_5":5.1,"no2":9.0,"co":212.0,"o3":35.0,"so2":3.3,"mosquito_risk":3,"arthritis_risk":5,"migraine_risk":7,"frizz_risk":1,"updated_at":"2026-06-24T23:26:44.356573+05:30"},{"city":"Madurai","state":"Tamil Nadu","latitude":9.9252,"longitude":78.1198,"temp":28.8,"humidity":67,"rain":0.0,"pressure":993.5,"uv_index":8.0,"wind_gusts":35.6,"aqi":65,"pm10":40.2,"pm2_5":38.3,"no2":50.1,"co":171.0,"o3":0.0,"so2":10.5,"mosquito_risk":7,"arthritis_risk":5,"migraine_risk":7,"frizz_risk":1,"updated_at":"2026-06-24T23:26:44.356583+05:30"},{"city":"Trichy","state":"Tamil Nadu","latitude":10.7905,"longitude":78.7047,"temp":27.4,"humidity":79,"rain":0.0,"pressure":1000.0,"uv_index":8.05,"wind_gusts":46.4,"aqi":40,"pm10":22.6,"pm2_5":20.1,"no2":21.2,"co":144.0,"o3":36.0,"so2":5.2,"mosquito_risk":7,"arthritis_risk":5,"migraine_risk":4,"frizz_risk":1,"updated_at":"2026-06-24T23:26:44.356592+05:30"},{"city":"Salem","state":"Tamil Nadu","latitude":11.6643,"longitude":78.146,"temp":25.9,"humidity":80,"rain":0.0,"pressure":977.8,"uv_index":8.75,"wind_gusts":36.7,"aqi":57,"pm10":19.9,"pm2_5":17.2,"no2":21.7,"co":439.0,"o3":46.0,"so2":7.3,"mosquito_risk":7,"arthritis_risk":5,"migraine_risk":7,"frizz_risk":1,"updated_at":"2026-06-24T23:26:44.356600+05:30"},{"city":"Tirunelveli","state":"Tamil Nadu","latitude":8.7139,"longitude":77.7567,"temp":28.5,"humidity":66,"rain":0.0,"pressure":1004.0,"uv_index":8.15,"wind_gusts":42.8,"aqi":28,"pm10":6.2,"pm2_5":5.7,"no2":7.5,"co":193.0,"o3":39.0,"so2":2.1,"mosquito_risk":7,"arthritis_risk":5,"migraine_risk":4,"frizz_risk":1,"updated_at":"2026-06-24T23:26:44.356607+05:30"},{"city":"Vellore","state":"Tamil Nadu","latitude":12.9165,"longitude":79.1325,"temp":26.1,"humidity":94,"rain":0.0,"pressure":983.8,"uv_index":8.2,"wind_gusts":40.7,"aqi":48,"pm10":18.0,"pm2_5":15.7,"no2":16.1,"co":238.0,"o3":45.0,"so2":5.2,"mosquito_risk":7,"arthritis_risk":5,"migraine_risk":7,"frizz_risk":1,"updated_at":"2026-06-24T23:26:44.356615+05:30"},{"city":"Erode","state":"Tamil Nadu","latitude":11.341,"longitude":77.7172,"temp":25.8,"humidity":80,"rain":0.0,"pressure":989.5,"uv_index":8.7,"wind_gusts":40.3,"aqi":52,"pm10":13.8,"pm2_5":12.6,"no2":18.3,"co":197.0,"o3":32.0,"so2":4.0,"mosquito_risk":7,"arthritis_risk":5,"migraine_risk":7,"frizz_risk":1,"updated_at":"2026-06-24T23:26:44.356622+05:30"},{"city":"Kochi","state":"Kerala","latitude":9.9312,"longitude":76.2673,"temp":26.4,"humidity":91,"rain":0.1,"pressure":1010.7,"uv_index":7.15,"wind_gusts":35.6,"aqi":48,"pm10":12.8,"pm2_5":11.5,"no2":18.6,"co":172.0,"o3":19.0,"so2":4.8,"mosquito_risk":10,"arthritis_risk":0,"migraine_risk":4,"frizz_risk":1,"updated_at":"2026-06-24T23:26:44.356630+05:30"},{"city":"Thiruvananthapuram","state":"Kerala","latitude":8.5241,"longitude":76.9366,"temp":24.7,"humidity":95,"rain":0.0,"pressure":1010.4,"uv_index":7.9,"wind_gusts":43.2,"aqi":32,"pm10":9.0,"pm2_5":5.9,"no2":3.3,"co":132.0,"o3":47.0,"so2":1.3,"mosquito_risk":3,"arthritis_risk":0,"migraine_risk":4,"frizz_risk":1,"updated_at":"2026-06-24T23:26:44.356637+05:30"},{"city":"Kozhikode","state":"Kerala","latitude":11.2588,"longitude":75.7804,"temp":24.7,"humidity":96,"rain":0.1,"pressure":1010.0,"uv_index":8.35,"wind_gusts":34.9,"aqi":27,"pm10":8.6,"pm2_5":5.6,"no2":1.8,"co":376.0,"o3":52.0,"so2":0.8,"mosquito_risk":6,"arthritis_risk":0,"migraine_risk":4,"frizz_risk":1,"updated_at":"2026-06-24T23:26:44.356645+05:30"},{"city":"Thrissur","state":"Kerala","latitude":10.5276,"longitude":76.2144,"temp":24.9,"humidity":98,"rain":0.1,"pressure":1009.3,"uv_index":7.6,"wind_gusts":31.3,"aqi":50,"pm10":12.2,"pm2_5":11.1,"no2":14.0,"co":369.0,"o3":26.0,"so2":3.8,"mosquito_risk":6,"arthritis_risk":0,"migraine_risk":4,"frizz_risk":1,"updated_at":"2026-06-24T23:26:44.356652+05:30"},{"city":"Kannur","state":"Kerala","latitude":11.8745,"longitude":75.3704,"temp":25.4,"humidity":92,"rain":0.1,"pressure":1008.9,"uv_index":8.0,"wind_gusts":34.6,"aqi":33,"pm10":11.7,"pm2_5":7.4,"no2":10.2,"co":342.0,"o3":34.0,"so2":2.0,"mosquito_risk":10,"arthritis_risk":0,"migraine_risk":4,"frizz_risk":1,"updated_at":"2026-06-24T23:26:44.356660+05:30"},{"city":"Patna","state":"Bihar","latitude":25.5941,"longitude":85.1376,"temp":32.6,"humidity":59,"rain":0.0,"pressure":995.5,"uv_index":8.8,"wind_gusts":32.0,"aqi":161,"pm10":141.1,"pm2_5":99.0,"no2":56.3,"co":841.0,"o3":46.0,"so2":23.6,"mosquito_risk":0,"arthritis_risk":5,"migraine_risk":7,"frizz_risk":1,"updated_at":"2026-06-24T23:26:44.356667+05:30"},{"city":"Gaya","state":"Bihar","latitude":24.7914,"longitude":85.0002,"temp":30.6,"humidity":64,"rain":0.0,"pressure":989.7,"uv_index":8.9,"wind_gusts":34.6,"aqi":120,"pm10":33.9,"pm2_5":29.2,"no2":11.7,"co":316.0,"o3":78.0,"so2":7.5,"mosquito_risk":3,"arthritis_risk":5,"migraine_risk":7,"frizz_risk":1,"updated_at":"2026-06-24T23:26:44.356674+05:30"},{"city":"Muzaffarpur","state":"Bihar","latitude":26.1209,"longitude":85.3647,"temp":30.1,"humidity":73,"rain":0.0,"pressure":995.5,"uv_index":8.8,"wind_gusts":30.2,"aqi":161,"pm10":95.0,"pm2_5":75.9,"no2":27.2,"co":979.0,"o3":100.0,"so2":18.3,"mosquito_risk":3,"arthritis_risk":5,"migraine_risk":7,"frizz_risk":1,"updated_at":"2026-06-24T23:26:44.356681+05:30"},{"city":"Bhagalpur","state":"Bihar","latitude":25.2425,"longitude":87.0117,"temp":30.2,"humidity":77,"rain":0.0,"pressure":996.5,"uv_index":8.8,"wind_gusts":26.3,"aqi":153,"pm10":102.7,"pm2_5":64.0,"no2":23.9,"co":570.0,"o3":90.0,"so2":15.5,"mosquito_risk":3,"arthritis_risk":5,"migraine_risk":7,"frizz_risk":1,"updated_at":"2026-06-24T23:26:44.356688+05:30"},{"city":"Ranchi","state":"Jharkhand","latitude":23.3441,"longitude":85.3096,"temp":24.8,"humidity":84,"rain":0.0,"pressure":934.6,"uv_index":9.15,"wind_gusts":33.5,"aqi":87,"pm10":21.9,"pm2_5":21.5,"no2":9.1,"co":287.0,"o3":85.0,"so2":4.6,"mosquito_risk":3,"arthritis_risk":5,"migraine_risk":7,"frizz_risk":1,"updated_at":"2026-06-24T23:26:44.356695+05:30"},{"city":"Jamshedpur","state":"Jharkhand","latitude":22.8046,"longitude":86.2029,"temp":28.3,"humidity":85,"rain":0.0,"pressure":987.4,"uv_index":9.05,"wind_gusts":32.4,"aqi":122,"pm10":33.1,"pm2_5":32.1,"no2":16.1,"co":438.0,"o3":99.0,"so2":28.2,"mosquito_risk":7,"arthritis_risk":5,"migraine_risk":7,"frizz_risk":1,"updated_at":"2026-06-24T23:26:44.356702+05:30"},{"city":"Dhanbad","state":"Jharkhand","latitude":23.7957,"longitude":86.4304,"temp":28.5,"humidity":84,"rain":0.0,"pressure":976.3,"uv_index":9.05,"wind_gusts":29.5,"aqi":151,"pm10":61.0,"pm2_5":54.2,"no2":51.3,"co":356.0,"o3":45.0,"so2":97.9,"mosquito_risk":7,"arthritis_risk":5,"migraine_risk":7,"frizz_risk":1,"updated_at":"2026-06-24T23:26:44.356710+05:30"},{"city":"Bokaro","state":"Jharkhand","latitude":23.6693,"longitude":86.1511,"temp":28.4,"humidity":81,"rain":0.0,"pressure":980.2,"uv_index":8.95,"wind_gusts":32.4,"aqi":132,"pm10":43.3,"pm2_5":37.3,"no2":31.3,"co":311.0,"o3":57.0,"so2":66.1,"mosquito_risk":7,"arthritis_risk":5,"migraine_risk":7,"frizz_risk":1,"updated_at":"2026-06-24T23:26:44.356717+05:30"},{"city":"Bhubaneswar","state":"Odisha","latitude":20.2961,"longitude":85.8245,"temp":28.4,"humidity":87,"rain":0.0,"pressure":998.8,"uv_index":8.9,"wind_gusts":24.1,"aqi":83,"pm10":30.9,"pm2_5":30.5,"no2":16.4,"co":483.0,"o3":78.0,"so2":8.5,"mosquito_risk":7,"arthritis_risk":5,"migraine_risk":7,"frizz_risk":1,"updated_at":"2026-06-24T23:26:44.356724+05:30"},{"city":"Cuttack","state":"Odisha","latitude":20.4625,"longitude":85.8828,"temp":28.9,"humidity":83,"rain":0.0,"pressure":1000.5,"uv_index":9.1,"wind_gusts":30.6,"aqi":83,"pm10":30.9,"pm2_5":30.5,"no2":16.4,"co":517.0,"o3":78.0,"so2":8.5,"mosquito_risk":7,"arthritis_risk":5,"migraine_risk":4,"frizz_risk":1,"updated_at":"2026-06-24T23:26:44.356731+05:30"},{"city":"Rourkela","state":"Odisha","latitude":22.2604,"longitude":84.8536,"temp":28.0,"humidity":83,"rain":0.0,"pressure":981.4,"uv_index":8.95,"wind_gusts":28.8,"aqi":99,"pm10":36.2,"pm2_5":35.7,"no2":15.4,"co":516.0,"o3":80.0,"so2":7.7,"mosquito_risk":7,"arthritis_risk":5,"migraine_risk":7,"frizz_risk":1,"updated_at":"2026-06-24T23:26:44.356738+05:30"},{"city":"Raipur","state":"Chhattisgarh","latitude":21.2514,"longitude":81.6296,"temp":29.8,"humidity":62,"rain":0.0,"pressure":971.7,"uv_index":8.9,"wind_gusts":34.6,"aqi":59,"pm10":22.9,"pm2_5":22.9,"no2":36.4,"co":429.0,"o3":34.0,"so2":50.6,"mosquito_risk":7,"arthritis_risk":5,"migraine_risk":7,"frizz_risk":1,"updated_at":"2026-06-24T23:26:44.356745+05:30"},{"city":"Bhilai","state":"Chhattisgarh","latitude":21.1938,"longitude":81.3509,"temp":28.7,"humidity":68,"rain":0.0,"pressure":972.2,"uv_index":8.9,"wind_gusts":38.2,"aqi":54,"pm10":22.2,"pm2_5":22.2,"no2":33.7,"co":565.0,"o3":37.0,"so2":46.9,"mosquito_risk":7,"arthritis_risk":5,"migraine_risk":7,"frizz_risk":1,"updated_at":"2026-06-24T23:26:44.356753+05:30"},{"city":"Guwahati","state":"Assam","latitude":26.1158,"longitude":91.7086,"temp":25.8,"humidity":97,"rain":0.1,"pressure":998.2,"uv_index":8.75,"wind_gusts":24.5,"aqi":59,"pm10":44.1,"pm2_5":34.9,"no2":11.8,"co":489.0,"o3":56.0,"so2":3.4,"mosquito_risk":10,"arthritis_risk":5,"migraine_risk":7,"frizz_risk":1,"updated_at":"2026-06-24T23:26:44.356760+05:30"},{"city":"Agartala","state":"Tripura","latitude":23.8315,"longitude":91.2868,"temp":26.4,"humidity":93,"rain":0.0,"pressure":1003.2,"uv_index":4.85,"wind_gusts":27.0,"aqi":72,"pm10":29.2,"pm2_5":26.1,"no2":14.0,"co":285.0,"o3":64.0,"so2":4.8,"mosquito_risk":7,"arthritis_risk":5,"migraine_risk":0,"frizz_risk":1,"updated_at":"2026-06-24T23:26:44.356767+05:30"},{"city":"Shillong","state":"Meghalaya","latitude":25.5788,"longitude":91.8933,"temp":19.3,"humidity":99,"rain":0.0,"pressure":855.2,"uv_index":8.1,"wind_gusts":17.6,"aqi":43,"pm10":19.3,"pm2_5":15.3,"no2":7.5,"co":339.0,"o3":80.0,"so2":2.3,"mosquito_risk":3,"arthritis_risk":10,"migraine_risk":7,"frizz_risk":1,"updated_at":"2026-06-24T23:26:44.356774+05:30"},{"city":"Imphal","state":"Manipur","latitude":24.817,"longitude":93.9368,"temp":22.9,"humidity":95,"rain":0.1,"pressure":920.5,"uv_index":7.3,"wind_gusts":19.1,"aqi":49,"pm10":29.7,"pm2_5":27.9,"no2":23.2,"co":682.0,"o3":24.0,"so2":3.4,"mosquito_risk":6,"arthritis_risk":5,"migraine_risk":7,"frizz_risk":1,"updated_at":"2026-06-24T23:26:44.356781+05:30"},{"city":"Aizawl","state":"Mizoram","latitude":23.7271,"longitude":92.7176,"temp":19.5,"humidity":98,"rain":0.0,"pressure":889.8,"uv_index":4.7,"wind_gusts":18.4,"aqi":32,"pm10":12.7,"pm2_5":10.1,"no2":7.7,"co":219.0,"o3":44.0,"so2":0.8,"mosquito_risk":3,"arthritis_risk":10,"migraine_risk":3,"frizz_risk":1,"updated_at":"2026-06-24T23:26:44.356788+05:30"},{"city":"Kohima","state":"Nagaland","latitude":25.6701,"longitude":94.1077,"temp":20.3,"humidity":92,"rain":0.0,"pressure":853.4,"uv_index":7.05,"wind_gusts":27.4,"aqi":31,"pm10":20.3,"pm2_5":18.7,"no2":18.7,"co":288.0,"o3":27.0,"so2":1.1,"mosquito_risk":3,"arthritis_risk":5,"migraine_risk":7,"frizz_risk":1,"updated_at":"2026-06-24T23:26:44.356795+05:30"},{"city":"Gangtok","state":"Sikkim","latitude":27.3314,"longitude":88.6138,"temp":16.1,"humidity":92,"rain":0.1,"pressure":834.9,"uv_index":9.2,"wind_gusts":34.9,"aqi":65,"pm10":15.8,"pm2_5":13.8,"no2":19.8,"co":586.0,"o3":73.0,"so2":2.5,"mosquito_risk":6,"arthritis_risk":10,"migraine_risk":7,"frizz_risk":0,"updated_at":"2026-06-24T23:26:44.356802+05:30"},{"city":"Siliguri","state":"West Bengal","latitude":26.7271,"longitude":88.3953,"temp":24.8,"humidity":99,"rain":0.4,"pressure":990.0,"uv_index":8.75,"wind_gusts":23.8,"aqi":86,"pm10":44.5,"pm2_5":33.2,"no2":23.5,"co":653.0,"o3":77.0,"so2":4.4,"mosquito_risk":6,"arthritis_risk":5,"migraine_risk":7,"frizz_risk":1,"updated_at":"2026-06-24T23:26:47.707915+05:30"},{"city":"Durgapur","state":"West Bengal","latitude":23.5204,"longitude":87.3119,"temp":28.0,"humidity":87,"rain":0.0,"pressure":991.2,"uv_index":9.0,"wind_gusts":27.0,"aqi":163,"pm10":61.9,"pm2_5":57.7,"no2":32.5,"co":756.0,"o3":79.0,"so2":53.3,"mosquito_risk":7,"arthritis_risk":5,"migraine_risk":7,"frizz_risk":1,"updated_at":"2026-06-24T23:26:47.707949+05:30"},{"city":"Asansol","state":"West Bengal","latitude":23.6739,"longitude":86.9524,"temp":28.4,"humidity":82,"rain":0.0,"pressure":989.8,"uv_index":9.0,"wind_gusts":28.1,"aqi":153,"pm10":58.8,"pm2_5":53.3,"no2":38.2,"co":420.0,"o3":64.0,"so2":54.8,"mosquito_risk":7,"arthritis_risk":5,"migraine_risk":7,"frizz_risk":1,"updated_at":"2026-06-24T23:26:47.707961+05:30"},{"city":"Pondicherry","state":"Puducherry","latitude":11.9139,"longitude":79.8145,"temp":28.3,"humidity":73,"rain":0.0,"pressure":1007.8,"uv_index":7.9,"wind_gusts":36.4,"aqi":64,"pm10":19.1,"pm2_5":15.6,"no2":13.8,"co":315.0,"o3":74.0,"so2":7.5,"mosquito_risk":7,"arthritis_risk":5,"migraine_risk":4,"frizz_risk":1,"updated_at":"2026-06-24T23:26:47.707971+05:30"},{"city":"Port Blair","state":"Andaman and Nicobar Islands","latitude":11.6234,"longitude":92.7265,"temp":27.4,"humidity":84,"rain":0.0,"pressure":1006.9,"uv_index":8.65,"wind_gusts":44.6,"aqi":30,"pm10":13.0,"pm2_5":7.8,"no2":0.2,"co":91.0,"o3":48.0,"so2":0.4,"mosquito_risk":7,"arthritis_risk":5,"migraine_risk":4,"frizz_risk":1,"updated_at":"2026-06-24T23:26:47.707981+05:30"},{"city":"Haridwar","state":"Uttarakhand","latitude":29.9457,"longitude":78.1642,"temp":26.8,"humidity":77,"rain":0.0,"pressure":969.3,"uv_index":7.6,"wind_gusts":25.6,"aqi":156,"pm10":99.9,"pm2_5":66.1,"no2":30.8,"co":470.0,"o3":98.0,"so2":16.6,"mosquito_risk":7,"arthritis_risk":5,"migraine_risk":7,"frizz_risk":1,"updated_at":"2026-06-24T23:26:47.707990+05:30"},{"city":"Rishikesh","state":"Uttarakhand","latitude":30.0869,"longitude":78.2676,"temp":25.9,"humidity":79,"rain":0.0,"pressure":962.2,"uv_index":7.7,"wind_gusts":25.9,"aqi":161,"pm10":70.3,"pm2_5":44.8,"no2":15.7,"co":418.0,"o3":132.0,"so2":10.6,"mosquito_risk":7,"arthritis_risk":5,"migraine_risk":7,"frizz_risk":1,"updated_at":"2026-06-24T23:26:47.707999+05:30"},{"city":"Nainital","state":"Uttarakhand","latitude":29.3919,"longitude":79.4542,"temp":15.3,"humidity":95,"rain":0.0,"pressure":803.2,"uv_index":8.05,"wind_gusts":27.4,"aqi":131,"pm10":85.9,"pm2_5":46.4,"no2":18.8,"co":383.0,"o3":80.0,"so2":6.0,"mosquito_risk":3,"arthritis_risk":10,"migraine_risk":7,"frizz_risk":0,"updated_at":"2026-06-24T23:26:47.708008+05:30"},{"city":"Mussoorie","state":"Uttarakhand","latitude":30.4599,"longitude":78.0664,"temp":15.5,"humidity":91,"rain":0.0,"pressure":800.4,"uv_index":7.55,"wind_gusts":31.3,"aqi":148,"pm10":61.5,"pm2_5":46.0,"no2":31.8,"co":396.0,"o3":104.0,"so2":12.3,"mosquito_risk":3,"arthritis_risk":10,"migraine_risk":7,"frizz_risk":0,"updated_at":"2026-06-24T23:26:47.708017+05:30"},{"city":"Dharamshala","state":"Himachal Pradesh","latitude":32.219,"longitude":76.3234,"temp":20.3,"humidity":81,"rain":0.0,"pressure":865.6,"uv_index":8.5,"wind_gusts":34.2,"aqi":64,"pm10":16.5,"pm2_5":15.5,"no2":21.1,"co":414.0,"o3":35.0,"so2":0.3,"mosquito_risk":3,"arthritis_risk":5,"migraine_risk":7,"frizz_risk":1,"updated_at":"2026-06-24T23:26:47.708026+05:30"},{"city":"Dalhousie","state":"Himachal Pradesh","latitude":32.5387,"longitude":75.971,"temp":14.6,"humidity":96,"rain":0.0,"pressure":800.7,"uv_index":8.2,"wind_gusts":33.5,"aqi":115,"pm10":48.5,"pm2_5":40.6,"no2":41.6,"co":685.0,"o3":71.0,"so2":3.3,"mosquito_risk":3,"arthritis_risk":10,"migraine_risk":7,"frizz_risk":0,"updated_at":"2026-06-24T23:26:47.708035+05:30"},{"city":"Patiala","state":"Punjab","latitude":30.3398,"longitude":76.3869,"temp":30.7,"humidity":55,"rain":0.0,"pressure":972.9,"uv_index":7.65,"wind_gusts":35.3,"aqi":195,"pm10":384.6,"pm2_5":136.4,"no2":55.2,"co":750.0,"o3":43.0,"so2":13.6,"mosquito_risk":0,"arthritis_risk":5,"migraine_risk":7,"frizz_risk":1,"updated_at":"2026-06-24T23:26:47.708044+05:30"},{"city":"Bhatinda","state":"Punjab","latitude":30.211,"longitude":74.9455,"temp":32.2,"humidity":49,"rain":0.0,"pressure":977.7,"uv_index":8.25,"wind_gusts":32.4,"aqi":152,"pm10":180.7,"pm2_5":92.9,"no2":57.2,"co":348.0,"o3":50.0,"so2":18.8,"mosquito_risk":0,"arthritis_risk":5,"migraine_risk":7,"frizz_risk":1,"updated_at":"2026-06-24T23:26:47.708052+05:30"},{"city":"Rohtak","state":"Haryana","latitude":28.8955,"longitude":76.6066,"temp":30.0,"humidity":65,"rain":0.0,"pressure":976.3,"uv_index":7.75,"wind_gusts":29.2,"aqi":257,"pm10":339.0,"pm2_5":112.5,"no2":79.5,"co":889.0,"o3":15.0,"so2":21.4,"mosquito_risk":7,"arthritis_risk":5,"migraine_risk":7,"frizz_risk":1,"updated_at":"2026-06-24T23:26:47.708061+05:30"},{"city":"Panipat","state":"Haryana","latitude":29.3909,"longitude":76.9635,"temp":29.7,"humidity":65,"rain":0.0,"pressure":975.1,"uv_index":7.6,"wind_gusts":28.8,"aqi":555,"pm10":411.6,"pm2_5":128.5,"no2":64.2,"co":872.0,"o3":28.0,"so2":18.3,"mosquito_risk":7,"arthritis_risk":5,"migraine_risk":7,"frizz_risk":1,"updated_at":"2026-06-24T23:26:47.708069+05:30"},{"city":"Mathura","state":"Uttar Pradesh","latitude":27.4924,"longitude":77.6737,"temp":29.8,"humidity":63,"rain":0.0,"pressure":981.7,"uv_index":8.05,"wind_gusts":20.2,"aqi":363,"pm10":273.8,"pm2_5":88.0,"no2":67.5,"co":803.0,"o3":8.0,"so2":8.1,"mosquito_risk":7,"arthritis_risk":5,"migraine_risk":7,"frizz_risk":1,"updated_at":"2026-06-24T23:26:47.708078+05:30"},{"city":"Vrindavan","state":"Uttar Pradesh","latitude":27.5823,"longitude":77.7027,"temp":29.6,"humidity":64,"rain":0.0,"pressure":982.1,"uv_index":8.0,"wind_gusts":18.7,"aqi":363,"pm10":273.8,"pm2_5":88.0,"no2":67.5,"co":809.0,"o3":8.0,"so2":8.1,"mosquito_risk":7,"arthritis_risk":5,"migraine_risk":7,"frizz_risk":1,"updated_at":"2026-06-24T23:26:47.708086+05:30"},{"city":"Ayodhya","state":"Uttar Pradesh","latitude":26.7922,"longitude":82.1998,"temp":30.7,"humidity":66,"rain":0.0,"pressure":990.1,"uv_index":8.35,"wind_gusts":28.8,"aqi":160,"pm10":181.1,"pm2_5":91.0,"no2":44.2,"co":668.0,"o3":56.0,"so2":15.1,"mosquito_risk":3,"arthritis_risk":5,"migraine_risk":7,"frizz_risk":1,"updated_at":"2026-06-24T23:26:47.708094+05:30"},{"city":"Ratlam","state":"Madhya Pradesh","latitude":23.3315,"longitude":75.0367,"temp":25.1,"humidity":82,"rain":0.0,"pressure":951.7,"uv_index":7.65,"wind_gusts":44.3,"aqi":74,"pm10":48.3,"pm2_5":29.7,"no2":5.6,"co":219.0,"o3":80.0,"so2":4.9,"mosquito_risk":7,"arthritis_risk":5,"migraine_risk":7,"frizz_risk":1,"updated_at":"2026-06-24T23:26:47.708103+05:30"},{"city":"Sagar","state":"Madhya Pradesh","latitude":23.8388,"longitude":78.7378,"temp":24.7,"humidity":95,"rain":0.0,"pressure":946.4,"uv_index":8.65,"wind_gusts":44.3,"aqi":62,"pm10":38.3,"pm2_5":25.5,"no2":6.9,"co":216.0,"o3":81.0,"so2":3.6,"mosquito_risk":3,"arthritis_risk":5,"migraine_risk":7,"frizz_risk":1,"updated_at":"2026-06-24T23:26:47.708111+05:30"},{"city":"Satna","state":"Madhya Pradesh","latitude":24.6005,"longitude":80.8322,"temp":29.8,"humidity":67,"rain":0.0,"pressure":967.3,"uv_index":8.75,"wind_gusts":28.4,"aqi":79,"pm10":41.7,"pm2_5":25.7,"no2":9.7,"co":204.0,"o3":75.0,"so2":4.6,"mosquito_risk":7,"arthritis_risk":5,"migraine_risk":7,"frizz_risk":1,"updated_at":"2026-06-24T23:26:47.708120+05:30"},{"city":"Akola","state":"Maharashtra","latitude":20.7002,"longitude":77.0082,"temp":25.2,"humidity":94,"rain":0.2,"pressure":972.6,"uv_index":8.5,"wind_gusts":37.8,"aqi":47,"pm10":29.6,"pm2_5":21.3,"no2":11.6,"co":266.0,"o3":59.0,"so2":6.1,"mosquito_risk":10,"arthritis_risk":5,"migraine_risk":7,"frizz_risk":1,"updated_at":"2026-06-24T23:26:47.708128+05:30"},{"city":"Amravati","state":"Maharashtra","latitude":20.9374,"longitude":77.7796,"temp":24.8,"humidity":97,"rain":0.0,"pressure":964.5,"uv_index":8.65,"wind_gusts":36.7,"aqi":41,"pm10":25.6,"pm2_5":18.7,"no2":10.8,"co":214.0,"o3":61.0,"so2":5.3,"mosquito_risk":3,"arthritis_risk":5,"migraine_risk":7,"frizz_risk":1,"updated_at":"2026-06-24T23:26:47.708137+05:30"},{"city":"Latur","state":"Maharashtra","latitude":18.4088,"longitude":76.5604,"temp":25.9,"humidity":65,"rain":0.0,"pressure":937.9,"uv_index":2.45,"wind_gusts":41.8,"aqi":35,"pm10":9.1,"pm2_5":7.7,"no2":7.2,"co":199.0,"o3":56.0,"so2":2.6,"mosquito_risk":7,"arthritis_risk":5,"migraine_risk":3,"frizz_risk":1,"updated_at":"2026-06-24T23:26:47.708145+05:30"},{"city":"Nanded","state":"Maharashtra","latitude":19.1383,"longitude":77.3091,"temp":24.7,"humidity":91,"rain":0.0,"pressure":966.3,"uv_index":7.3,"wind_gusts":37.8,"aqi":34,"pm10":34.7,"pm2_5":21.9,"no2":12.0,"co":432.0,"o3":51.0,"so2":3.8,"mosquito_risk":3,"arthritis_risk":5,"migraine_risk":7,"frizz_risk":1,"updated_at":"2026-06-24T23:26:47.708152+05:30"},{"city":"Gulbarga","state":"Karnataka","latitude":17.3297,"longitude":76.8343,"temp":26.4,"humidity":67,"rain":0.0,"pressure":957.3,"uv_index":5.15,"wind_gusts":46.4,"aqi":29,"pm10":4.1,"pm2_5":3.9,"no2":9.2,"co":156.0,"o3":46.0,"so2":2.9,"mosquito_risk":7,"arthritis_risk":5,"migraine_risk":3,"frizz_risk":1,"updated_at":"2026-06-24T23:26:47.708159+05:30"},{"city":"Bidar","state":"Karnataka","latitude":17.9104,"longitude":77.5199,"temp":24.8,"humidity":84,"rain":0.0,"pressure":933.4,"uv_index":7.55,"wind_gusts":46.4,"aqi":37,"pm10":14.9,"pm2_5":10.8,"no2":9.7,"co":321.0,"o3":56.0,"so2":3.1,"mosquito_risk":3,"arthritis_risk":5,"migraine_risk":7,"frizz_risk":1,"updated_at":"2026-06-24T23:26:47.708166+05:30"},{"city":"Hospet","state":"Karnataka","latitude":15.2689,"longitude":76.3909,"temp":23.8,"humidity":84,"rain":0.0,"pressure":955.6,"uv_index":7.3,"wind_gusts":54.7,"aqi":25,"pm10":4.7,"pm2_5":3.6,"no2":5.7,"co":134.0,"o3":40.0,"so2":1.6,"mosquito_risk":3,"arthritis_risk":5,"migraine_risk":7,"frizz_risk":1,"updated_at":"2026-06-24T23:26:47.708173+05:30"},{"city":"Tirupur","state":"Tamil Nadu","latitude":11.1085,"longitude":77.3411,"temp":24.3,"humidity":89,"rain":0.0,"pressure":975.6,"uv_index":8.8,"wind_gusts":46.4,"aqi":56,"pm10":17.0,"pm2_5":15.6,"no2":21.9,"co":160.0,"o3":28.0,"so2":5.1,"mosquito_risk":3,"arthritis_risk":5,"migraine_risk":7,"frizz_risk":1,"updated_at":"2026-06-24T23:26:47.708180+05:30"},{"city":"Alappuzha","state":"Kerala","latitude":9.4981,"longitude":76.3388,"temp":26.6,"humidity":90,"rain":0.0,"pressure":1010.8,"uv_index":7.3,"wind_gusts":34.6,"aqi":37,"pm10":10.7,"pm2_5":8.6,"no2":10.2,"co":82.0,"o3":37.0,"so2":2.9,"mosquito_risk":7,"arthritis_risk":0,"migraine_risk":4,"frizz_risk":1,"updated_at":"2026-06-24T23:26:47.708187+05:30"},{"city":"Munnar","state":"Kerala","latitude":10.0889,"longitude":77.0595,"temp":15.9,"humidity":95,"rain":0.0,"pressure":857.0,"uv_index":7.65,"wind_gusts":41.4,"aqi":22,"pm10":4.4,"pm2_5":4.3,"no2":8.9,"co":115.0,"o3":28.0,"so2":2.0,"mosquito_risk":3,"arthritis_risk":10,"migraine_risk":7,"frizz_risk":0,"updated_at":"2026-06-24T23:26:47.708195+05:30"},{"city":"Silchar","state":"Assam","latitude":24.8333,"longitude":92.7789,"temp":26.0,"humidity":95,"rain":0.0,"pressure":1001.8,"uv_index":8.15,"wind_gusts":16.9,"aqi":63,"pm10":33.6,"pm2_5":24.7,"no2":9.8,"co":599.0,"o3":66.0,"so2":4.2,"mosquito_risk":7,"arthritis_risk":5,"migraine_risk":4,"frizz_risk":1,"updated_at":"2026-06-24T23:26:47.708202+05:30"},{"city":"Dibrugarh","state":"Assam","latitude":27.4728,"longitude":94.912,"temp":25.7,"humidity":97,"rain":0.0,"pressure":991.6,"uv_index":8.95,"wind_gusts":20.2,"aqi":61,"pm10":16.4,"pm2_5":15.6,"no2":13.3,"co":283.0,"o3":60.0,"so2":2.2,"mosquito_risk":7,"arthritis_risk":5,"migraine_risk":7,"frizz_risk":1,"updated_at":"2026-06-24T23:26:47.708209+05:30"}]