[{"city":"Delhi","state":"Delhi","latitude":28.6139,"longitude":77.209,"temp":16.9,"humidity":78,"rain":0.0,"pressure":985.6,"uv_index":5.85,"wind_gusts":35.6,"aqi":208,"pm10":300.8,"pm2_5":75.7,"mosquito_risk":3,"arthritis_risk":5,"migraine_risk":3,"frizz_risk":0,"updated_at":"2026-03-03T04:01:36.025066+05:30"},{"city":"Mumbai","state":"Maharashtra","latitude":19.076,"longitude":72.8777,"temp":26.8,"humidity":76,"rain":0.0,"pressure":1009.4,"uv_index":7.35,"wind_gusts":27.4,"aqi":91,"pm10":40.5,"pm2_5":34.2,"mosquito_risk":7,"arthritis_risk":0,"migraine_risk":4,"frizz_risk":1,"updated_at":"2026-03-03T04:01:36.025111+05:30"},{"city":"Bangalore","state":"Karnataka","latitude":12.9716,"longitude":77.5946,"temp":20.2,"humidity":74,"rain":0.0,"pressure":911.3,"uv_index":9.1,"wind_gusts":39.2,"aqi":129,"pm10":42.4,"pm2_5":41.4,"mosquito_risk":3,"arthritis_risk":5,"migraine_risk":7,"frizz_risk":0,"updated_at":"2026-03-03T04:01:36.025127+05:30"},{"city":"Hyderabad","state":"Telangana","latitude":17.385,"longitude":78.4867,"temp":22.6,"humidity":73,"rain":0.0,"pressure":954.0,"uv_index":8.35,"wind_gusts":23.8,"aqi":142,"pm10":61.7,"pm2_5":60.5,"mosquito_risk":3,"arthritis_risk":5,"migraine_risk":7,"frizz_risk":1,"updated_at":"2026-03-03T04:01:36.025137+05:30"},{"city":"Chennai","state":"Tamil Nadu","latitude":13.0827,"longitude":80.2707,"temp":23.2,"humidity":90,"rain":0.0,"pressure":1008.2,"uv_index":8.8,"wind_gusts":29.5,"aqi":122,"pm10":51.7,"pm2_5":47.3,"mosquito_risk":3,"arthritis_risk":0,"migraine_risk":4,"frizz_risk":1,"updated_at":"2026-03-03T04:01:36.025146+05:30"},{"city":"Kolkata","state":"West Bengal","latitude":22.5726,"longitude":88.3639,"temp":20.3,"humidity":78,"rain":0.0,"pressure":1008.5,"uv_index":7.7,"wind_gusts":18.0,"aqi":165,"pm10":147.1,"pm2_5":135.5,"mosquito_risk":3,"arthritis_risk":0,"migraine_risk":4,"frizz_risk":1,"updated_at":"2026-03-03T04:01:36.025154+05:30"},{"city":"Pune","state":"Maharashtra","latitude":18.5204,"longitude":73.8567,"temp":21.6,"humidity":72,"rain":0.0,"pressure":949.1,"uv_index":7.9,"wind_gusts":32.0,"aqi":92,"pm10":34.7,"pm2_5":32.2,"mosquito_risk":3,"arthritis_risk":5,"migraine_risk":7,"frizz_risk":1,"updated_at":"2026-03-03T04:01:36.025166+05:30"},{"city":"Ahmedabad","state":"Gujarat","latitude":23.0225,"longitude":72.5714,"temp":22.4,"humidity":65,"rain":0.0,"pressure":1004.9,"uv_index":7.15,"wind_gusts":20.2,"aqi":103,"pm10":58.3,"pm2_5":50.1,"mosquito_risk":3,"arthritis_risk":5,"migraine_risk":4,"frizz_risk":0,"updated_at":"2026-03-03T04:01:36.025174+05:30"},{"city":"Jaipur","state":"Rajasthan","latitude":26.9124,"longitude":75.7873,"temp":19.9,"humidity":52,"rain":0.0,"pressure":962.5,"uv_index":6.6,"wind_gusts":28.8,"aqi":95,"pm10":159.7,"pm2_5":43.0,"mosquito_risk":0,"arthritis_risk":5,"migraine_risk":7,"frizz_risk":0,"updated_at":"2026-03-03T04:01:36.025182+05:30"},{"city":"Lucknow","state":"Uttar Pradesh","latitude":26.8467,"longitude":80.9462,"temp":18.3,"humidity":71,"rain":0.0,"pressure":995.8,"uv_index":6.3,"wind_gusts":34.6,"aqi":153,"pm10":240.3,"pm2_5":66.1,"mosquito_risk":3,"arthritis_risk":5,"migraine_risk":7,"frizz_risk":0,"updated_at":"2026-03-03T04:01:36.025189+05:30"},{"city":"Kanpur","state":"Uttar Pradesh","latitude":26.4499,"longitude":80.3319,"temp":17.2,"humidity":84,"rain":0.0,"pressure":994.3,"uv_index":6.3,"wind_gusts":28.8,"aqi":174,"pm10":383.7,"pm2_5":77.5,"mosquito_risk":3,"arthritis_risk":10,"migraine_risk":7,"frizz_risk":0,"updated_at":"2026-03-03T04:01:36.025197+05:30"},{"city":"Chandigarh","state":"Chandigarh","latitude":30.7333,"longitude":76.7794,"temp":16.4,"humidity":70,"rain":0.0,"pressure":970.7,"uv_index":5.7,"wind_gusts":34.2,"aqi":81,"pm10":29.6,"pm2_5":26.1,"mosquito_risk":3,"arthritis_risk":5,"migraine_risk":3,"frizz_risk":0,"updated_at":"2026-03-03T04:01:36.025204+05:30"},{"city":"Srinagar","state":"Jammu and Kashmir","latitude":34.0837,"longitude":74.7973,"temp":2.9,"humidity":62,"rain":0.0,"pressure":839.5,"uv_index":6.6,"wind_gusts":15.8,"aqi":144,"pm10":71.7,"pm2_5":59.6,"mosquito_risk":3,"arthritis_risk":5,"migraine_risk":7,"frizz_risk":1,"updated_at":"2026-03-03T04:01:36.025212+05:30"},{"city":"Jammu","state":"Jammu and Kashmir","latitude":32.7266,"longitude":74.857,"temp":15.0,"humidity":58,"rain":0.0,"pressure":975.1,"uv_index":6.3,"wind_gusts":24.5,"aqi":103,"pm10":44.9,"pm2_5":41.2,"mosquito_risk":0,"arthritis_risk":5,"migraine_risk":7,"frizz_risk":0,"updated_at":"2026-03-03T04:01:36.025220+05:30"},{"city":"Amritsar","state":"Punjab","latitude":31.634,"longitude":74.8723,"temp":14.8,"humidity":80,"rain":0.0,"pressure":983.6,"uv_index":6.25,"wind_gusts":28.4,"aqi":124,"pm10":38.0,"pm2_5":32.2,"mosquito_risk":3,"arthritis_risk":5,"migraine_risk":7,"frizz_risk":0,"updated_at":"2026-03-03T04:01:36.025227+05:30"},{"city":"Ludhiana","state":"Punjab","latitude":30.901,"longitude":75.8573,"temp":16.6,"humidity":71,"rain":0.0,"pressure":981.5,"uv_index":5.9,"wind_gusts":30.6,"aqi":153,"pm10":71.0,"pm2_5":56.5,"mosquito_risk":3,"arthritis_risk":5,"migraine_risk":3,"frizz_risk":0,"updated_at":"2026-03-03T04:01:36.025234+05:30"},{"city":"Jalandhar","state":"Punjab","latitude":31.326,"longitude":75.5762,"temp":16.1,"humidity":75,"rain":0.0,"pressure":982.7,"uv_index":6.1,"wind_gusts":26.6,"aqi":153,"pm10":84.8,"pm2_5":65.7,"mosquito_risk":3,"arthritis_risk":5,"migraine_risk":7,"frizz_risk":0,"updated_at":"2026-03-03T04:01:36.025242+05:30"},{"city":"Dehradun","state":"Uttarakhand","latitude":30.6284,"longitude":78.0322,"temp":10.2,"humidity":61,"rain":0.0,"pressure":827.4,"uv_index":6.05,"wind_gusts":31.0,"aqi":58,"pm10":18.6,"pm2_5":17.0,"mosquito_risk":3,"arthritis_risk":5,"migraine_risk":7,"frizz_risk":0,"updated_at":"2026-03-03T04:01:36.025250+05:30"},{"city":"Shimla","state":"Himachal Pradesh","latitude":31.1048,"longitude":77.1734,"temp":7.7,"humidity":60,"rain":0.0,"pressure":781.2,"uv_index":6.1,"wind_gusts":43.6,"aqi":73,"pm10":35.6,"pm2_5":30.2,"mosquito_risk":0,"arthritis_risk":5,"migraine_risk":7,"frizz_risk":0,"updated_at":"2026-03-03T04:01:36.025257+05:30"},{"city":"Manali","state":"Himachal Pradesh","latitude":32.2396,"longitude":77.1887,"temp":15.1,"humidity":10,"rain":0.0,"pressure":818.6,"uv_index":7.45,"wind_gusts":35.3,"aqi":55,"pm10":17.8,"pm2_5":14.1,"mosquito_risk":0,"arthritis_risk":5,"migraine_risk":7,"frizz_risk":1,"updated_at":"2026-03-03T04:01:36.025264+05:30"},{"city":"Gurgaon","state":"Haryana","latitude":28.4595,"longitude":77.0266,"temp":13.9,"humidity":89,"rain":0.0,"pressure":984.1,"uv_index":5.95,"wind_gusts":32.4,"aqi":893,"pm10":987.2,"pm2_5":143.0,"mosquito_risk":3,"arthritis_risk":10,"migraine_risk":3,"frizz_risk":0,"updated_at":"2026-03-03T04:01:36.025271+05:30"},{"city":"Noida","state":"Uttar Pradesh","latitude":28.5355,"longitude":77.391,"temp":17.1,"humidity":76,"rain":0.0,"pressure":987.1,"uv_index":5.85,"wind_gusts":34.9,"aqi":893,"pm10":987.2,"pm2_5":143.0,"mosquito_risk":3,"arthritis_risk":5,"migraine_risk":3,"frizz_risk":0,"updated_at":"2026-03-03T04:01:36.025278+05:30"},{"city":"Ghaziabad","state":"Uttar Pradesh","latitude":28.6692,"longitude":77.4538,"temp":16.8,"humidity":77,"rain":0.0,"pressure":985.1,"uv_index":5.8,"wind_gusts":34.9,"aqi":179,"pm10":250.5,"pm2_5":68.7,"mosquito_risk":3,"arthritis_risk":5,"migraine_risk":3,"frizz_risk":0,"updated_at":"2026-03-03T04:01:36.025284+05:30"},{"city":"Faridabad","state":"Haryana","latitude":28.4089,"longitude":77.3178,"temp":16.1,"humidity":76,"rain":0.0,"pressure":986.3,"uv_index":5.85,"wind_gusts":31.7,"aqi":893,"pm10":987.2,"pm2_5":143.0,"mosquito_risk":3,"arthritis_risk":5,"migraine_risk":3,"frizz_risk":0,"updated_at":"2026-03-03T04:01:36.025291+05:30"},{"city":"Meerut","state":"Uttar Pradesh","latitude":28.9845,"longitude":77.7064,"temp":15.3,"humidity":81,"rain":0.0,"pressure":983.4,"uv_index":5.7,"wind_gusts":41.0,"aqi":179,"pm10":250.5,"pm2_5":68.7,"mosquito_risk":3,"arthritis_risk":10,"migraine_risk":3,"frizz_risk":0,"updated_at":"2026-03-03T04:01:36.025297+05:30"},{"city":"Agra","state":"Uttar Pradesh","latitude":27.1767,"longitude":78.0081,"temp":16.3,"humidity":88,"rain":0.0,"pressure":991.0,"uv_index":6.15,"wind_gusts":29.5,"aqi":411,"pm10":551.3,"pm2_5":100.6,"mosquito_risk":3,"arthritis_risk":10,"migraine_risk":7,"frizz_risk":0,"updated_at":"2026-03-03T04:01:36.025304+05:30"},{"city":"Varanasi","state":"Uttar Pradesh","latitude":25.3176,"longitude":82.9739,"temp":17.9,"humidity":74,"rain":0.0,"pressure":1000.2,"uv_index":6.95,"wind_gusts":25.2,"aqi":92,"pm10":65.9,"pm2_5":31.9,"mosquito_risk":3,"arthritis_risk":5,"migraine_risk":4,"frizz_risk":0,"updated_at":"2026-03-03T04:01:36.025315+05:30"},{"city":"Prayagraj","state":"Uttar Pradesh","latitude":25.4358,"longitude":81.8463,"temp":17.8,"humidity":70,"rain":0.0,"pressure":998.8,"uv_index":6.8,"wind_gusts":24.5,"aqi":104,"pm10":139.7,"pm2_5":48.4,"mosquito_risk":3,"arthritis_risk":5,"migraine_risk":7,"frizz_risk":0,"updated_at":"2026-03-03T04:01:36.025322+05:30"},{"city":"Gorakhpur","state":"Uttar Pradesh","latitude":26.7606,"longitude":83.3732,"temp":15.7,"humidity":73,"rain":0.0,"pressure":999.1,"uv_index":6.7,"wind_gusts":21.6,"aqi":130,"pm10":118.0,"pm2_5":55.9,"mosquito_risk":3,"arthritis_risk":5,"migraine_risk":7,"frizz_risk":0,"updated_at":"2026-03-03T04:01:36.025328+05:30"},{"city":"Bareilly","state":"Uttar Pradesh","latitude":28.367,"longitude":79.4304,"temp":15.7,"humidity":79,"rain":0.0,"pressure":988.6,"uv_index":6.0,"wind_gusts":31.0,"aqi":128,"pm10":108.0,"pm2_5":53.9,"mosquito_risk":3,"arthritis_risk":5,"migraine_risk":3,"frizz_risk":0,"updated_at":"2026-03-03T04:01:36.025335+05:30"},{"city":"Aligarh","state":"Uttar Pradesh","latitude":27.8974,"longitude":78.088,"temp":15.9,"humidity":82,"rain":0.0,"pressure":988.1,"uv_index":5.9,"wind_gusts":34.9,"aqi":524,"pm10":555.1,"pm2_5":109.4,"mosquito_risk":3,"arthritis_risk":10,"migraine_risk":3,"frizz_risk":0,"updated_at":"2026-03-03T04:01:36.025343+05:30"},{"city":"Moradabad","state":"Uttar Pradesh","latitude":28.8386,"longitude":78.7733,"temp":15.3,"humidity":79,"rain":0.0,"pressure":985.3,"uv_index":5.85,"wind_gusts":30.2,"aqi":136,"pm10":115.7,"pm2_5":61.0,"mosquito_risk":3,"arthritis_risk":5,"migraine_risk":3,"frizz_risk":0,"updated_at":"2026-03-03T04:01:36.025350+05:30"},{"city":"Saharanpur","state":"Uttar Pradesh","latitude":29.9637,"longitude":77.546,"temp":15.1,"humidity":83,"rain":0.0,"pressure":977.2,"uv_index":5.45,"wind_gusts":44.3,"aqi":112,"pm10":76.4,"pm2_5":55.5,"mosquito_risk":3,"arthritis_risk":10,"migraine_risk":3,"frizz_risk":0,"updated_at":"2026-03-03T04:01:36.025356+05:30"},{"city":"Jhansi","state":"Uttar Pradesh","latitude":25.4484,"longitude":78.5685,"temp":17.0,"humidity":78,"rain":0.0,"pressure":980.7,"uv_index":6.75,"wind_gusts":25.2,"aqi":74,"pm10":59.8,"pm2_5":26.5,"mosquito_risk":3,"arthritis_risk":5,"migraine_risk":7,"frizz_risk":0,"updated_at":"2026-03-03T04:01:39.287741+05:30"},{"city":"Surat","state":"Gujarat","latitude":21.1702,"longitude":72.8311,"temp":22.8,"humidity":70,"rain":0.0,"pressure":1008.7,"uv_index":7.05,"wind_gusts":24.8,"aqi":154,"pm10":78.2,"pm2_5":69.8,"mosquito_risk":3,"arthritis_risk":0,"migraine_risk":4,"frizz_risk":1,"updated_at":"2026-03-03T04:01:39.287773+05:30"},{"city":"Vadodara","state":"Gujarat","latitude":22.3072,"longitude":73.1812,"temp":21.1,"humidity":62,"rain":0.0,"pressure":1006.9,"uv_index":7.15,"wind_gusts":15.8,"aqi":152,"pm10":106.4,"pm2_5":100.4,"mosquito_risk":3,"arthritis_risk":5,"migraine_risk":4,"frizz_risk":0,"updated_at":"2026-03-03T04:01:39.287783+05:30"},{"city":"Rajkot","state":"Gujarat","latitude":22.3039,"longitude":70.8022,"temp":21.0,"humidity":81,"rain":0.0,"pressure":997.2,"uv_index":7.0,"wind_gusts":21.2,"aqi":66,"pm10":30.3,"pm2_5":18.5,"mosquito_risk":3,"arthritis_risk":5,"migraine_risk":7,"frizz_risk":1,"updated_at":"2026-03-03T04:01:39.287791+05:30"},{"city":"Thane","state":"Maharashtra","latitude":19.2183,"longitude":72.9781,"temp":23.6,"humidity":83,"rain":0.0,"pressure":1009.0,"uv_index":7.35,"wind_gusts":38.2,"aqi":91,"pm10":40.5,"pm2_5":34.2,"mosquito_risk":3,"arthritis_risk":0,"migraine_risk":4,"frizz_risk":1,"updated_at":"2026-03-03T04:01:39.287798+05:30"},{"city":"Nagpur","state":"Maharashtra","latitude":21.1458,"longitude":79.0882,"temp":20.1,"humidity":67,"rain":0.0,"pressure":975.2,"uv_index":7.75,"wind_gusts":19.1,"aqi":69,"pm10":21.1,"pm2_5":18.2,"mosquito_risk":3,"arthritis_risk":5,"migraine_risk":7,"frizz_risk":0,"updated_at":"2026-03-03T04:01:39.287806+05:30"},{"city":"Nashik","state":"Maharashtra","latitude":19.9975,"longitude":73.7898,"temp":22.8,"humidity":54,"rain":0.0,"pressure":946.9,"uv_index":7.55,"wind_gusts":28.8,"aqi":87,"pm10":41.7,"pm2_5":39.6,"mosquito_risk":0,"arthritis_risk":5,"migraine_risk":7,"frizz_risk":0,"updated_at":"2026-03-03T04:01:39.287813+05:30"},{"city":"Aurangabad","state":"Maharashtra","latitude":19.8762,"longitude":75.3433,"temp":22.7,"humidity":50,"rain":0.0,"pressure":945.4,"uv_index":8.05,"wind_gusts":24.1,"aqi":76,"pm10":27.6,"pm2_5":27.0,"mosquito_risk":0,"arthritis_risk":5,"migraine_risk":7,"frizz_risk":0,"updated_at":"2026-03-03T04:01:39.287820+05:30"},{"city":"Solapur","state":"Maharashtra","latitude":17.6599,"longitude":75.9064,"temp":23.4,"humidity":70,"rain":0.0,"pressure":957.5,"uv_index":8.3,"wind_gusts":18.0,"aqi":130,"pm10":36.0,"pm2_5":35.6,"mosquito_risk":3,"arthritis_risk":5,"migraine_risk":7,"frizz_risk":1,"updated_at":"2026-03-03T04:01:39.287828+05:30"},{"city":"Kolhapur","state":"Maharashtra","latitude":16.705,"longitude":74.2433,"temp":19.4,"humidity":96,"rain":0.0,"pressure":947.8,"uv_index":8.4,"wind_gusts":40.0,"aqi":118,"pm10":43.8,"pm2_5":41.4,"mosquito_risk":3,"arthritis_risk":10,"migraine_risk":7,"frizz_risk":1,"updated_at":"2026-03-03T04:01:39.287835+05:30"},{"city":"Goa","state":"Goa","latitude":15.2993,"longitude":74.124,"temp":26.2,"humidity":80,"rain":0.0,"pressure":998.4,"uv_index":8.45,"wind_gusts":36.0,"aqi":73,"pm10":32.5,"pm2_5":25.8,"mosquito_risk":7,"arthritis_risk":5,"migraine_risk":7,"frizz_risk":1,"updated_at":"2026-03-03T04:01:39.287842+05:30"},{"city":"Jodhpur","state":"Rajasthan","latitude":26.2389,"longitude":73.0243,"temp":19.5,"humidity":55,"rain":0.0,"pressure":986.3,"uv_index":6.85,"wind_gusts":12.2,"aqi":81,"pm10":43.4,"pm2_5":22.5,"mosquito_risk":0,"arthritis_risk":5,"migraine_risk":7,"frizz_risk":0,"updated_at":"2026-03-03T04:01:39.287850+05:30"},{"city":"Udaipur","state":"Rajasthan","latitude":24.5854,"longitude":73.7125,"temp":17.2,"humidity":61,"rain":0.0,"pressure":948.9,"uv_index":7.45,"wind_gusts":16.6,"aqi":67,"pm10":27.8,"pm2_5":20.3,"mosquito_risk":3,"arthritis_risk":5,"migraine_risk":7,"frizz_risk":0,"updated_at":"2026-03-03T04:01:39.287856+05:30"},{"city":"Kota","state":"Rajasthan","latitude":25.2138,"longitude":75.8648,"temp":18.1,"humidity":72,"rain":0.0,"pressure":981.3,"uv_index":6.85,"wind_gusts":19.8,"aqi":89,"pm10":45.2,"pm2_5":33.8,"mosquito_risk":3,"arthritis_risk":5,"migraine_risk":7,"frizz_risk":0,"updated_at":"2026-03-03T04:01:39.287863+05:30"},{"city":"Bikaner","state":"Rajasthan","latitude":28.0229,"longitude":73.3119,"temp":21.2,"humidity":59,"rain":0.0,"pressure":985.4,"uv_index":6.55,"wind_gusts":19.8,"aqi":67,"pm10":44.0,"pm2_5":21.2,"mosquito_risk":0,"arthritis_risk":5,"migraine_risk":7,"frizz_risk":0,"updated_at":"2026-03-03T04:01:39.287869+05:30"},{"city":"Ajmer","state":"Rajasthan","latitude":26.4499,"longitude":74.6399,"temp":19.5,"humidity":52,"rain":0.0,"pressure":957.2,"uv_index":6.8,"wind_gusts":24.1,"aqi":77,"pm10":58.3,"pm2_5":25.1,"mosquito_risk":0,"arthritis_risk":5,"migraine_risk":7,"frizz_risk":0,"updated_at":"2026-03-03T04:01:39.287875+05:30"},{"city":"Gwalior","state":"Madhya Pradesh","latitude":26.2183,"longitude":78.1828,"temp":18.5,"humidity":75,"rain":0.0,"pressure":986.1,"uv_index":6.45,"wind_gusts":27.4,"aqi":105,"pm10":425.6,"pm2_5":71.7,"mosquito_risk":3,"arthritis_risk":5,"migraine_risk":7,"frizz_risk":0,"updated_at":"2026-03-03T04:01:39.287882+05:30"},{"city":"Indore","state":"Madhya Pradesh","latitude":22.7196,"longitude":75.8577,"temp":18.5,"humidity":64,"rain":0.0,"pressure":950.0,"uv_index":7.45,"wind_gusts":15.1,"aqi":87,"pm10":49.6,"pm2_5":44.0,"mosquito_risk":3,"arthritis_risk":5,"migraine_risk":7,"frizz_risk":0,"updated_at":"2026-03-03T04:01:39.287888+05:30"},{"city":"Bhopal","state":"Madhya Pradesh","latitude":23.2599,"longitude":77.4126,"temp":19.9,"humidity":55,"rain":0.0,"pressure":955.8,"uv_index":7.3,"wind_gusts":23.0,"aqi":78,"pm10":43.2,"pm2_5":32.8,"mosquito_risk":0,"arthritis_risk":5,"migraine_risk":7,"frizz_risk":0,"updated_at":"2026-03-03T04:01:39.287895+05:30"},{"city":"Jabalpur","state":"Madhya Pradesh","latitude":23.1815,"longitude":79.9864,"temp":18.0,"humidity":59,"rain":0.0,"pressure":963.6,"uv_index":7.4,"wind_gusts":18.4,"aqi":71,"pm10":37.7,"pm2_5":27.1,"mosquito_risk":0,"arthritis_risk":5,"migraine_risk":7,"frizz_risk":0,"updated_at":"2026-03-03T04:01:39.287906+05:30"},{"city":"Ujjain","state":"Madhya Pradesh","latitude":23.1765,"longitude":75.7885,"temp":18.1,"humidity":68,"rain":0.0,"pressure":955.8,"uv_index":7.3,"wind_gusts":15.1,"aqi":108,"pm10":53.4,"pm2_5":50.9,"mosquito_risk":3,"arthritis_risk":5,"migraine_risk":7,"frizz_risk":0,"updated_at":"2026-03-03T04:01:39.287914+05:30"},{"city":"Visakhapatnam","state":"Andhra Pradesh","latitude":17.6868,"longitude":83.2185,"temp":24.7,"humidity":77,"rain":0.0,"pressure":1004.7,"uv_index":8.35,"wind_gusts":34.6,"aqi":136,"pm10":48.2,"pm2_5":46.6,"mosquito_risk":3,"arthritis_risk":5,"migraine_risk":4,"frizz_risk":1,"updated_at":"2026-03-03T04:01:39.287921+05:30"},{"city":"Vijayawada","state":"Andhra Pradesh","latitude":16.5062,"longitude":80.648,"temp":23.5,"humidity":86,"rain":0.0,"pressure":1003.9,"uv_index":8.4,"wind_gusts":24.5,"aqi":144,"pm10":53.3,"pm2_5":51.0,"mosquito_risk":3,"arthritis_risk":5,"migraine_risk":4,"frizz_risk":1,"updated_at":"2026-03-03T04:01:39.287927+05:30"},{"city":"Guntur","state":"Andhra Pradesh","latitude":16.3067,"longitude":80.4365,"temp":22.8,"humidity":89,"rain":0.0,"pressure":1005.1,"uv_index":8.45,"wind_gusts":27.4,"aqi":136,"pm10":48.1,"pm2_5":46.2,"mosquito_risk":3,"arthritis_risk":5,"migraine_risk":4,"frizz_risk":1,"updated_at":"2026-03-03T04:01:39.287934+05:30"},{"city":"Nellore","state":"Andhra Pradesh","latitude":14.4426,"longitude":79.9865,"temp":22.9,"humidity":85,"rain":0.0,"pressure":1007.1,"uv_index":8.65,"wind_gusts":29.5,"aqi":121,"pm10":41.8,"pm2_5":39.6,"mosquito_risk":3,"arthritis_risk":5,"migraine_risk":4,"frizz_risk":1,"updated_at":"2026-03-03T04:01:39.287941+05:30"},{"city":"Kurnool","state":"Andhra Pradesh","latitude":15.8281,"longitude":78.0373,"temp":25.5,"humidity":58,"rain":0.0,"pressure":977.6,"uv_index":8.45,"wind_gusts":29.2,"aqi":121,"pm10":46.0,"pm2_5":45.1,"mosquito_risk":4,"arthritis_risk":5,"migraine_risk":7,"frizz_risk":1,"updated_at":"2026-03-03T04:01:39.287948+05:30"},{"city":"Kakinada","state":"Andhra Pradesh","latitude":16.9891,"longitude":82.2475,"temp":22.5,"humidity":88,"rain":0.0,"pressure":1008.8,"uv_index":8.4,"wind_gusts":34.6,"aqi":132,"pm10":51.5,"pm2_5":48.4,"mosquito_risk":3,"arthritis_risk":0,"migraine_risk":4,"frizz_risk":1,"updated_at":"2026-03-03T04:01:39.287955+05:30"},{"city":"Tirupati","state":"Andhra Pradesh","latitude":13.6288,"longitude":79.4192,"temp":21.0,"humidity":70,"rain":0.0,"pressure":992.6,"uv_index":8.8,"wind_gusts":38.2,"aqi":150,"pm10":83.1,"pm2_5":81.0,"mosquito_risk":3,"arthritis_risk":5,"migraine_risk":7,"frizz_risk":0,"updated_at":"2026-03-03T04:01:39.287962+05:30"},{"city":"Warangal","state":"Telangana","latitude":17.9689,"longitude":79.5941,"temp":23.8,"humidity":71,"rain":0.0,"pressure":979.6,"uv_index":8.2,"wind_gusts":18.7,"aqi":149,"pm10":59.1,"pm2_5":58.4,"mosquito_risk":3,"arthritis_risk":5,"migraine_risk":7,"frizz_risk":1,"updated_at":"2026-03-03T04:01:39.287968+05:30"},{"city":"Nizamabad","state":"Telangana","latitude":18.6725,"longitude":78.0941,"temp":20.2,"humidity":74,"rain":0.0,"pressure":965.6,"uv_index":8.1,"wind_gusts":29.2,"aqi":97,"pm10":35.0,"pm2_5":34.1,"mosquito_risk":3,"arthritis_risk":5,"migraine_risk":7,"frizz_risk":0,"updated_at":"2026-03-03T04:01:39.287974+05:30"},{"city":"Mysore","state":"Karnataka","latitude":12.2958,"longitude":76.6396,"temp":20.9,"humidity":91,"rain":0.0,"pressure":928.0,"uv_index":9.15,"wind_gusts":33.8,"aqi":142,"pm10":49.4,"pm2_5":48.5,"mosquito_risk":3,"arthritis_risk":5,"migraine_risk":7,"frizz_risk":1,"updated_at":"2026-03-03T04:01:39.287981+05:30"},{"city":"Mangalore","state":"Karnataka","latitude":12.9141,"longitude":74.856,"temp":28.3,"humidity":76,"rain":0.0,"pressure":1006.8,"uv_index":8.75,"wind_gusts":29.5,"aqi":59,"pm10":22.2,"pm2_5":16.6,"mosquito_risk":7,"arthritis_risk":5,"migraine_risk":4,"frizz_risk":1,"updated_at":"2026-03-03T04:01:39.287987+05:30"},{"city":"Hubli-Dharwad","state":"Karnataka","latitude":15.3647,"longitude":75.124,"temp":20.9,"humidity":93,"rain":0.0,"pressure":940.5,"uv_index":8.6,"wind_gusts":28.4,"aqi":82,"pm10":24.9,"pm2_5":22.5,"mosquito_risk":3,"arthritis_risk":5,"migraine_risk":7,"frizz_risk":1,"updated_at":"2026-03-03T04:01:39.287994+05:30"},{"city":"Belgaum","state":"Karnataka","latitude":15.8497,"longitude":74.4977,"temp":20.0,"humidity":94,"rain":0.0,"pressure":925.2,"uv_index":8.65,"wind_gusts":33.1,"aqi":81,"pm10":29.0,"pm2_5":25.9,"mosquito_risk":3,"arthritis_risk":5,"migraine_risk":7,"frizz_risk":1,"updated_at":"2026-03-03T04:01:42.551801+05:30"},{"city":"Coimbatore","state":"Tamil Nadu","latitude":11.0168,"longitude":76.9558,"temp":21.9,"humidity":82,"rain":0.0,"pressure":961.8,"uv_index":9.15,"wind_gusts":43.2,"aqi":136,"pm10":51.7,"pm2_5":51.0,"mosquito_risk":3,"arthritis_risk":5,"migraine_risk":7,"frizz_risk":1,"updated_at":"2026-03-03T04:01:42.551831+05:30"},{"city":"Madurai","state":"Tamil Nadu","latitude":9.9252,"longitude":78.1198,"temp":23.0,"humidity":85,"rain":0.0,"pressure":993.8,"uv_index":9.1,"wind_gusts":34.9,"aqi":115,"pm10":55.1,"pm2_5":54.0,"mosquito_risk":3,"arthritis_risk":5,"migraine_risk":7,"frizz_risk":1,"updated_at":"2026-03-03T04:01:42.551841+05:30"},{"city":"Trichy","state":"Tamil Nadu","latitude":10.7905,"longitude":78.7047,"temp":21.5,"humidity":95,"rain":0.0,"pressure":1000.9,"uv_index":9.0,"wind_gusts":31.7,"aqi":132,"pm10":46.2,"pm2_5":43.8,"mosquito_risk":3,"arthritis_risk":5,"migraine_risk":4,"frizz_risk":1,"updated_at":"2026-03-03T04:01:42.551849+05:30"},{"city":"Salem","state":"Tamil Nadu","latitude":11.6643,"longitude":78.146,"temp":22.3,"humidity":80,"rain":0.0,"pressure":978.0,"uv_index":9.0,"wind_gusts":40.7,"aqi":137,"pm10":58.8,"pm2_5":57.9,"mosquito_risk":3,"arthritis_risk":5,"migraine_risk":7,"frizz_risk":1,"updated_at":"2026-03-03T04:01:42.551857+05:30"},{"city":"Tirunelveli","state":"Tamil Nadu","latitude":8.7139,"longitude":77.7567,"temp":22.2,"humidity":93,"rain":0.0,"pressure":1003.9,"uv_index":9.1,"wind_gusts":37.8,"aqi":121,"pm10":56.0,"pm2_5":54.7,"mosquito_risk":3,"arthritis_risk":5,"migraine_risk":4,"frizz_risk":1,"updated_at":"2026-03-03T04:01:42.551864+05:30"},{"city":"Vellore","state":"Tamil Nadu","latitude":12.9165,"longitude":79.1325,"temp":20.6,"humidity":85,"rain":0.0,"pressure":985.7,"uv_index":8.9,"wind_gusts":38.9,"aqi":151,"pm10":78.0,"pm2_5":76.1,"mosquito_risk":3,"arthritis_risk":5,"migraine_risk":7,"frizz_risk":1,"updated_at":"2026-03-03T04:01:42.551871+05:30"},{"city":"Erode","state":"Tamil Nadu","latitude":11.341,"longitude":77.7172,"temp":24.0,"humidity":82,"rain":0.0,"pressure":990.0,"uv_index":9.05,"wind_gusts":36.4,"aqi":120,"pm10":45.2,"pm2_5":43.9,"mosquito_risk":3,"arthritis_risk":5,"migraine_risk":7,"frizz_risk":1,"updated_at":"2026-03-03T04:01:42.551878+05:30"},{"city":"Kochi","state":"Kerala","latitude":9.9312,"longitude":76.2673,"temp":27.5,"humidity":81,"rain":0.0,"pressure":1008.6,"uv_index":9.0,"wind_gusts":33.8,"aqi":100,"pm10":44.6,"pm2_5":43.5,"mosquito_risk":7,"arthritis_risk":0,"migraine_risk":4,"frizz_risk":1,"updated_at":"2026-03-03T04:01:42.551885+05:30"},{"city":"Thiruvananthapuram","state":"Kerala","latitude":8.5241,"longitude":76.9366,"temp":27.5,"humidity":80,"rain":0.0,"pressure":1007.6,"uv_index":8.95,"wind_gusts":27.0,"aqi":73,"pm10":28.5,"pm2_5":26.3,"mosquito_risk":7,"arthritis_risk":5,"migraine_risk":4,"frizz_risk":1,"updated_at":"2026-03-03T04:01:42.551892+05:30"},{"city":"Kozhikode","state":"Kerala","latitude":11.2588,"longitude":75.7804,"temp":27.6,"humidity":80,"rain":0.0,"pressure":1007.9,"uv_index":8.8,"wind_gusts":36.0,"aqi":61,"pm10":23.2,"pm2_5":19.0,"mosquito_risk":7,"arthritis_risk":5,"migraine_risk":4,"frizz_risk":1,"updated_at":"2026-03-03T04:01:42.551899+05:30"},{"city":"Thrissur","state":"Kerala","latitude":10.5276,"longitude":76.2144,"temp":25.5,"humidity":92,"rain":0.0,"pressure":1007.0,"uv_index":8.95,"wind_gusts":38.9,"aqi":96,"pm10":48.5,"pm2_5":46.6,"mosquito_risk":7,"arthritis_risk":5,"migraine_risk":4,"frizz_risk":1,"updated_at":"2026-03-03T04:01:42.551907+05:30"},{"city":"Kannur","state":"Kerala","latitude":11.8745,"longitude":75.3704,"temp":26.7,"humidity":78,"rain":0.0,"pressure":1007.3,"uv_index":8.85,"wind_gusts":40.0,"aqi":59,"pm10":18.5,"pm2_5":15.9,"mosquito_risk":7,"arthritis_risk":5,"migraine_risk":4,"frizz_risk":1,"updated_at":"2026-03-03T04:01:42.551914+05:30"},{"city":"Patna","state":"Bihar","latitude":25.5941,"longitude":85.1376,"temp":18.0,"humidity":71,"rain":0.0,"pressure":1002.8,"uv_index":7.15,"wind_gusts":17.6,"aqi":119,"pm10":68.7,"pm2_5":55.9,"mosquito_risk":3,"arthritis_risk":5,"migraine_risk":4,"frizz_risk":0,"updated_at":"2026-03-03T04:01:42.551920+05:30"},{"city":"Gaya","state":"Bihar","latitude":24.7914,"longitude":85.0002,"temp":17.4,"humidity":54,"rain":0.0,"pressure":996.5,"uv_index":7.25,"wind_gusts":22.7,"aqi":99,"pm10":47.1,"pm2_5":32.0,"mosquito_risk":0,"arthritis_risk":5,"migraine_risk":7,"frizz_risk":0,"updated_at":"2026-03-03T04:01:42.551927+05:30"},{"city":"Muzaffarpur","state":"Bihar","latitude":26.1209,"longitude":85.3647,"temp":16.4,"humidity":73,"rain":0.0,"pressure":1002.8,"uv_index":7.1,"wind_gusts":14.0,"aqi":129,"pm10":94.3,"pm2_5":80.3,"mosquito_risk":3,"arthritis_risk":5,"migraine_risk":4,"frizz_risk":0,"updated_at":"2026-03-03T04:01:42.551934+05:30"},{"city":"Bhagalpur","state":"Bihar","latitude":25.2425,"longitude":87.0117,"temp":14.4,"humidity":89,"rain":0.0,"pressure":1003.6,"uv_index":7.15,"wind_gusts":11.5,"aqi":124,"pm10":68.7,"pm2_5":38.8,"mosquito_risk":3,"arthritis_risk":10,"migraine_risk":4,"frizz_risk":0,"updated_at":"2026-03-03T04:01:42.551940+05:30"},{"city":"Ranchi","state":"Jharkhand","latitude":23.3441,"longitude":85.3096,"temp":17.8,"humidity":38,"rain":0.0,"pressure":939.2,"uv_index":7.9,"wind_gusts":44.6,"aqi":70,"pm10":37.3,"pm2_5":18.4,"mosquito_risk":0,"arthritis_risk":5,"migraine_risk":7,"frizz_risk":0,"updated_at":"2026-03-03T04:01:42.551947+05:30"},{"city":"Jamshedpur","state":"Jharkhand","latitude":22.8046,"longitude":86.2029,"temp":17.1,"humidity":77,"rain":0.0,"pressure":993.5,"uv_index":7.75,"wind_gusts":13.7,"aqi":100,"pm10":64.5,"pm2_5":42.7,"mosquito_risk":3,"arthritis_risk":5,"migraine_risk":7,"frizz_risk":0,"updated_at":"2026-03-03T04:01:42.551953+05:30"},{"city":"Dhanbad","state":"Jharkhand","latitude":23.7957,"longitude":86.4304,"temp":17.4,"humidity":59,"rain":0.0,"pressure":982.2,"uv_index":7.65,"wind_gusts":28.8,"aqi":106,"pm10":65.0,"pm2_5":43.8,"mosquito_risk":0,"arthritis_risk":5,"migraine_risk":7,"frizz_risk":0,"updated_at":"2026-03-03T04:01:42.551959+05:30"},{"city":"Bokaro","state":"Jharkhand","latitude":23.6693,"longitude":86.1511,"temp":16.3,"humidity":64,"rain":0.0,"pressure":986.5,"uv_index":7.65,"wind_gusts":31.7,"aqi":109,"pm10":63.8,"pm2_5":47.5,"mosquito_risk":3,"arthritis_risk":5,"migraine_risk":7,"frizz_risk":0,"updated_at":"2026-03-03T04:01:42.551965+05:30"},{"city":"Bhubaneswar","state":"Odisha","latitude":20.2961,"longitude":85.8245,"temp":22.8,"humidity":95,"rain":0.0,"pressure":1004.3,"uv_index":8.1,"wind_gusts":24.5,"aqi":152,"pm10":78.2,"pm2_5":75.2,"mosquito_risk":3,"arthritis_risk":5,"migraine_risk":4,"frizz_risk":1,"updated_at":"2026-03-03T04:01:42.551971+05:30"},{"city":"Cuttack","state":"Odisha","latitude":20.4625,"longitude":85.8828,"temp":22.2,"humidity":91,"rain":0.0,"pressure":1006.4,"uv_index":8.1,"wind_gusts":24.8,"aqi":152,"pm10":78.2,"pm2_5":75.2,"mosquito_risk":3,"arthritis_risk":5,"migraine_risk":4,"frizz_risk":1,"updated_at":"2026-03-03T04:01:42.551978+05:30"},{"city":"Rourkela","state":"Odisha","latitude":22.2604,"longitude":84.8536,"temp":19.0,"humidity":60,"rain":0.0,"pressure":987.7,"uv_index":7.7,"wind_gusts":23.0,"aqi":79,"pm10":39.6,"pm2_5":26.1,"mosquito_risk":0,"arthritis_risk":5,"migraine_risk":7,"frizz_risk":0,"updated_at":"2026-03-03T04:01:42.551984+05:30"},{"city":"Raipur","state":"Chhattisgarh","latitude":21.2514,"longitude":81.6296,"temp":20.8,"humidity":57,"rain":0.0,"pressure":976.6,"uv_index":7.8,"wind_gusts":16.2,"aqi":99,"pm10":57.9,"pm2_5":52.2,"mosquito_risk":0,"arthritis_risk":5,"migraine_risk":7,"frizz_risk":0,"updated_at":"2026-03-03T04:01:42.551991+05:30"},{"city":"Bhilai","state":"Chhattisgarh","latitude":21.1938,"longitude":81.3509,"temp":20.0,"humidity":59,"rain":0.0,"pressure":976.9,"uv_index":7.8,"wind_gusts":14.8,"aqi":100,"pm10":48.9,"pm2_5":42.1,"mosquito_risk":0,"arthritis_risk":5,"migraine_risk":7,"frizz_risk":0,"updated_at":"2026-03-03T04:01:42.551997+05:30"},{"city":"Guwahati","state":"Assam","latitude":26.1158,"longitude":91.7086,"temp":20.2,"humidity":87,"rain":0.0,"pressure":1004.7,"uv_index":7.1,"wind_gusts":22.3,"aqi":153,"pm10":74.5,"pm2_5":63.3,"mosquito_risk":3,"arthritis_risk":5,"migraine_risk":4,"frizz_risk":1,"updated_at":"2026-03-03T04:01:42.552003+05:30"},{"city":"Agartala","state":"Tripura","latitude":23.8315,"longitude":91.2868,"temp":20.2,"humidity":95,"rain":0.0,"pressure":1008.0,"uv_index":7.45,"wind_gusts":19.8,"aqi":168,"pm10":134.1,"pm2_5":128.1,"mosquito_risk":3,"arthritis_risk":0,"migraine_risk":4,"frizz_risk":1,"updated_at":"2026-03-03T04:01:42.552010+05:30"},{"city":"Shillong","state":"Meghalaya","latitude":25.5788,"longitude":91.8933,"temp":6.0,"humidity":81,"rain":0.0,"pressure":852.8,"uv_index":7.45,"wind_gusts":28.1,"aqi":123,"pm10":57.2,"pm2_5":45.1,"mosquito_risk":3,"arthritis_risk":10,"migraine_risk":7,"frizz_risk":0,"updated_at":"2026-03-03T04:01:42.552016+05:30"},{"city":"Imphal","state":"Manipur","latitude":24.817,"longitude":93.9368,"temp":13.6,"humidity":82,"rain":0.0,"pressure":924.0,"uv_index":7.5,"wind_gusts":28.8,"aqi":154,"pm10":97.8,"pm2_5":79.4,"mosquito_risk":3,"arthritis_risk":10,"migraine_risk":7,"frizz_risk":0,"updated_at":"2026-03-03T04:01:42.552023+05:30"},{"city":"Aizawl","state":"Mizoram","latitude":23.7271,"longitude":92.7176,"temp":13.9,"humidity":94,"rain":0.0,"pressure":892.9,"uv_index":7.65,"wind_gusts":34.2,"aqi":158,"pm10":90.1,"pm2_5":85.4,"mosquito_risk":3,"arthritis_risk":10,"migraine_risk":7,"frizz_risk":0,"updated_at":"2026-03-03T04:01:42.552029+05:30"},{"city":"Kohima","state":"Nagaland","latitude":25.6701,"longitude":94.1077,"temp":11.1,"humidity":82,"rain":0.0,"pressure":854.1,"uv_index":7.15,"wind_gusts":45.0,"aqi":145,"pm10":69.8,"pm2_5":59.8,"mosquito_risk":3,"arthritis_risk":10,"migraine_risk":7,"frizz_risk":0,"updated_at":"2026-03-03T04:01:42.552036+05:30"},{"city":"Gangtok","state":"Sikkim","latitude":27.3314,"longitude":88.6138,"temp":10.4,"humidity":82,"rain":0.0,"pressure":835.5,"uv_index":7.4,"wind_gusts":19.1,"aqi":138,"pm10":82.0,"pm2_5":61.0,"mosquito_risk":3,"arthritis_risk":10,"migraine_risk":7,"frizz_risk":0,"updated_at":"2026-03-03T04:01:42.552042+05:30"},{"city":"Siliguri","state":"West Bengal","latitude":26.7271,"longitude":88.3953,"temp":17.9,"humidity":73,"rain":0.0,"pressure":996.5,"uv_index":7.1,"wind_gusts":18.4,"aqi":166,"pm10":134.6,"pm2_5":103.8,"mosquito_risk":3,"arthritis_risk":5,"migraine_risk":7,"frizz_risk":0,"updated_at":"2026-03-03T04:01:45.809209+05:30"},{"city":"Durgapur","state":"West Bengal","latitude":23.5204,"longitude":87.3119,"temp":20.8,"humidity":43,"rain":0.0,"pressure":997.6,"uv_index":7.65,"wind_gusts":28.1,"aqi":96,"pm10":48.4,"pm2_5":24.9,"mosquito_risk":0,"arthritis_risk":5,"migraine_risk":7,"frizz_risk":0,"updated_at":"2026-03-03T04:01:45.809241+05:30"},{"city":"Asansol","state":"West Bengal","latitude":23.6739,"longitude":86.9524,"temp":22.5,"humidity":39,"rain":0.0,"pressure":996.3,"uv_index":7.65,"wind_gusts":23.4,"aqi":87,"pm10":46.1,"pm2_5":25.2,"mosquito_risk":0,"arthritis_risk":5,"migraine_risk":7,"frizz_risk":0,"updated_at":"2026-03-03T04:01:45.809251+05:30"},{"city":"Pondicherry","state":"Puducherry","latitude":11.9139,"longitude":79.8145,"temp":21.6,"humidity":96,"rain":0.0,"pressure":1009.5,"uv_index":8.85,"wind_gusts":27.7,"aqi":114,"pm10":42.0,"pm2_5":37.5,"mosquito_risk":3,"arthritis_risk":0,"migraine_risk":4,"frizz_risk":1,"updated_at":"2026-03-03T04:01:45.809259+05:30"},{"city":"Port Blair","state":"Andaman and Nicobar Islands","latitude":11.6234,"longitude":92.7265,"temp":26.9,"humidity":76,"rain":0.0,"pressure":1007.2,"uv_index":8.8,"wind_gusts":16.2,"aqi":84,"pm10":37.3,"pm2_5":27.4,"mosquito_risk":7,"arthritis_risk":5,"migraine_risk":4,"frizz_risk":1,"updated_at":"2026-03-03T04:01:45.809267+05:30"},{"city":"Haridwar","state":"Uttarakhand","latitude":29.9457,"longitude":78.1642,"temp":14.1,"humidity":85,"rain":0.0,"pressure":975.5,"uv_index":5.55,"wind_gusts":24.5,"aqi":95,"pm10":48.9,"pm2_5":46.7,"mosquito_risk":3,"arthritis_risk":10,"migraine_risk":3,"frizz_risk":0,"updated_at":"2026-03-03T04:01:45.809274+05:30"},{"city":"Rishikesh","state":"Uttarakhand","latitude":30.0869,"longitude":78.2676,"temp":15.0,"humidity":75,"rain":0.0,"pressure":967.9,"uv_index":5.65,"wind_gusts":23.4,"aqi":74,"pm10":29.3,"pm2_5":29.0,"mosquito_risk":3,"arthritis_risk":5,"migraine_risk":3,"frizz_risk":0,"updated_at":"2026-03-03T04:01:45.809282+05:30"},{"city":"Nainital","state":"Uttarakhand","latitude":29.3919,"longitude":79.4542,"temp":14.5,"humidity":56,"rain":0.0,"pressure":804.1,"uv_index":6.45,"wind_gusts":54.4,"aqi":79,"pm10":34.5,"pm2_5":31.4,"mosquito_risk":0,"arthritis_risk":5,"migraine_risk":7,"frizz_risk":0,"updated_at":"2026-03-03T04:01:45.809289+05:30"},{"city":"Mussoorie","state":"Uttarakhand","latitude":30.4599,"longitude":78.0664,"temp":12.6,"humidity":59,"rain":0.0,"pressure":800.5,"uv_index":5.95,"wind_gusts":40.7,"aqi":78,"pm10":27.9,"pm2_5":27.6,"mosquito_risk":0,"arthritis_risk":5,"migraine_risk":3,"frizz_risk":0,"updated_at":"2026-03-03T04:01:45.809296+05:30"},{"city":"Dharamshala","state":"Himachal Pradesh","latitude":32.219,"longitude":76.3234,"temp":17.0,"humidity":32,"rain":0.0,"pressure":869.3,"uv_index":6.2,"wind_gusts":22.7,"aqi":53,"pm10":10.2,"pm2_5":6.7,"mosquito_risk":0,"arthritis_risk":5,"migraine_risk":7,"frizz_risk":0,"updated_at":"2026-03-03T04:01:45.809303+05:30"},{"city":"Dalhousie","state":"Himachal Pradesh","latitude":32.5387,"longitude":75.971,"temp":13.1,"humidity":23,"rain":0.0,"pressure":803.0,"uv_index":6.4,"wind_gusts":20.9,"aqi":97,"pm10":30.0,"pm2_5":27.6,"mosquito_risk":0,"arthritis_risk":5,"migraine_risk":7,"frizz_risk":1,"updated_at":"2026-03-03T04:01:45.809311+05:30"},{"city":"Patiala","state":"Punjab","latitude":30.3398,"longitude":76.3869,"temp":15.4,"humidity":80,"rain":0.0,"pressure":980.6,"uv_index":5.6,"wind_gusts":35.3,"aqi":157,"pm10":324.1,"pm2_5":71.0,"mosquito_risk":3,"arthritis_risk":5,"migraine_risk":3,"frizz_risk":0,"updated_at":"2026-03-03T04:01:45.809318+05:30"},{"city":"Bhatinda","state":"Punjab","latitude":30.211,"longitude":74.9455,"temp":15.6,"humidity":79,"rain":0.0,"pressure":986.7,"uv_index":6.3,"wind_gusts":28.8,"aqi":153,"pm10":69.6,"pm2_5":55.5,"mosquito_risk":3,"arthritis_risk":5,"migraine_risk":7,"frizz_risk":0,"updated_at":"2026-03-03T04:01:45.809324+05:30"},{"city":"Rohtak","state":"Haryana","latitude":28.8955,"longitude":76.6066,"temp":15.5,"humidity":80,"rain":0.0,"pressure":984.4,"uv_index":5.85,"wind_gusts":33.5,"aqi":289,"pm10":421.0,"pm2_5":83.8,"mosquito_risk":3,"arthritis_risk":5,"migraine_risk":3,"frizz_risk":0,"updated_at":"2026-03-03T04:01:45.809331+05:30"},{"city":"Panipat","state":"Haryana","latitude":29.3909,"longitude":76.9635,"temp":14.8,"humidity":84,"rain":0.0,"pressure":982.7,"uv_index":5.65,"wind_gusts":37.1,"aqi":763,"pm10":953.7,"pm2_5":136.0,"mosquito_risk":3,"arthritis_risk":10,"migraine_risk":3,"frizz_risk":0,"updated_at":"2026-03-03T04:01:45.809337+05:30"},{"city":"Mathura","state":"Uttar Pradesh","latitude":27.4924,"longitude":77.6737,"temp":19.4,"humidity":68,"rain":0.0,"pressure":989.8,"uv_index":6.1,"wind_gusts":28.8,"aqi":450,"pm10":514.1,"pm2_5":97.8,"mosquito_risk":3,"arthritis_risk":5,"migraine_risk":7,"frizz_risk":0,"updated_at":"2026-03-03T04:01:45.809344+05:30"},{"city":"Vrindavan","state":"Uttar Pradesh","latitude":27.5823,"longitude":77.7027,"temp":16.9,"humidity":81,"rain":0.0,"pressure":990.0,"uv_index":6.05,"wind_gusts":31.7,"aqi":450,"pm10":514.1,"pm2_5":97.8,"mosquito_risk":3,"arthritis_risk":10,"migraine_risk":7,"frizz_risk":0,"updated_at":"2026-03-03T04:01:45.809351+05:30"},{"city":"Ayodhya","state":"Uttar Pradesh","latitude":26.7922,"longitude":82.1998,"temp":16.8,"humidity":77,"rain":0.0,"pressure":997.4,"uv_index":6.45,"wind_gusts":30.6,"aqi":135,"pm10":201.6,"pm2_5":62.2,"mosquito_risk":3,"arthritis_risk":5,"migraine_risk":7,"frizz_risk":0,"updated_at":"2026-03-03T04:01:45.809357+05:30"},{"city":"Ratlam","state":"Madhya Pradesh","latitude":23.3315,"longitude":75.0367,"temp":17.9,"humidity":84,"rain":0.0,"pressure":956.3,"uv_index":7.3,"wind_gusts":10.1,"aqi":97,"pm10":38.2,"pm2_5":35.6,"mosquito_risk":3,"arthritis_risk":10,"migraine_risk":7,"frizz_risk":0,"updated_at":"2026-03-03T04:01:45.809363+05:30"},{"city":"Sagar","state":"Madhya Pradesh","latitude":23.8388,"longitude":78.7378,"temp":19.0,"humidity":60,"rain":0.0,"pressure":952.3,"uv_index":7.25,"wind_gusts":28.4,"aqi":65,"pm10":27.1,"pm2_5":20.3,"mosquito_risk":0,"arthritis_risk":5,"migraine_risk":7,"frizz_risk":0,"updated_at":"2026-03-03T04:01:45.809370+05:30"},{"city":"Satna","state":"Madhya Pradesh","latitude":24.6005,"longitude":80.8322,"temp":20.3,"humidity":45,"rain":0.0,"pressure":973.8,"uv_index":7.2,"wind_gusts":32.0,"aqi":63,"pm10":35.0,"pm2_5":21.1,"mosquito_risk":0,"arthritis_risk":5,"migraine_risk":7,"frizz_risk":0,"updated_at":"2026-03-03T04:01:45.809376+05:30"},{"city":"Akola","state":"Maharashtra","latitude":20.7002,"longitude":77.0082,"temp":22.6,"humidity":61,"rain":0.0,"pressure":976.9,"uv_index":7.8,"wind_gusts":21.2,"aqi":77,"pm10":27.2,"pm2_5":24.5,"mosquito_risk":3,"arthritis_risk":5,"migraine_risk":7,"frizz_risk":0,"updated_at":"2026-03-03T04:01:45.809383+05:30"},{"city":"Amravati","state":"Maharashtra","latitude":20.9374,"longitude":77.7796,"temp":21.2,"humidity":57,"rain":0.0,"pressure":969.2,"uv_index":7.75,"wind_gusts":17.3,"aqi":77,"pm10":25.4,"pm2_5":21.0,"mosquito_risk":0,"arthritis_risk":5,"migraine_risk":7,"frizz_risk":0,"updated_at":"2026-03-03T04:01:45.809391+05:30"},{"city":"Latur","state":"Maharashtra","latitude":18.4088,"longitude":76.5604,"temp":22.2,"humidity":54,"rain":0.0,"pressure":940.1,"uv_index":8.2,"wind_gusts":34.2,"aqi":81,"pm10":31.2,"pm2_5":30.6,"mosquito_risk":0,"arthritis_risk":5,"migraine_risk":7,"frizz_risk":0,"updated_at":"2026-03-03T04:01:45.809397+05:30"},{"city":"Nanded","state":"Maharashtra","latitude":19.1383,"longitude":77.3091,"temp":24.0,"humidity":59,"rain":0.0,"pressure":970.0,"uv_index":8.0,"wind_gusts":22.3,"aqi":93,"pm10":43.3,"pm2_5":42.6,"mosquito_risk":0,"arthritis_risk":5,"migraine_risk":7,"frizz_risk":0,"updated_at":"2026-03-03T04:01:45.809403+05:30"},{"city":"Gulbarga","state":"Karnataka","latitude":17.3297,"longitude":76.8343,"temp":23.8,"humidity":60,"rain":0.0,"pressure":959.3,"uv_index":8.3,"wind_gusts":22.3,"aqi":141,"pm10":44.4,"pm2_5":44.0,"mosquito_risk":0,"arthritis_risk":5,"migraine_risk":7,"frizz_risk":0,"updated_at":"2026-03-03T04:01:45.809409+05:30"},{"city":"Bidar","state":"Karnataka","latitude":17.9104,"longitude":77.5199,"temp":23.2,"humidity":66,"rain":0.0,"pressure":936.2,"uv_index":8.25,"wind_gusts":24.5,"aqi":131,"pm10":40.9,"pm2_5":40.3,"mosquito_risk":3,"arthritis_risk":5,"migraine_risk":7,"frizz_risk":1,"updated_at":"2026-03-03T04:01:45.809415+05:30"},{"city":"Hospet","state":"Karnataka","latitude":15.2689,"longitude":76.3909,"temp":25.2,"humidity":75,"rain":0.0,"pressure":956.0,"uv_index":8.6,"wind_gusts":27.4,"aqi":108,"pm10":41.1,"pm2_5":40.6,"mosquito_risk":7,"arthritis_risk":5,"migraine_risk":7,"frizz_risk":1,"updated_at":"2026-03-03T04:01:45.809421+05:30"},{"city":"Tirupur","state":"Tamil Nadu","latitude":11.1085,"longitude":77.3411,"temp":24.3,"humidity":74,"rain":0.0,"pressure":975.9,"uv_index":9.15,"wind_gusts":33.5,"aqi":138,"pm10":49.1,"pm2_5":48.5,"mosquito_risk":3,"arthritis_risk":5,"migraine_risk":7,"frizz_risk":1,"updated_at":"2026-03-03T04:01:45.809427+05:30"},{"city":"Alappuzha","state":"Kerala","latitude":9.4981,"longitude":76.3388,"temp":27.1,"humidity":82,"rain":0.0,"pressure":1008.6,"uv_index":8.95,"wind_gusts":30.2,"aqi":95,"pm10":36.6,"pm2_5":34.5,"mosquito_risk":7,"arthritis_risk":0,"migraine_risk":4,"frizz_risk":1,"updated_at":"2026-03-03T04:01:45.809434+05:30"},{"city":"Munnar","state":"Kerala","latitude":10.0889,"longitude":77.0595,"temp":17.4,"humidity":68,"rain":0.0,"pressure":854.8,"uv_index":9.45,"wind_gusts":22.7,"aqi":113,"pm10":39.7,"pm2_5":39.2,"mosquito_risk":3,"arthritis_risk":5,"migraine_risk":7,"frizz_risk":0,"updated_at":"2026-03-03T04:01:45.809441+05:30"},{"city":"Silchar","state":"Assam","latitude":24.8333,"longitude":92.7789,"temp":19.5,"humidity":91,"rain":0.0,"pressure":1008.3,"uv_index":7.4,"wind_gusts":20.2,"aqi":158,"pm10":90.3,"pm2_5":76.8,"mosquito_risk":3,"arthritis_risk":5,"migraine_risk":4,"frizz_risk":1,"updated_at":"2026-03-03T04:01:45.809448+05:30"},{"city":"Dibrugarh","state":"Assam","latitude":27.4728,"longitude":94.912,"temp":18.8,"humidity":90,"rain":0.0,"pressure":999.7,"uv_index":7.1,"wind_gusts":9.0,"aqi":155,"pm10":62.6,"pm2_5":53.1,"mosquito_risk":3,"arthritis_risk":10,"migraine_risk":7,"frizz_risk":1,"updated_at":"2026-03-03T04:01:45.809454+05:30"}]