[{"city":"Delhi","state":"Delhi","latitude":28.6139,"longitude":77.209,"temp":33.2,"humidity":30,"rain":0.0,"pressure":985.3,"uv_index":5.95,"wind_gusts":20.2,"aqi":175,"pm10":170.9,"pm2_5":47.3,"mosquito_risk":0,"arthritis_risk":5,"migraine_risk":3,"frizz_risk":0,"updated_at":"2026-03-07T16:53:12.940572+05:30"},{"city":"Mumbai","state":"Maharashtra","latitude":19.076,"longitude":72.8777,"temp":27.1,"humidity":80,"rain":0.0,"pressure":1007.5,"uv_index":7.5,"wind_gusts":24.8,"aqi":146,"pm10":38.5,"pm2_5":32.7,"mosquito_risk":7,"arthritis_risk":5,"migraine_risk":4,"frizz_risk":1,"updated_at":"2026-03-07T16:53:12.940615+05:30"},{"city":"Bangalore","state":"Karnataka","latitude":12.9716,"longitude":77.5946,"temp":31.9,"humidity":25,"rain":0.0,"pressure":911.4,"uv_index":9.2,"wind_gusts":24.8,"aqi":148,"pm10":33.5,"pm2_5":27.5,"mosquito_risk":0,"arthritis_risk":5,"migraine_risk":7,"frizz_risk":0,"updated_at":"2026-03-07T16:53:12.940630+05:30"},{"city":"Hyderabad","state":"Telangana","latitude":17.385,"longitude":78.4867,"temp":35.9,"humidity":18,"rain":0.0,"pressure":952.8,"uv_index":8.5,"wind_gusts":27.0,"aqi":133,"pm10":24.6,"pm2_5":16.9,"mosquito_risk":0,"arthritis_risk":5,"migraine_risk":10,"frizz_risk":0,"updated_at":"2026-03-07T16:53:12.940641+05:30"},{"city":"Chennai","state":"Tamil Nadu","latitude":13.0827,"longitude":80.2707,"temp":31.0,"humidity":58,"rain":0.0,"pressure":1006.9,"uv_index":8.9,"wind_gusts":34.6,"aqi":94,"pm10":31.9,"pm2_5":24.6,"mosquito_risk":0,"arthritis_risk":5,"migraine_risk":4,"frizz_risk":1,"updated_at":"2026-03-07T16:53:12.940668+05:30"},{"city":"Kolkata","state":"West Bengal","latitude":22.5726,"longitude":88.3639,"temp":27.9,"humidity":67,"rain":0.0,"pressure":1008.4,"uv_index":7.85,"wind_gusts":18.0,"aqi":142,"pm10":68.5,"pm2_5":51.9,"mosquito_risk":7,"arthritis_risk":0,"migraine_risk":4,"frizz_risk":1,"updated_at":"2026-03-07T16:53:12.940678+05:30"},{"city":"Pune","state":"Maharashtra","latitude":18.5204,"longitude":73.8567,"temp":37.3,"humidity":17,"rain":0.0,"pressure":947.9,"uv_index":8.05,"wind_gusts":24.8,"aqi":109,"pm10":17.3,"pm2_5":15.0,"mosquito_risk":0,"arthritis_risk":5,"migraine_risk":10,"frizz_risk":0,"updated_at":"2026-03-07T16:53:12.940690+05:30"},{"city":"Ahmedabad","state":"Gujarat","latitude":23.0225,"longitude":72.5714,"temp":36.9,"humidity":21,"rain":0.0,"pressure":1002.4,"uv_index":7.3,"wind_gusts":13.7,"aqi":105,"pm10":23.5,"pm2_5":17.4,"mosquito_risk":0,"arthritis_risk":5,"migraine_risk":7,"frizz_risk":0,"updated_at":"2026-03-07T16:53:12.940698+05:30"},{"city":"Jaipur","state":"Rajasthan","latitude":26.9124,"longitude":75.7873,"temp":36.5,"humidity":13,"rain":0.0,"pressure":961.9,"uv_index":6.75,"wind_gusts":20.2,"aqi":105,"pm10":49.1,"pm2_5":15.3,"mosquito_risk":0,"arthritis_risk":5,"migraine_risk":10,"frizz_risk":0,"updated_at":"2026-03-07T16:53:12.940705+05:30"},{"city":"Lucknow","state":"Uttar Pradesh","latitude":26.8467,"longitude":80.9462,"temp":31.6,"humidity":41,"rain":0.0,"pressure":996.0,"uv_index":6.5,"wind_gusts":16.9,"aqi":169,"pm10":101.0,"pm2_5":69.4,"mosquito_risk":0,"arthritis_risk":5,"migraine_risk":7,"frizz_risk":1,"updated_at":"2026-03-07T16:53:12.940713+05:30"},{"city":"Kanpur","state":"Uttar Pradesh","latitude":26.4499,"longitude":80.3319,"temp":31.1,"humidity":46,"rain":0.0,"pressure":994.3,"uv_index":6.5,"wind_gusts":14.4,"aqi":164,"pm10":120.6,"pm2_5":68.0,"mosquito_risk":0,"arthritis_risk":5,"migraine_risk":7,"frizz_risk":1,"updated_at":"2026-03-07T16:53:12.940720+05:30"},{"city":"Chandigarh","state":"Chandigarh","latitude":30.7333,"longitude":76.7794,"temp":30.7,"humidity":44,"rain":0.0,"pressure":971.4,"uv_index":5.9,"wind_gusts":19.1,"aqi":159,"pm10":77.8,"pm2_5":51.2,"mosquito_risk":0,"arthritis_risk":5,"migraine_risk":3,"frizz_risk":1,"updated_at":"2026-03-07T16:53:12.940728+05:30"},{"city":"Srinagar","state":"Jammu and Kashmir","latitude":34.0837,"longitude":74.7973,"temp":19.3,"humidity":46,"rain":0.0,"pressure":845.6,"uv_index":5.6,"wind_gusts":16.9,"aqi":109,"pm10":39.3,"pm2_5":23.3,"mosquito_risk":0,"arthritis_risk":5,"migraine_risk":3,"frizz_risk":0,"updated_at":"2026-03-07T16:53:12.940735+05:30"},{"city":"Jammu","state":"Jammu and Kashmir","latitude":32.7266,"longitude":74.857,"temp":28.1,"humidity":64,"rain":0.0,"pressure":975.8,"uv_index":5.35,"wind_gusts":11.5,"aqi":136,"pm10":52.4,"pm2_5":43.1,"mosquito_risk":7,"arthritis_risk":5,"migraine_risk":3,"frizz_risk":1,"updated_at":"2026-03-07T16:53:12.940742+05:30"},{"city":"Amritsar","state":"Punjab","latitude":31.634,"longitude":74.8723,"temp":31.1,"humidity":44,"rain":0.0,"pressure":983.3,"uv_index":6.3,"wind_gusts":18.7,"aqi":150,"pm10":66.6,"pm2_5":34.6,"mosquito_risk":0,"arthritis_risk":5,"migraine_risk":7,"frizz_risk":1,"updated_at":"2026-03-07T16:53:12.940750+05:30"},{"city":"Ludhiana","state":"Punjab","latitude":30.901,"longitude":75.8573,"temp":31.8,"humidity":40,"rain":0.0,"pressure":981.4,"uv_index":6.1,"wind_gusts":16.2,"aqi":168,"pm10":95.5,"pm2_5":48.4,"mosquito_risk":0,"arthritis_risk":5,"migraine_risk":7,"frizz_risk":1,"updated_at":"2026-03-07T16:53:12.940756+05:30"},{"city":"Jalandhar","state":"Punjab","latitude":31.326,"longitude":75.5762,"temp":31.6,"humidity":40,"rain":0.0,"pressure":982.5,"uv_index":6.3,"wind_gusts":18.4,"aqi":163,"pm10":89.4,"pm2_5":44.7,"mosquito_risk":0,"arthritis_risk":5,"migraine_risk":7,"frizz_risk":1,"updated_at":"2026-03-07T16:53:12.940765+05:30"},{"city":"Dehradun","state":"Uttarakhand","latitude":30.6284,"longitude":78.0322,"temp":20.7,"humidity":66,"rain":0.0,"pressure":834.1,"uv_index":6.2,"wind_gusts":27.0,"aqi":108,"pm10":59.8,"pm2_5":44.0,"mosquito_risk":3,"arthritis_risk":5,"migraine_risk":7,"frizz_risk":0,"updated_at":"2026-03-07T16:53:12.940772+05:30"},{"city":"Shimla","state":"Himachal Pradesh","latitude":31.1048,"longitude":77.1734,"temp":19.7,"humidity":61,"rain":0.0,"pressure":789.7,"uv_index":6.3,"wind_gusts":35.6,"aqi":127,"pm10":50.5,"pm2_5":39.2,"mosquito_risk":3,"arthritis_risk":5,"migraine_risk":7,"frizz_risk":0,"updated_at":"2026-03-07T16:53:12.940779+05:30"},{"city":"Manali","state":"Himachal Pradesh","latitude":32.2396,"longitude":77.1887,"temp":21.4,"humidity":36,"rain":0.0,"pressure":825.1,"uv_index":7.2,"wind_gusts":40.3,"aqi":92,"pm10":19.2,"pm2_5":8.9,"mosquito_risk":0,"arthritis_risk":5,"migraine_risk":7,"frizz_risk":0,"updated_at":"2026-03-07T16:53:12.940786+05:30"},{"city":"Gurgaon","state":"Haryana","latitude":28.4595,"longitude":77.0266,"temp":33.1,"humidity":29,"rain":0.0,"pressure":983.6,"uv_index":6.05,"wind_gusts":13.7,"aqi":200,"pm10":411.6,"pm2_5":62.6,"mosquito_risk":0,"arthritis_risk":5,"migraine_risk":7,"frizz_risk":0,"updated_at":"2026-03-07T16:53:12.940792+05:30"},{"city":"Noida","state":"Uttar Pradesh","latitude":28.5355,"longitude":77.391,"temp":33.7,"humidity":27,"rain":0.0,"pressure":986.7,"uv_index":5.95,"wind_gusts":19.1,"aqi":200,"pm10":411.6,"pm2_5":62.6,"mosquito_risk":0,"arthritis_risk":5,"migraine_risk":3,"frizz_risk":0,"updated_at":"2026-03-07T16:53:12.940798+05:30"},{"city":"Ghaziabad","state":"Uttar Pradesh","latitude":28.6692,"longitude":77.4538,"temp":32.8,"humidity":31,"rain":0.0,"pressure":984.9,"uv_index":5.95,"wind_gusts":17.6,"aqi":175,"pm10":146.2,"pm2_5":55.3,"mosquito_risk":0,"arthritis_risk":5,"migraine_risk":3,"frizz_risk":0,"updated_at":"2026-03-07T16:53:12.940805+05:30"},{"city":"Faridabad","state":"Haryana","latitude":28.4089,"longitude":77.3178,"temp":32.8,"humidity":32,"rain":0.0,"pressure":985.9,"uv_index":6.0,"wind_gusts":14.4,"aqi":200,"pm10":411.6,"pm2_5":62.6,"mosquito_risk":0,"arthritis_risk":5,"migraine_risk":3,"frizz_risk":0,"updated_at":"2026-03-07T16:53:12.940811+05:30"},{"city":"Meerut","state":"Uttar Pradesh","latitude":28.9845,"longitude":77.7064,"temp":32.1,"humidity":37,"rain":0.0,"pressure":983.7,"uv_index":5.8,"wind_gusts":20.2,"aqi":175,"pm10":146.2,"pm2_5":55.3,"mosquito_risk":0,"arthritis_risk":5,"migraine_risk":3,"frizz_risk":0,"updated_at":"2026-03-07T16:53:12.940818+05:30"},{"city":"Agra","state":"Uttar Pradesh","latitude":27.1767,"longitude":78.0081,"temp":34.6,"humidity":25,"rain":0.0,"pressure":989.7,"uv_index":6.3,"wind_gusts":15.8,"aqi":168,"pm10":226.8,"pm2_5":41.3,"mosquito_risk":0,"arthritis_risk":5,"migraine_risk":7,"frizz_risk":0,"updated_at":"2026-03-07T16:53:12.940825+05:30"},{"city":"Varanasi","state":"Uttar Pradesh","latitude":25.3176,"longitude":82.9739,"temp":31.0,"humidity":46,"rain":0.0,"pressure":999.7,"uv_index":7.15,"wind_gusts":16.9,"aqi":175,"pm10":87.5,"pm2_5":72.2,"mosquito_risk":0,"arthritis_risk":5,"migraine_risk":7,"frizz_risk":1,"updated_at":"2026-03-07T16:53:12.940836+05:30"},{"city":"Prayagraj","state":"Uttar Pradesh","latitude":25.4358,"longitude":81.8463,"temp":30.2,"humidity":50,"rain":0.0,"pressure":998.3,"uv_index":7.0,"wind_gusts":14.0,"aqi":172,"pm10":85.0,"pm2_5":65.4,"mosquito_risk":0,"arthritis_risk":5,"migraine_risk":7,"frizz_risk":1,"updated_at":"2026-03-07T16:53:12.940843+05:30"},{"city":"Gorakhpur","state":"Uttar Pradesh","latitude":26.7606,"longitude":83.3732,"temp":30.7,"humidity":48,"rain":0.0,"pressure":999.7,"uv_index":6.85,"wind_gusts":9.4,"aqi":171,"pm10":75.0,"pm2_5":63.6,"mosquito_risk":0,"arthritis_risk":5,"migraine_risk":7,"frizz_risk":1,"updated_at":"2026-03-07T16:53:12.940850+05:30"},{"city":"Bareilly","state":"Uttar Pradesh","latitude":28.367,"longitude":79.4304,"temp":31.0,"humidity":48,"rain":0.0,"pressure":989.3,"uv_index":6.15,"wind_gusts":10.1,"aqi":165,"pm10":114.6,"pm2_5":75.0,"mosquito_risk":0,"arthritis_risk":5,"migraine_risk":7,"frizz_risk":1,"updated_at":"2026-03-07T16:53:12.940856+05:30"},{"city":"Aligarh","state":"Uttar Pradesh","latitude":27.8974,"longitude":78.088,"temp":33.2,"humidity":33,"rain":0.0,"pressure":987.6,"uv_index":6.1,"wind_gusts":17.6,"aqi":178,"pm10":216.5,"pm2_5":52.3,"mosquito_risk":0,"arthritis_risk":5,"migraine_risk":7,"frizz_risk":0,"updated_at":"2026-03-07T16:53:12.940862+05:30"},{"city":"Moradabad","state":"Uttar Pradesh","latitude":28.8386,"longitude":78.7733,"temp":31.2,"humidity":46,"rain":0.0,"pressure":986.2,"uv_index":5.95,"wind_gusts":12.2,"aqi":167,"pm10":111.1,"pm2_5":71.7,"mosquito_risk":0,"arthritis_risk":5,"migraine_risk":3,"frizz_risk":1,"updated_at":"2026-03-07T16:53:12.940868+05:30"},{"city":"Saharanpur","state":"Uttar Pradesh","latitude":29.9637,"longitude":77.546,"temp":31.4,"humidity":41,"rain":0.0,"pressure":978.1,"uv_index":5.6,"wind_gusts":23.0,"aqi":171,"pm10":90.1,"pm2_5":57.4,"mosquito_risk":0,"arthritis_risk":5,"migraine_risk":3,"frizz_risk":1,"updated_at":"2026-03-07T16:53:12.940874+05:30"},{"city":"Jhansi","state":"Uttar Pradesh","latitude":25.4484,"longitude":78.5685,"temp":34.5,"humidity":18,"rain":0.0,"pressure":980.0,"uv_index":6.95,"wind_gusts":25.6,"aqi":116,"pm10":92.9,"pm2_5":28.1,"mosquito_risk":0,"arthritis_risk":5,"migraine_risk":7,"frizz_risk":0,"updated_at":"2026-03-07T16:53:16.165505+05:30"},{"city":"Surat","state":"Gujarat","latitude":21.1702,"longitude":72.8311,"temp":31.3,"humidity":47,"rain":0.0,"pressure":1006.8,"uv_index":7.2,"wind_gusts":24.5,"aqi":153,"pm10":65.0,"pm2_5":63.8,"mosquito_risk":0,"arthritis_risk":5,"migraine_risk":4,"frizz_risk":1,"updated_at":"2026-03-07T16:53:16.165534+05:30"},{"city":"Vadodara","state":"Gujarat","latitude":22.3072,"longitude":73.1812,"temp":36.2,"humidity":27,"rain":0.0,"pressure":1004.4,"uv_index":7.35,"wind_gusts":18.4,"aqi":158,"pm10":35.9,"pm2_5":34.0,"mosquito_risk":0,"arthritis_risk":5,"migraine_risk":7,"frizz_risk":0,"updated_at":"2026-03-07T16:53:16.165544+05:30"},{"city":"Rajkot","state":"Gujarat","latitude":22.3039,"longitude":70.8022,"temp":36.2,"humidity":25,"rain":0.0,"pressure":994.7,"uv_index":7.15,"wind_gusts":23.4,"aqi":68,"pm10":30.5,"pm2_5":18.9,"mosquito_risk":0,"arthritis_risk":5,"migraine_risk":10,"frizz_risk":0,"updated_at":"2026-03-07T16:53:16.165553+05:30"},{"city":"Thane","state":"Maharashtra","latitude":19.2183,"longitude":72.9781,"temp":29.6,"humidity":63,"rain":0.0,"pressure":1007.1,"uv_index":7.5,"wind_gusts":33.8,"aqi":146,"pm10":38.5,"pm2_5":32.7,"mosquito_risk":7,"arthritis_risk":5,"migraine_risk":4,"frizz_risk":1,"updated_at":"2026-03-07T16:53:16.165561+05:30"},{"city":"Nagpur","state":"Maharashtra","latitude":21.1458,"longitude":79.0882,"temp":36.4,"humidity":21,"rain":0.0,"pressure":972.8,"uv_index":7.85,"wind_gusts":21.2,"aqi":97,"pm10":30.0,"pm2_5":16.4,"mosquito_risk":0,"arthritis_risk":5,"migraine_risk":10,"frizz_risk":0,"updated_at":"2026-03-07T16:53:16.165568+05:30"},{"city":"Nashik","state":"Maharashtra","latitude":19.9975,"longitude":73.7898,"temp":35.5,"humidity":22,"rain":0.0,"pressure":945.6,"uv_index":7.65,"wind_gusts":34.2,"aqi":118,"pm10":15.8,"pm2_5":14.4,"mosquito_risk":0,"arthritis_risk":5,"migraine_risk":10,"frizz_risk":0,"updated_at":"2026-03-07T16:53:16.165576+05:30"},{"city":"Aurangabad","state":"Maharashtra","latitude":19.8762,"longitude":75.3433,"temp":36.7,"humidity":18,"rain":0.0,"pressure":943.9,"uv_index":8.2,"wind_gusts":22.7,"aqi":125,"pm10":19.0,"pm2_5":17.5,"mosquito_risk":0,"arthritis_risk":5,"migraine_risk":10,"frizz_risk":0,"updated_at":"2026-03-07T16:53:16.165582+05:30"},{"city":"Solapur","state":"Maharashtra","latitude":17.6599,"longitude":75.9064,"temp":36.2,"humidity":17,"rain":0.0,"pressure":956.4,"uv_index":8.4,"wind_gusts":19.8,"aqi":119,"pm10":18.5,"pm2_5":13.3,"mosquito_risk":0,"arthritis_risk":5,"migraine_risk":10,"frizz_risk":0,"updated_at":"2026-03-07T16:53:16.165590+05:30"},{"city":"Kolhapur","state":"Maharashtra","latitude":16.705,"longitude":74.2433,"temp":35.4,"humidity":19,"rain":0.0,"pressure":947.0,"uv_index":8.55,"wind_gusts":29.2,"aqi":151,"pm10":21.0,"pm2_5":17.1,"mosquito_risk":0,"arthritis_risk":5,"migraine_risk":10,"frizz_risk":0,"updated_at":"2026-03-07T16:53:16.165597+05:30"},{"city":"Goa","state":"Goa","latitude":15.2993,"longitude":74.124,"temp":29.7,"humidity":70,"rain":0.0,"pressure":996.8,"uv_index":8.6,"wind_gusts":31.7,"aqi":154,"pm10":48.0,"pm2_5":44.9,"mosquito_risk":7,"arthritis_risk":5,"migraine_risk":7,"frizz_risk":1,"updated_at":"2026-03-07T16:53:16.165604+05:30"},{"city":"Jodhpur","state":"Rajasthan","latitude":26.2389,"longitude":73.0243,"temp":36.3,"humidity":19,"rain":0.0,"pressure":984.5,"uv_index":7.0,"wind_gusts":20.2,"aqi":65,"pm10":45.6,"pm2_5":10.9,"mosquito_risk":0,"arthritis_risk":5,"migraine_risk":10,"frizz_risk":0,"updated_at":"2026-03-07T16:53:16.165611+05:30"},{"city":"Udaipur","state":"Rajasthan","latitude":24.5854,"longitude":73.7125,"temp":36.0,"humidity":18,"rain":0.0,"pressure":948.4,"uv_index":7.65,"wind_gusts":19.4,"aqi":68,"pm10":6.3,"pm2_5":5.4,"mosquito_risk":0,"arthritis_risk":5,"migraine_risk":10,"frizz_risk":0,"updated_at":"2026-03-07T16:53:16.165618+05:30"},{"city":"Kota","state":"Rajasthan","latitude":25.2138,"longitude":75.8648,"temp":36.4,"humidity":20,"rain":0.0,"pressure":980.2,"uv_index":7.05,"wind_gusts":14.8,"aqi":88,"pm10":23.7,"pm2_5":20.3,"mosquito_risk":0,"arthritis_risk":5,"migraine_risk":10,"frizz_risk":0,"updated_at":"2026-03-07T16:53:16.165625+05:30"},{"city":"Bikaner","state":"Rajasthan","latitude":28.0229,"longitude":73.3119,"temp":36.3,"humidity":17,"rain":0.0,"pressure":983.4,"uv_index":6.75,"wind_gusts":19.4,"aqi":63,"pm10":38.2,"pm2_5":13.1,"mosquito_risk":0,"arthritis_risk":5,"migraine_risk":10,"frizz_risk":0,"updated_at":"2026-03-07T16:53:16.165633+05:30"},{"city":"Ajmer","state":"Rajasthan","latitude":26.4499,"longitude":74.6399,"temp":35.3,"humidity":18,"rain":0.0,"pressure":956.8,"uv_index":7.0,"wind_gusts":16.9,"aqi":76,"pm10":12.5,"pm2_5":11.1,"mosquito_risk":0,"arthritis_risk":5,"migraine_risk":10,"frizz_risk":0,"updated_at":"2026-03-07T16:53:16.165639+05:30"},{"city":"Gwalior","state":"Madhya Pradesh","latitude":26.2183,"longitude":78.1828,"temp":32.5,"humidity":31,"rain":0.0,"pressure":985.4,"uv_index":6.65,"wind_gusts":20.5,"aqi":115,"pm10":76.8,"pm2_5":20.9,"mosquito_risk":0,"arthritis_risk":5,"migraine_risk":7,"frizz_risk":0,"updated_at":"2026-03-07T16:53:16.165664+05:30"},{"city":"Indore","state":"Madhya Pradesh","latitude":22.7196,"longitude":75.8577,"temp":34.6,"humidity":20,"rain":0.0,"pressure":949.4,"uv_index":7.6,"wind_gusts":18.0,"aqi":86,"pm10":17.7,"pm2_5":14.5,"mosquito_risk":0,"arthritis_risk":5,"migraine_risk":7,"frizz_risk":0,"updated_at":"2026-03-07T16:53:16.165671+05:30"},{"city":"Bhopal","state":"Madhya Pradesh","latitude":23.2599,"longitude":77.4126,"temp":34.1,"humidity":23,"rain":0.0,"pressure":955.1,"uv_index":7.5,"wind_gusts":20.9,"aqi":82,"pm10":28.9,"pm2_5":11.5,"mosquito_risk":0,"arthritis_risk":5,"migraine_risk":7,"frizz_risk":0,"updated_at":"2026-03-07T16:53:16.165678+05:30"},{"city":"Jabalpur","state":"Madhya Pradesh","latitude":23.1815,"longitude":79.9864,"temp":33.4,"humidity":24,"rain":0.0,"pressure":962.6,"uv_index":7.55,"wind_gusts":26.3,"aqi":91,"pm10":59.1,"pm2_5":25.1,"mosquito_risk":0,"arthritis_risk":5,"migraine_risk":7,"frizz_risk":0,"updated_at":"2026-03-07T16:53:16.165684+05:30"},{"city":"Ujjain","state":"Madhya Pradesh","latitude":23.1765,"longitude":75.7885,"temp":34.2,"humidity":24,"rain":0.0,"pressure":955.2,"uv_index":7.5,"wind_gusts":13.7,"aqi":93,"pm10":16.4,"pm2_5":14.6,"mosquito_risk":0,"arthritis_risk":5,"migraine_risk":7,"frizz_risk":0,"updated_at":"2026-03-07T16:53:16.165692+05:30"},{"city":"Visakhapatnam","state":"Andhra Pradesh","latitude":17.6868,"longitude":83.2185,"temp":28.9,"humidity":68,"rain":0.0,"pressure":1004.0,"uv_index":8.45,"wind_gusts":38.9,"aqi":138,"pm10":43.8,"pm2_5":37.0,"mosquito_risk":7,"arthritis_risk":5,"migraine_risk":4,"frizz_risk":1,"updated_at":"2026-03-07T16:53:16.165699+05:30"},{"city":"Vijayawada","state":"Andhra Pradesh","latitude":16.5062,"longitude":80.648,"temp":34.5,"humidity":43,"rain":0.0,"pressure":1001.5,"uv_index":8.6,"wind_gusts":30.6,"aqi":147,"pm10":47.5,"pm2_5":38.5,"mosquito_risk":0,"arthritis_risk":5,"migraine_risk":4,"frizz_risk":1,"updated_at":"2026-03-07T16:53:16.165706+05:30"},{"city":"Guntur","state":"Andhra Pradesh","latitude":16.3067,"longitude":80.4365,"temp":32.9,"humidity":50,"rain":0.0,"pressure":1003.0,"uv_index":8.6,"wind_gusts":32.4,"aqi":148,"pm10":43.4,"pm2_5":32.1,"mosquito_risk":0,"arthritis_risk":5,"migraine_risk":4,"frizz_risk":1,"updated_at":"2026-03-07T16:53:16.165712+05:30"},{"city":"Nellore","state":"Andhra Pradesh","latitude":14.4426,"longitude":79.9865,"temp":32.1,"humidity":51,"rain":0.0,"pressure":1005.1,"uv_index":8.75,"wind_gusts":33.8,"aqi":139,"pm10":43.9,"pm2_5":35.5,"mosquito_risk":0,"arthritis_risk":5,"migraine_risk":4,"frizz_risk":1,"updated_at":"2026-03-07T16:53:16.165719+05:30"},{"city":"Kurnool","state":"Andhra Pradesh","latitude":15.8281,"longitude":78.0373,"temp":37.9,"humidity":16,"rain":0.0,"pressure":975.4,"uv_index":8.6,"wind_gusts":24.8,"aqi":101,"pm10":30.6,"pm2_5":17.9,"mosquito_risk":0,"arthritis_risk":5,"migraine_risk":10,"frizz_risk":0,"updated_at":"2026-03-07T16:53:16.165726+05:30"},{"city":"Kakinada","state":"Andhra Pradesh","latitude":16.9891,"longitude":82.2475,"temp":30.7,"humidity":61,"rain":0.0,"pressure":1007.4,"uv_index":8.5,"wind_gusts":32.0,"aqi":106,"pm10":39.3,"pm2_5":31.3,"mosquito_risk":3,"arthritis_risk":5,"migraine_risk":4,"frizz_risk":1,"updated_at":"2026-03-07T16:53:16.165733+05:30"},{"city":"Tirupati","state":"Andhra Pradesh","latitude":13.6288,"longitude":79.4192,"temp":35.5,"humidity":26,"rain":0.0,"pressure":990.1,"uv_index":8.9,"wind_gusts":32.8,"aqi":148,"pm10":49.9,"pm2_5":41.0,"mosquito_risk":0,"arthritis_risk":5,"migraine_risk":10,"frizz_risk":0,"updated_at":"2026-03-07T16:53:16.165739+05:30"},{"city":"Warangal","state":"Telangana","latitude":17.9689,"longitude":79.5941,"temp":35.6,"humidity":21,"rain":0.0,"pressure":977.9,"uv_index":8.35,"wind_gusts":22.0,"aqi":127,"pm10":29.5,"pm2_5":20.0,"mosquito_risk":0,"arthritis_risk":5,"migraine_risk":10,"frizz_risk":0,"updated_at":"2026-03-07T16:53:16.165746+05:30"},{"city":"Nizamabad","state":"Telangana","latitude":18.6725,"longitude":78.0941,"temp":35.9,"humidity":18,"rain":0.0,"pressure":964.4,"uv_index":8.2,"wind_gusts":22.3,"aqi":116,"pm10":26.5,"pm2_5":17.1,"mosquito_risk":0,"arthritis_risk":5,"migraine_risk":10,"frizz_risk":0,"updated_at":"2026-03-07T16:53:16.165753+05:30"},{"city":"Mysore","state":"Karnataka","latitude":12.2958,"longitude":76.6396,"temp":32.7,"humidity":26,"rain":0.0,"pressure":927.6,"uv_index":9.2,"wind_gusts":34.6,"aqi":128,"pm10":33.2,"pm2_5":29.5,"mosquito_risk":0,"arthritis_risk":5,"migraine_risk":7,"frizz_risk":0,"updated_at":"2026-03-07T16:53:16.165760+05:30"},{"city":"Mangalore","state":"Karnataka","latitude":12.9141,"longitude":74.856,"temp":28.7,"humidity":79,"rain":0.0,"pressure":1005.1,"uv_index":8.8,"wind_gusts":26.6,"aqi":153,"pm10":50.4,"pm2_5":46.6,"mosquito_risk":7,"arthritis_risk":5,"migraine_risk":4,"frizz_risk":1,"updated_at":"2026-03-07T16:53:16.165767+05:30"},{"city":"Hubli-Dharwad","state":"Karnataka","latitude":15.3647,"longitude":75.124,"temp":35.6,"humidity":16,"rain":0.0,"pressure":939.9,"uv_index":8.8,"wind_gusts":26.3,"aqi":163,"pm10":26.1,"pm2_5":21.8,"mosquito_risk":0,"arthritis_risk":5,"migraine_risk":10,"frizz_risk":0,"updated_at":"2026-03-07T16:53:16.165774+05:30"},{"city":"Belgaum","state":"Karnataka","latitude":15.8497,"longitude":74.4977,"temp":34.6,"humidity":18,"rain":0.0,"pressure":925.3,"uv_index":8.8,"wind_gusts":41.0,"aqi":163,"pm10":22.7,"pm2_5":19.1,"mosquito_risk":0,"arthritis_risk":5,"migraine_risk":7,"frizz_risk":0,"updated_at":"2026-03-07T16:53:19.388725+05:30"},{"city":"Coimbatore","state":"Tamil Nadu","latitude":11.0168,"longitude":76.9558,"temp":33.8,"humidity":32,"rain":0.0,"pressure":960.3,"uv_index":9.2,"wind_gusts":37.8,"aqi":142,"pm10":32.0,"pm2_5":28.8,"mosquito_risk":0,"arthritis_risk":5,"migraine_risk":7,"frizz_risk":0,"updated_at":"2026-03-07T16:53:19.388757+05:30"},{"city":"Madurai","state":"Tamil Nadu","latitude":9.9252,"longitude":78.1198,"temp":36.7,"humidity":23,"rain":0.0,"pressure":990.8,"uv_index":9.15,"wind_gusts":31.7,"aqi":134,"pm10":33.2,"pm2_5":28.3,"mosquito_risk":0,"arthritis_risk":5,"migraine_risk":10,"frizz_risk":0,"updated_at":"2026-03-07T16:53:19.388768+05:30"},{"city":"Trichy","state":"Tamil Nadu","latitude":10.7905,"longitude":78.7047,"temp":36.3,"humidity":26,"rain":0.0,"pressure":997.9,"uv_index":9.05,"wind_gusts":27.0,"aqi":94,"pm10":34.6,"pm2_5":28.7,"mosquito_risk":0,"arthritis_risk":5,"migraine_risk":10,"frizz_risk":0,"updated_at":"2026-03-07T16:53:19.388776+05:30"},{"city":"Salem","state":"Tamil Nadu","latitude":11.6643,"longitude":78.146,"temp":35.8,"humidity":29,"rain":0.0,"pressure":975.4,"uv_index":9.1,"wind_gusts":20.2,"aqi":143,"pm10":34.9,"pm2_5":29.6,"mosquito_risk":0,"arthritis_risk":5,"migraine_risk":10,"frizz_risk":0,"updated_at":"2026-03-07T16:53:19.388783+05:30"},{"city":"Tirunelveli","state":"Tamil Nadu","latitude":8.7139,"longitude":77.7567,"temp":33.6,"humidity":42,"rain":0.0,"pressure":1001.6,"uv_index":9.15,"wind_gusts":50.0,"aqi":112,"pm10":34.3,"pm2_5":29.6,"mosquito_risk":0,"arthritis_risk":5,"migraine_risk":4,"frizz_risk":1,"updated_at":"2026-03-07T16:53:19.388791+05:30"},{"city":"Vellore","state":"Tamil Nadu","latitude":12.9165,"longitude":79.1325,"temp":34.9,"humidity":25,"rain":0.0,"pressure":983.4,"uv_index":9.0,"wind_gusts":35.3,"aqi":151,"pm10":45.3,"pm2_5":36.9,"mosquito_risk":0,"arthritis_risk":5,"migraine_risk":7,"frizz_risk":0,"updated_at":"2026-03-07T16:53:19.388798+05:30"},{"city":"Erode","state":"Tamil Nadu","latitude":11.341,"longitude":77.7172,"temp":36.7,"humidity":29,"rain":0.0,"pressure":986.7,"uv_index":9.1,"wind_gusts":24.5,"aqi":129,"pm10":34.7,"pm2_5":31.0,"mosquito_risk":0,"arthritis_risk":5,"migraine_risk":10,"frizz_risk":0,"updated_at":"2026-03-07T16:53:19.388805+05:30"},{"city":"Kochi","state":"Kerala","latitude":9.9312,"longitude":76.2673,"temp":28.0,"humidity":82,"rain":0.0,"pressure":1007.7,"uv_index":8.6,"wind_gusts":30.6,"aqi":134,"pm10":33.8,"pm2_5":31.9,"mosquito_risk":7,"arthritis_risk":5,"migraine_risk":4,"frizz_risk":1,"updated_at":"2026-03-07T16:53:19.388813+05:30"},{"city":"Thiruvananthapuram","state":"Kerala","latitude":8.5241,"longitude":76.9366,"temp":28.2,"humidity":81,"rain":0.0,"pressure":1006.9,"uv_index":9.0,"wind_gusts":33.8,"aqi":105,"pm10":30.6,"pm2_5":27.6,"mosquito_risk":7,"arthritis_risk":5,"migraine_risk":4,"frizz_risk":1,"updated_at":"2026-03-07T16:53:19.388820+05:30"},{"city":"Kozhikode","state":"Kerala","latitude":11.2588,"longitude":75.7804,"temp":29.2,"humidity":78,"rain":0.0,"pressure":1006.7,"uv_index":8.9,"wind_gusts":27.4,"aqi":143,"pm10":41.2,"pm2_5":38.2,"mosquito_risk":7,"arthritis_risk":5,"migraine_risk":4,"frizz_risk":1,"updated_at":"2026-03-07T16:53:19.388827+05:30"},{"city":"Thrissur","state":"Kerala","latitude":10.5276,"longitude":76.2144,"temp":30.3,"humidity":71,"rain":0.0,"pressure":1005.8,"uv_index":8.95,"wind_gusts":31.3,"aqi":129,"pm10":36.4,"pm2_5":34.6,"mosquito_risk":3,"arthritis_risk":5,"migraine_risk":4,"frizz_risk":1,"updated_at":"2026-03-07T16:53:19.388835+05:30"},{"city":"Kannur","state":"Kerala","latitude":11.8745,"longitude":75.3704,"temp":29.8,"humidity":69,"rain":0.0,"pressure":1006.0,"uv_index":8.9,"wind_gusts":32.0,"aqi":151,"pm10":49.4,"pm2_5":45.6,"mosquito_risk":7,"arthritis_risk":5,"migraine_risk":4,"frizz_risk":1,"updated_at":"2026-03-07T16:53:19.388842+05:30"},{"city":"Patna","state":"Bihar","latitude":25.5941,"longitude":85.1376,"temp":31.4,"humidity":42,"rain":0.0,"pressure":1002.7,"uv_index":7.3,"wind_gusts":20.2,"aqi":159,"pm10":78.2,"pm2_5":69.2,"mosquito_risk":0,"arthritis_risk":5,"migraine_risk":4,"frizz_risk":1,"updated_at":"2026-03-07T16:53:19.388850+05:30"},{"city":"Gaya","state":"Bihar","latitude":24.7914,"longitude":85.0002,"temp":28.8,"humidity":59,"rain":0.0,"pressure":995.7,"uv_index":7.4,"wind_gusts":25.2,"aqi":153,"pm10":68.7,"pm2_5":59.8,"mosquito_risk":4,"arthritis_risk":5,"migraine_risk":7,"frizz_risk":1,"updated_at":"2026-03-07T16:53:19.388857+05:30"},{"city":"Muzaffarpur","state":"Bihar","latitude":26.1209,"longitude":85.3647,"temp":31.3,"humidity":41,"rain":0.0,"pressure":1002.7,"uv_index":7.25,"wind_gusts":17.6,"aqi":168,"pm10":79.9,"pm2_5":71.0,"mosquito_risk":0,"arthritis_risk":5,"migraine_risk":4,"frizz_risk":1,"updated_at":"2026-03-07T16:53:19.388864+05:30"},{"city":"Bhagalpur","state":"Bihar","latitude":25.2425,"longitude":87.0117,"temp":29.3,"humidity":56,"rain":0.0,"pressure":1003.6,"uv_index":7.3,"wind_gusts":14.8,"aqi":163,"pm10":74.0,"pm2_5":61.7,"mosquito_risk":4,"arthritis_risk":5,"migraine_risk":4,"frizz_risk":1,"updated_at":"2026-03-07T16:53:19.388870+05:30"},{"city":"Ranchi","state":"Jharkhand","latitude":23.3441,"longitude":85.3096,"temp":28.8,"humidity":36,"rain":0.0,"pressure":939.3,"uv_index":8.05,"wind_gusts":28.8,"aqi":152,"pm10":100.8,"pm2_5":68.0,"mosquito_risk":4,"arthritis_risk":5,"migraine_risk":7,"frizz_risk":0,"updated_at":"2026-03-07T16:53:19.388877+05:30"},{"city":"Jamshedpur","state":"Jharkhand","latitude":22.8046,"longitude":86.2029,"temp":32.3,"humidity":37,"rain":0.0,"pressure":991.8,"uv_index":7.95,"wind_gusts":27.4,"aqi":146,"pm10":94.3,"pm2_5":64.3,"mosquito_risk":0,"arthritis_risk":5,"migraine_risk":7,"frizz_risk":0,"updated_at":"2026-03-07T16:53:19.388883+05:30"},{"city":"Dhanbad","state":"Jharkhand","latitude":23.7957,"longitude":86.4304,"temp":31.9,"humidity":33,"rain":0.0,"pressure":981.4,"uv_index":7.8,"wind_gusts":26.3,"aqi":165,"pm10":95.9,"pm2_5":74.3,"mosquito_risk":0,"arthritis_risk":5,"migraine_risk":7,"frizz_risk":0,"updated_at":"2026-03-07T16:53:19.388890+05:30"},{"city":"Bokaro","state":"Jharkhand","latitude":23.6693,"longitude":86.1511,"temp":31.1,"humidity":33,"rain":0.0,"pressure":985.3,"uv_index":7.8,"wind_gusts":25.9,"aqi":168,"pm10":101.7,"pm2_5":78.0,"mosquito_risk":0,"arthritis_risk":5,"migraine_risk":7,"frizz_risk":0,"updated_at":"2026-03-07T16:53:19.388897+05:30"},{"city":"Bhubaneswar","state":"Odisha","latitude":20.2961,"longitude":85.8245,"temp":30.4,"humidity":60,"rain":0.0,"pressure":1003.6,"uv_index":8.25,"wind_gusts":32.4,"aqi":150,"pm10":55.5,"pm2_5":46.8,"mosquito_risk":0,"arthritis_risk":5,"migraine_risk":4,"frizz_risk":1,"updated_at":"2026-03-07T16:53:19.388903+05:30"},{"city":"Cuttack","state":"Odisha","latitude":20.4625,"longitude":85.8828,"temp":31.4,"humidity":51,"rain":0.0,"pressure":1005.3,"uv_index":8.25,"wind_gusts":29.9,"aqi":150,"pm10":55.5,"pm2_5":46.8,"mosquito_risk":0,"arthritis_risk":5,"migraine_risk":4,"frizz_risk":1,"updated_at":"2026-03-07T16:53:19.388910+05:30"},{"city":"Rourkela","state":"Odisha","latitude":22.2604,"longitude":84.8536,"temp":33.7,"humidity":28,"rain":0.0,"pressure":985.4,"uv_index":7.85,"wind_gusts":20.2,"aqi":172,"pm10":103.1,"pm2_5":65.4,"mosquito_risk":0,"arthritis_risk":5,"migraine_risk":7,"frizz_risk":0,"updated_at":"2026-03-07T16:53:19.388916+05:30"},{"city":"Raipur","state":"Chhattisgarh","latitude":21.2514,"longitude":81.6296,"temp":35.1,"humidity":28,"rain":0.0,"pressure":974.3,"uv_index":7.95,"wind_gusts":22.3,"aqi":152,"pm10":75.9,"pm2_5":34.9,"mosquito_risk":0,"arthritis_risk":5,"migraine_risk":10,"frizz_risk":0,"updated_at":"2026-03-07T16:53:19.388923+05:30"},{"city":"Bhilai","state":"Chhattisgarh","latitude":21.1938,"longitude":81.3509,"temp":36.4,"humidity":23,"rain":0.0,"pressure":974.5,"uv_index":7.95,"wind_gusts":18.4,"aqi":131,"pm10":68.5,"pm2_5":31.0,"mosquito_risk":0,"arthritis_risk":5,"migraine_risk":10,"frizz_risk":0,"updated_at":"2026-03-07T16:53:19.388929+05:30"},{"city":"Guwahati","state":"Assam","latitude":26.1158,"longitude":91.7086,"temp":30.1,"humidity":53,"rain":0.0,"pressure":1002.7,"uv_index":7.3,"wind_gusts":20.2,"aqi":146,"pm10":63.8,"pm2_5":54.9,"mosquito_risk":0,"arthritis_risk":5,"migraine_risk":4,"frizz_risk":1,"updated_at":"2026-03-07T16:53:19.388936+05:30"},{"city":"Agartala","state":"Tripura","latitude":23.8315,"longitude":91.2868,"temp":29.5,"humidity":49,"rain":0.0,"pressure":1008.1,"uv_index":7.6,"wind_gusts":19.1,"aqi":152,"pm10":64.0,"pm2_5":49.6,"mosquito_risk":4,"arthritis_risk":0,"migraine_risk":4,"frizz_risk":1,"updated_at":"2026-03-07T16:53:19.388942+05:30"},{"city":"Shillong","state":"Meghalaya","latitude":25.5788,"longitude":91.8933,"temp":18.2,"humidity":53,"rain":0.0,"pressure":858.8,"uv_index":7.45,"wind_gusts":42.1,"aqi":112,"pm10":45.6,"pm2_5":37.5,"mosquito_risk":0,"arthritis_risk":5,"migraine_risk":7,"frizz_risk":0,"updated_at":"2026-03-07T16:53:19.388949+05:30"},{"city":"Imphal","state":"Manipur","latitude":24.817,"longitude":93.9368,"temp":23.3,"humidity":53,"rain":0.0,"pressure":925.1,"uv_index":7.85,"wind_gusts":40.3,"aqi":184,"pm10":68.0,"pm2_5":60.8,"mosquito_risk":0,"arthritis_risk":5,"migraine_risk":7,"frizz_risk":0,"updated_at":"2026-03-07T16:53:19.388955+05:30"},{"city":"Aizawl","state":"Mizoram","latitude":23.7271,"longitude":92.7176,"temp":24.6,"humidity":43,"rain":0.0,"pressure":895.0,"uv_index":7.8,"wind_gusts":31.0,"aqi":176,"pm10":78.0,"pm2_5":70.3,"mosquito_risk":0,"arthritis_risk":5,"migraine_risk":7,"frizz_risk":0,"updated_at":"2026-03-07T16:53:19.388961+05:30"},{"city":"Kohima","state":"Nagaland","latitude":25.6701,"longitude":94.1077,"temp":17.4,"humidity":78,"rain":0.0,"pressure":857.0,"uv_index":7.7,"wind_gusts":51.1,"aqi":157,"pm10":54.5,"pm2_5":48.2,"mosquito_risk":3,"arthritis_risk":5,"migraine_risk":7,"frizz_risk":0,"updated_at":"2026-03-07T16:53:19.388968+05:30"},{"city":"Gangtok","state":"Sikkim","latitude":27.3314,"longitude":88.6138,"temp":15.1,"humidity":84,"rain":0.0,"pressure":840.1,"uv_index":7.25,"wind_gusts":17.6,"aqi":154,"pm10":60.5,"pm2_5":52.3,"mosquito_risk":3,"arthritis_risk":10,"migraine_risk":7,"frizz_risk":0,"updated_at":"2026-03-07T16:53:19.388975+05:30"},{"city":"Siliguri","state":"West Bengal","latitude":26.7271,"longitude":88.3953,"temp":24.9,"humidity":60,"rain":0.0,"pressure":996.8,"uv_index":7.25,"wind_gusts":15.8,"aqi":153,"pm10":64.0,"pm2_5":53.2,"mosquito_risk":0,"arthritis_risk":5,"migraine_risk":7,"frizz_risk":1,"updated_at":"2026-03-07T16:53:22.626317+05:30"},{"city":"Durgapur","state":"West Bengal","latitude":23.5204,"longitude":87.3119,"temp":31.7,"humidity":39,"rain":0.0,"pressure":996.7,"uv_index":7.8,"wind_gusts":22.7,"aqi":160,"pm10":94.3,"pm2_5":75.9,"mosquito_risk":0,"arthritis_risk":5,"migraine_risk":7,"frizz_risk":1,"updated_at":"2026-03-07T16:53:22.626351+05:30"},{"city":"Asansol","state":"West Bengal","latitude":23.6739,"longitude":86.9524,"temp":31.8,"humidity":39,"rain":0.0,"pressure":995.1,"uv_index":7.8,"wind_gusts":19.1,"aqi":159,"pm10":91.0,"pm2_5":71.7,"mosquito_risk":0,"arthritis_risk":5,"migraine_risk":7,"frizz_risk":1,"updated_at":"2026-03-07T16:53:22.626364+05:30"},{"city":"Pondicherry","state":"Puducherry","latitude":11.9139,"longitude":79.8145,"temp":32.1,"humidity":55,"rain":0.0,"pressure":1007.7,"uv_index":8.9,"wind_gusts":33.1,"aqi":85,"pm10":27.6,"pm2_5":19.7,"mosquito_risk":0,"arthritis_risk":5,"migraine_risk":4,"frizz_risk":1,"updated_at":"2026-03-07T16:53:22.626374+05:30"},{"city":"Port Blair","state":"Andaman and Nicobar Islands","latitude":11.6234,"longitude":92.7265,"temp":28.1,"humidity":68,"rain":0.0,"pressure":1007.9,"uv_index":8.85,"wind_gusts":16.6,"aqi":94,"pm10":52.9,"pm2_5":35.3,"mosquito_risk":7,"arthritis_risk":5,"migraine_risk":4,"frizz_risk":1,"updated_at":"2026-03-07T16:53:22.626382+05:30"},{"city":"Haridwar","state":"Uttarakhand","latitude":29.9457,"longitude":78.1642,"temp":31.0,"humidity":48,"rain":0.0,"pressure":976.9,"uv_index":5.75,"wind_gusts":21.6,"aqi":162,"pm10":87.1,"pm2_5":59.8,"mosquito_risk":0,"arthritis_risk":5,"migraine_risk":3,"frizz_risk":1,"updated_at":"2026-03-07T16:53:22.626389+05:30"},{"city":"Rishikesh","state":"Uttarakhand","latitude":30.0869,"longitude":78.2676,"temp":29.7,"humidity":52,"rain":0.0,"pressure":969.9,"uv_index":5.8,"wind_gusts":23.8,"aqi":160,"pm10":92.2,"pm2_5":65.0,"mosquito_risk":4,"arthritis_risk":5,"migraine_risk":3,"frizz_risk":1,"updated_at":"2026-03-07T16:53:22.626396+05:30"},{"city":"Nainital","state":"Uttarakhand","latitude":29.3919,"longitude":79.4542,"temp":21.8,"humidity":59,"rain":0.0,"pressure":810.0,"uv_index":6.6,"wind_gusts":54.4,"aqi":159,"pm10":101.7,"pm2_5":70.3,"mosquito_risk":0,"arthritis_risk":5,"migraine_risk":7,"frizz_risk":0,"updated_at":"2026-03-07T16:53:22.626404+05:30"},{"city":"Mussoorie","state":"Uttarakhand","latitude":30.4599,"longitude":78.0664,"temp":20.6,"humidity":66,"rain":0.0,"pressure":806.8,"uv_index":6.1,"wind_gusts":41.8,"aqi":160,"pm10":97.3,"pm2_5":68.9,"mosquito_risk":3,"arthritis_risk":5,"migraine_risk":7,"frizz_risk":0,"updated_at":"2026-03-07T16:53:22.626412+05:30"},{"city":"Dharamshala","state":"Himachal Pradesh","latitude":32.219,"longitude":76.3234,"temp":24.9,"humidity":62,"rain":0.0,"pressure":873.3,"uv_index":6.1,"wind_gusts":21.6,"aqi":59,"pm10":25.1,"pm2_5":12.1,"mosquito_risk":3,"arthritis_risk":5,"migraine_risk":7,"frizz_risk":1,"updated_at":"2026-03-07T16:53:22.626419+05:30"},{"city":"Dalhousie","state":"Himachal Pradesh","latitude":32.5387,"longitude":75.971,"temp":22.3,"humidity":57,"rain":0.0,"pressure":808.3,"uv_index":6.55,"wind_gusts":17.3,"aqi":102,"pm10":38.0,"pm2_5":24.0,"mosquito_risk":0,"arthritis_risk":5,"migraine_risk":7,"frizz_risk":0,"updated_at":"2026-03-07T16:53:22.626427+05:30"},{"city":"Patiala","state":"Punjab","latitude":30.3398,"longitude":76.3869,"temp":31.6,"humidity":41,"rain":0.0,"pressure":980.7,"uv_index":5.8,"wind_gusts":16.9,"aqi":170,"pm10":148.1,"pm2_5":50.9,"mosquito_risk":0,"arthritis_risk":5,"migraine_risk":3,"frizz_risk":1,"updated_at":"2026-03-07T16:53:22.626435+05:30"},{"city":"Bhatinda","state":"Punjab","latitude":30.211,"longitude":74.9455,"temp":33.5,"humidity":30,"rain":0.0,"pressure":985.8,"uv_index":6.45,"wind_gusts":20.5,"aqi":133,"pm10":134.1,"pm2_5":40.4,"mosquito_risk":0,"arthritis_risk":5,"migraine_risk":7,"frizz_risk":0,"updated_at":"2026-03-07T16:53:22.626442+05:30"},{"city":"Rohtak","state":"Haryana","latitude":28.8955,"longitude":76.6066,"temp":32.8,"humidity":32,"rain":0.0,"pressure":984.0,"uv_index":5.95,"wind_gusts":13.3,"aqi":171,"pm10":189.1,"pm2_5":39.3,"mosquito_risk":0,"arthritis_risk":5,"migraine_risk":3,"frizz_risk":0,"updated_at":"2026-03-07T16:53:22.626448+05:30"},{"city":"Panipat","state":"Haryana","latitude":29.3909,"longitude":76.9635,"temp":32.4,"humidity":36,"rain":0.0,"pressure":982.7,"uv_index":5.75,"wind_gusts":18.7,"aqi":191,"pm10":204.9,"pm2_5":47.5,"mosquito_risk":0,"arthritis_risk":5,"migraine_risk":3,"frizz_risk":0,"updated_at":"2026-03-07T16:53:22.626455+05:30"},{"city":"Mathura","state":"Uttar Pradesh","latitude":27.4924,"longitude":77.6737,"temp":34.3,"humidity":23,"rain":0.0,"pressure":988.8,"uv_index":6.2,"wind_gusts":17.3,"aqi":169,"pm10":153.7,"pm2_5":37.0,"mosquito_risk":0,"arthritis_risk":5,"migraine_risk":7,"frizz_risk":0,"updated_at":"2026-03-07T16:53:22.626461+05:30"},{"city":"Vrindavan","state":"Uttar Pradesh","latitude":27.5823,"longitude":77.7027,"temp":33.8,"humidity":26,"rain":0.0,"pressure":989.3,"uv_index":6.2,"wind_gusts":18.0,"aqi":169,"pm10":153.7,"pm2_5":37.0,"mosquito_risk":0,"arthritis_risk":5,"migraine_risk":7,"frizz_risk":0,"updated_at":"2026-03-07T16:53:22.626468+05:30"},{"city":"Ayodhya","state":"Uttar Pradesh","latitude":26.7922,"longitude":82.1998,"temp":30.8,"humidity":48,"rain":0.0,"pressure":997.8,"uv_index":6.65,"wind_gusts":18.4,"aqi":173,"pm10":83.4,"pm2_5":64.7,"mosquito_risk":0,"arthritis_risk":5,"migraine_risk":7,"frizz_risk":1,"updated_at":"2026-03-07T16:53:22.626474+05:30"},{"city":"Ratlam","state":"Madhya Pradesh","latitude":23.3315,"longitude":75.0367,"temp":34.4,"humidity":24,"rain":0.0,"pressure":955.9,"uv_index":7.45,"wind_gusts":13.7,"aqi":83,"pm10":13.6,"pm2_5":12.2,"mosquito_risk":0,"arthritis_risk":5,"migraine_risk":7,"frizz_risk":0,"updated_at":"2026-03-07T16:53:22.626481+05:30"},{"city":"Sagar","state":"Madhya Pradesh","latitude":23.8388,"longitude":78.7378,"temp":33.0,"humidity":28,"rain":0.0,"pressure":951.7,"uv_index":7.4,"wind_gusts":22.7,"aqi":90,"pm10":43.5,"pm2_5":14.6,"mosquito_risk":0,"arthritis_risk":5,"migraine_risk":7,"frizz_risk":0,"updated_at":"2026-03-07T16:53:22.626487+05:30"},{"city":"Satna","state":"Madhya Pradesh","latitude":24.6005,"longitude":80.8322,"temp":32.9,"humidity":35,"rain":0.0,"pressure":972.9,"uv_index":7.4,"wind_gusts":21.2,"aqi":152,"pm10":89.2,"pm2_5":53.4,"mosquito_risk":0,"arthritis_risk":5,"migraine_risk":7,"frizz_risk":0,"updated_at":"2026-03-07T16:53:22.626494+05:30"},{"city":"Akola","state":"Maharashtra","latitude":20.7002,"longitude":77.0082,"temp":37.6,"humidity":21,"rain":0.0,"pressure":974.5,"uv_index":7.9,"wind_gusts":18.0,"aqi":109,"pm10":27.0,"pm2_5":19.8,"mosquito_risk":0,"arthritis_risk":5,"migraine_risk":10,"frizz_risk":0,"updated_at":"2026-03-07T16:53:22.626501+05:30"},{"city":"Amravati","state":"Maharashtra","latitude":20.9374,"longitude":77.7796,"temp":37.3,"humidity":18,"rain":0.0,"pressure":966.8,"uv_index":7.85,"wind_gusts":13.3,"aqi":103,"pm10":26.8,"pm2_5":17.3,"mosquito_risk":0,"arthritis_risk":5,"migraine_risk":10,"frizz_risk":0,"updated_at":"2026-03-07T16:53:22.626509+05:30"},{"city":"Latur","state":"Maharashtra","latitude":18.4088,"longitude":76.5604,"temp":35.0,"humidity":17,"rain":0.0,"pressure":939.9,"uv_index":8.35,"wind_gusts":28.4,"aqi":122,"pm10":22.8,"pm2_5":17.6,"mosquito_risk":0,"arthritis_risk":5,"migraine_risk":7,"frizz_risk":0,"updated_at":"2026-03-07T16:53:22.626516+05:30"},{"city":"Nanded","state":"Maharashtra","latitude":19.1383,"longitude":77.3091,"temp":37.7,"humidity":17,"rain":0.0,"pressure":967.9,"uv_index":8.1,"wind_gusts":19.8,"aqi":110,"pm10":24.7,"pm2_5":15.3,"mosquito_risk":0,"arthritis_risk":5,"migraine_risk":10,"frizz_risk":0,"updated_at":"2026-03-07T16:53:22.626523+05:30"},{"city":"Gulbarga","state":"Karnataka","latitude":17.3297,"longitude":76.8343,"temp":37.7,"humidity":14,"rain":0.0,"pressure":957.7,"uv_index":8.45,"wind_gusts":21.2,"aqi":111,"pm10":19.8,"pm2_5":14.5,"mosquito_risk":0,"arthritis_risk":5,"migraine_risk":10,"frizz_risk":0,"updated_at":"2026-03-07T16:53:22.626529+05:30"},{"city":"Bidar","state":"Karnataka","latitude":17.9104,"longitude":77.5199,"temp":35.9,"humidity":18,"rain":0.0,"pressure":935.4,"uv_index":8.4,"wind_gusts":20.9,"aqi":113,"pm10":23.1,"pm2_5":16.2,"mosquito_risk":0,"arthritis_risk":5,"migraine_risk":10,"frizz_risk":0,"updated_at":"2026-03-07T16:53:22.626535+05:30"},{"city":"Hospet","state":"Karnataka","latitude":15.2689,"longitude":76.3909,"temp":35.9,"humidity":20,"rain":0.0,"pressure":954.9,"uv_index":8.75,"wind_gusts":19.4,"aqi":160,"pm10":28.0,"pm2_5":22.8,"mosquito_risk":0,"arthritis_risk":5,"migraine_risk":10,"frizz_risk":0,"updated_at":"2026-03-07T16:53:22.626542+05:30"},{"city":"Tirupur","state":"Tamil Nadu","latitude":11.1085,"longitude":77.3411,"temp":36.2,"humidity":24,"rain":0.0,"pressure":973.5,"uv_index":9.2,"wind_gusts":30.6,"aqi":142,"pm10":36.1,"pm2_5":32.6,"mosquito_risk":0,"arthritis_risk":5,"migraine_risk":10,"frizz_risk":0,"updated_at":"2026-03-07T16:53:22.626548+05:30"},{"city":"Alappuzha","state":"Kerala","latitude":9.4981,"longitude":76.3388,"temp":28.0,"humidity":82,"rain":0.0,"pressure":1007.8,"uv_index":9.0,"wind_gusts":28.1,"aqi":127,"pm10":31.1,"pm2_5":28.9,"mosquito_risk":7,"arthritis_risk":5,"migraine_risk":4,"frizz_risk":1,"updated_at":"2026-03-07T16:53:22.626555+05:30"},{"city":"Munnar","state":"Kerala","latitude":10.0889,"longitude":77.0595,"temp":25.1,"humidity":69,"rain":0.0,"pressure":857.4,"uv_index":9.5,"wind_gusts":37.4,"aqi":96,"pm10":30.5,"pm2_5":27.6,"mosquito_risk":7,"arthritis_risk":5,"migraine_risk":7,"frizz_risk":1,"updated_at":"2026-03-07T16:53:22.626562+05:30"},{"city":"Silchar","state":"Assam","latitude":24.8333,"longitude":92.7789,"temp":30.9,"humidity":46,"rain":0.0,"pressure":1005.8,"uv_index":7.55,"wind_gusts":21.2,"aqi":163,"pm10":56.0,"pm2_5":51.6,"mosquito_risk":0,"arthritis_risk":5,"migraine_risk":4,"frizz_risk":1,"updated_at":"2026-03-07T16:53:22.626570+05:30"},{"city":"Dibrugarh","state":"Assam","latitude":27.4728,"longitude":94.912,"temp":28.6,"humidity":58,"rain":0.0,"pressure":997.0,"uv_index":7.3,"wind_gusts":14.8,"aqi":145,"pm10":88.5,"pm2_5":75.4,"mosquito_risk":4,"arthritis_risk":5,"migraine_risk":7,"frizz_risk":1,"updated_at":"2026-03-07T16:53:22.626576+05:30"}]