[{"city":"Delhi","state":"Delhi","latitude":28.6139,"longitude":77.209,"temp":33.8,"humidity":50,"rain":0.0,"pressure":980.4,"uv_index":7.75,"wind_gusts":25.9,"aqi":280,"pm10":215.1,"pm2_5":70.8,"no2":11.4,"co":468.0,"o3":211.0,"so2":29.2,"mosquito_risk":0,"arthritis_risk":5,"migraine_risk":7,"frizz_risk":1,"updated_at":"2026-06-13T13:52:17.823574+05:30"},{"city":"Mumbai","state":"Maharashtra","latitude":19.076,"longitude":72.8777,"temp":32.9,"humidity":58,"rain":0.0,"pressure":1007.6,"uv_index":7.45,"wind_gusts":50.4,"aqi":80,"pm10":58.7,"pm2_5":26.5,"no2":3.0,"co":137.0,"o3":81.0,"so2":3.9,"mosquito_risk":0,"arthritis_risk":5,"migraine_risk":4,"frizz_risk":1,"updated_at":"2026-06-13T13:52:17.823620+05:30"},{"city":"Bangalore","state":"Karnataka","latitude":12.9716,"longitude":77.5946,"temp":25.9,"humidity":66,"rain":0.0,"pressure":912.4,"uv_index":8.7,"wind_gusts":36.4,"aqi":40,"pm10":20.3,"pm2_5":10.9,"no2":2.8,"co":248.0,"o3":85.0,"so2":2.6,"mosquito_risk":7,"arthritis_risk":5,"migraine_risk":7,"frizz_risk":1,"updated_at":"2026-06-13T13:52:17.823637+05:30"},{"city":"Hyderabad","state":"Telangana","latitude":17.385,"longitude":78.4867,"temp":35.3,"humidity":45,"rain":0.0,"pressure":951.7,"uv_index":5.85,"wind_gusts":40.7,"aqi":79,"pm10":52.6,"pm2_5":24.1,"no2":1.4,"co":197.0,"o3":111.0,"so2":2.6,"mosquito_risk":0,"arthritis_risk":5,"migraine_risk":6,"frizz_risk":1,"updated_at":"2026-06-13T13:52:17.823647+05:30"},{"city":"Chennai","state":"Tamil Nadu","latitude":13.0827,"longitude":80.2707,"temp":32.1,"humidity":55,"rain":0.0,"pressure":1005.5,"uv_index":5.65,"wind_gusts":31.7,"aqi":61,"pm10":23.4,"pm2_5":17.2,"no2":5.2,"co":247.0,"o3":138.0,"so2":11.5,"mosquito_risk":0,"arthritis_risk":5,"migraine_risk":0,"frizz_risk":1,"updated_at":"2026-06-13T13:52:17.823655+05:30"},{"city":"Kolkata","state":"West Bengal","latitude":22.5726,"longitude":88.3639,"temp":30.1,"humidity":81,"rain":0.1,"pressure":1001.9,"uv_index":8.9,"wind_gusts":34.9,"aqi":138,"pm10":46.1,"pm2_5":32.0,"no2":1.6,"co":375.0,"o3":155.0,"so2":8.0,"mosquito_risk":6,"arthritis_risk":5,"migraine_risk":4,"frizz_risk":1,"updated_at":"2026-06-13T13:52:17.823663+05:30"},{"city":"Pune","state":"Maharashtra","latitude":18.5204,"longitude":73.8567,"temp":34.4,"humidity":37,"rain":0.0,"pressure":947.6,"uv_index":8.15,"wind_gusts":49.3,"aqi":68,"pm10":48.2,"pm2_5":18.9,"no2":1.4,"co":122.0,"o3":98.0,"so2":4.0,"mosquito_risk":0,"arthritis_risk":5,"migraine_risk":7,"frizz_risk":1,"updated_at":"2026-06-13T13:52:17.823670+05:30"},{"city":"Ahmedabad","state":"Gujarat","latitude":23.0225,"longitude":72.5714,"temp":39.1,"humidity":32,"rain":0.0,"pressure":998.2,"uv_index":8.05,"wind_gusts":42.1,"aqi":72,"pm10":64.5,"pm2_5":25.3,"no2":1.2,"co":127.0,"o3":93.0,"so2":3.4,"mosquito_risk":0,"arthritis_risk":5,"migraine_risk":10,"frizz_risk":1,"updated_at":"2026-06-13T13:52:17.823676+05:30"},{"city":"Jaipur","state":"Rajasthan","latitude":26.9124,"longitude":75.7873,"temp":37.0,"humidity":40,"rain":0.0,"pressure":957.1,"uv_index":8.2,"wind_gusts":61.9,"aqi":119,"pm10":159.3,"pm2_5":41.0,"no2":0.9,"co":162.0,"o3":120.0,"so2":4.5,"mosquito_risk":0,"arthritis_risk":5,"migraine_risk":10,"frizz_risk":1,"updated_at":"2026-06-13T13:52:17.823686+05:30"},{"city":"Lucknow","state":"Uttar Pradesh","latitude":26.8467,"longitude":80.9462,"temp":34.5,"humidity":54,"rain":0.0,"pressure":989.9,"uv_index":8.25,"wind_gusts":32.4,"aqi":138,"pm10":127.6,"pm2_5":60.3,"no2":1.4,"co":321.0,"o3":189.0,"so2":10.8,"mosquito_risk":0,"arthritis_risk":5,"migraine_risk":7,"frizz_risk":1,"updated_at":"2026-06-13T13:52:17.823693+05:30"},{"city":"Kanpur","state":"Uttar Pradesh","latitude":26.4499,"longitude":80.3319,"temp":36.5,"humidity":50,"rain":0.0,"pressure":988.1,"uv_index":8.3,"wind_gusts":52.2,"aqi":154,"pm10":168.1,"pm2_5":64.3,"no2":1.7,"co":278.0,"o3":193.0,"so2":12.1,"mosquito_risk":0,"arthritis_risk":5,"migraine_risk":10,"frizz_risk":1,"updated_at":"2026-06-13T13:52:17.823699+05:30"},{"city":"Chandigarh","state":"Chandigarh","latitude":30.7333,"longitude":76.7794,"temp":30.9,"humidity":63,"rain":0.1,"pressure":968.0,"uv_index":7.75,"wind_gusts":45.4,"aqi":97,"pm10":50.9,"pm2_5":25.0,"no2":1.9,"co":249.0,"o3":178.0,"so2":7.7,"mosquito_risk":6,"arthritis_risk":5,"migraine_risk":7,"frizz_risk":1,"updated_at":"2026-06-13T13:52:17.823705+05:30"},{"city":"Srinagar","state":"Jammu and Kashmir","latitude":34.0837,"longitude":74.7973,"temp":20.9,"humidity":64,"rain":0.0,"pressure":843.5,"uv_index":6.8,"wind_gusts":30.2,"aqi":78,"pm10":16.3,"pm2_5":9.6,"no2":1.2,"co":236.0,"o3":151.0,"so2":2.1,"mosquito_risk":3,"arthritis_risk":5,"migraine_risk":7,"frizz_risk":0,"updated_at":"2026-06-13T13:52:17.823712+05:30"},{"city":"Jammu","state":"Jammu and Kashmir","latitude":32.7266,"longitude":74.857,"temp":29.9,"humidity":48,"rain":0.0,"pressure":972.3,"uv_index":7.95,"wind_gusts":38.2,"aqi":91,"pm10":76.1,"pm2_5":33.3,"no2":1.3,"co":268.0,"o3":175.0,"so2":3.0,"mosquito_risk":4,"arthritis_risk":5,"migraine_risk":7,"frizz_risk":1,"updated_at":"2026-06-13T13:52:17.823721+05:30"},{"city":"Amritsar","state":"Punjab","latitude":31.634,"longitude":74.8723,"temp":27.3,"humidity":68,"rain":0.0,"pressure":980.3,"uv_index":8.45,"wind_gusts":51.5,"aqi":162,"pm10":177.9,"pm2_5":43.9,"no2":1.1,"co":219.0,"o3":149.0,"so2":5.7,"mosquito_risk":7,"arthritis_risk":5,"migraine_risk":7,"frizz_risk":1,"updated_at":"2026-06-13T13:52:17.823728+05:30"},{"city":"Ludhiana","state":"Punjab","latitude":30.901,"longitude":75.8573,"temp":30.4,"humidity":61,"rain":0.0,"pressure":977.5,"uv_index":8.05,"wind_gusts":42.1,"aqi":248,"pm10":105.0,"pm2_5":36.8,"no2":1.5,"co":262.0,"o3":163.0,"so2":7.8,"mosquito_risk":3,"arthritis_risk":5,"migraine_risk":7,"frizz_risk":1,"updated_at":"2026-06-13T13:52:17.823734+05:30"},{"city":"Jalandhar","state":"Punjab","latitude":31.326,"longitude":75.5762,"temp":28.6,"humidity":65,"rain":0.0,"pressure":979.0,"uv_index":8.2,"wind_gusts":49.7,"aqi":151,"pm10":112.5,"pm2_5":36.7,"no2":1.3,"co":246.0,"o3":162.0,"so2":8.0,"mosquito_risk":7,"arthritis_risk":5,"migraine_risk":7,"frizz_risk":1,"updated_at":"2026-06-13T13:52:17.823741+05:30"},{"city":"Dehradun","state":"Uttarakhand","latitude":30.6284,"longitude":78.0322,"temp":22.5,"humidity":53,"rain":0.0,"pressure":832.2,"uv_index":7.7,"wind_gusts":36.7,"aqi":61,"pm10":32.2,"pm2_5":14.9,"no2":0.3,"co":176.0,"o3":143.0,"so2":1.4,"mosquito_risk":0,"arthritis_risk":5,"migraine_risk":7,"frizz_risk":0,"updated_at":"2026-06-13T13:52:17.823748+05:30"},{"city":"Shimla","state":"Himachal Pradesh","latitude":31.1048,"longitude":77.1734,"temp":20.3,"humidity":67,"rain":0.1,"pressure":787.7,"uv_index":7.35,"wind_gusts":36.4,"aqi":83,"pm10":42.7,"pm2_5":23.5,"no2":1.2,"co":357.0,"o3":164.0,"so2":5.7,"mosquito_risk":6,"arthritis_risk":5,"migraine_risk":7,"frizz_risk":0,"updated_at":"2026-06-13T13:52:17.823757+05:30"},{"city":"Manali","state":"Himachal Pradesh","latitude":32.2396,"longitude":77.1887,"temp":20.1,"humidity":65,"rain":0.1,"pressure":820.4,"uv_index":4.85,"wind_gusts":35.3,"aqi":111,"pm10":10.0,"pm2_5":7.5,"no2":1.3,"co":150.0,"o3":169.0,"so2":0.4,"mosquito_risk":6,"arthritis_risk":5,"migraine_risk":3,"frizz_risk":0,"updated_at":"2026-06-13T13:52:17.823763+05:30"},{"city":"Gurgaon","state":"Haryana","latitude":28.4595,"longitude":77.0266,"temp":35.4,"humidity":39,"rain":0.0,"pressure":978.6,"uv_index":7.85,"wind_gusts":27.7,"aqi":1414,"pm10":434.9,"pm2_5":99.2,"no2":12.2,"co":400.0,"o3":200.0,"so2":25.9,"mosquito_risk":0,"arthritis_risk":5,"migraine_risk":10,"frizz_risk":1,"updated_at":"2026-06-13T13:52:17.823772+05:30"},{"city":"Noida","state":"Uttar Pradesh","latitude":28.5355,"longitude":77.391,"temp":35.5,"humidity":45,"rain":0.0,"pressure":981.8,"uv_index":7.8,"wind_gusts":27.4,"aqi":1414,"pm10":434.9,"pm2_5":99.2,"no2":12.2,"co":337.0,"o3":200.0,"so2":25.9,"mosquito_risk":0,"arthritis_risk":5,"migraine_risk":10,"frizz_risk":1,"updated_at":"2026-06-13T13:52:17.823779+05:30"},{"city":"Ghaziabad","state":"Uttar Pradesh","latitude":28.6692,"longitude":77.4538,"temp":35.0,"humidity":48,"rain":0.0,"pressure":980.1,"uv_index":7.8,"wind_gusts":29.5,"aqi":151,"pm10":191.9,"pm2_5":63.8,"no2":5.8,"co":263.0,"o3":190.0,"so2":20.1,"mosquito_risk":0,"arthritis_risk":5,"migraine_risk":7,"frizz_risk":1,"updated_at":"2026-06-13T13:52:17.823785+05:30"},{"city":"Faridabad","state":"Haryana","latitude":28.4089,"longitude":77.3178,"temp":34.9,"humidity":43,"rain":0.0,"pressure":981.1,"uv_index":7.8,"wind_gusts":29.2,"aqi":1414,"pm10":434.9,"pm2_5":99.2,"no2":12.2,"co":315.0,"o3":200.0,"so2":25.9,"mosquito_risk":0,"arthritis_risk":5,"migraine_risk":7,"frizz_risk":1,"updated_at":"2026-06-13T13:52:17.823792+05:30"},{"city":"Meerut","state":"Uttar Pradesh","latitude":28.9845,"longitude":77.7064,"temp":34.0,"humidity":55,"rain":0.0,"pressure":979.0,"uv_index":7.7,"wind_gusts":29.9,"aqi":151,"pm10":191.9,"pm2_5":63.8,"no2":5.8,"co":258.0,"o3":190.0,"so2":20.1,"mosquito_risk":0,"arthritis_risk":5,"migraine_risk":7,"frizz_risk":1,"updated_at":"2026-06-13T13:52:17.823798+05:30"},{"city":"Agra","state":"Uttar Pradesh","latitude":27.1767,"longitude":78.0081,"temp":36.5,"humidity":42,"rain":0.0,"pressure":984.4,"uv_index":8.1,"wind_gusts":23.8,"aqi":557,"pm10":357.6,"pm2_5":85.2,"no2":1.3,"co":252.0,"o3":180.0,"so2":10.0,"mosquito_risk":0,"arthritis_risk":5,"migraine_risk":10,"frizz_risk":1,"updated_at":"2026-06-13T13:52:17.823805+05:30"},{"city":"Varanasi","state":"Uttar Pradesh","latitude":25.3176,"longitude":82.9739,"temp":37.3,"humidity":44,"rain":0.0,"pressure":993.2,"uv_index":7.75,"wind_gusts":31.3,"aqi":158,"pm10":94.3,"pm2_5":64.0,"no2":1.4,"co":404.0,"o3":195.0,"so2":13.5,"mosquito_risk":0,"arthritis_risk":5,"migraine_risk":10,"frizz_risk":1,"updated_at":"2026-06-13T13:52:17.823811+05:30"},{"city":"Prayagraj","state":"Uttar Pradesh","latitude":25.4358,"longitude":81.8463,"temp":36.4,"humidity":47,"rain":0.0,"pressure":992.3,"uv_index":8.75,"wind_gusts":37.8,"aqi":158,"pm10":101.5,"pm2_5":66.4,"no2":1.6,"co":417.0,"o3":201.0,"so2":13.3,"mosquito_risk":0,"arthritis_risk":5,"migraine_risk":10,"frizz_risk":1,"updated_at":"2026-06-13T13:52:17.823818+05:30"},{"city":"Gorakhpur","state":"Uttar Pradesh","latitude":26.7606,"longitude":83.3732,"temp":34.9,"humidity":61,"rain":0.0,"pressure":993.1,"uv_index":8.7,"wind_gusts":22.0,"aqi":145,"pm10":89.9,"pm2_5":50.6,"no2":1.4,"co":348.0,"o3":182.0,"so2":8.9,"mosquito_risk":3,"arthritis_risk":5,"migraine_risk":7,"frizz_risk":1,"updated_at":"2026-06-13T13:52:17.823826+05:30"},{"city":"Bareilly","state":"Uttar Pradesh","latitude":28.367,"longitude":79.4304,"temp":33.9,"humidity":55,"rain":0.0,"pressure":984.0,"uv_index":8.05,"wind_gusts":21.6,"aqi":146,"pm10":256.1,"pm2_5":73.3,"no2":1.4,"co":287.0,"o3":174.0,"so2":13.6,"mosquito_risk":0,"arthritis_risk":5,"migraine_risk":7,"frizz_risk":1,"updated_at":"2026-06-13T13:52:17.823833+05:30"},{"city":"Aligarh","state":"Uttar Pradesh","latitude":27.8974,"longitude":78.088,"temp":36.0,"humidity":43,"rain":0.0,"pressure":982.5,"uv_index":7.95,"wind_gusts":27.7,"aqi":292,"pm10":299.9,"pm2_5":81.3,"no2":1.9,"co":271.0,"o3":187.0,"so2":13.9,"mosquito_risk":0,"arthritis_risk":5,"migraine_risk":10,"frizz_risk":1,"updated_at":"2026-06-13T13:52:17.823840+05:30"},{"city":"Moradabad","state":"Uttar Pradesh","latitude":28.8386,"longitude":78.7733,"temp":34.0,"humidity":54,"rain":0.0,"pressure":981.2,"uv_index":7.95,"wind_gusts":24.5,"aqi":154,"pm10":247.7,"pm2_5":72.6,"no2":2.4,"co":301.0,"o3":183.0,"so2":15.7,"mosquito_risk":0,"arthritis_risk":5,"migraine_risk":7,"frizz_risk":1,"updated_at":"2026-06-13T13:52:17.823847+05:30"},{"city":"Saharanpur","state":"Uttar Pradesh","latitude":29.9637,"longitude":77.546,"temp":31.6,"humidity":57,"rain":0.1,"pressure":974.2,"uv_index":7.55,"wind_gusts":26.6,"aqi":109,"pm10":95.2,"pm2_5":36.1,"no2":2.5,"co":306.0,"o3":162.0,"so2":8.6,"mosquito_risk":3,"arthritis_risk":5,"migraine_risk":7,"frizz_risk":1,"updated_at":"2026-06-13T13:52:17.823853+05:30"},{"city":"Jhansi","state":"Uttar Pradesh","latitude":25.4484,"longitude":78.5685,"temp":38.2,"humidity":35,"rain":0.0,"pressure":974.5,"uv_index":8.5,"wind_gusts":48.6,"aqi":140,"pm10":100.8,"pm2_5":42.8,"no2":1.1,"co":154.0,"o3":137.0,"so2":10.9,"mosquito_risk":0,"arthritis_risk":5,"migraine_risk":10,"frizz_risk":1,"updated_at":"2026-06-13T13:52:21.056852+05:30"},{"city":"Surat","state":"Gujarat","latitude":21.1702,"longitude":72.8311,"temp":35.4,"humidity":50,"rain":0.1,"pressure":1004.7,"uv_index":7.6,"wind_gusts":54.7,"aqi":78,"pm10":61.0,"pm2_5":28.7,"no2":7.4,"co":199.0,"o3":68.0,"so2":26.2,"mosquito_risk":3,"arthritis_risk":5,"migraine_risk":7,"frizz_risk":1,"updated_at":"2026-06-13T13:52:21.056888+05:30"},{"city":"Vadodara","state":"Gujarat","latitude":22.3072,"longitude":73.1812,"temp":38.1,"humidity":35,"rain":0.0,"pressure":1000.8,"uv_index":8.0,"wind_gusts":51.8,"aqi":73,"pm10":68.5,"pm2_5":25.4,"no2":1.3,"co":131.0,"o3":98.0,"so2":3.4,"mosquito_risk":0,"arthritis_risk":5,"migraine_risk":7,"frizz_risk":1,"updated_at":"2026-06-13T13:52:21.056898+05:30"},{"city":"Rajkot","state":"Gujarat","latitude":22.3039,"longitude":70.8022,"temp":39.5,"humidity":34,"rain":0.0,"pressure":990.8,"uv_index":7.55,"wind_gusts":54.0,"aqi":69,"pm10":64.7,"pm2_5":26.4,"no2":1.0,"co":103.0,"o3":92.0,"so2":4.5,"mosquito_risk":0,"arthritis_risk":5,"migraine_risk":10,"frizz_risk":1,"updated_at":"2026-06-13T13:52:21.056908+05:30"},{"city":"Thane","state":"Maharashtra","latitude":19.2183,"longitude":72.9781,"temp":35.0,"humidity":48,"rain":0.0,"pressure":1006.5,"uv_index":6.65,"wind_gusts":45.4,"aqi":80,"pm10":58.7,"pm2_5":26.5,"no2":3.0,"co":129.0,"o3":81.0,"so2":3.9,"mosquito_risk":0,"arthritis_risk":5,"migraine_risk":4,"frizz_risk":1,"updated_at":"2026-06-13T13:52:21.056916+05:30"},{"city":"Nagpur","state":"Maharashtra","latitude":21.1458,"longitude":79.0882,"temp":40.2,"humidity":32,"rain":0.0,"pressure":969.6,"uv_index":8.9,"wind_gusts":42.5,"aqi":99,"pm10":58.0,"pm2_5":29.0,"no2":3.4,"co":138.0,"o3":147.0,"so2":17.0,"mosquito_risk":0,"arthritis_risk":5,"migraine_risk":10,"frizz_risk":1,"updated_at":"2026-06-13T13:52:21.056923+05:30"},{"city":"Nashik","state":"Maharashtra","latitude":19.9975,"longitude":73.7898,"temp":33.4,"humidity":42,"rain":0.1,"pressure":944.9,"uv_index":8.05,"wind_gusts":50.4,"aqi":73,"pm10":64.5,"pm2_5":21.1,"no2":0.6,"co":144.0,"o3":77.0,"so2":1.1,"mosquito_risk":3,"arthritis_risk":5,"migraine_risk":7,"frizz_risk":1,"updated_at":"2026-06-13T13:52:21.056931+05:30"},{"city":"Aurangabad","state":"Maharashtra","latitude":19.8762,"longitude":75.3433,"temp":36.3,"humidity":32,"rain":0.0,"pressure":942.8,"uv_index":8.95,"wind_gusts":51.5,"aqi":82,"pm10":66.4,"pm2_5":19.6,"no2":0.7,"co":118.0,"o3":95.0,"so2":2.0,"mosquito_risk":0,"arthritis_risk":5,"migraine_risk":10,"frizz_risk":1,"updated_at":"2026-06-13T13:52:21.056939+05:30"},{"city":"Solapur","state":"Maharashtra","latitude":17.6599,"longitude":75.9064,"temp":36.2,"humidity":34,"rain":0.0,"pressure":955.9,"uv_index":8.0,"wind_gusts":49.3,"aqi":62,"pm10":60.3,"pm2_5":20.5,"no2":0.9,"co":118.0,"o3":97.0,"so2":1.8,"mosquito_risk":0,"arthritis_risk":5,"migraine_risk":10,"frizz_risk":1,"updated_at":"2026-06-13T13:52:21.056946+05:30"},{"city":"Kolhapur","state":"Maharashtra","latitude":16.705,"longitude":74.2433,"temp":29.1,"humidity":65,"rain":0.1,"pressure":947.6,"uv_index":5.95,"wind_gusts":50.8,"aqi":55,"pm10":21.2,"pm2_5":10.4,"no2":1.6,"co":119.0,"o3":82.0,"so2":1.6,"mosquito_risk":10,"arthritis_risk":5,"migraine_risk":3,"frizz_risk":1,"updated_at":"2026-06-13T13:52:21.056954+05:30"},{"city":"Goa","state":"Goa","latitude":15.2993,"longitude":74.124,"temp":29.6,"humidity":77,"rain":0.1,"pressure":998.8,"uv_index":5.65,"wind_gusts":31.0,"aqi":68,"pm10":31.2,"pm2_5":12.4,"no2":0.6,"co":108.0,"o3":66.0,"so2":1.0,"mosquito_risk":10,"arthritis_risk":5,"migraine_risk":3,"frizz_risk":1,"updated_at":"2026-06-13T13:52:21.056961+05:30"},{"city":"Jodhpur","state":"Rajasthan","latitude":26.2389,"longitude":73.0243,"temp":37.9,"humidity":37,"rain":0.0,"pressure":979.0,"uv_index":8.4,"wind_gusts":42.8,"aqi":138,"pm10":307.3,"pm2_5":57.3,"no2":0.6,"co":110.0,"o3":89.0,"so2":2.0,"mosquito_risk":0,"arthritis_risk":5,"migraine_risk":10,"frizz_risk":1,"updated_at":"2026-06-13T13:52:21.056968+05:30"},{"city":"Udaipur","state":"Rajasthan","latitude":24.5854,"longitude":73.7125,"temp":35.3,"humidity":38,"rain":0.0,"pressure":944.2,"uv_index":8.85,"wind_gusts":39.2,"aqi":71,"pm10":80.1,"pm2_5":26.3,"no2":0.6,"co":113.0,"o3":90.0,"so2":2.8,"mosquito_risk":0,"arthritis_risk":5,"migraine_risk":10,"frizz_risk":1,"updated_at":"2026-06-13T13:52:21.056976+05:30"},{"city":"Kota","state":"Rajasthan","latitude":25.2138,"longitude":75.8648,"temp":38.7,"humidity":40,"rain":0.0,"pressure":974.6,"uv_index":8.35,"wind_gusts":49.7,"aqi":86,"pm10":105.5,"pm2_5":32.8,"no2":0.7,"co":143.0,"o3":116.0,"so2":5.6,"mosquito_risk":0,"arthritis_risk":5,"migraine_risk":10,"frizz_risk":1,"updated_at":"2026-06-13T13:52:21.056984+05:30"},{"city":"Bikaner","state":"Rajasthan","latitude":28.0229,"longitude":73.3119,"temp":40.1,"humidity":29,"rain":0.0,"pressure":977.3,"uv_index":8.45,"wind_gusts":54.4,"aqi":143,"pm10":369.7,"pm2_5":102.9,"no2":0.3,"co":127.0,"o3":90.0,"so2":3.0,"mosquito_risk":0,"arthritis_risk":5,"migraine_risk":10,"frizz_risk":1,"updated_at":"2026-06-13T13:52:21.056991+05:30"},{"city":"Ajmer","state":"Rajasthan","latitude":26.4499,"longitude":74.6399,"temp":35.7,"humidity":41,"rain":0.0,"pressure":951.7,"uv_index":8.35,"wind_gusts":49.7,"aqi":87,"pm10":107.1,"pm2_5":32.8,"no2":0.6,"co":122.0,"o3":109.0,"so2":3.4,"mosquito_risk":0,"arthritis_risk":5,"migraine_risk":10,"frizz_risk":1,"updated_at":"2026-06-13T13:52:21.056998+05:30"},{"city":"Gwalior","state":"Madhya Pradesh","latitude":26.2183,"longitude":78.1828,"temp":37.1,"humidity":42,"rain":0.0,"pressure":979.9,"uv_index":8.3,"wind_gusts":61.9,"aqi":157,"pm10":135.0,"pm2_5":52.0,"no2":0.6,"co":204.0,"o3":135.0,"so2":7.2,"mosquito_risk":0,"arthritis_risk":5,"migraine_risk":10,"frizz_risk":1,"updated_at":"2026-06-13T13:52:21.057005+05:30"},{"city":"Indore","state":"Madhya Pradesh","latitude":22.7196,"longitude":75.8577,"temp":37.1,"humidity":28,"rain":0.0,"pressure":946.0,"uv_index":8.65,"wind_gusts":44.6,"aqi":77,"pm10":77.1,"pm2_5":26.7,"no2":0.9,"co":146.0,"o3":103.0,"so2":4.2,"mosquito_risk":0,"arthritis_risk":5,"migraine_risk":10,"frizz_risk":0,"updated_at":"2026-06-13T13:52:21.057013+05:30"},{"city":"Bhopal","state":"Madhya Pradesh","latitude":23.2599,"longitude":77.4126,"temp":37.2,"humidity":41,"rain":0.0,"pressure":951.0,"uv_index":8.7,"wind_gusts":36.7,"aqi":90,"pm10":49.4,"pm2_5":22.9,"no2":0.7,"co":155.0,"o3":110.0,"so2":3.8,"mosquito_risk":0,"arthritis_risk":5,"migraine_risk":10,"frizz_risk":1,"updated_at":"2026-06-13T13:52:21.057021+05:30"},{"city":"Jabalpur","state":"Madhya Pradesh","latitude":23.1815,"longitude":79.9864,"temp":37.4,"humidity":42,"rain":0.0,"pressure":958.4,"uv_index":8.85,"wind_gusts":33.5,"aqi":99,"pm10":90.3,"pm2_5":38.4,"no2":0.7,"co":165.0,"o3":123.0,"so2":3.1,"mosquito_risk":0,"arthritis_risk":5,"migraine_risk":10,"frizz_risk":1,"updated_at":"2026-06-13T13:52:21.057028+05:30"},{"city":"Ujjain","state":"Madhya Pradesh","latitude":23.1765,"longitude":75.7885,"temp":37.4,"humidity":31,"rain":0.0,"pressure":951.1,"uv_index":8.6,"wind_gusts":42.8,"aqi":77,"pm10":95.7,"pm2_5":28.9,"no2":0.6,"co":130.0,"o3":98.0,"so2":3.6,"mosquito_risk":0,"arthritis_risk":5,"migraine_risk":10,"frizz_risk":1,"updated_at":"2026-06-13T13:52:21.057036+05:30"},{"city":"Visakhapatnam","state":"Andhra Pradesh","latitude":17.6868,"longitude":83.2185,"temp":33.8,"humidity":59,"rain":0.0,"pressure":999.8,"uv_index":9.05,"wind_gusts":43.2,"aqi":115,"pm10":37.4,"pm2_5":28.5,"no2":11.9,"co":299.0,"o3":134.0,"so2":30.6,"mosquito_risk":0,"arthritis_risk":5,"migraine_risk":7,"frizz_risk":1,"updated_at":"2026-06-13T13:52:21.057043+05:30"},{"city":"Vijayawada","state":"Andhra Pradesh","latitude":16.5062,"longitude":80.648,"temp":37.7,"humidity":38,"rain":0.0,"pressure":999.0,"uv_index":4.65,"wind_gusts":34.2,"aqi":81,"pm10":55.3,"pm2_5":32.2,"no2":1.8,"co":163.0,"o3":135.0,"so2":5.8,"mosquito_risk":0,"arthritis_risk":5,"migraine_risk":6,"frizz_risk":1,"updated_at":"2026-06-13T13:52:21.057050+05:30"},{"city":"Guntur","state":"Andhra Pradesh","latitude":16.3067,"longitude":80.4365,"temp":37.0,"humidity":36,"rain":0.0,"pressure":1000.4,"uv_index":2.55,"wind_gusts":30.2,"aqi":82,"pm10":54.1,"pm2_5":29.7,"no2":1.1,"co":153.0,"o3":124.0,"so2":4.1,"mosquito_risk":0,"arthritis_risk":5,"migraine_risk":3,"frizz_risk":1,"updated_at":"2026-06-13T13:52:21.057057+05:30"},{"city":"Nellore","state":"Andhra Pradesh","latitude":14.4426,"longitude":79.9865,"temp":32.3,"humidity":58,"rain":0.0,"pressure":1003.9,"uv_index":7.7,"wind_gusts":33.5,"aqi":57,"pm10":32.2,"pm2_5":17.7,"no2":1.7,"co":129.0,"o3":111.0,"so2":5.5,"mosquito_risk":0,"arthritis_risk":5,"migraine_risk":4,"frizz_risk":1,"updated_at":"2026-06-13T13:52:21.057065+05:30"},{"city":"Kurnool","state":"Andhra Pradesh","latitude":15.8281,"longitude":78.0373,"temp":35.8,"humidity":42,"rain":0.0,"pressure":975.4,"uv_index":2.85,"wind_gusts":36.7,"aqi":73,"pm10":51.1,"pm2_5":23.2,"no2":1.0,"co":129.0,"o3":106.0,"so2":4.9,"mosquito_risk":0,"arthritis_risk":5,"migraine_risk":6,"frizz_risk":1,"updated_at":"2026-06-13T13:52:21.057073+05:30"},{"city":"Kakinada","state":"Andhra Pradesh","latitude":16.9891,"longitude":82.2475,"temp":35.0,"humidity":51,"rain":0.0,"pressure":1003.7,"uv_index":8.9,"wind_gusts":38.5,"aqi":83,"pm10":31.9,"pm2_5":21.7,"no2":1.9,"co":221.0,"o3":131.0,"so2":3.9,"mosquito_risk":0,"arthritis_risk":5,"migraine_risk":4,"frizz_risk":1,"updated_at":"2026-06-13T13:52:21.057080+05:30"},{"city":"Tirupati","state":"Andhra Pradesh","latitude":13.6288,"longitude":79.4192,"temp":33.3,"humidity":47,"rain":0.0,"pressure":989.6,"uv_index":8.35,"wind_gusts":31.7,"aqi":52,"pm10":21.6,"pm2_5":12.6,"no2":1.8,"co":117.0,"o3":88.0,"so2":1.9,"mosquito_risk":0,"arthritis_risk":5,"migraine_risk":7,"frizz_risk":1,"updated_at":"2026-06-13T13:52:21.057087+05:30"},{"city":"Warangal","state":"Telangana","latitude":17.9689,"longitude":79.5941,"temp":35.6,"humidity":47,"rain":0.0,"pressure":975.9,"uv_index":4.3,"wind_gusts":32.0,"aqi":101,"pm10":66.1,"pm2_5":36.4,"no2":0.8,"co":163.0,"o3":129.0,"so2":5.8,"mosquito_risk":0,"arthritis_risk":5,"migraine_risk":6,"frizz_risk":1,"updated_at":"2026-06-13T13:52:21.057094+05:30"},{"city":"Nizamabad","state":"Telangana","latitude":18.6725,"longitude":78.0941,"temp":37.3,"humidity":37,"rain":0.0,"pressure":962.7,"uv_index":4.15,"wind_gusts":40.7,"aqi":89,"pm10":71.0,"pm2_5":32.9,"no2":0.9,"co":139.0,"o3":116.0,"so2":4.6,"mosquito_risk":0,"arthritis_risk":5,"migraine_risk":6,"frizz_risk":1,"updated_at":"2026-06-13T13:52:21.057101+05:30"},{"city":"Mysore","state":"Karnataka","latitude":12.2958,"longitude":76.6396,"temp":24.1,"humidity":77,"rain":0.1,"pressure":929.3,"uv_index":7.6,"wind_gusts":34.9,"aqi":32,"pm10":24.2,"pm2_5":10.8,"no2":1.5,"co":132.0,"o3":81.0,"so2":1.4,"mosquito_risk":6,"arthritis_risk":5,"migraine_risk":7,"frizz_risk":1,"updated_at":"2026-06-13T13:52:21.057108+05:30"},{"city":"Mangalore","state":"Karnataka","latitude":12.9141,"longitude":74.856,"temp":28.3,"humidity":78,"rain":0.0,"pressure":1008.5,"uv_index":8.5,"wind_gusts":35.3,"aqi":42,"pm10":24.7,"pm2_5":10.8,"no2":1.0,"co":106.0,"o3":74.0,"so2":1.5,"mosquito_risk":7,"arthritis_risk":0,"migraine_risk":4,"frizz_risk":1,"updated_at":"2026-06-13T13:52:21.057115+05:30"},{"city":"Hubli-Dharwad","state":"Karnataka","latitude":15.3647,"longitude":75.124,"temp":28.9,"humidity":65,"rain":0.1,"pressure":941.2,"uv_index":7.5,"wind_gusts":44.6,"aqi":45,"pm10":17.3,"pm2_5":7.6,"no2":0.8,"co":112.0,"o3":71.0,"so2":0.9,"mosquito_risk":10,"arthritis_risk":5,"migraine_risk":7,"frizz_risk":1,"updated_at":"2026-06-13T13:52:21.057123+05:30"},{"city":"Belgaum","state":"Karnataka","latitude":15.8497,"longitude":74.4977,"temp":27.7,"humidity":69,"rain":0.0,"pressure":926.2,"uv_index":8.25,"wind_gusts":46.1,"aqi":48,"pm10":19.9,"pm2_5":8.1,"no2":1.4,"co":116.0,"o3":71.0,"so2":1.3,"mosquito_risk":7,"arthritis_risk":5,"migraine_risk":7,"frizz_risk":1,"updated_at":"2026-06-13T13:52:24.288782+05:30"},{"city":"Coimbatore","state":"Tamil Nadu","latitude":11.0168,"longitude":76.9558,"temp":29.7,"humidity":54,"rain":0.0,"pressure":962.4,"uv_index":8.9,"wind_gusts":45.4,"aqi":40,"pm10":16.7,"pm2_5":8.3,"no2":1.0,"co":129.0,"o3":88.0,"so2":1.8,"mosquito_risk":4,"arthritis_risk":5,"migraine_risk":7,"frizz_risk":1,"updated_at":"2026-06-13T13:52:24.288817+05:30"},{"city":"Madurai","state":"Tamil Nadu","latitude":9.9252,"longitude":78.1198,"temp":37.7,"humidity":32,"rain":0.0,"pressure":992.0,"uv_index":8.3,"wind_gusts":43.2,"aqi":61,"pm10":29.5,"pm2_5":13.8,"no2":1.4,"co":121.0,"o3":113.0,"so2":1.8,"mosquito_risk":0,"arthritis_risk":5,"migraine_risk":10,"frizz_risk":1,"updated_at":"2026-06-13T13:52:24.288829+05:30"},{"city":"Trichy","state":"Tamil Nadu","latitude":10.7905,"longitude":78.7047,"temp":35.4,"humidity":39,"rain":0.0,"pressure":998.7,"uv_index":8.25,"wind_gusts":56.9,"aqi":52,"pm10":24.7,"pm2_5":12.8,"no2":1.4,"co":121.0,"o3":96.0,"so2":1.9,"mosquito_risk":0,"arthritis_risk":5,"migraine_risk":10,"frizz_risk":1,"updated_at":"2026-06-13T13:52:24.288837+05:30"},{"city":"Salem","state":"Tamil Nadu","latitude":11.6643,"longitude":78.146,"temp":30.9,"humidity":59,"rain":0.0,"pressure":977.5,"uv_index":7.35,"wind_gusts":28.4,"aqi":60,"pm10":24.2,"pm2_5":13.0,"no2":2.0,"co":175.0,"o3":110.0,"so2":5.8,"mosquito_risk":0,"arthritis_risk":5,"migraine_risk":7,"frizz_risk":1,"updated_at":"2026-06-13T13:52:24.288846+05:30"},{"city":"Tirunelveli","state":"Tamil Nadu","latitude":8.7139,"longitude":77.7567,"temp":35.0,"humidity":41,"rain":0.1,"pressure":1003.5,"uv_index":7.85,"wind_gusts":41.4,"aqi":24,"pm10":10.6,"pm2_5":5.1,"no2":1.0,"co":109.0,"o3":71.0,"so2":0.9,"mosquito_risk":3,"arthritis_risk":5,"migraine_risk":4,"frizz_risk":1,"updated_at":"2026-06-13T13:52:24.288853+05:30"},{"city":"Vellore","state":"Tamil Nadu","latitude":12.9165,"longitude":79.1325,"temp":32.7,"humidity":52,"rain":0.0,"pressure":983.3,"uv_index":8.8,"wind_gusts":39.2,"aqi":52,"pm10":16.2,"pm2_5":10.9,"no2":4.3,"co":145.0,"o3":83.0,"so2":4.0,"mosquito_risk":0,"arthritis_risk":5,"migraine_risk":7,"frizz_risk":1,"updated_at":"2026-06-13T13:52:24.288861+05:30"},{"city":"Erode","state":"Tamil Nadu","latitude":11.341,"longitude":77.7172,"temp":34.8,"humidity":43,"rain":0.0,"pressure":988.7,"uv_index":8.05,"wind_gusts":42.5,"aqi":57,"pm10":18.7,"pm2_5":10.2,"no2":1.4,"co":139.0,"o3":108.0,"so2":1.9,"mosquito_risk":0,"arthritis_risk":5,"migraine_risk":7,"frizz_risk":1,"updated_at":"2026-06-13T13:52:24.288868+05:30"},{"city":"Kochi","state":"Kerala","latitude":9.9312,"longitude":76.2673,"temp":28.6,"humidity":78,"rain":0.0,"pressure":1010.8,"uv_index":7.5,"wind_gusts":28.4,"aqi":62,"pm10":18.9,"pm2_5":9.4,"no2":2.0,"co":120.0,"o3":74.0,"so2":2.4,"mosquito_risk":7,"arthritis_risk":0,"migraine_risk":4,"frizz_risk":1,"updated_at":"2026-06-13T13:52:24.288876+05:30"},{"city":"Thiruvananthapuram","state":"Kerala","latitude":8.5241,"longitude":76.9366,"temp":27.4,"humidity":82,"rain":0.0,"pressure":1010.6,"uv_index":6.7,"wind_gusts":40.3,"aqi":26,"pm10":16.9,"pm2_5":8.1,"no2":1.0,"co":98.0,"o3":66.0,"so2":0.7,"mosquito_risk":7,"arthritis_risk":0,"migraine_risk":4,"frizz_risk":1,"updated_at":"2026-06-13T13:52:24.288883+05:30"},{"city":"Kozhikode","state":"Kerala","latitude":11.2588,"longitude":75.7804,"temp":26.2,"humidity":88,"rain":0.0,"pressure":1010.2,"uv_index":8.3,"wind_gusts":22.3,"aqi":33,"pm10":16.2,"pm2_5":7.4,"no2":0.5,"co":148.0,"o3":76.0,"so2":1.1,"mosquito_risk":7,"arthritis_risk":0,"migraine_risk":4,"frizz_risk":1,"updated_at":"2026-06-13T13:52:24.288891+05:30"},{"city":"Thrissur","state":"Kerala","latitude":10.5276,"longitude":76.2144,"temp":29.3,"humidity":75,"rain":0.1,"pressure":1008.8,"uv_index":7.25,"wind_gusts":29.5,"aqi":64,"pm10":15.8,"pm2_5":8.2,"no2":1.0,"co":103.0,"o3":75.0,"so2":1.7,"mosquito_risk":10,"arthritis_risk":0,"migraine_risk":4,"frizz_risk":1,"updated_at":"2026-06-13T13:52:24.288899+05:30"},{"city":"Kannur","state":"Kerala","latitude":11.8745,"longitude":75.3704,"temp":28.0,"humidity":82,"rain":0.0,"pressure":1009.3,"uv_index":8.55,"wind_gusts":28.1,"aqi":39,"pm10":23.2,"pm2_5":10.1,"no2":0.8,"co":110.0,"o3":75.0,"so2":1.4,"mosquito_risk":7,"arthritis_risk":0,"migraine_risk":4,"frizz_risk":1,"updated_at":"2026-06-13T13:52:24.288906+05:30"},{"city":"Patna","state":"Bihar","latitude":25.5941,"longitude":85.1376,"temp":34.1,"humidity":56,"rain":0.0,"pressure":995.6,"uv_index":8.9,"wind_gusts":26.3,"aqi":157,"pm10":90.1,"pm2_5":62.2,"no2":1.6,"co":369.0,"o3":213.0,"so2":18.1,"mosquito_risk":0,"arthritis_risk":5,"migraine_risk":7,"frizz_risk":1,"updated_at":"2026-06-13T13:52:24.288913+05:30"},{"city":"Gaya","state":"Bihar","latitude":24.7914,"longitude":85.0002,"temp":36.1,"humidity":48,"rain":0.0,"pressure":989.3,"uv_index":8.95,"wind_gusts":36.4,"aqi":161,"pm10":84.5,"pm2_5":62.2,"no2":0.8,"co":228.0,"o3":195.0,"so2":13.9,"mosquito_risk":0,"arthritis_risk":5,"migraine_risk":10,"frizz_risk":1,"updated_at":"2026-06-13T13:52:24.288920+05:30"},{"city":"Muzaffarpur","state":"Bihar","latitude":26.1209,"longitude":85.3647,"temp":33.3,"humidity":59,"rain":0.0,"pressure":995.7,"uv_index":8.85,"wind_gusts":23.0,"aqi":157,"pm10":83.1,"pm2_5":61.0,"no2":1.9,"co":334.0,"o3":217.0,"so2":20.8,"mosquito_risk":0,"arthritis_risk":5,"migraine_risk":7,"frizz_risk":1,"updated_at":"2026-06-13T13:52:24.288927+05:30"},{"city":"Bhagalpur","state":"Bihar","latitude":25.2425,"longitude":87.0117,"temp":33.0,"humidity":61,"rain":0.0,"pressure":996.3,"uv_index":7.9,"wind_gusts":40.0,"aqi":158,"pm10":94.5,"pm2_5":68.2,"no2":3.6,"co":339.0,"o3":217.0,"so2":26.3,"mosquito_risk":3,"arthritis_risk":5,"migraine_risk":7,"frizz_risk":1,"updated_at":"2026-06-13T13:52:24.288934+05:30"},{"city":"Ranchi","state":"Jharkhand","latitude":23.3441,"longitude":85.3096,"temp":32.7,"humidity":51,"rain":0.0,"pressure":934.9,"uv_index":9.3,"wind_gusts":31.0,"aqi":143,"pm10":71.7,"pm2_5":48.0,"no2":1.2,"co":210.0,"o3":163.0,"so2":14.2,"mosquito_risk":0,"arthritis_risk":5,"migraine_risk":7,"frizz_risk":1,"updated_at":"2026-06-13T13:52:24.288941+05:30"},{"city":"Jamshedpur","state":"Jharkhand","latitude":22.8046,"longitude":86.2029,"temp":30.3,"humidity":79,"rain":0.3,"pressure":986.7,"uv_index":8.95,"wind_gusts":31.7,"aqi":155,"pm10":84.1,"pm2_5":65.2,"no2":1.9,"co":268.0,"o3":214.0,"so2":26.9,"mosquito_risk":6,"arthritis_risk":5,"migraine_risk":7,"frizz_risk":1,"updated_at":"2026-06-13T13:52:24.288948+05:30"},{"city":"Dhanbad","state":"Jharkhand","latitude":23.7957,"longitude":86.4304,"temp":28.1,"humidity":75,"rain":0.3,"pressure":976.2,"uv_index":9.0,"wind_gusts":58.0,"aqi":171,"pm10":93.8,"pm2_5":75.4,"no2":6.2,"co":280.0,"o3":229.0,"so2":48.4,"mosquito_risk":10,"arthritis_risk":5,"migraine_risk":7,"frizz_risk":1,"updated_at":"2026-06-13T13:52:24.288956+05:30"},{"city":"Bokaro","state":"Jharkhand","latitude":23.6693,"longitude":86.1511,"temp":29.5,"humidity":67,"rain":0.1,"pressure":980.0,"uv_index":9.0,"wind_gusts":48.6,"aqi":168,"pm10":87.3,"pm2_5":65.7,"no2":6.2,"co":234.0,"o3":207.0,"so2":41.1,"mosquito_risk":10,"arthritis_risk":5,"migraine_risk":7,"frizz_risk":1,"updated_at":"2026-06-13T13:52:24.288966+05:30"},{"city":"Bhubaneswar","state":"Odisha","latitude":20.2961,"longitude":85.8245,"temp":28.1,"humidity":85,"rain":0.2,"pressure":998.8,"uv_index":8.8,"wind_gusts":31.3,"aqi":126,"pm10":46.6,"pm2_5":36.4,"no2":1.9,"co":258.0,"o3":168.0,"so2":7.0,"mosquito_risk":10,"arthritis_risk":5,"migraine_risk":7,"frizz_risk":1,"updated_at":"2026-06-13T13:52:24.288973+05:30"},{"city":"Cuttack","state":"Odisha","latitude":20.4625,"longitude":85.8828,"temp":28.1,"humidity":87,"rain":0.3,"pressure":1000.7,"uv_index":8.9,"wind_gusts":34.2,"aqi":126,"pm10":46.6,"pm2_5":36.4,"no2":1.9,"co":278.0,"o3":168.0,"so2":7.0,"mosquito_risk":10,"arthritis_risk":5,"migraine_risk":4,"frizz_risk":1,"updated_at":"2026-06-13T13:52:24.288980+05:30"},{"city":"Rourkela","state":"Odisha","latitude":22.2604,"longitude":84.8536,"temp":36.6,"humidity":43,"rain":0.0,"pressure":980.3,"uv_index":9.0,"wind_gusts":25.6,"aqi":143,"pm10":61.7,"pm2_5":46.2,"no2":1.4,"co":223.0,"o3":186.0,"so2":14.9,"mosquito_risk":0,"arthritis_risk":5,"migraine_risk":10,"frizz_risk":1,"updated_at":"2026-06-13T13:52:24.288986+05:30"},{"city":"Raipur","state":"Chhattisgarh","latitude":21.2514,"longitude":81.6296,"temp":38.8,"humidity":31,"rain":0.0,"pressure":970.9,"uv_index":9.0,"wind_gusts":55.1,"aqi":115,"pm10":85.0,"pm2_5":44.9,"no2":4.2,"co":204.0,"o3":165.0,"so2":27.7,"mosquito_risk":0,"arthritis_risk":5,"migraine_risk":10,"frizz_risk":1,"updated_at":"2026-06-13T13:52:24.288993+05:30"},{"city":"Bhilai","state":"Chhattisgarh","latitude":21.1938,"longitude":81.3509,"temp":37.7,"humidity":35,"rain":0.0,"pressure":971.5,"uv_index":8.95,"wind_gusts":40.7,"aqi":105,"pm10":82.9,"pm2_5":40.6,"no2":4.4,"co":348.0,"o3":144.0,"so2":23.9,"mosquito_risk":0,"arthritis_risk":5,"migraine_risk":10,"frizz_risk":1,"updated_at":"2026-06-13T13:52:24.288999+05:30"},{"city":"Guwahati","state":"Assam","latitude":26.1158,"longitude":91.7086,"temp":31.5,"humidity":68,"rain":0.0,"pressure":996.2,"uv_index":8.8,"wind_gusts":37.1,"aqi":85,"pm10":33.2,"pm2_5":22.4,"no2":1.1,"co":241.0,"o3":126.0,"so2":1.6,"mosquito_risk":3,"arthritis_risk":5,"migraine_risk":7,"frizz_risk":1,"updated_at":"2026-06-13T13:52:24.289006+05:30"},{"city":"Agartala","state":"Tripura","latitude":23.8315,"longitude":91.2868,"temp":30.7,"humidity":76,"rain":0.1,"pressure":1001.6,"uv_index":8.85,"wind_gusts":28.4,"aqi":97,"pm10":40.0,"pm2_5":27.5,"no2":6.4,"co":243.0,"o3":121.0,"so2":5.9,"mosquito_risk":6,"arthritis_risk":5,"migraine_risk":4,"frizz_risk":1,"updated_at":"2026-06-13T13:52:24.289013+05:30"},{"city":"Shillong","state":"Meghalaya","latitude":25.5788,"longitude":91.8933,"temp":21.5,"humidity":96,"rain":0.0,"pressure":854.7,"uv_index":6.75,"wind_gusts":17.3,"aqi":76,"pm10":26.7,"pm2_5":19.3,"no2":2.2,"co":225.0,"o3":119.0,"so2":1.7,"mosquito_risk":3,"arthritis_risk":5,"migraine_risk":7,"frizz_risk":1,"updated_at":"2026-06-13T13:52:24.289019+05:30"},{"city":"Imphal","state":"Manipur","latitude":24.817,"longitude":93.9368,"temp":27.5,"humidity":72,"rain":0.0,"pressure":919.8,"uv_index":7.9,"wind_gusts":32.4,"aqi":33,"pm10":3.5,"pm2_5":3.4,"no2":2.4,"co":191.0,"o3":85.0,"so2":1.1,"mosquito_risk":7,"arthritis_risk":5,"migraine_risk":7,"frizz_risk":1,"updated_at":"2026-06-13T13:52:24.289026+05:30"},{"city":"Aizawl","state":"Mizoram","latitude":23.7271,"longitude":92.7176,"temp":22.4,"humidity":84,"rain":0.0,"pressure":889.8,"uv_index":8.2,"wind_gusts":28.4,"aqi":37,"pm10":22.1,"pm2_5":11.9,"no2":0.6,"co":162.0,"o3":99.0,"so2":1.2,"mosquito_risk":3,"arthritis_risk":5,"migraine_risk":7,"frizz_risk":1,"updated_at":"2026-06-13T13:52:24.289033+05:30"},{"city":"Kohima","state":"Nagaland","latitude":25.6701,"longitude":94.1077,"temp":21.1,"humidity":98,"rain":0.2,"pressure":852.7,"uv_index":2.8,"wind_gusts":22.3,"aqi":33,"pm10":4.3,"pm2_5":3.7,"no2":1.1,"co":206.0,"o3":96.0,"so2":0.6,"mosquito_risk":6,"arthritis_risk":5,"migraine_risk":3,"frizz_risk":1,"updated_at":"2026-06-13T13:52:24.289040+05:30"},{"city":"Gangtok","state":"Sikkim","latitude":27.3314,"longitude":88.6138,"temp":25.1,"humidity":58,"rain":0.1,"pressure":837.2,"uv_index":9.1,"wind_gusts":36.0,"aqi":65,"pm10":30.0,"pm2_5":20.2,"no2":0.9,"co":256.0,"o3":130.0,"so2":1.2,"mosquito_risk":7,"arthritis_risk":5,"migraine_risk":7,"frizz_risk":1,"updated_at":"2026-06-13T13:52:24.289047+05:30"},{"city":"Siliguri","state":"West Bengal","latitude":26.7271,"longitude":88.3953,"temp":31.0,"humidity":66,"rain":0.1,"pressure":988.1,"uv_index":8.65,"wind_gusts":18.7,"aqi":145,"pm10":50.8,"pm2_5":34.0,"no2":1.3,"co":319.0,"o3":159.0,"so2":4.1,"mosquito_risk":6,"arthritis_risk":5,"migraine_risk":7,"frizz_risk":1,"updated_at":"2026-06-13T13:52:27.519763+05:30"},{"city":"Durgapur","state":"West Bengal","latitude":23.5204,"longitude":87.3119,"temp":27.4,"humidity":93,"rain":0.2,"pressure":991.9,"uv_index":8.85,"wind_gusts":39.2,"aqi":161,"pm10":105.2,"pm2_5":87.3,"no2":8.2,"co":791.0,"o3":251.0,"so2":54.7,"mosquito_risk":10,"arthritis_risk":5,"migraine_risk":7,"frizz_risk":1,"updated_at":"2026-06-13T13:52:27.519798+05:30"},{"city":"Asansol","state":"West Bengal","latitude":23.6739,"longitude":86.9524,"temp":28.9,"humidity":84,"rain":0.5,"pressure":990.4,"uv_index":8.85,"wind_gusts":26.6,"aqi":158,"pm10":101.5,"pm2_5":83.8,"no2":6.5,"co":491.0,"o3":247.0,"so2":50.7,"mosquito_risk":10,"arthritis_risk":5,"migraine_risk":7,"frizz_risk":1,"updated_at":"2026-06-13T13:52:27.519810+05:30"},{"city":"Pondicherry","state":"Puducherry","latitude":11.9139,"longitude":79.8145,"temp":32.9,"humidity":69,"rain":0.0,"pressure":1007.1,"uv_index":8.15,"wind_gusts":41.0,"aqi":59,"pm10":32.1,"pm2_5":22.2,"no2":4.9,"co":160.0,"o3":129.0,"so2":12.2,"mosquito_risk":3,"arthritis_risk":5,"migraine_risk":4,"frizz_risk":1,"updated_at":"2026-06-13T13:52:27.519819+05:30"},{"city":"Port Blair","state":"Andaman and Nicobar Islands","latitude":11.6234,"longitude":92.7265,"temp":29.5,"humidity":74,"rain":0.1,"pressure":1007.7,"uv_index":8.8,"wind_gusts":40.3,"aqi":20,"pm10":8.5,"pm2_5":5.2,"no2":0.3,"co":87.0,"o3":42.0,"so2":0.5,"mosquito_risk":10,"arthritis_risk":5,"migraine_risk":4,"frizz_risk":1,"updated_at":"2026-06-13T13:52:27.519827+05:30"},{"city":"Haridwar","state":"Uttarakhand","latitude":29.9457,"longitude":78.1642,"temp":32.5,"humidity":54,"rain":0.1,"pressure":972.6,"uv_index":7.6,"wind_gusts":26.6,"aqi":94,"pm10":65.7,"pm2_5":28.1,"no2":1.4,"co":277.0,"o3":152.0,"so2":4.3,"mosquito_risk":3,"arthritis_risk":5,"migraine_risk":7,"frizz_risk":1,"updated_at":"2026-06-13T13:52:27.519836+05:30"},{"city":"Rishikesh","state":"Uttarakhand","latitude":30.0869,"longitude":78.2676,"temp":31.3,"humidity":51,"rain":0.0,"pressure":965.7,"uv_index":7.7,"wind_gusts":30.2,"aqi":66,"pm10":52.0,"pm2_5":22.4,"no2":0.8,"co":220.0,"o3":143.0,"so2":2.7,"mosquito_risk":0,"arthritis_risk":5,"migraine_risk":7,"frizz_risk":1,"updated_at":"2026-06-13T13:52:27.519843+05:30"},{"city":"Nainital","state":"Uttarakhand","latitude":29.3919,"longitude":79.4542,"temp":20.4,"humidity":63,"rain":0.1,"pressure":807.1,"uv_index":8.55,"wind_gusts":28.4,"aqi":89,"pm10":123.4,"pm2_5":41.1,"no2":1.0,"co":219.0,"o3":151.0,"so2":6.4,"mosquito_risk":6,"arthritis_risk":5,"migraine_risk":7,"frizz_risk":0,"updated_at":"2026-06-13T13:52:27.519851+05:30"},{"city":"Mussoorie","state":"Uttarakhand","latitude":30.4599,"longitude":78.0664,"temp":20.2,"humidity":51,"rain":0.0,"pressure":804.8,"uv_index":7.95,"wind_gusts":42.8,"aqi":80,"pm10":42.8,"pm2_5":20.5,"no2":1.1,"co":169.0,"o3":153.0,"so2":3.2,"mosquito_risk":0,"arthritis_risk":5,"migraine_risk":7,"frizz_risk":0,"updated_at":"2026-06-13T13:52:27.519859+05:30"},{"city":"Dharamshala","state":"Himachal Pradesh","latitude":32.219,"longitude":76.3234,"temp":19.6,"humidity":92,"rain":0.5,"pressure":869.5,"uv_index":7.85,"wind_gusts":31.0,"aqi":78,"pm10":25.8,"pm2_5":13.0,"no2":0.8,"co":179.0,"o3":146.0,"so2":1.0,"mosquito_risk":6,"arthritis_risk":10,"migraine_risk":7,"frizz_risk":1,"updated_at":"2026-06-13T13:52:27.519867+05:30"},{"city":"Dalhousie","state":"Himachal Pradesh","latitude":32.5387,"longitude":75.971,"temp":15.3,"humidity":100,"rain":0.3,"pressure":804.5,"uv_index":7.95,"wind_gusts":27.7,"aqi":94,"pm10":56.6,"pm2_5":27.6,"no2":1.8,"co":260.0,"o3":167.0,"so2":2.7,"mosquito_risk":6,"arthritis_risk":10,"migraine_risk":7,"frizz_risk":0,"updated_at":"2026-06-13T13:52:27.519876+05:30"},{"city":"Patiala","state":"Punjab","latitude":30.3398,"longitude":76.3869,"temp":33.5,"humidity":52,"rain":0.0,"pressure":976.7,"uv_index":7.7,"wind_gusts":32.4,"aqi":801,"pm10":480.6,"pm2_5":73.3,"no2":1.9,"co":239.0,"o3":156.0,"so2":8.6,"mosquito_risk":0,"arthritis_risk":5,"migraine_risk":7,"frizz_risk":1,"updated_at":"2026-06-13T13:52:27.519883+05:30"},{"city":"Bhatinda","state":"Punjab","latitude":30.211,"longitude":74.9455,"temp":36.1,"humidity":36,"rain":0.0,"pressure":980.9,"uv_index":8.3,"wind_gusts":30.2,"aqi":1206,"pm10":296.2,"pm2_5":73.8,"no2":2.3,"co":237.0,"o3":166.0,"so2":13.1,"mosquito_risk":0,"arthritis_risk":5,"migraine_risk":10,"frizz_risk":1,"updated_at":"2026-06-13T13:52:27.519891+05:30"},{"city":"Rohtak","state":"Haryana","latitude":28.8955,"longitude":76.6066,"temp":35.7,"humidity":36,"rain":0.0,"pressure":979.0,"uv_index":7.8,"wind_gusts":27.4,"aqi":849,"pm10":236.1,"pm2_5":74.7,"no2":5.9,"co":258.0,"o3":215.0,"so2":19.9,"mosquito_risk":0,"arthritis_risk":5,"migraine_risk":10,"frizz_risk":1,"updated_at":"2026-06-13T13:52:27.519897+05:30"},{"city":"Panipat","state":"Haryana","latitude":29.3909,"longitude":76.9635,"temp":34.9,"humidity":49,"rain":0.0,"pressure":977.9,"uv_index":7.65,"wind_gusts":25.9,"aqi":1535,"pm10":259.8,"pm2_5":74.7,"no2":6.3,"co":255.0,"o3":177.0,"so2":19.2,"mosquito_risk":0,"arthritis_risk":5,"migraine_risk":7,"frizz_risk":1,"updated_at":"2026-06-13T13:52:27.519904+05:30"},{"city":"Mathura","state":"Uttar Pradesh","latitude":27.4924,"longitude":77.6737,"temp":36.1,"humidity":41,"rain":0.0,"pressure":983.6,"uv_index":8.05,"wind_gusts":27.7,"aqi":567,"pm10":399.5,"pm2_5":88.0,"no2":1.0,"co":246.0,"o3":179.0,"so2":8.1,"mosquito_risk":0,"arthritis_risk":5,"migraine_risk":10,"frizz_risk":1,"updated_at":"2026-06-13T13:52:27.519910+05:30"},{"city":"Vrindavan","state":"Uttar Pradesh","latitude":27.5823,"longitude":77.7027,"temp":36.4,"humidity":40,"rain":0.0,"pressure":984.0,"uv_index":8.0,"wind_gusts":28.4,"aqi":567,"pm10":399.5,"pm2_5":88.0,"no2":1.0,"co":248.0,"o3":179.0,"so2":8.1,"mosquito_risk":0,"arthritis_risk":5,"migraine_risk":10,"frizz_risk":1,"updated_at":"2026-06-13T13:52:27.519917+05:30"},{"city":"Ayodhya","state":"Uttar Pradesh","latitude":26.7922,"longitude":82.1998,"temp":34.1,"humidity":56,"rain":0.0,"pressure":991.4,"uv_index":8.4,"wind_gusts":31.0,"aqi":128,"pm10":94.1,"pm2_5":51.1,"no2":1.1,"co":345.0,"o3":176.0,"so2":8.5,"mosquito_risk":0,"arthritis_risk":5,"migraine_risk":7,"frizz_risk":1,"updated_at":"2026-06-13T13:52:27.519923+05:30"},{"city":"Ratlam","state":"Madhya Pradesh","latitude":23.3315,"longitude":75.0367,"temp":36.4,"humidity":37,"rain":0.0,"pressure":952.3,"uv_index":8.5,"wind_gusts":42.1,"aqi":76,"pm10":100.6,"pm2_5":29.6,"no2":0.5,"co":120.0,"o3":95.0,"so2":3.4,"mosquito_risk":0,"arthritis_risk":5,"migraine_risk":10,"frizz_risk":1,"updated_at":"2026-06-13T13:52:27.519930+05:30"},{"city":"Sagar","state":"Madhya Pradesh","latitude":23.8388,"longitude":78.7378,"temp":37.3,"humidity":35,"rain":0.0,"pressure":947.7,"uv_index":8.15,"wind_gusts":38.9,"aqi":92,"pm10":83.1,"pm2_5":30.4,"no2":0.5,"co":151.0,"o3":121.0,"so2":3.4,"mosquito_risk":0,"arthritis_risk":5,"migraine_risk":10,"frizz_risk":1,"updated_at":"2026-06-13T13:52:27.519936+05:30"},{"city":"Satna","state":"Madhya Pradesh","latitude":24.6005,"longitude":80.8322,"temp":33.3,"humidity":47,"rain":0.0,"pressure":968.5,"uv_index":8.8,"wind_gusts":20.9,"aqi":111,"pm10":97.3,"pm2_5":42.6,"no2":0.6,"co":150.0,"o3":123.0,"so2":3.2,"mosquito_risk":0,"arthritis_risk":5,"migraine_risk":7,"frizz_risk":1,"updated_at":"2026-06-13T13:52:27.519943+05:30"},{"city":"Akola","state":"Maharashtra","latitude":20.7002,"longitude":77.0082,"temp":37.7,"humidity":36,"rain":0.0,"pressure":972.2,"uv_index":8.85,"wind_gusts":42.8,"aqi":79,"pm10":50.6,"pm2_5":20.6,"no2":1.1,"co":116.0,"o3":100.0,"so2":4.5,"mosquito_risk":0,"arthritis_risk":5,"migraine_risk":10,"frizz_risk":1,"updated_at":"2026-06-13T13:52:27.519950+05:30"},{"city":"Amravati","state":"Maharashtra","latitude":20.9374,"longitude":77.7796,"temp":38.5,"humidity":33,"rain":0.0,"pressure":964.6,"uv_index":8.85,"wind_gusts":41.8,"aqi":85,"pm10":50.6,"pm2_5":21.6,"no2":1.3,"co":123.0,"o3":105.0,"so2":5.4,"mosquito_risk":0,"arthritis_risk":5,"migraine_risk":10,"frizz_risk":1,"updated_at":"2026-06-13T13:52:27.519958+05:30"},{"city":"Latur","state":"Maharashtra","latitude":18.4088,"longitude":76.5604,"temp":35.3,"humidity":38,"rain":0.0,"pressure":938.8,"uv_index":8.85,"wind_gusts":36.7,"aqi":72,"pm10":67.5,"pm2_5":23.3,"no2":0.7,"co":119.0,"o3":95.0,"so2":2.2,"mosquito_risk":0,"arthritis_risk":5,"migraine_risk":10,"frizz_risk":1,"updated_at":"2026-06-13T13:52:27.519965+05:30"},{"city":"Nanded","state":"Maharashtra","latitude":19.1383,"longitude":77.3091,"temp":38.1,"humidity":35,"rain":0.0,"pressure":966.4,"uv_index":8.0,"wind_gusts":38.2,"aqi":85,"pm10":65.7,"pm2_5":28.2,"no2":0.9,"co":137.0,"o3":110.0,"so2":3.7,"mosquito_risk":0,"arthritis_risk":5,"migraine_risk":10,"frizz_risk":1,"updated_at":"2026-06-13T13:52:27.519971+05:30"},{"city":"Gulbarga","state":"Karnataka","latitude":17.3297,"longitude":76.8343,"temp":35.1,"humidity":41,"rain":0.0,"pressure":957.4,"uv_index":5.8,"wind_gusts":38.5,"aqi":65,"pm10":54.1,"pm2_5":20.2,"no2":1.1,"co":126.0,"o3":99.0,"so2":2.1,"mosquito_risk":0,"arthritis_risk":5,"migraine_risk":6,"frizz_risk":1,"updated_at":"2026-06-13T13:52:27.519978+05:30"},{"city":"Bidar","state":"Karnataka","latitude":17.9104,"longitude":77.5199,"temp":34.9,"humidity":41,"rain":0.0,"pressure":934.6,"uv_index":7.2,"wind_gusts":36.4,"aqi":74,"pm10":65.0,"pm2_5":26.9,"no2":1.0,"co":131.0,"o3":107.0,"so2":3.5,"mosquito_risk":0,"arthritis_risk":5,"migraine_risk":7,"frizz_risk":1,"updated_at":"2026-06-13T13:52:27.519984+05:30"},{"city":"Hospet","state":"Karnataka","latitude":15.2689,"longitude":76.3909,"temp":32.8,"humidity":51,"rain":0.0,"pressure":955.3,"uv_index":6.35,"wind_gusts":51.1,"aqi":45,"pm10":21.4,"pm2_5":8.9,"no2":1.0,"co":114.0,"o3":83.0,"so2":1.6,"mosquito_risk":0,"arthritis_risk":5,"migraine_risk":7,"frizz_risk":1,"updated_at":"2026-06-13T13:52:27.519991+05:30"},{"city":"Tirupur","state":"Tamil Nadu","latitude":11.1085,"longitude":77.3411,"temp":33.5,"humidity":46,"rain":0.0,"pressure":975.4,"uv_index":8.8,"wind_gusts":47.2,"aqi":58,"pm10":18.0,"pm2_5":9.7,"no2":1.3,"co":130.0,"o3":103.0,"so2":2.1,"mosquito_risk":0,"arthritis_risk":5,"migraine_risk":7,"frizz_risk":1,"updated_at":"2026-06-13T13:52:27.519997+05:30"},{"city":"Alappuzha","state":"Kerala","latitude":9.4981,"longitude":76.3388,"temp":28.7,"humidity":75,"rain":0.0,"pressure":1011.0,"uv_index":7.35,"wind_gusts":32.8,"aqi":50,"pm10":20.5,"pm2_5":9.8,"no2":1.9,"co":93.0,"o3":69.0,"so2":1.5,"mosquito_risk":7,"arthritis_risk":0,"migraine_risk":4,"frizz_risk":1,"updated_at":"2026-06-13T13:52:27.520003+05:30"},{"city":"Munnar","state":"Kerala","latitude":10.0889,"longitude":77.0595,"temp":20.0,"humidity":82,"rain":0.2,"pressure":858.9,"uv_index":7.2,"wind_gusts":41.4,"aqi":40,"pm10":14.6,"pm2_5":7.8,"no2":0.8,"co":101.0,"o3":83.0,"so2":1.4,"mosquito_risk":6,"arthritis_risk":5,"migraine_risk":7,"frizz_risk":1,"updated_at":"2026-06-13T13:52:27.520010+05:30"},{"city":"Silchar","state":"Assam","latitude":24.8333,"longitude":92.7789,"temp":29.8,"humidity":78,"rain":0.0,"pressure":1000.6,"uv_index":8.6,"wind_gusts":22.7,"aqi":79,"pm10":15.6,"pm2_5":12.5,"no2":2.8,"co":183.0,"o3":116.0,"so2":3.5,"mosquito_risk":7,"arthritis_risk":5,"migraine_risk":4,"frizz_risk":1,"updated_at":"2026-06-13T13:52:27.520016+05:30"},{"city":"Dibrugarh","state":"Assam","latitude":27.4728,"longitude":94.912,"temp":30.7,"humidity":71,"rain":0.1,"pressure":989.5,"uv_index":7.3,"wind_gusts":27.4,"aqi":81,"pm10":10.0,"pm2_5":9.4,"no2":0.9,"co":205.0,"o3":118.0,"so2":1.1,"mosquito_risk":6,"arthritis_risk":5,"migraine_risk":7,"frizz_risk":1,"updated_at":"2026-06-13T13:52:27.520023+05:30"}]