[{"city":"Delhi","state":"Delhi","latitude":28.6139,"longitude":77.209,"temp":26.1,"humidity":48,"rain":0.0,"pressure":979.1,"uv_index":7.35,"wind_gusts":31.7,"aqi":430,"pm10":560.7,"pm2_5":107.1,"mosquito_risk":4,"arthritis_risk":5,"migraine_risk":7,"frizz_risk":0,"updated_at":"2026-04-22T03:21:50.926616+05:30"},{"city":"Mumbai","state":"Maharashtra","latitude":19.076,"longitude":72.8777,"temp":29.2,"humidity":76,"rain":0.0,"pressure":1005.8,"uv_index":8.0,"wind_gusts":31.7,"aqi":92,"pm10":41.2,"pm2_5":21.8,"mosquito_risk":7,"arthritis_risk":5,"migraine_risk":4,"frizz_risk":1,"updated_at":"2026-04-22T03:21:50.926662+05:30"},{"city":"Bangalore","state":"Karnataka","latitude":12.9716,"longitude":77.5946,"temp":23.7,"humidity":56,"rain":0.0,"pressure":909.8,"uv_index":9.5,"wind_gusts":29.5,"aqi":67,"pm10":22.7,"pm2_5":20.9,"mosquito_risk":0,"arthritis_risk":5,"migraine_risk":7,"frizz_risk":0,"updated_at":"2026-04-22T03:21:50.926677+05:30"},{"city":"Hyderabad","state":"Telangana","latitude":17.385,"longitude":78.4867,"temp":27.1,"humidity":69,"rain":0.0,"pressure":951.3,"uv_index":9.3,"wind_gusts":18.7,"aqi":96,"pm10":44.7,"pm2_5":40.3,"mosquito_risk":7,"arthritis_risk":5,"migraine_risk":7,"frizz_risk":1,"updated_at":"2026-04-22T03:21:50.926688+05:30"},{"city":"Chennai","state":"Tamil Nadu","latitude":13.0827,"longitude":80.2707,"temp":28.3,"humidity":85,"rain":0.0,"pressure":1005.3,"uv_index":8.85,"wind_gusts":33.5,"aqi":41,"pm10":10.3,"pm2_5":7.4,"mosquito_risk":7,"arthritis_risk":5,"migraine_risk":4,"frizz_risk":1,"updated_at":"2026-04-22T03:21:50.926697+05:30"},{"city":"Kolkata","state":"West Bengal","latitude":22.5726,"longitude":88.3639,"temp":27.8,"humidity":91,"rain":0.0,"pressure":1001.9,"uv_index":8.95,"wind_gusts":29.9,"aqi":84,"pm10":22.6,"pm2_5":20.0,"mosquito_risk":7,"arthritis_risk":5,"migraine_risk":4,"frizz_risk":1,"updated_at":"2026-04-22T03:21:50.926710+05:30"},{"city":"Pune","state":"Maharashtra","latitude":18.5204,"longitude":73.8567,"temp":24.9,"humidity":82,"rain":0.0,"pressure":946.4,"uv_index":8.6,"wind_gusts":37.4,"aqi":123,"pm10":54.1,"pm2_5":48.1,"mosquito_risk":3,"arthritis_risk":5,"migraine_risk":7,"frizz_risk":1,"updated_at":"2026-04-22T03:21:50.926719+05:30"},{"city":"Ahmedabad","state":"Gujarat","latitude":23.0225,"longitude":72.5714,"temp":25.7,"humidity":30,"rain":0.0,"pressure":1001.0,"uv_index":8.2,"wind_gusts":23.8,"aqi":43,"pm10":10.9,"pm2_5":6.8,"mosquito_risk":4,"arthritis_risk":5,"migraine_risk":4,"frizz_risk":0,"updated_at":"2026-04-22T03:21:50.926749+05:30"},{"city":"Jaipur","state":"Rajasthan","latitude":26.9124,"longitude":75.7873,"temp":28.5,"humidity":25,"rain":0.0,"pressure":957.8,"uv_index":8.0,"wind_gusts":31.3,"aqi":119,"pm10":200.7,"pm2_5":35.9,"mosquito_risk":4,"arthritis_risk":5,"migraine_risk":7,"frizz_risk":0,"updated_at":"2026-04-22T03:21:50.926759+05:30"},{"city":"Lucknow","state":"Uttar Pradesh","latitude":26.8467,"longitude":80.9462,"temp":26.5,"humidity":49,"rain":0.0,"pressure":988.9,"uv_index":7.85,"wind_gusts":43.2,"aqi":152,"pm10":497.3,"pm2_5":90.8,"mosquito_risk":4,"arthritis_risk":5,"migraine_risk":7,"frizz_risk":0,"updated_at":"2026-04-22T03:21:50.926767+05:30"},{"city":"Kanpur","state":"Uttar Pradesh","latitude":26.4499,"longitude":80.3319,"temp":25.3,"humidity":56,"rain":0.0,"pressure":987.5,"uv_index":7.9,"wind_gusts":36.0,"aqi":401,"pm10":651.9,"pm2_5":104.3,"mosquito_risk":4,"arthritis_risk":5,"migraine_risk":7,"frizz_risk":0,"updated_at":"2026-04-22T03:21:50.926775+05:30"},{"city":"Chandigarh","state":"Chandigarh","latitude":30.7333,"longitude":76.7794,"temp":22.1,"humidity":50,"rain":0.0,"pressure":964.7,"uv_index":7.35,"wind_gusts":31.7,"aqi":58,"pm10":22.2,"pm2_5":17.9,"mosquito_risk":0,"arthritis_risk":5,"migraine_risk":7,"frizz_risk":0,"updated_at":"2026-04-22T03:21:50.926782+05:30"},{"city":"Srinagar","state":"Jammu and Kashmir","latitude":34.0837,"longitude":74.7973,"temp":9.5,"humidity":77,"rain":0.0,"pressure":838.3,"uv_index":8.5,"wind_gusts":15.8,"aqi":78,"pm10":41.0,"pm2_5":31.4,"mosquito_risk":3,"arthritis_risk":5,"migraine_risk":7,"frizz_risk":0,"updated_at":"2026-04-22T03:21:50.926790+05:30"},{"city":"Jammu","state":"Jammu and Kashmir","latitude":32.7266,"longitude":74.857,"temp":22.9,"humidity":61,"rain":0.0,"pressure":969.2,"uv_index":8.1,"wind_gusts":29.2,"aqi":68,"pm10":29.5,"pm2_5":24.9,"mosquito_risk":3,"arthritis_risk":5,"migraine_risk":7,"frizz_risk":0,"updated_at":"2026-04-22T03:21:50.926798+05:30"},{"city":"Amritsar","state":"Punjab","latitude":31.634,"longitude":74.8723,"temp":23.4,"humidity":60,"rain":0.0,"pressure":977.3,"uv_index":8.05,"wind_gusts":29.2,"aqi":72,"pm10":59.1,"pm2_5":50.1,"mosquito_risk":0,"arthritis_risk":5,"migraine_risk":7,"frizz_risk":0,"updated_at":"2026-04-22T03:21:50.926805+05:30"},{"city":"Ludhiana","state":"Punjab","latitude":30.901,"longitude":75.8573,"temp":24.7,"humidity":41,"rain":0.0,"pressure":975.1,"uv_index":7.6,"wind_gusts":33.1,"aqi":78,"pm10":49.2,"pm2_5":41.1,"mosquito_risk":0,"arthritis_risk":5,"migraine_risk":7,"frizz_risk":0,"updated_at":"2026-04-22T03:21:50.926815+05:30"},{"city":"Jalandhar","state":"Punjab","latitude":31.326,"longitude":75.5762,"temp":23.4,"humidity":49,"rain":0.0,"pressure":976.3,"uv_index":7.8,"wind_gusts":32.0,"aqi":82,"pm10":48.0,"pm2_5":38.2,"mosquito_risk":0,"arthritis_risk":5,"migraine_risk":7,"frizz_risk":0,"updated_at":"2026-04-22T03:21:50.926822+05:30"},{"city":"Dehradun","state":"Uttarakhand","latitude":30.6284,"longitude":78.0322,"temp":16.2,"humidity":51,"rain":0.0,"pressure":827.8,"uv_index":7.75,"wind_gusts":32.4,"aqi":47,"pm10":17.3,"pm2_5":12.9,"mosquito_risk":0,"arthritis_risk":5,"migraine_risk":7,"frizz_risk":0,"updated_at":"2026-04-22T03:21:50.926829+05:30"},{"city":"Shimla","state":"Himachal Pradesh","latitude":31.1048,"longitude":77.1734,"temp":13.8,"humidity":47,"rain":0.0,"pressure":781.8,"uv_index":7.85,"wind_gusts":52.2,"aqi":49,"pm10":29.1,"pm2_5":14.6,"mosquito_risk":0,"arthritis_risk":5,"migraine_risk":7,"frizz_risk":0,"updated_at":"2026-04-22T03:21:50.926837+05:30"},{"city":"Manali","state":"Himachal Pradesh","latitude":32.2396,"longitude":77.1887,"temp":18.0,"humidity":33,"rain":0.0,"pressure":819.1,"uv_index":9.3,"wind_gusts":31.0,"aqi":49,"pm10":30.0,"pm2_5":10.2,"mosquito_risk":0,"arthritis_risk":5,"migraine_risk":7,"frizz_risk":0,"updated_at":"2026-04-22T03:21:50.926843+05:30"},{"city":"Gurgaon","state":"Haryana","latitude":28.4595,"longitude":77.0266,"temp":24.0,"humidity":56,"rain":0.0,"pressure":977.5,"uv_index":7.45,"wind_gusts":29.2,"aqi":1093,"pm10":746.9,"pm2_5":112.9,"mosquito_risk":0,"arthritis_risk":5,"migraine_risk":7,"frizz_risk":0,"updated_at":"2026-04-22T03:21:50.926851+05:30"},{"city":"Noida","state":"Uttar Pradesh","latitude":28.5355,"longitude":77.391,"temp":26.1,"humidity":47,"rain":0.0,"pressure":980.6,"uv_index":7.35,"wind_gusts":32.4,"aqi":1093,"pm10":746.9,"pm2_5":112.9,"mosquito_risk":4,"arthritis_risk":5,"migraine_risk":7,"frizz_risk":0,"updated_at":"2026-04-22T03:21:50.926860+05:30"},{"city":"Ghaziabad","state":"Uttar Pradesh","latitude":28.6692,"longitude":77.4538,"temp":24.9,"humidity":54,"rain":0.0,"pressure":978.6,"uv_index":7.35,"wind_gusts":32.4,"aqi":319,"pm10":609.1,"pm2_5":111.5,"mosquito_risk":0,"arthritis_risk":5,"migraine_risk":7,"frizz_risk":0,"updated_at":"2026-04-22T03:21:50.926866+05:30"},{"city":"Faridabad","state":"Haryana","latitude":28.4089,"longitude":77.3178,"temp":26.1,"humidity":43,"rain":0.0,"pressure":979.8,"uv_index":7.4,"wind_gusts":33.1,"aqi":1093,"pm10":746.9,"pm2_5":112.9,"mosquito_risk":4,"arthritis_risk":5,"migraine_risk":7,"frizz_risk":0,"updated_at":"2026-04-22T03:21:50.926874+05:30"},{"city":"Meerut","state":"Uttar Pradesh","latitude":28.9845,"longitude":77.7064,"temp":24.0,"humidity":54,"rain":0.0,"pressure":977.1,"uv_index":7.25,"wind_gusts":37.1,"aqi":319,"pm10":609.1,"pm2_5":111.5,"mosquito_risk":0,"arthritis_risk":5,"migraine_risk":7,"frizz_risk":0,"updated_at":"2026-04-22T03:21:50.926881+05:30"},{"city":"Agra","state":"Uttar Pradesh","latitude":27.1767,"longitude":78.0081,"temp":25.1,"humidity":52,"rain":0.0,"pressure":983.9,"uv_index":7.75,"wind_gusts":35.6,"aqi":751,"pm10":940.6,"pm2_5":147.1,"mosquito_risk":4,"arthritis_risk":5,"migraine_risk":7,"frizz_risk":0,"updated_at":"2026-04-22T03:21:50.926890+05:30"},{"city":"Varanasi","state":"Uttar Pradesh","latitude":25.3176,"longitude":82.9739,"temp":27.0,"humidity":39,"rain":0.0,"pressure":993.2,"uv_index":8.5,"wind_gusts":42.1,"aqi":99,"pm10":156.0,"pm2_5":41.4,"mosquito_risk":4,"arthritis_risk":5,"migraine_risk":7,"frizz_risk":0,"updated_at":"2026-04-22T03:21:50.926897+05:30"},{"city":"Prayagraj","state":"Uttar Pradesh","latitude":25.4358,"longitude":81.8463,"temp":28.1,"humidity":43,"rain":0.0,"pressure":991.9,"uv_index":8.35,"wind_gusts":37.1,"aqi":104,"pm10":299.0,"pm2_5":58.2,"mosquito_risk":4,"arthritis_risk":5,"migraine_risk":7,"frizz_risk":0,"updated_at":"2026-04-22T03:21:50.926907+05:30"},{"city":"Gorakhpur","state":"Uttar Pradesh","latitude":26.7606,"longitude":83.3732,"temp":25.9,"humidity":36,"rain":0.0,"pressure":991.6,"uv_index":8.25,"wind_gusts":43.9,"aqi":75,"pm10":160.2,"pm2_5":42.0,"mosquito_risk":4,"arthritis_risk":5,"migraine_risk":7,"frizz_risk":0,"updated_at":"2026-04-22T03:21:50.926914+05:30"},{"city":"Bareilly","state":"Uttar Pradesh","latitude":28.367,"longitude":79.4304,"temp":22.8,"humidity":53,"rain":0.0,"pressure":982.0,"uv_index":7.55,"wind_gusts":37.8,"aqi":90,"pm10":219.8,"pm2_5":54.5,"mosquito_risk":0,"arthritis_risk":5,"migraine_risk":7,"frizz_risk":0,"updated_at":"2026-04-22T03:21:50.926921+05:30"},{"city":"Aligarh","state":"Uttar Pradesh","latitude":27.8974,"longitude":78.088,"temp":24.5,"humidity":48,"rain":0.0,"pressure":981.5,"uv_index":7.5,"wind_gusts":36.7,"aqi":758,"pm10":622.1,"pm2_5":100.4,"mosquito_risk":0,"arthritis_risk":5,"migraine_risk":7,"frizz_risk":0,"updated_at":"2026-04-22T03:21:50.926928+05:30"},{"city":"Moradabad","state":"Uttar Pradesh","latitude":28.8386,"longitude":78.7733,"temp":22.7,"humidity":51,"rain":0.0,"pressure":979.2,"uv_index":7.4,"wind_gusts":37.4,"aqi":113,"pm10":276.6,"pm2_5":70.8,"mosquito_risk":0,"arthritis_risk":5,"migraine_risk":7,"frizz_risk":0,"updated_at":"2026-04-22T03:21:50.926935+05:30"},{"city":"Saharanpur","state":"Uttar Pradesh","latitude":29.9637,"longitude":77.546,"temp":22.3,"humidity":55,"rain":0.0,"pressure":971.5,"uv_index":7.05,"wind_gusts":36.0,"aqi":84,"pm10":55.5,"pm2_5":40.4,"mosquito_risk":0,"arthritis_risk":5,"migraine_risk":7,"frizz_risk":0,"updated_at":"2026-04-22T03:21:50.926941+05:30"},{"city":"Jhansi","state":"Uttar Pradesh","latitude":25.4484,"longitude":78.5685,"temp":28.7,"humidity":33,"rain":0.0,"pressure":974.8,"uv_index":8.25,"wind_gusts":31.3,"aqi":124,"pm10":25.9,"pm2_5":11.8,"mosquito_risk":4,"arthritis_risk":5,"migraine_risk":7,"frizz_risk":0,"updated_at":"2026-04-22T03:21:54.273459+05:30"},{"city":"Surat","state":"Gujarat","latitude":21.1702,"longitude":72.8311,"temp":28.2,"humidity":69,"rain":0.0,"pressure":1004.5,"uv_index":7.9,"wind_gusts":21.6,"aqi":106,"pm10":37.0,"pm2_5":27.4,"mosquito_risk":7,"arthritis_risk":5,"migraine_risk":4,"frizz_risk":1,"updated_at":"2026-04-22T03:21:54.273489+05:30"},{"city":"Vadodara","state":"Gujarat","latitude":22.3072,"longitude":73.1812,"temp":27.6,"humidity":47,"rain":0.0,"pressure":1002.6,"uv_index":8.15,"wind_gusts":23.0,"aqi":84,"pm10":52.7,"pm2_5":44.5,"mosquito_risk":4,"arthritis_risk":5,"migraine_risk":4,"frizz_risk":0,"updated_at":"2026-04-22T03:21:54.273499+05:30"},{"city":"Rajkot","state":"Gujarat","latitude":22.3039,"longitude":70.8022,"temp":23.6,"humidity":65,"rain":0.0,"pressure":993.3,"uv_index":7.9,"wind_gusts":28.8,"aqi":56,"pm10":27.7,"pm2_5":13.1,"mosquito_risk":3,"arthritis_risk":5,"migraine_risk":7,"frizz_risk":1,"updated_at":"2026-04-22T03:21:54.273507+05:30"},{"city":"Thane","state":"Maharashtra","latitude":19.2183,"longitude":72.9781,"temp":26.7,"humidity":76,"rain":0.0,"pressure":1005.3,"uv_index":8.05,"wind_gusts":41.8,"aqi":92,"pm10":41.2,"pm2_5":21.8,"mosquito_risk":7,"arthritis_risk":5,"migraine_risk":4,"frizz_risk":1,"updated_at":"2026-04-22T03:21:54.273514+05:30"},{"city":"Nagpur","state":"Maharashtra","latitude":21.1458,"longitude":79.0882,"temp":29.0,"humidity":51,"rain":0.0,"pressure":971.0,"uv_index":8.95,"wind_gusts":28.8,"aqi":79,"pm10":32.7,"pm2_5":28.3,"mosquito_risk":4,"arthritis_risk":5,"migraine_risk":7,"frizz_risk":1,"updated_at":"2026-04-22T03:21:54.273522+05:30"},{"city":"Nashik","state":"Maharashtra","latitude":19.9975,"longitude":73.7898,"temp":25.9,"humidity":55,"rain":0.0,"pressure":943.8,"uv_index":8.3,"wind_gusts":37.1,"aqi":74,"pm10":42.6,"pm2_5":25.5,"mosquito_risk":4,"arthritis_risk":5,"migraine_risk":7,"frizz_risk":1,"updated_at":"2026-04-22T03:21:54.273529+05:30"},{"city":"Aurangabad","state":"Maharashtra","latitude":19.8762,"longitude":75.3433,"temp":28.6,"humidity":36,"rain":0.0,"pressure":942.2,"uv_index":9.05,"wind_gusts":31.7,"aqi":81,"pm10":39.0,"pm2_5":32.1,"mosquito_risk":4,"arthritis_risk":5,"migraine_risk":7,"frizz_risk":0,"updated_at":"2026-04-22T03:21:54.273536+05:30"},{"city":"Solapur","state":"Maharashtra","latitude":17.6599,"longitude":75.9064,"temp":27.1,"humidity":66,"rain":0.0,"pressure":954.7,"uv_index":9.05,"wind_gusts":21.6,"aqi":107,"pm10":60.1,"pm2_5":54.9,"mosquito_risk":7,"arthritis_risk":5,"migraine_risk":7,"frizz_risk":1,"updated_at":"2026-04-22T03:21:54.273543+05:30"},{"city":"Kolhapur","state":"Maharashtra","latitude":16.705,"longitude":74.2433,"temp":22.8,"humidity":95,"rain":0.0,"pressure":945.6,"uv_index":9.05,"wind_gusts":31.7,"aqi":99,"pm10":44.1,"pm2_5":36.6,"mosquito_risk":3,"arthritis_risk":5,"migraine_risk":7,"frizz_risk":1,"updated_at":"2026-04-22T03:21:54.273550+05:30"},{"city":"Goa","state":"Goa","latitude":15.2993,"longitude":74.124,"temp":27.6,"humidity":91,"rain":0.0,"pressure":995.4,"uv_index":9.0,"wind_gusts":29.9,"aqi":73,"pm10":37.7,"pm2_5":24.2,"mosquito_risk":7,"arthritis_risk":5,"migraine_risk":7,"frizz_risk":1,"updated_at":"2026-04-22T03:21:54.273557+05:30"},{"city":"Jodhpur","state":"Rajasthan","latitude":26.2389,"longitude":73.0243,"temp":26.9,"humidity":28,"rain":0.0,"pressure":981.1,"uv_index":8.2,"wind_gusts":28.8,"aqi":113,"pm10":159.7,"pm2_5":23.4,"mosquito_risk":4,"arthritis_risk":5,"migraine_risk":7,"frizz_risk":0,"updated_at":"2026-04-22T03:21:54.273564+05:30"},{"city":"Udaipur","state":"Rajasthan","latitude":24.5854,"longitude":73.7125,"temp":24.0,"humidity":33,"rain":0.0,"pressure":945.3,"uv_index":8.75,"wind_gusts":43.2,"aqi":47,"pm10":11.5,"pm2_5":7.3,"mosquito_risk":0,"arthritis_risk":5,"migraine_risk":7,"frizz_risk":0,"updated_at":"2026-04-22T03:21:54.273571+05:30"},{"city":"Kota","state":"Rajasthan","latitude":25.2138,"longitude":75.8648,"temp":26.9,"humidity":26,"rain":0.0,"pressure":976.6,"uv_index":8.25,"wind_gusts":24.8,"aqi":56,"pm10":8.6,"pm2_5":8.2,"mosquito_risk":4,"arthritis_risk":5,"migraine_risk":7,"frizz_risk":0,"updated_at":"2026-04-22T03:21:54.273579+05:30"},{"city":"Bikaner","state":"Rajasthan","latitude":28.0229,"longitude":73.3119,"temp":29.8,"humidity":30,"rain":0.0,"pressure":978.8,"uv_index":8.05,"wind_gusts":28.8,"aqi":53,"pm10":58.4,"pm2_5":18.6,"mosquito_risk":4,"arthritis_risk":5,"migraine_risk":7,"frizz_risk":0,"updated_at":"2026-04-22T03:21:54.273586+05:30"},{"city":"Ajmer","state":"Rajasthan","latitude":26.4499,"longitude":74.6399,"temp":25.2,"humidity":30,"rain":0.0,"pressure":953.0,"uv_index":8.2,"wind_gusts":34.9,"aqi":61,"pm10":9.9,"pm2_5":6.0,"mosquito_risk":4,"arthritis_risk":5,"migraine_risk":7,"frizz_risk":0,"updated_at":"2026-04-22T03:21:54.273593+05:30"},{"city":"Gwalior","state":"Madhya Pradesh","latitude":26.2183,"longitude":78.1828,"temp":28.0,"humidity":43,"rain":0.0,"pressure":979.9,"uv_index":8.0,"wind_gusts":37.8,"aqi":187,"pm10":147.6,"pm2_5":27.4,"mosquito_risk":4,"arthritis_risk":5,"migraine_risk":7,"frizz_risk":0,"updated_at":"2026-04-22T03:21:54.273600+05:30"},{"city":"Indore","state":"Madhya Pradesh","latitude":22.7196,"longitude":75.8577,"temp":24.8,"humidity":47,"rain":0.0,"pressure":946.7,"uv_index":8.65,"wind_gusts":32.8,"aqi":57,"pm10":17.1,"pm2_5":14.8,"mosquito_risk":0,"arthritis_risk":5,"migraine_risk":7,"frizz_risk":0,"updated_at":"2026-04-22T03:21:54.273607+05:30"},{"city":"Bhopal","state":"Madhya Pradesh","latitude":23.2599,"longitude":77.4126,"temp":25.5,"humidity":43,"rain":0.0,"pressure":952.2,"uv_index":8.65,"wind_gusts":36.7,"aqi":51,"pm10":15.2,"pm2_5":14.4,"mosquito_risk":4,"arthritis_risk":5,"migraine_risk":7,"frizz_risk":0,"updated_at":"2026-04-22T03:21:54.273613+05:30"},{"city":"Jabalpur","state":"Madhya Pradesh","latitude":23.1815,"longitude":79.9864,"temp":26.0,"humidity":53,"rain":0.0,"pressure":959.2,"uv_index":8.85,"wind_gusts":30.6,"aqi":66,"pm10":18.7,"pm2_5":15.8,"mosquito_risk":4,"arthritis_risk":5,"migraine_risk":7,"frizz_risk":0,"updated_at":"2026-04-22T03:21:54.273620+05:30"},{"city":"Ujjain","state":"Madhya Pradesh","latitude":23.1765,"longitude":75.7885,"temp":26.1,"humidity":38,"rain":0.0,"pressure":952.6,"uv_index":8.6,"wind_gusts":35.3,"aqi":57,"pm10":17.9,"pm2_5":15.5,"mosquito_risk":4,"arthritis_risk":5,"migraine_risk":7,"frizz_risk":0,"updated_at":"2026-04-22T03:21:54.273627+05:30"},{"city":"Visakhapatnam","state":"Andhra Pradesh","latitude":17.6868,"longitude":83.2185,"temp":27.3,"humidity":90,"rain":0.0,"pressure":1001.3,"uv_index":9.0,"wind_gusts":39.2,"aqi":58,"pm10":18.0,"pm2_5":14.6,"mosquito_risk":7,"arthritis_risk":5,"migraine_risk":4,"frizz_risk":1,"updated_at":"2026-04-22T03:21:54.273634+05:30"},{"city":"Vijayawada","state":"Andhra Pradesh","latitude":16.5062,"longitude":80.648,"temp":27.2,"humidity":88,"rain":0.0,"pressure":1000.7,"uv_index":9.25,"wind_gusts":25.2,"aqi":56,"pm10":12.3,"pm2_5":10.0,"mosquito_risk":7,"arthritis_risk":5,"migraine_risk":4,"frizz_risk":1,"updated_at":"2026-04-22T03:21:54.273642+05:30"},{"city":"Guntur","state":"Andhra Pradesh","latitude":16.3067,"longitude":80.4365,"temp":27.4,"humidity":88,"rain":0.0,"pressure":1001.9,"uv_index":9.25,"wind_gusts":29.9,"aqi":59,"pm10":11.9,"pm2_5":9.5,"mosquito_risk":7,"arthritis_risk":5,"migraine_risk":4,"frizz_risk":1,"updated_at":"2026-04-22T03:21:54.273649+05:30"},{"city":"Nellore","state":"Andhra Pradesh","latitude":14.4426,"longitude":79.9865,"temp":26.8,"humidity":92,"rain":0.0,"pressure":1003.8,"uv_index":9.2,"wind_gusts":34.6,"aqi":47,"pm10":9.3,"pm2_5":7.9,"mosquito_risk":7,"arthritis_risk":5,"migraine_risk":4,"frizz_risk":1,"updated_at":"2026-04-22T03:21:54.273656+05:30"},{"city":"Kurnool","state":"Andhra Pradesh","latitude":15.8281,"longitude":78.0373,"temp":28.7,"humidity":63,"rain":0.0,"pressure":974.7,"uv_index":9.25,"wind_gusts":35.3,"aqi":85,"pm10":39.8,"pm2_5":35.4,"mosquito_risk":7,"arthritis_risk":5,"migraine_risk":7,"frizz_risk":1,"updated_at":"2026-04-22T03:21:54.273663+05:30"},{"city":"Kakinada","state":"Andhra Pradesh","latitude":16.9891,"longitude":82.2475,"temp":27.0,"humidity":93,"rain":0.0,"pressure":1005.4,"uv_index":9.2,"wind_gusts":27.7,"aqi":44,"pm10":12.9,"pm2_5":8.9,"mosquito_risk":7,"arthritis_risk":5,"migraine_risk":4,"frizz_risk":1,"updated_at":"2026-04-22T03:21:54.273670+05:30"},{"city":"Tirupati","state":"Andhra Pradesh","latitude":13.6288,"longitude":79.4192,"temp":25.2,"humidity":87,"rain":0.0,"pressure":990.2,"uv_index":9.35,"wind_gusts":32.8,"aqi":58,"pm10":16.0,"pm2_5":15.1,"mosquito_risk":7,"arthritis_risk":5,"migraine_risk":7,"frizz_risk":1,"updated_at":"2026-04-22T03:21:54.273677+05:30"},{"city":"Warangal","state":"Telangana","latitude":17.9689,"longitude":79.5941,"temp":28.4,"humidity":65,"rain":0.0,"pressure":976.1,"uv_index":9.15,"wind_gusts":21.2,"aqi":93,"pm10":35.7,"pm2_5":33.9,"mosquito_risk":7,"arthritis_risk":5,"migraine_risk":7,"frizz_risk":1,"updated_at":"2026-04-22T03:21:54.273683+05:30"},{"city":"Nizamabad","state":"Telangana","latitude":18.6725,"longitude":78.0941,"temp":29.2,"humidity":58,"rain":0.0,"pressure":962.8,"uv_index":9.15,"wind_gusts":28.1,"aqi":105,"pm10":44.5,"pm2_5":42.1,"mosquito_risk":4,"arthritis_risk":5,"migraine_risk":7,"frizz_risk":1,"updated_at":"2026-04-22T03:21:54.273690+05:30"},{"city":"Mysore","state":"Karnataka","latitude":12.2958,"longitude":76.6396,"temp":23.5,"humidity":90,"rain":0.0,"pressure":926.8,"uv_index":9.45,"wind_gusts":38.2,"aqi":84,"pm10":31.1,"pm2_5":28.9,"mosquito_risk":3,"arthritis_risk":5,"migraine_risk":7,"frizz_risk":1,"updated_at":"2026-04-22T03:21:54.273696+05:30"},{"city":"Mangalore","state":"Karnataka","latitude":12.9141,"longitude":74.856,"temp":27.8,"humidity":87,"rain":0.0,"pressure":1004.7,"uv_index":9.1,"wind_gusts":25.6,"aqi":85,"pm10":39.8,"pm2_5":32.9,"mosquito_risk":7,"arthritis_risk":5,"migraine_risk":4,"frizz_risk":1,"updated_at":"2026-04-22T03:21:54.273704+05:30"},{"city":"Hubli-Dharwad","state":"Karnataka","latitude":15.3647,"longitude":75.124,"temp":23.6,"humidity":83,"rain":0.0,"pressure":938.9,"uv_index":9.2,"wind_gusts":38.9,"aqi":90,"pm10":31.0,"pm2_5":28.1,"mosquito_risk":3,"arthritis_risk":5,"migraine_risk":7,"frizz_risk":1,"updated_at":"2026-04-22T03:21:54.273711+05:30"},{"city":"Belgaum","state":"Karnataka","latitude":15.8497,"longitude":74.4977,"temp":22.4,"humidity":99,"rain":0.0,"pressure":923.0,"uv_index":9.25,"wind_gusts":40.7,"aqi":90,"pm10":32.8,"pm2_5":25.1,"mosquito_risk":3,"arthritis_risk":5,"migraine_risk":7,"frizz_risk":1,"updated_at":"2026-04-22T03:21:57.623342+05:30"},{"city":"Coimbatore","state":"Tamil Nadu","latitude":11.0168,"longitude":76.9558,"temp":24.8,"humidity":89,"rain":0.0,"pressure":959.7,"uv_index":9.4,"wind_gusts":41.4,"aqi":81,"pm10":32.2,"pm2_5":28.5,"mosquito_risk":3,"arthritis_risk":5,"migraine_risk":7,"frizz_risk":1,"updated_at":"2026-04-22T03:21:57.623375+05:30"},{"city":"Madurai","state":"Tamil Nadu","latitude":9.9252,"longitude":78.1198,"temp":26.3,"humidity":87,"rain":0.0,"pressure":991.0,"uv_index":9.3,"wind_gusts":40.0,"aqi":59,"pm10":21.4,"pm2_5":20.1,"mosquito_risk":7,"arthritis_risk":5,"migraine_risk":7,"frizz_risk":1,"updated_at":"2026-04-22T03:21:57.623387+05:30"},{"city":"Trichy","state":"Tamil Nadu","latitude":10.7905,"longitude":78.7047,"temp":27.4,"humidity":86,"rain":0.0,"pressure":997.8,"uv_index":9.3,"wind_gusts":19.1,"aqi":48,"pm10":15.3,"pm2_5":14.7,"mosquito_risk":7,"arthritis_risk":5,"migraine_risk":7,"frizz_risk":1,"updated_at":"2026-04-22T03:21:57.623397+05:30"},{"city":"Salem","state":"Tamil Nadu","latitude":11.6643,"longitude":78.146,"temp":27.3,"humidity":75,"rain":0.0,"pressure":975.5,"uv_index":9.3,"wind_gusts":23.4,"aqi":56,"pm10":14.0,"pm2_5":13.4,"mosquito_risk":7,"arthritis_risk":5,"migraine_risk":7,"frizz_risk":1,"updated_at":"2026-04-22T03:21:57.623407+05:30"},{"city":"Tirunelveli","state":"Tamil Nadu","latitude":8.7139,"longitude":77.7567,"temp":26.8,"humidity":80,"rain":0.0,"pressure":1001.1,"uv_index":9.25,"wind_gusts":50.8,"aqi":61,"pm10":20.4,"pm2_5":18.6,"mosquito_risk":7,"arthritis_risk":5,"migraine_risk":4,"frizz_risk":1,"updated_at":"2026-04-22T03:21:57.623415+05:30"},{"city":"Vellore","state":"Tamil Nadu","latitude":12.9165,"longitude":79.1325,"temp":25.7,"humidity":79,"rain":0.0,"pressure":983.0,"uv_index":9.35,"wind_gusts":29.5,"aqi":64,"pm10":32.4,"pm2_5":31.4,"mosquito_risk":7,"arthritis_risk":5,"migraine_risk":7,"frizz_risk":1,"updated_at":"2026-04-22T03:21:57.623424+05:30"},{"city":"Erode","state":"Tamil Nadu","latitude":11.341,"longitude":77.7172,"temp":28.9,"humidity":74,"rain":0.0,"pressure":987.0,"uv_index":9.35,"wind_gusts":24.5,"aqi":49,"pm10":8.3,"pm2_5":8.0,"mosquito_risk":7,"arthritis_risk":5,"migraine_risk":7,"frizz_risk":1,"updated_at":"2026-04-22T03:21:57.623432+05:30"},{"city":"Kochi","state":"Kerala","latitude":9.9312,"longitude":76.2673,"temp":28.0,"humidity":84,"rain":0.0,"pressure":1006.4,"uv_index":9.05,"wind_gusts":28.8,"aqi":76,"pm10":36.2,"pm2_5":32.2,"mosquito_risk":7,"arthritis_risk":5,"migraine_risk":4,"frizz_risk":1,"updated_at":"2026-04-22T03:21:57.623441+05:30"},{"city":"Thiruvananthapuram","state":"Kerala","latitude":8.5241,"longitude":76.9366,"temp":28.3,"humidity":82,"rain":0.0,"pressure":1005.5,"uv_index":8.95,"wind_gusts":28.4,"aqi":52,"pm10":17.4,"pm2_5":13.0,"mosquito_risk":7,"arthritis_risk":5,"migraine_risk":4,"frizz_risk":1,"updated_at":"2026-04-22T03:21:57.623450+05:30"},{"city":"Kozhikode","state":"Kerala","latitude":11.2588,"longitude":75.7804,"temp":29.0,"humidity":81,"rain":0.0,"pressure":1005.6,"uv_index":9.1,"wind_gusts":29.5,"aqi":70,"pm10":34.0,"pm2_5":25.1,"mosquito_risk":7,"arthritis_risk":5,"migraine_risk":4,"frizz_risk":1,"updated_at":"2026-04-22T03:21:57.623458+05:30"},{"city":"Thrissur","state":"Kerala","latitude":10.5276,"longitude":76.2144,"temp":26.6,"humidity":86,"rain":0.0,"pressure":1004.8,"uv_index":9.0,"wind_gusts":36.7,"aqi":75,"pm10":45.4,"pm2_5":38.5,"mosquito_risk":7,"arthritis_risk":5,"migraine_risk":4,"frizz_risk":1,"updated_at":"2026-04-22T03:21:57.623466+05:30"},{"city":"Kannur","state":"Kerala","latitude":11.8745,"longitude":75.3704,"temp":28.2,"humidity":86,"rain":0.0,"pressure":1004.9,"uv_index":8.9,"wind_gusts":32.8,"aqi":80,"pm10":38.4,"pm2_5":33.3,"mosquito_risk":7,"arthritis_risk":5,"migraine_risk":4,"frizz_risk":1,"updated_at":"2026-04-22T03:21:57.623473+05:30"},{"city":"Patna","state":"Bihar","latitude":25.5941,"longitude":85.1376,"temp":27.1,"humidity":45,"rain":0.0,"pressure":994.9,"uv_index":8.65,"wind_gusts":40.0,"aqi":92,"pm10":78.9,"pm2_5":26.8,"mosquito_risk":4,"arthritis_risk":5,"migraine_risk":7,"frizz_risk":0,"updated_at":"2026-04-22T03:21:57.623480+05:30"},{"city":"Gaya","state":"Bihar","latitude":24.7914,"longitude":85.0002,"temp":28.1,"humidity":41,"rain":0.0,"pressure":989.2,"uv_index":8.75,"wind_gusts":45.0,"aqi":96,"pm10":59.8,"pm2_5":28.8,"mosquito_risk":4,"arthritis_risk":5,"migraine_risk":7,"frizz_risk":0,"updated_at":"2026-04-22T03:21:57.623487+05:30"},{"city":"Muzaffarpur","state":"Bihar","latitude":26.1209,"longitude":85.3647,"temp":25.5,"humidity":44,"rain":0.0,"pressure":994.4,"uv_index":8.6,"wind_gusts":26.3,"aqi":88,"pm10":97.3,"pm2_5":28.2,"mosquito_risk":4,"arthritis_risk":5,"migraine_risk":7,"frizz_risk":0,"updated_at":"2026-04-22T03:21:57.623494+05:30"},{"city":"Bhagalpur","state":"Bihar","latitude":25.2425,"longitude":87.0117,"temp":26.2,"humidity":56,"rain":0.0,"pressure":995.3,"uv_index":8.7,"wind_gusts":19.1,"aqi":100,"pm10":52.2,"pm2_5":23.6,"mosquito_risk":4,"arthritis_risk":5,"migraine_risk":7,"frizz_risk":1,"updated_at":"2026-04-22T03:21:57.623500+05:30"},{"city":"Ranchi","state":"Jharkhand","latitude":23.3441,"longitude":85.3096,"temp":26.7,"humidity":32,"rain":0.0,"pressure":935.1,"uv_index":9.25,"wind_gusts":38.9,"aqi":78,"pm10":109.9,"pm2_5":35.2,"mosquito_risk":4,"arthritis_risk":5,"migraine_risk":7,"frizz_risk":0,"updated_at":"2026-04-22T03:21:57.623507+05:30"},{"city":"Jamshedpur","state":"Jharkhand","latitude":22.8046,"longitude":86.2029,"temp":28.7,"humidity":68,"rain":0.0,"pressure":986.8,"uv_index":9.05,"wind_gusts":25.2,"aqi":111,"pm10":53.9,"pm2_5":46.1,"mosquito_risk":7,"arthritis_risk":5,"migraine_risk":7,"frizz_risk":1,"updated_at":"2026-04-22T03:21:57.623513+05:30"},{"city":"Dhanbad","state":"Jharkhand","latitude":23.7957,"longitude":86.4304,"temp":28.9,"humidity":34,"rain":0.0,"pressure":975.6,"uv_index":9.05,"wind_gusts":42.1,"aqi":137,"pm10":129.0,"pm2_5":55.8,"mosquito_risk":4,"arthritis_risk":5,"migraine_risk":7,"frizz_risk":0,"updated_at":"2026-04-22T03:21:57.623520+05:30"},{"city":"Bokaro","state":"Jharkhand","latitude":23.6693,"longitude":86.1511,"temp":26.7,"humidity":40,"rain":0.0,"pressure":979.9,"uv_index":9.05,"wind_gusts":43.2,"aqi":122,"pm10":128.5,"pm2_5":52.9,"mosquito_risk":4,"arthritis_risk":5,"migraine_risk":7,"frizz_risk":0,"updated_at":"2026-04-22T03:21:57.623527+05:30"},{"city":"Bhubaneswar","state":"Odisha","latitude":20.2961,"longitude":85.8245,"temp":26.7,"humidity":95,"rain":0.0,"pressure":998.8,"uv_index":9.15,"wind_gusts":29.5,"aqi":75,"pm10":18.7,"pm2_5":16.2,"mosquito_risk":7,"arthritis_risk":5,"migraine_risk":7,"frizz_risk":1,"updated_at":"2026-04-22T03:21:57.623533+05:30"},{"city":"Cuttack","state":"Odisha","latitude":20.4625,"longitude":85.8828,"temp":27.0,"humidity":95,"rain":0.0,"pressure":1000.6,"uv_index":9.2,"wind_gusts":32.0,"aqi":75,"pm10":18.7,"pm2_5":16.2,"mosquito_risk":7,"arthritis_risk":5,"migraine_risk":4,"frizz_risk":1,"updated_at":"2026-04-22T03:21:57.623540+05:30"},{"city":"Rourkela","state":"Odisha","latitude":22.2604,"longitude":84.8536,"temp":28.0,"humidity":69,"rain":0.0,"pressure":981.6,"uv_index":9.0,"wind_gusts":33.5,"aqi":118,"pm10":47.8,"pm2_5":43.1,"mosquito_risk":7,"arthritis_risk":5,"migraine_risk":7,"frizz_risk":1,"updated_at":"2026-04-22T03:21:57.623547+05:30"},{"city":"Raipur","state":"Chhattisgarh","latitude":21.2514,"longitude":81.6296,"temp":29.2,"humidity":58,"rain":0.0,"pressure":972.0,"uv_index":9.0,"wind_gusts":36.4,"aqi":109,"pm10":47.7,"pm2_5":45.8,"mosquito_risk":4,"arthritis_risk":5,"migraine_risk":7,"frizz_risk":1,"updated_at":"2026-04-22T03:21:57.623553+05:30"},{"city":"Bhilai","state":"Chhattisgarh","latitude":21.1938,"longitude":81.3509,"temp":28.5,"humidity":61,"rain":0.0,"pressure":972.4,"uv_index":9.0,"wind_gusts":34.6,"aqi":101,"pm10":43.8,"pm2_5":41.6,"mosquito_risk":7,"arthritis_risk":5,"migraine_risk":7,"frizz_risk":1,"updated_at":"2026-04-22T03:21:57.623559+05:30"},{"city":"Guwahati","state":"Assam","latitude":26.1158,"longitude":91.7086,"temp":23.2,"humidity":87,"rain":0.0,"pressure":997.8,"uv_index":8.6,"wind_gusts":42.5,"aqi":99,"pm10":41.8,"pm2_5":35.5,"mosquito_risk":3,"arthritis_risk":5,"migraine_risk":7,"frizz_risk":1,"updated_at":"2026-04-22T03:21:57.623565+05:30"},{"city":"Agartala","state":"Tripura","latitude":23.8315,"longitude":91.2868,"temp":26.9,"humidity":91,"rain":0.0,"pressure":1003.4,"uv_index":8.85,"wind_gusts":38.9,"aqi":78,"pm10":20.5,"pm2_5":17.7,"mosquito_risk":7,"arthritis_risk":5,"migraine_risk":4,"frizz_risk":1,"updated_at":"2026-04-22T03:21:57.623572+05:30"},{"city":"Shillong","state":"Meghalaya","latitude":25.5788,"longitude":91.8933,"temp":16.6,"humidity":90,"rain":0.0,"pressure":853.5,"uv_index":9.05,"wind_gusts":77.4,"aqi":64,"pm10":12.0,"pm2_5":7.8,"mosquito_risk":3,"arthritis_risk":10,"migraine_risk":7,"frizz_risk":0,"updated_at":"2026-04-22T03:21:57.623580+05:30"},{"city":"Imphal","state":"Manipur","latitude":24.817,"longitude":93.9368,"temp":19.8,"humidity":88,"rain":0.0,"pressure":921.3,"uv_index":9.2,"wind_gusts":84.6,"aqi":153,"pm10":75.4,"pm2_5":69.6,"mosquito_risk":3,"arthritis_risk":10,"migraine_risk":7,"frizz_risk":1,"updated_at":"2026-04-22T03:21:57.623587+05:30"},{"city":"Aizawl","state":"Mizoram","latitude":23.7271,"longitude":92.7176,"temp":20.8,"humidity":88,"rain":0.0,"pressure":891.6,"uv_index":9.05,"wind_gusts":59.4,"aqi":99,"pm10":32.4,"pm2_5":27.2,"mosquito_risk":3,"arthritis_risk":5,"migraine_risk":7,"frizz_risk":1,"updated_at":"2026-04-22T03:21:57.623593+05:30"},{"city":"Kohima","state":"Nagaland","latitude":25.6701,"longitude":94.1077,"temp":18.4,"humidity":79,"rain":0.0,"pressure":852.5,"uv_index":9.15,"wind_gusts":95.8,"aqi":99,"pm10":48.0,"pm2_5":37.7,"mosquito_risk":3,"arthritis_risk":5,"migraine_risk":7,"frizz_risk":0,"updated_at":"2026-04-22T03:21:57.623600+05:30"},{"city":"Gangtok","state":"Sikkim","latitude":27.3314,"longitude":88.6138,"temp":16.6,"humidity":69,"rain":0.0,"pressure":834.2,"uv_index":8.95,"wind_gusts":22.7,"aqi":68,"pm10":14.7,"pm2_5":12.4,"mosquito_risk":3,"arthritis_risk":5,"migraine_risk":7,"frizz_risk":0,"updated_at":"2026-04-22T03:21:57.623606+05:30"},{"city":"Siliguri","state":"West Bengal","latitude":26.7271,"longitude":88.3953,"temp":22.7,"humidity":67,"rain":0.0,"pressure":989.1,"uv_index":7.8,"wind_gusts":20.5,"aqi":143,"pm10":62.2,"pm2_5":53.8,"mosquito_risk":3,"arthritis_risk":5,"migraine_risk":7,"frizz_risk":1,"updated_at":"2026-04-22T03:22:00.984836+05:30"},{"city":"Durgapur","state":"West Bengal","latitude":23.5204,"longitude":87.3119,"temp":27.7,"humidity":91,"rain":0.0,"pressure":990.5,"uv_index":8.95,"wind_gusts":25.9,"aqi":139,"pm10":90.1,"pm2_5":77.3,"mosquito_risk":7,"arthritis_risk":5,"migraine_risk":7,"frizz_risk":1,"updated_at":"2026-04-22T03:22:00.984874+05:30"},{"city":"Asansol","state":"West Bengal","latitude":23.6739,"longitude":86.9524,"temp":28.8,"humidity":85,"rain":0.0,"pressure":989.0,"uv_index":9.0,"wind_gusts":25.2,"aqi":129,"pm10":108.3,"pm2_5":59.1,"mosquito_risk":7,"arthritis_risk":5,"migraine_risk":7,"frizz_risk":1,"updated_at":"2026-04-22T03:22:00.984884+05:30"},{"city":"Pondicherry","state":"Puducherry","latitude":11.9139,"longitude":79.8145,"temp":27.3,"humidity":93,"rain":0.0,"pressure":1006.6,"uv_index":8.95,"wind_gusts":30.6,"aqi":42,"pm10":8.7,"pm2_5":6.1,"mosquito_risk":7,"arthritis_risk":5,"migraine_risk":4,"frizz_risk":1,"updated_at":"2026-04-22T03:22:00.984892+05:30"},{"city":"Port Blair","state":"Andaman and Nicobar Islands","latitude":11.6234,"longitude":92.7265,"temp":29.1,"humidity":75,"rain":0.0,"pressure":1005.1,"uv_index":8.7,"wind_gusts":19.4,"aqi":55,"pm10":15.5,"pm2_5":12.6,"mosquito_risk":7,"arthritis_risk":5,"migraine_risk":4,"frizz_risk":1,"updated_at":"2026-04-22T03:22:00.984900+05:30"},{"city":"Haridwar","state":"Uttarakhand","latitude":29.9457,"longitude":78.1642,"temp":21.0,"humidity":62,"rain":0.0,"pressure":970.1,"uv_index":7.15,"wind_gusts":36.7,"aqi":68,"pm10":29.6,"pm2_5":26.4,"mosquito_risk":3,"arthritis_risk":5,"migraine_risk":7,"frizz_risk":0,"updated_at":"2026-04-22T03:22:00.984907+05:30"},{"city":"Rishikesh","state":"Uttarakhand","latitude":30.0869,"longitude":78.2676,"temp":21.7,"humidity":60,"rain":0.0,"pressure":963.2,"uv_index":7.2,"wind_gusts":36.7,"aqi":65,"pm10":26.1,"pm2_5":20.3,"mosquito_risk":0,"arthritis_risk":5,"migraine_risk":7,"frizz_risk":0,"updated_at":"2026-04-22T03:22:00.984915+05:30"},{"city":"Nainital","state":"Uttarakhand","latitude":29.3919,"longitude":79.4542,"temp":21.8,"humidity":36,"rain":0.0,"pressure":804.6,"uv_index":8.05,"wind_gusts":45.0,"aqi":71,"pm10":21.2,"pm2_5":15.7,"mosquito_risk":0,"arthritis_risk":5,"migraine_risk":7,"frizz_risk":0,"updated_at":"2026-04-22T03:22:00.984921+05:30"},{"city":"Mussoorie","state":"Uttarakhand","latitude":30.4599,"longitude":78.0664,"temp":19.0,"humidity":44,"rain":0.0,"pressure":801.1,"uv_index":7.65,"wind_gusts":40.7,"aqi":61,"pm10":25.5,"pm2_5":22.8,"mosquito_risk":0,"arthritis_risk":5,"migraine_risk":7,"frizz_risk":0,"updated_at":"2026-04-22T03:22:00.984928+05:30"},{"city":"Dharamshala","state":"Himachal Pradesh","latitude":32.219,"longitude":76.3234,"temp":23.0,"humidity":34,"rain":0.0,"pressure":867.4,"uv_index":7.95,"wind_gusts":27.4,"aqi":48,"pm10":22.4,"pm2_5":9.3,"mosquito_risk":0,"arthritis_risk":5,"migraine_risk":7,"frizz_risk":0,"updated_at":"2026-04-22T03:22:00.984935+05:30"},{"city":"Dalhousie","state":"Himachal Pradesh","latitude":32.5387,"longitude":75.971,"temp":19.4,"humidity":35,"rain":0.0,"pressure":802.4,"uv_index":8.25,"wind_gusts":29.9,"aqi":57,"pm10":24.4,"pm2_5":18.8,"mosquito_risk":0,"arthritis_risk":5,"migraine_risk":7,"frizz_risk":0,"updated_at":"2026-04-22T03:22:00.984942+05:30"},{"city":"Patiala","state":"Punjab","latitude":30.3398,"longitude":76.3869,"temp":22.3,"humidity":51,"rain":0.0,"pressure":974.3,"uv_index":7.25,"wind_gusts":26.3,"aqi":336,"pm10":143.4,"pm2_5":47.4,"mosquito_risk":0,"arthritis_risk":5,"migraine_risk":7,"frizz_risk":0,"updated_at":"2026-04-22T03:22:00.984949+05:30"},{"city":"Bhatinda","state":"Punjab","latitude":30.211,"longitude":74.9455,"temp":26.8,"humidity":43,"rain":0.0,"pressure":980.3,"uv_index":7.95,"wind_gusts":27.7,"aqi":74,"pm10":45.6,"pm2_5":32.6,"mosquito_risk":4,"arthritis_risk":5,"migraine_risk":7,"frizz_risk":0,"updated_at":"2026-04-22T03:22:00.984956+05:30"},{"city":"Rohtak","state":"Haryana","latitude":28.8955,"longitude":76.6066,"temp":22.9,"humidity":58,"rain":0.0,"pressure":977.8,"uv_index":7.1,"wind_gusts":33.8,"aqi":589,"pm10":556.9,"pm2_5":97.1,"mosquito_risk":0,"arthritis_risk":5,"migraine_risk":7,"frizz_risk":0,"updated_at":"2026-04-22T03:22:00.984963+05:30"},{"city":"Panipat","state":"Haryana","latitude":29.3909,"longitude":76.9635,"temp":22.5,"humidity":54,"rain":0.0,"pressure":976.6,"uv_index":7.2,"wind_gusts":32.4,"aqi":1072,"pm10":778.6,"pm2_5":117.6,"mosquito_risk":0,"arthritis_risk":5,"migraine_risk":7,"frizz_risk":0,"updated_at":"2026-04-22T03:22:00.984970+05:30"},{"city":"Mathura","state":"Uttar Pradesh","latitude":27.4924,"longitude":77.6737,"temp":25.9,"humidity":46,"rain":0.0,"pressure":982.8,"uv_index":7.65,"wind_gusts":33.5,"aqi":819,"pm10":474.0,"pm2_5":88.5,"mosquito_risk":4,"arthritis_risk":5,"migraine_risk":7,"frizz_risk":0,"updated_at":"2026-04-22T03:22:00.984977+05:30"},{"city":"Vrindavan","state":"Uttar Pradesh","latitude":27.5823,"longitude":77.7027,"temp":25.4,"humidity":50,"rain":0.0,"pressure":983.2,"uv_index":7.65,"wind_gusts":36.0,"aqi":819,"pm10":474.0,"pm2_5":88.5,"mosquito_risk":4,"arthritis_risk":5,"migraine_risk":7,"frizz_risk":0,"updated_at":"2026-04-22T03:22:00.984983+05:30"},{"city":"Ayodhya","state":"Uttar Pradesh","latitude":26.7922,"longitude":82.1998,"temp":25.0,"humidity":46,"rain":0.0,"pressure":990.1,"uv_index":8.05,"wind_gusts":43.9,"aqi":91,"pm10":282.2,"pm2_5":61.9,"mosquito_risk":4,"arthritis_risk":5,"migraine_risk":7,"frizz_risk":0,"updated_at":"2026-04-22T03:22:00.984990+05:30"},{"city":"Ratlam","state":"Madhya Pradesh","latitude":23.3315,"longitude":75.0367,"temp":27.0,"humidity":37,"rain":0.0,"pressure":953.3,"uv_index":8.5,"wind_gusts":29.9,"aqi":56,"pm10":18.2,"pm2_5":14.7,"mosquito_risk":4,"arthritis_risk":5,"migraine_risk":7,"frizz_risk":0,"updated_at":"2026-04-22T03:22:00.984996+05:30"},{"city":"Sagar","state":"Madhya Pradesh","latitude":23.8388,"longitude":78.7378,"temp":26.7,"humidity":36,"rain":0.0,"pressure":948.3,"uv_index":8.7,"wind_gusts":34.2,"aqi":53,"pm10":53.1,"pm2_5":20.8,"mosquito_risk":4,"arthritis_risk":5,"migraine_risk":7,"frizz_risk":0,"updated_at":"2026-04-22T03:22:00.985003+05:30"},{"city":"Satna","state":"Madhya Pradesh","latitude":24.6005,"longitude":80.8322,"temp":29.4,"humidity":34,"rain":0.0,"pressure":968.2,"uv_index":8.7,"wind_gusts":40.7,"aqi":87,"pm10":84.1,"pm2_5":26.1,"mosquito_risk":4,"arthritis_risk":5,"migraine_risk":7,"frizz_risk":0,"updated_at":"2026-04-22T03:22:00.985009+05:30"},{"city":"Akola","state":"Maharashtra","latitude":20.7002,"longitude":77.0082,"temp":28.6,"humidity":45,"rain":0.0,"pressure":972.8,"uv_index":8.85,"wind_gusts":26.3,"aqi":83,"pm10":31.1,"pm2_5":27.1,"mosquito_risk":4,"arthritis_risk":5,"migraine_risk":7,"frizz_risk":0,"updated_at":"2026-04-22T03:22:00.985016+05:30"},{"city":"Amravati","state":"Maharashtra","latitude":20.9374,"longitude":77.7796,"temp":28.8,"humidity":45,"rain":0.0,"pressure":965.1,"uv_index":8.9,"wind_gusts":22.7,"aqi":84,"pm10":31.3,"pm2_5":27.9,"mosquito_risk":4,"arthritis_risk":5,"migraine_risk":7,"frizz_risk":0,"updated_at":"2026-04-22T03:22:00.985023+05:30"},{"city":"Latur","state":"Maharashtra","latitude":18.4088,"longitude":76.5604,"temp":25.3,"humidity":64,"rain":0.0,"pressure":938.2,"uv_index":8.8,"wind_gusts":37.4,"aqi":116,"pm10":54.9,"pm2_5":50.5,"mosquito_risk":7,"arthritis_risk":5,"migraine_risk":7,"frizz_risk":1,"updated_at":"2026-04-22T03:22:00.985030+05:30"},{"city":"Nanded","state":"Maharashtra","latitude":19.1383,"longitude":77.3091,"temp":28.3,"humidity":63,"rain":0.0,"pressure":966.3,"uv_index":8.95,"wind_gusts":28.8,"aqi":99,"pm10":49.4,"pm2_5":45.9,"mosquito_risk":7,"arthritis_risk":5,"migraine_risk":7,"frizz_risk":1,"updated_at":"2026-04-22T03:22:00.985037+05:30"},{"city":"Gulbarga","state":"Karnataka","latitude":17.3297,"longitude":76.8343,"temp":27.3,"humidity":63,"rain":0.0,"pressure":956.7,"uv_index":8.85,"wind_gusts":56.2,"aqi":103,"pm10":52.3,"pm2_5":48.2,"mosquito_risk":7,"arthritis_risk":5,"migraine_risk":7,"frizz_risk":1,"updated_at":"2026-04-22T03:22:00.985043+05:30"},{"city":"Bidar","state":"Karnataka","latitude":17.9104,"longitude":77.5199,"temp":27.3,"humidity":60,"rain":0.0,"pressure":933.5,"uv_index":8.9,"wind_gusts":33.5,"aqi":106,"pm10":47.8,"pm2_5":44.8,"mosquito_risk":4,"arthritis_risk":5,"migraine_risk":7,"frizz_risk":1,"updated_at":"2026-04-22T03:22:00.985050+05:30"},{"city":"Hospet","state":"Karnataka","latitude":15.2689,"longitude":76.3909,"temp":25.5,"humidity":74,"rain":0.0,"pressure":954.7,"uv_index":9.25,"wind_gusts":37.8,"aqi":98,"pm10":41.8,"pm2_5":38.5,"mosquito_risk":7,"arthritis_risk":5,"migraine_risk":7,"frizz_risk":1,"updated_at":"2026-04-22T03:22:00.985056+05:30"},{"city":"Tirupur","state":"Tamil Nadu","latitude":11.1085,"longitude":77.3411,"temp":26.8,"humidity":82,"rain":0.0,"pressure":973.2,"uv_index":9.35,"wind_gusts":28.8,"aqi":66,"pm10":22.2,"pm2_5":20.0,"mosquito_risk":7,"arthritis_risk":5,"migraine_risk":7,"frizz_risk":1,"updated_at":"2026-04-22T03:22:00.985062+05:30"},{"city":"Alappuzha","state":"Kerala","latitude":9.4981,"longitude":76.3388,"temp":27.7,"humidity":81,"rain":0.0,"pressure":1006.5,"uv_index":8.9,"wind_gusts":25.6,"aqi":70,"pm10":32.8,"pm2_5":26.4,"mosquito_risk":7,"arthritis_risk":5,"migraine_risk":4,"frizz_risk":1,"updated_at":"2026-04-22T03:22:00.985068+05:30"},{"city":"Munnar","state":"Kerala","latitude":10.0889,"longitude":77.0595,"temp":21.0,"humidity":86,"rain":0.0,"pressure":854.7,"uv_index":9.6,"wind_gusts":32.4,"aqi":73,"pm10":30.2,"pm2_5":28.5,"mosquito_risk":3,"arthritis_risk":5,"migraine_risk":7,"frizz_risk":1,"updated_at":"2026-04-22T03:22:00.985075+05:30"},{"city":"Silchar","state":"Assam","latitude":24.8333,"longitude":92.7789,"temp":23.7,"humidity":92,"rain":0.0,"pressure":1003.0,"uv_index":8.2,"wind_gusts":44.6,"aqi":135,"pm10":41.8,"pm2_5":31.8,"mosquito_risk":3,"arthritis_risk":5,"migraine_risk":4,"frizz_risk":1,"updated_at":"2026-04-22T03:22:00.985082+05:30"},{"city":"Dibrugarh","state":"Assam","latitude":27.4728,"longitude":94.912,"temp":22.8,"humidity":93,"rain":0.0,"pressure":992.1,"uv_index":8.75,"wind_gusts":22.0,"aqi":59,"pm10":14.1,"pm2_5":10.3,"mosquito_risk":3,"arthritis_risk":5,"migraine_risk":7,"frizz_risk":1,"updated_at":"2026-04-22T03:22:00.985088+05:30"}]