[{"city":"Delhi","state":"Delhi","latitude":28.6139,"longitude":77.209,"temp":24.8,"humidity":51,"rain":0.0,"pressure":985.5,"uv_index":5.9,"wind_gusts":18.7,"aqi":169,"pm10":273.8,"pm2_5":113.6,"mosquito_risk":0,"arthritis_risk":5,"migraine_risk":3,"frizz_risk":0,"updated_at":"2026-03-06T23:07:46.356761+05:30"},{"city":"Mumbai","state":"Maharashtra","latitude":19.076,"longitude":72.8777,"temp":27.2,"humidity":74,"rain":0.0,"pressure":1009.5,"uv_index":7.4,"wind_gusts":25.6,"aqi":155,"pm10":32.7,"pm2_5":29.9,"mosquito_risk":7,"arthritis_risk":0,"migraine_risk":4,"frizz_risk":1,"updated_at":"2026-03-06T23:07:46.356801+05:30"},{"city":"Bangalore","state":"Karnataka","latitude":12.9716,"longitude":77.5946,"temp":23.2,"humidity":48,"rain":0.0,"pressure":912.0,"uv_index":9.15,"wind_gusts":24.5,"aqi":110,"pm10":51.5,"pm2_5":49.5,"mosquito_risk":0,"arthritis_risk":5,"migraine_risk":7,"frizz_risk":0,"updated_at":"2026-03-06T23:07:46.356816+05:30"},{"city":"Hyderabad","state":"Telangana","latitude":17.385,"longitude":78.4867,"temp":25.4,"humidity":46,"rain":0.0,"pressure":954.2,"uv_index":8.45,"wind_gusts":24.1,"aqi":101,"pm10":52.7,"pm2_5":44.4,"mosquito_risk":4,"arthritis_risk":5,"migraine_risk":7,"frizz_risk":0,"updated_at":"2026-03-06T23:07:46.356825+05:30"},{"city":"Chennai","state":"Tamil Nadu","latitude":13.0827,"longitude":80.2707,"temp":26.0,"humidity":89,"rain":0.0,"pressure":1008.2,"uv_index":8.9,"wind_gusts":33.8,"aqi":75,"pm10":29.3,"pm2_5":23.9,"mosquito_risk":7,"arthritis_risk":0,"migraine_risk":4,"frizz_risk":1,"updated_at":"2026-03-06T23:07:46.356833+05:30"},{"city":"Kolkata","state":"West Bengal","latitude":22.5726,"longitude":88.3639,"temp":23.5,"humidity":92,"rain":0.0,"pressure":1009.6,"uv_index":7.8,"wind_gusts":13.0,"aqi":156,"pm10":52.5,"pm2_5":43.0,"mosquito_risk":3,"arthritis_risk":0,"migraine_risk":4,"frizz_risk":1,"updated_at":"2026-03-06T23:07:46.356841+05:30"},{"city":"Pune","state":"Maharashtra","latitude":18.5204,"longitude":73.8567,"temp":24.0,"humidity":59,"rain":0.0,"pressure":949.4,"uv_index":8.0,"wind_gusts":27.7,"aqi":95,"pm10":37.7,"pm2_5":36.0,"mosquito_risk":0,"arthritis_risk":5,"migraine_risk":7,"frizz_risk":0,"updated_at":"2026-03-06T23:07:46.356850+05:30"},{"city":"Ahmedabad","state":"Gujarat","latitude":23.0225,"longitude":72.5714,"temp":24.7,"humidity":51,"rain":0.0,"pressure":1003.9,"uv_index":7.25,"wind_gusts":20.5,"aqi":78,"pm10":65.0,"pm2_5":61.9,"mosquito_risk":0,"arthritis_risk":5,"migraine_risk":4,"frizz_risk":0,"updated_at":"2026-03-06T23:07:46.356856+05:30"},{"city":"Jaipur","state":"Rajasthan","latitude":26.9124,"longitude":75.7873,"temp":26.8,"humidity":25,"rain":0.0,"pressure":961.8,"uv_index":6.7,"wind_gusts":24.5,"aqi":89,"pm10":120.1,"pm2_5":44.4,"mosquito_risk":4,"arthritis_risk":5,"migraine_risk":7,"frizz_risk":0,"updated_at":"2026-03-06T23:07:46.356862+05:30"},{"city":"Lucknow","state":"Uttar Pradesh","latitude":26.8467,"longitude":80.9462,"temp":23.4,"humidity":72,"rain":0.0,"pressure":996.9,"uv_index":6.4,"wind_gusts":22.3,"aqi":167,"pm10":93.6,"pm2_5":74.5,"mosquito_risk":3,"arthritis_risk":5,"migraine_risk":7,"frizz_risk":1,"updated_at":"2026-03-06T23:07:46.356868+05:30"},{"city":"Kanpur","state":"Uttar Pradesh","latitude":26.4499,"longitude":80.3319,"temp":23.4,"humidity":76,"rain":0.0,"pressure":994.8,"uv_index":6.4,"wind_gusts":13.3,"aqi":168,"pm10":146.7,"pm2_5":82.0,"mosquito_risk":3,"arthritis_risk":5,"migraine_risk":7,"frizz_risk":1,"updated_at":"2026-03-06T23:07:46.356873+05:30"},{"city":"Chandigarh","state":"Chandigarh","latitude":30.7333,"longitude":76.7794,"temp":22.3,"humidity":73,"rain":0.0,"pressure":971.2,"uv_index":5.8,"wind_gusts":15.8,"aqi":132,"pm10":102.4,"pm2_5":84.3,"mosquito_risk":3,"arthritis_risk":5,"migraine_risk":3,"frizz_risk":1,"updated_at":"2026-03-06T23:07:46.356879+05:30"},{"city":"Srinagar","state":"Jammu and Kashmir","latitude":34.0837,"longitude":74.7973,"temp":10.5,"humidity":70,"rain":0.0,"pressure":841.0,"uv_index":6.75,"wind_gusts":16.6,"aqi":137,"pm10":98.7,"pm2_5":80.3,"mosquito_risk":3,"arthritis_risk":5,"migraine_risk":7,"frizz_risk":0,"updated_at":"2026-03-06T23:07:46.356885+05:30"},{"city":"Jammu","state":"Jammu and Kashmir","latitude":32.7266,"longitude":74.857,"temp":21.3,"humidity":79,"rain":0.0,"pressure":974.3,"uv_index":6.45,"wind_gusts":18.7,"aqi":131,"pm10":74.7,"pm2_5":65.7,"mosquito_risk":3,"arthritis_risk":5,"migraine_risk":7,"frizz_risk":1,"updated_at":"2026-03-06T23:07:46.356891+05:30"},{"city":"Amritsar","state":"Punjab","latitude":31.634,"longitude":74.8723,"temp":22.5,"humidity":69,"rain":0.0,"pressure":982.4,"uv_index":6.2,"wind_gusts":12.2,"aqi":159,"pm10":66.4,"pm2_5":65.2,"mosquito_risk":3,"arthritis_risk":5,"migraine_risk":7,"frizz_risk":1,"updated_at":"2026-03-06T23:07:46.356896+05:30"},{"city":"Ludhiana","state":"Punjab","latitude":30.901,"longitude":75.8573,"temp":23.2,"humidity":71,"rain":0.0,"pressure":980.9,"uv_index":6.05,"wind_gusts":15.1,"aqi":163,"pm10":175.6,"pm2_5":106.6,"mosquito_risk":3,"arthritis_risk":5,"migraine_risk":7,"frizz_risk":1,"updated_at":"2026-03-06T23:07:46.356901+05:30"},{"city":"Jalandhar","state":"Punjab","latitude":31.326,"longitude":75.5762,"temp":23.0,"humidity":76,"rain":0.0,"pressure":981.9,"uv_index":6.2,"wind_gusts":13.7,"aqi":163,"pm10":98.5,"pm2_5":82.0,"mosquito_risk":3,"arthritis_risk":5,"migraine_risk":7,"frizz_risk":1,"updated_at":"2026-03-06T23:07:46.356908+05:30"},{"city":"Dehradun","state":"Uttarakhand","latitude":30.6284,"longitude":78.0322,"temp":14.1,"humidity":95,"rain":0.0,"pressure":831.9,"uv_index":6.15,"wind_gusts":28.1,"aqi":154,"pm10":87.5,"pm2_5":63.3,"mosquito_risk":3,"arthritis_risk":10,"migraine_risk":7,"frizz_risk":0,"updated_at":"2026-03-06T23:07:46.356914+05:30"},{"city":"Shimla","state":"Himachal Pradesh","latitude":31.1048,"longitude":77.1734,"temp":13.9,"humidity":75,"rain":0.0,"pressure":786.5,"uv_index":6.25,"wind_gusts":34.9,"aqi":113,"pm10":68.0,"pm2_5":53.3,"mosquito_risk":3,"arthritis_risk":5,"migraine_risk":7,"frizz_risk":0,"updated_at":"2026-03-06T23:07:46.356920+05:30"},{"city":"Manali","state":"Himachal Pradesh","latitude":32.2396,"longitude":77.1887,"temp":18.4,"humidity":20,"rain":0.0,"pressure":823.7,"uv_index":7.9,"wind_gusts":39.2,"aqi":113,"pm10":23.2,"pm2_5":15.4,"mosquito_risk":0,"arthritis_risk":5,"migraine_risk":7,"frizz_risk":1,"updated_at":"2026-03-06T23:07:46.356925+05:30"},{"city":"Gurgaon","state":"Haryana","latitude":28.4595,"longitude":77.0266,"temp":23.0,"humidity":51,"rain":0.0,"pressure":983.7,"uv_index":6.0,"wind_gusts":16.9,"aqi":447,"pm10":266.4,"pm2_5":111.1,"mosquito_risk":0,"arthritis_risk":5,"migraine_risk":3,"frizz_risk":0,"updated_at":"2026-03-06T23:07:46.356931+05:30"},{"city":"Noida","state":"Uttar Pradesh","latitude":28.5355,"longitude":77.391,"temp":24.4,"humidity":57,"rain":0.0,"pressure":987.1,"uv_index":5.9,"wind_gusts":17.3,"aqi":447,"pm10":266.4,"pm2_5":111.1,"mosquito_risk":0,"arthritis_risk":5,"migraine_risk":3,"frizz_risk":0,"updated_at":"2026-03-06T23:07:46.356936+05:30"},{"city":"Ghaziabad","state":"Uttar Pradesh","latitude":28.6692,"longitude":77.4538,"temp":23.4,"humidity":75,"rain":0.0,"pressure":985.2,"uv_index":5.85,"wind_gusts":14.4,"aqi":169,"pm10":244.9,"pm2_5":133.2,"mosquito_risk":3,"arthritis_risk":5,"migraine_risk":3,"frizz_risk":1,"updated_at":"2026-03-06T23:07:46.356942+05:30"},{"city":"Faridabad","state":"Haryana","latitude":28.4089,"longitude":77.3178,"temp":22.8,"humidity":54,"rain":0.0,"pressure":986.2,"uv_index":5.95,"wind_gusts":16.6,"aqi":447,"pm10":266.4,"pm2_5":111.1,"mosquito_risk":0,"arthritis_risk":5,"migraine_risk":3,"frizz_risk":0,"updated_at":"2026-03-06T23:07:46.356949+05:30"},{"city":"Meerut","state":"Uttar Pradesh","latitude":28.9845,"longitude":77.7064,"temp":22.2,"humidity":78,"rain":0.0,"pressure":984.1,"uv_index":5.75,"wind_gusts":14.0,"aqi":169,"pm10":244.9,"pm2_5":133.2,"mosquito_risk":3,"arthritis_risk":5,"migraine_risk":3,"frizz_risk":1,"updated_at":"2026-03-06T23:07:46.356954+05:30"},{"city":"Agra","state":"Uttar Pradesh","latitude":27.1767,"longitude":78.0081,"temp":23.2,"humidity":55,"rain":0.0,"pressure":990.1,"uv_index":6.25,"wind_gusts":18.7,"aqi":275,"pm10":262.6,"pm2_5":103.6,"mosquito_risk":0,"arthritis_risk":5,"migraine_risk":7,"frizz_risk":0,"updated_at":"2026-03-06T23:07:46.356960+05:30"},{"city":"Varanasi","state":"Uttar Pradesh","latitude":25.3176,"longitude":82.9739,"temp":23.1,"humidity":75,"rain":0.0,"pressure":1000.6,"uv_index":7.1,"wind_gusts":17.6,"aqi":166,"pm10":159.7,"pm2_5":131.8,"mosquito_risk":3,"arthritis_risk":5,"migraine_risk":4,"frizz_risk":1,"updated_at":"2026-03-06T23:07:46.356967+05:30"},{"city":"Prayagraj","state":"Uttar Pradesh","latitude":25.4358,"longitude":81.8463,"temp":23.8,"humidity":69,"rain":0.0,"pressure":999.2,"uv_index":6.95,"wind_gusts":16.2,"aqi":168,"pm10":121.1,"pm2_5":88.5,"mosquito_risk":3,"arthritis_risk":5,"migraine_risk":7,"frizz_risk":1,"updated_at":"2026-03-06T23:07:46.356972+05:30"},{"city":"Gorakhpur","state":"Uttar Pradesh","latitude":26.7606,"longitude":83.3732,"temp":22.4,"humidity":75,"rain":0.0,"pressure":1000.7,"uv_index":6.75,"wind_gusts":17.3,"aqi":168,"pm10":96.4,"pm2_5":85.0,"mosquito_risk":3,"arthritis_risk":5,"migraine_risk":4,"frizz_risk":1,"updated_at":"2026-03-06T23:07:46.356977+05:30"},{"city":"Bareilly","state":"Uttar Pradesh","latitude":28.367,"longitude":79.4304,"temp":22.5,"humidity":81,"rain":0.0,"pressure":990.0,"uv_index":6.1,"wind_gusts":14.4,"aqi":167,"pm10":100.4,"pm2_5":82.7,"mosquito_risk":3,"arthritis_risk":5,"migraine_risk":7,"frizz_risk":1,"updated_at":"2026-03-06T23:07:46.356983+05:30"},{"city":"Aligarh","state":"Uttar Pradesh","latitude":27.8974,"longitude":78.088,"temp":21.6,"humidity":77,"rain":0.0,"pressure":988.0,"uv_index":6.0,"wind_gusts":16.6,"aqi":256,"pm10":204.0,"pm2_5":116.4,"mosquito_risk":3,"arthritis_risk":5,"migraine_risk":3,"frizz_risk":1,"updated_at":"2026-03-06T23:07:46.356990+05:30"},{"city":"Moradabad","state":"Uttar Pradesh","latitude":28.8386,"longitude":78.7733,"temp":22.1,"humidity":84,"rain":0.0,"pressure":986.8,"uv_index":5.9,"wind_gusts":18.4,"aqi":169,"pm10":110.6,"pm2_5":92.0,"mosquito_risk":3,"arthritis_risk":5,"migraine_risk":3,"frizz_risk":1,"updated_at":"2026-03-06T23:07:46.356995+05:30"},{"city":"Saharanpur","state":"Uttar Pradesh","latitude":29.9637,"longitude":77.546,"temp":22.4,"humidity":79,"rain":0.0,"pressure":978.4,"uv_index":5.55,"wind_gusts":19.8,"aqi":164,"pm10":117.6,"pm2_5":96.4,"mosquito_risk":3,"arthritis_risk":5,"migraine_risk":3,"frizz_risk":1,"updated_at":"2026-03-06T23:07:46.357000+05:30"},{"city":"Jhansi","state":"Uttar Pradesh","latitude":25.4484,"longitude":78.5685,"temp":23.0,"humidity":48,"rain":0.0,"pressure":980.0,"uv_index":6.85,"wind_gusts":24.1,"aqi":75,"pm10":75.0,"pm2_5":32.5,"mosquito_risk":0,"arthritis_risk":5,"migraine_risk":7,"frizz_risk":0,"updated_at":"2026-03-06T23:07:49.667634+05:30"},{"city":"Surat","state":"Gujarat","latitude":21.1702,"longitude":72.8311,"temp":24.5,"humidity":79,"rain":0.0,"pressure":1008.3,"uv_index":7.15,"wind_gusts":24.1,"aqi":137,"pm10":77.3,"pm2_5":75.9,"mosquito_risk":3,"arthritis_risk":0,"migraine_risk":4,"frizz_risk":1,"updated_at":"2026-03-06T23:07:49.667665+05:30"},{"city":"Vadodara","state":"Gujarat","latitude":22.3072,"longitude":73.1812,"temp":26.1,"humidity":67,"rain":0.0,"pressure":1005.8,"uv_index":7.25,"wind_gusts":20.2,"aqi":110,"pm10":65.9,"pm2_5":64.5,"mosquito_risk":7,"arthritis_risk":5,"migraine_risk":4,"frizz_risk":1,"updated_at":"2026-03-06T23:07:49.667676+05:30"},{"city":"Rajkot","state":"Gujarat","latitude":22.3039,"longitude":70.8022,"temp":22.7,"humidity":61,"rain":0.0,"pressure":996.4,"uv_index":7.1,"wind_gusts":24.1,"aqi":68,"pm10":36.4,"pm2_5":19.3,"mosquito_risk":3,"arthritis_risk":5,"migraine_risk":7,"frizz_risk":0,"updated_at":"2026-03-06T23:07:49.667686+05:30"},{"city":"Thane","state":"Maharashtra","latitude":19.2183,"longitude":72.9781,"temp":25.3,"humidity":73,"rain":0.0,"pressure":1009.0,"uv_index":7.4,"wind_gusts":37.8,"aqi":155,"pm10":32.7,"pm2_5":29.9,"mosquito_risk":7,"arthritis_risk":0,"migraine_risk":4,"frizz_risk":1,"updated_at":"2026-03-06T23:07:49.667695+05:30"},{"city":"Nagpur","state":"Maharashtra","latitude":21.1458,"longitude":79.0882,"temp":26.5,"humidity":34,"rain":0.0,"pressure":974.1,"uv_index":7.8,"wind_gusts":25.9,"aqi":60,"pm10":31.3,"pm2_5":22.4,"mosquito_risk":4,"arthritis_risk":5,"migraine_risk":7,"frizz_risk":0,"updated_at":"2026-03-06T23:07:49.667705+05:30"},{"city":"Nashik","state":"Maharashtra","latitude":19.9975,"longitude":73.7898,"temp":23.9,"humidity":51,"rain":0.0,"pressure":946.9,"uv_index":7.6,"wind_gusts":33.5,"aqi":110,"pm10":34.0,"pm2_5":33.2,"mosquito_risk":0,"arthritis_risk":5,"migraine_risk":7,"frizz_risk":0,"updated_at":"2026-03-06T23:07:49.667713+05:30"},{"city":"Aurangabad","state":"Maharashtra","latitude":19.8762,"longitude":75.3433,"temp":24.9,"humidity":40,"rain":0.0,"pressure":945.0,"uv_index":8.1,"wind_gusts":23.4,"aqi":90,"pm10":38.1,"pm2_5":35.4,"mosquito_risk":0,"arthritis_risk":5,"migraine_risk":7,"frizz_risk":0,"updated_at":"2026-03-06T23:07:49.667722+05:30"},{"city":"Solapur","state":"Maharashtra","latitude":17.6599,"longitude":75.9064,"temp":25.3,"humidity":49,"rain":0.0,"pressure":957.4,"uv_index":8.4,"wind_gusts":18.0,"aqi":110,"pm10":24.9,"pm2_5":22.1,"mosquito_risk":4,"arthritis_risk":5,"migraine_risk":7,"frizz_risk":0,"updated_at":"2026-03-06T23:07:49.667732+05:30"},{"city":"Kolhapur","state":"Maharashtra","latitude":16.705,"longitude":74.2433,"temp":20.6,"humidity":53,"rain":0.0,"pressure":948.5,"uv_index":8.5,"wind_gusts":31.7,"aqi":144,"pm10":64.7,"pm2_5":63.3,"mosquito_risk":0,"arthritis_risk":5,"migraine_risk":7,"frizz_risk":0,"updated_at":"2026-03-06T23:07:49.667740+05:30"},{"city":"Goa","state":"Goa","latitude":15.2993,"longitude":74.124,"temp":26.5,"humidity":87,"rain":0.0,"pressure":998.9,"uv_index":8.55,"wind_gusts":32.0,"aqi":154,"pm10":60.1,"pm2_5":56.8,"mosquito_risk":7,"arthritis_risk":5,"migraine_risk":7,"frizz_risk":1,"updated_at":"2026-03-06T23:07:49.667749+05:30"},{"city":"Jodhpur","state":"Rajasthan","latitude":26.2389,"longitude":73.0243,"temp":27.3,"humidity":34,"rain":0.0,"pressure":984.9,"uv_index":6.95,"wind_gusts":22.7,"aqi":83,"pm10":72.6,"pm2_5":26.4,"mosquito_risk":4,"arthritis_risk":5,"migraine_risk":7,"frizz_risk":0,"updated_at":"2026-03-06T23:07:49.667758+05:30"},{"city":"Udaipur","state":"Rajasthan","latitude":24.5854,"longitude":73.7125,"temp":20.3,"humidity":54,"rain":0.0,"pressure":948.3,"uv_index":7.6,"wind_gusts":22.3,"aqi":59,"pm10":18.0,"pm2_5":15.2,"mosquito_risk":0,"arthritis_risk":5,"migraine_risk":7,"frizz_risk":0,"updated_at":"2026-03-06T23:07:49.667766+05:30"},{"city":"Kota","state":"Rajasthan","latitude":25.2138,"longitude":75.8648,"temp":25.0,"humidity":46,"rain":0.0,"pressure":980.5,"uv_index":7.0,"wind_gusts":17.3,"aqi":68,"pm10":49.2,"pm2_5":32.5,"mosquito_risk":4,"arthritis_risk":5,"migraine_risk":7,"frizz_risk":0,"updated_at":"2026-03-06T23:07:49.667774+05:30"},{"city":"Bikaner","state":"Rajasthan","latitude":28.0229,"longitude":73.3119,"temp":24.9,"humidity":33,"rain":0.0,"pressure":983.3,"uv_index":6.65,"wind_gusts":23.8,"aqi":69,"pm10":13.6,"pm2_5":11.4,"mosquito_risk":0,"arthritis_risk":5,"migraine_risk":7,"frizz_risk":0,"updated_at":"2026-03-06T23:07:49.667783+05:30"},{"city":"Ajmer","state":"Rajasthan","latitude":26.4499,"longitude":74.6399,"temp":24.8,"humidity":33,"rain":0.0,"pressure":956.5,"uv_index":6.95,"wind_gusts":26.3,"aqi":73,"pm10":22.9,"pm2_5":21.4,"mosquito_risk":0,"arthritis_risk":5,"migraine_risk":7,"frizz_risk":0,"updated_at":"2026-03-06T23:07:49.667791+05:30"},{"city":"Gwalior","state":"Madhya Pradesh","latitude":26.2183,"longitude":78.1828,"temp":22.2,"humidity":62,"rain":0.0,"pressure":985.5,"uv_index":6.6,"wind_gusts":20.9,"aqi":101,"pm10":125.7,"pm2_5":41.9,"mosquito_risk":3,"arthritis_risk":5,"migraine_risk":7,"frizz_risk":0,"updated_at":"2026-03-06T23:07:49.667799+05:30"},{"city":"Indore","state":"Madhya Pradesh","latitude":22.7196,"longitude":75.8577,"temp":20.2,"humidity":61,"rain":0.0,"pressure":949.3,"uv_index":7.55,"wind_gusts":22.3,"aqi":68,"pm10":35.5,"pm2_5":34.1,"mosquito_risk":3,"arthritis_risk":5,"migraine_risk":7,"frizz_risk":0,"updated_at":"2026-03-06T23:07:49.667805+05:30"},{"city":"Bhopal","state":"Madhya Pradesh","latitude":23.2599,"longitude":77.4126,"temp":23.2,"humidity":43,"rain":0.0,"pressure":955.1,"uv_index":7.4,"wind_gusts":24.8,"aqi":80,"pm10":40.6,"pm2_5":34.1,"mosquito_risk":0,"arthritis_risk":5,"migraine_risk":7,"frizz_risk":0,"updated_at":"2026-03-06T23:07:49.667812+05:30"},{"city":"Jabalpur","state":"Madhya Pradesh","latitude":23.1815,"longitude":79.9864,"temp":24.9,"humidity":45,"rain":0.0,"pressure":962.9,"uv_index":7.5,"wind_gusts":26.6,"aqi":71,"pm10":50.8,"pm2_5":26.3,"mosquito_risk":0,"arthritis_risk":5,"migraine_risk":7,"frizz_risk":0,"updated_at":"2026-03-06T23:07:49.667819+05:30"},{"city":"Ujjain","state":"Madhya Pradesh","latitude":23.1765,"longitude":75.7885,"temp":21.4,"humidity":61,"rain":0.0,"pressure":955.4,"uv_index":7.45,"wind_gusts":19.1,"aqi":73,"pm10":41.8,"pm2_5":40.4,"mosquito_risk":3,"arthritis_risk":5,"migraine_risk":7,"frizz_risk":0,"updated_at":"2026-03-06T23:07:49.667827+05:30"},{"city":"Visakhapatnam","state":"Andhra Pradesh","latitude":17.6868,"longitude":83.2185,"temp":26.2,"humidity":91,"rain":0.0,"pressure":1005.0,"uv_index":8.45,"wind_gusts":35.3,"aqi":128,"pm10":35.2,"pm2_5":30.6,"mosquito_risk":7,"arthritis_risk":5,"migraine_risk":4,"frizz_risk":1,"updated_at":"2026-03-06T23:07:49.667833+05:30"},{"city":"Vijayawada","state":"Andhra Pradesh","latitude":16.5062,"longitude":80.648,"temp":25.7,"humidity":75,"rain":0.0,"pressure":1002.9,"uv_index":8.55,"wind_gusts":12.2,"aqi":117,"pm10":37.7,"pm2_5":36.1,"mosquito_risk":7,"arthritis_risk":5,"migraine_risk":4,"frizz_risk":1,"updated_at":"2026-03-06T23:07:49.667840+05:30"},{"city":"Guntur","state":"Andhra Pradesh","latitude":16.3067,"longitude":80.4365,"temp":25.3,"humidity":77,"rain":0.0,"pressure":1004.1,"uv_index":8.55,"wind_gusts":18.0,"aqi":101,"pm10":38.6,"pm2_5":36.4,"mosquito_risk":7,"arthritis_risk":5,"migraine_risk":4,"frizz_risk":1,"updated_at":"2026-03-06T23:07:49.667848+05:30"},{"city":"Nellore","state":"Andhra Pradesh","latitude":14.4426,"longitude":79.9865,"temp":25.1,"humidity":82,"rain":0.0,"pressure":1006.6,"uv_index":8.75,"wind_gusts":28.8,"aqi":123,"pm10":30.4,"pm2_5":28.4,"mosquito_risk":7,"arthritis_risk":5,"migraine_risk":4,"frizz_risk":1,"updated_at":"2026-03-06T23:07:49.667856+05:30"},{"city":"Kurnool","state":"Andhra Pradesh","latitude":15.8281,"longitude":78.0373,"temp":28.0,"humidity":32,"rain":0.0,"pressure":977.0,"uv_index":8.55,"wind_gusts":23.4,"aqi":90,"pm10":21.1,"pm2_5":18.0,"mosquito_risk":4,"arthritis_risk":5,"migraine_risk":7,"frizz_risk":0,"updated_at":"2026-03-06T23:07:49.667864+05:30"},{"city":"Kakinada","state":"Andhra Pradesh","latitude":16.9891,"longitude":82.2475,"temp":24.7,"humidity":96,"rain":0.0,"pressure":1008.3,"uv_index":8.5,"wind_gusts":31.0,"aqi":98,"pm10":32.6,"pm2_5":27.1,"mosquito_risk":3,"arthritis_risk":0,"migraine_risk":4,"frizz_risk":1,"updated_at":"2026-03-06T23:07:49.667870+05:30"},{"city":"Tirupati","state":"Andhra Pradesh","latitude":13.6288,"longitude":79.4192,"temp":26.3,"humidity":59,"rain":0.0,"pressure":992.9,"uv_index":8.85,"wind_gusts":30.6,"aqi":110,"pm10":55.4,"pm2_5":54.0,"mosquito_risk":4,"arthritis_risk":5,"migraine_risk":7,"frizz_risk":1,"updated_at":"2026-03-06T23:07:49.667877+05:30"},{"city":"Warangal","state":"Telangana","latitude":17.9689,"longitude":79.5941,"temp":27.8,"humidity":40,"rain":0.0,"pressure":978.6,"uv_index":8.3,"wind_gusts":24.5,"aqi":89,"pm10":36.8,"pm2_5":29.7,"mosquito_risk":4,"arthritis_risk":5,"migraine_risk":7,"frizz_risk":0,"updated_at":"2026-03-06T23:07:49.667884+05:30"},{"city":"Nizamabad","state":"Telangana","latitude":18.6725,"longitude":78.0941,"temp":23.7,"humidity":50,"rain":0.0,"pressure":965.0,"uv_index":8.2,"wind_gusts":28.8,"aqi":89,"pm10":52.9,"pm2_5":42.5,"mosquito_risk":0,"arthritis_risk":5,"migraine_risk":7,"frizz_risk":0,"updated_at":"2026-03-06T23:07:49.667890+05:30"},{"city":"Mysore","state":"Karnataka","latitude":12.2958,"longitude":76.6396,"temp":22.9,"humidity":87,"rain":0.0,"pressure":929.2,"uv_index":9.2,"wind_gusts":37.1,"aqi":135,"pm10":58.2,"pm2_5":56.5,"mosquito_risk":3,"arthritis_risk":5,"migraine_risk":7,"frizz_risk":1,"updated_at":"2026-03-06T23:07:49.667896+05:30"},{"city":"Mangalore","state":"Karnataka","latitude":12.9141,"longitude":74.856,"temp":29.0,"humidity":77,"rain":0.0,"pressure":1008.2,"uv_index":8.8,"wind_gusts":23.8,"aqi":125,"pm10":54.4,"pm2_5":49.9,"mosquito_risk":7,"arthritis_risk":0,"migraine_risk":4,"frizz_risk":1,"updated_at":"2026-03-06T23:07:49.667901+05:30"},{"city":"Hubli-Dharwad","state":"Karnataka","latitude":15.3647,"longitude":75.124,"temp":23.2,"humidity":77,"rain":0.0,"pressure":941.5,"uv_index":8.75,"wind_gusts":36.7,"aqi":115,"pm10":38.2,"pm2_5":36.9,"mosquito_risk":3,"arthritis_risk":5,"migraine_risk":7,"frizz_risk":1,"updated_at":"2026-03-06T23:07:49.667907+05:30"},{"city":"Belgaum","state":"Karnataka","latitude":15.8497,"longitude":74.4977,"temp":22.3,"humidity":70,"rain":0.0,"pressure":926.3,"uv_index":8.8,"wind_gusts":40.0,"aqi":121,"pm10":48.8,"pm2_5":47.6,"mosquito_risk":3,"arthritis_risk":5,"migraine_risk":7,"frizz_risk":1,"updated_at":"2026-03-06T23:07:52.991644+05:30"},{"city":"Coimbatore","state":"Tamil Nadu","latitude":11.0168,"longitude":76.9558,"temp":24.6,"humidity":83,"rain":0.0,"pressure":962.8,"uv_index":9.15,"wind_gusts":41.0,"aqi":123,"pm10":28.7,"pm2_5":28.1,"mosquito_risk":3,"arthritis_risk":5,"migraine_risk":7,"frizz_risk":1,"updated_at":"2026-03-06T23:07:52.991676+05:30"},{"city":"Madurai","state":"Tamil Nadu","latitude":9.9252,"longitude":78.1198,"temp":25.9,"humidity":79,"rain":0.0,"pressure":994.9,"uv_index":9.15,"wind_gusts":29.9,"aqi":108,"pm10":27.5,"pm2_5":25.7,"mosquito_risk":7,"arthritis_risk":5,"migraine_risk":7,"frizz_risk":1,"updated_at":"2026-03-06T23:07:52.991687+05:30"},{"city":"Trichy","state":"Tamil Nadu","latitude":10.7905,"longitude":78.7047,"temp":25.7,"humidity":76,"rain":0.0,"pressure":1001.1,"uv_index":9.05,"wind_gusts":26.6,"aqi":90,"pm10":30.4,"pm2_5":28.3,"mosquito_risk":7,"arthritis_risk":5,"migraine_risk":4,"frizz_risk":1,"updated_at":"2026-03-06T23:07:52.991698+05:30"},{"city":"Salem","state":"Tamil Nadu","latitude":11.6643,"longitude":78.146,"temp":27.3,"humidity":58,"rain":0.0,"pressure":977.8,"uv_index":9.05,"wind_gusts":16.2,"aqi":156,"pm10":36.9,"pm2_5":35.4,"mosquito_risk":4,"arthritis_risk":5,"migraine_risk":7,"frizz_risk":1,"updated_at":"2026-03-06T23:07:52.991707+05:30"},{"city":"Tirunelveli","state":"Tamil Nadu","latitude":8.7139,"longitude":77.7567,"temp":26.7,"humidity":71,"rain":0.0,"pressure":1004.9,"uv_index":9.15,"wind_gusts":48.6,"aqi":105,"pm10":34.5,"pm2_5":33.2,"mosquito_risk":7,"arthritis_risk":5,"migraine_risk":4,"frizz_risk":1,"updated_at":"2026-03-06T23:07:52.991717+05:30"},{"city":"Vellore","state":"Tamil Nadu","latitude":12.9165,"longitude":79.1325,"temp":25.3,"humidity":69,"rain":0.0,"pressure":985.7,"uv_index":8.95,"wind_gusts":31.3,"aqi":118,"pm10":58.9,"pm2_5":57.4,"mosquito_risk":7,"arthritis_risk":5,"migraine_risk":7,"frizz_risk":1,"updated_at":"2026-03-06T23:07:52.991726+05:30"},{"city":"Erode","state":"Tamil Nadu","latitude":11.341,"longitude":77.7172,"temp":28.0,"humidity":58,"rain":0.0,"pressure":990.1,"uv_index":9.05,"wind_gusts":19.8,"aqi":140,"pm10":33.9,"pm2_5":32.2,"mosquito_risk":4,"arthritis_risk":5,"migraine_risk":7,"frizz_risk":1,"updated_at":"2026-03-06T23:07:52.991735+05:30"},{"city":"Kochi","state":"Kerala","latitude":9.9312,"longitude":76.2673,"temp":27.9,"humidity":81,"rain":0.0,"pressure":1010.4,"uv_index":8.95,"wind_gusts":34.6,"aqi":131,"pm10":58.9,"pm2_5":57.6,"mosquito_risk":7,"arthritis_risk":0,"migraine_risk":4,"frizz_risk":1,"updated_at":"2026-03-06T23:07:52.991744+05:30"},{"city":"Thiruvananthapuram","state":"Kerala","latitude":8.5241,"longitude":76.9366,"temp":27.4,"humidity":82,"rain":0.0,"pressure":1009.9,"uv_index":9.0,"wind_gusts":35.3,"aqi":82,"pm10":30.5,"pm2_5":27.1,"mosquito_risk":7,"arthritis_risk":0,"migraine_risk":4,"frizz_risk":1,"updated_at":"2026-03-06T23:07:52.991753+05:30"},{"city":"Kozhikode","state":"Kerala","latitude":11.2588,"longitude":75.7804,"temp":28.6,"humidity":76,"rain":0.0,"pressure":1009.5,"uv_index":8.85,"wind_gusts":27.0,"aqi":107,"pm10":43.7,"pm2_5":39.9,"mosquito_risk":7,"arthritis_risk":0,"migraine_risk":4,"frizz_risk":1,"updated_at":"2026-03-06T23:07:52.991762+05:30"},{"city":"Thrissur","state":"Kerala","latitude":10.5276,"longitude":76.2144,"temp":27.1,"humidity":86,"rain":0.0,"pressure":1008.6,"uv_index":8.95,"wind_gusts":33.5,"aqi":125,"pm10":46.1,"pm2_5":44.4,"mosquito_risk":7,"arthritis_risk":0,"migraine_risk":4,"frizz_risk":1,"updated_at":"2026-03-06T23:07:52.991771+05:30"},{"city":"Kannur","state":"Kerala","latitude":11.8745,"longitude":75.3704,"temp":28.1,"humidity":81,"rain":0.0,"pressure":1008.7,"uv_index":8.85,"wind_gusts":32.0,"aqi":111,"pm10":54.0,"pm2_5":50.8,"mosquito_risk":7,"arthritis_risk":0,"migraine_risk":4,"frizz_risk":1,"updated_at":"2026-03-06T23:07:52.991779+05:30"},{"city":"Patna","state":"Bihar","latitude":25.5941,"longitude":85.1376,"temp":25.0,"humidity":68,"rain":0.0,"pressure":1003.6,"uv_index":7.25,"wind_gusts":21.6,"aqi":165,"pm10":73.6,"pm2_5":67.1,"mosquito_risk":7,"arthritis_risk":5,"migraine_risk":4,"frizz_risk":1,"updated_at":"2026-03-06T23:07:52.991788+05:30"},{"city":"Gaya","state":"Bihar","latitude":24.7914,"longitude":85.0002,"temp":22.7,"humidity":80,"rain":0.0,"pressure":996.6,"uv_index":7.35,"wind_gusts":20.5,"aqi":162,"pm10":62.6,"pm2_5":57.9,"mosquito_risk":3,"arthritis_risk":5,"migraine_risk":7,"frizz_risk":1,"updated_at":"2026-03-06T23:07:52.991796+05:30"},{"city":"Muzaffarpur","state":"Bihar","latitude":26.1209,"longitude":85.3647,"temp":22.8,"humidity":75,"rain":0.0,"pressure":1003.6,"uv_index":7.2,"wind_gusts":20.5,"aqi":168,"pm10":87.1,"pm2_5":79.4,"mosquito_risk":3,"arthritis_risk":5,"migraine_risk":4,"frizz_risk":1,"updated_at":"2026-03-06T23:07:52.991803+05:30"},{"city":"Bhagalpur","state":"Bihar","latitude":25.2425,"longitude":87.0117,"temp":23.1,"humidity":74,"rain":0.0,"pressure":1004.2,"uv_index":7.25,"wind_gusts":17.3,"aqi":160,"pm10":73.3,"pm2_5":65.7,"mosquito_risk":3,"arthritis_risk":5,"migraine_risk":4,"frizz_risk":1,"updated_at":"2026-03-06T23:07:52.991810+05:30"},{"city":"Ranchi","state":"Jharkhand","latitude":23.3441,"longitude":85.3096,"temp":22.7,"humidity":58,"rain":0.0,"pressure":939.4,"uv_index":8.0,"wind_gusts":31.0,"aqi":168,"pm10":70.8,"pm2_5":53.2,"mosquito_risk":0,"arthritis_risk":5,"migraine_risk":7,"frizz_risk":0,"updated_at":"2026-03-06T23:07:52.991817+05:30"},{"city":"Jamshedpur","state":"Jharkhand","latitude":22.8046,"longitude":86.2029,"temp":25.2,"humidity":75,"rain":0.0,"pressure":993.5,"uv_index":7.9,"wind_gusts":19.1,"aqi":150,"pm10":48.8,"pm2_5":38.8,"mosquito_risk":7,"arthritis_risk":5,"migraine_risk":7,"frizz_risk":1,"updated_at":"2026-03-06T23:07:52.991823+05:30"},{"city":"Dhanbad","state":"Jharkhand","latitude":23.7957,"longitude":86.4304,"temp":26.7,"humidity":52,"rain":0.0,"pressure":982.4,"uv_index":7.75,"wind_gusts":27.4,"aqi":168,"pm10":76.1,"pm2_5":68.2,"mosquito_risk":4,"arthritis_risk":5,"migraine_risk":7,"frizz_risk":0,"updated_at":"2026-03-06T23:07:52.991830+05:30"},{"city":"Bokaro","state":"Jharkhand","latitude":23.6693,"longitude":86.1511,"temp":25.5,"humidity":55,"rain":0.0,"pressure":986.6,"uv_index":7.75,"wind_gusts":29.5,"aqi":186,"pm10":86.1,"pm2_5":75.4,"mosquito_risk":4,"arthritis_risk":5,"migraine_risk":7,"frizz_risk":0,"updated_at":"2026-03-06T23:07:52.991838+05:30"},{"city":"Bhubaneswar","state":"Odisha","latitude":20.2961,"longitude":85.8245,"temp":25.3,"humidity":87,"rain":0.0,"pressure":1005.4,"uv_index":8.2,"wind_gusts":29.9,"aqi":136,"pm10":48.9,"pm2_5":43.9,"mosquito_risk":7,"arthritis_risk":5,"migraine_risk":4,"frizz_risk":1,"updated_at":"2026-03-06T23:07:52.991845+05:30"},{"city":"Cuttack","state":"Odisha","latitude":20.4625,"longitude":85.8828,"temp":25.6,"humidity":84,"rain":0.0,"pressure":1007.5,"uv_index":8.2,"wind_gusts":31.3,"aqi":136,"pm10":48.9,"pm2_5":43.9,"mosquito_risk":7,"arthritis_risk":5,"migraine_risk":4,"frizz_risk":1,"updated_at":"2026-03-06T23:07:52.991852+05:30"},{"city":"Rourkela","state":"Odisha","latitude":22.2604,"longitude":84.8536,"temp":25.5,"humidity":65,"rain":0.0,"pressure":986.3,"uv_index":7.8,"wind_gusts":10.4,"aqi":171,"pm10":99.7,"pm2_5":72.4,"mosquito_risk":7,"arthritis_risk":5,"migraine_risk":7,"frizz_risk":1,"updated_at":"2026-03-06T23:07:52.991859+05:30"},{"city":"Raipur","state":"Chhattisgarh","latitude":21.2514,"longitude":81.6296,"temp":25.7,"humidity":49,"rain":0.0,"pressure":975.4,"uv_index":7.9,"wind_gusts":22.7,"aqi":94,"pm10":110.6,"pm2_5":83.4,"mosquito_risk":4,"arthritis_risk":5,"migraine_risk":7,"frizz_risk":0,"updated_at":"2026-03-06T23:07:52.991865+05:30"},{"city":"Bhilai","state":"Chhattisgarh","latitude":21.1938,"longitude":81.3509,"temp":25.1,"humidity":46,"rain":0.0,"pressure":975.7,"uv_index":7.9,"wind_gusts":23.8,"aqi":85,"pm10":87.5,"pm2_5":71.7,"mosquito_risk":4,"arthritis_risk":5,"migraine_risk":7,"frizz_risk":0,"updated_at":"2026-03-06T23:07:52.991872+05:30"},{"city":"Guwahati","state":"Assam","latitude":26.1158,"longitude":91.7086,"temp":24.1,"humidity":80,"rain":0.0,"pressure":1004.4,"uv_index":7.2,"wind_gusts":20.5,"aqi":153,"pm10":67.1,"pm2_5":62.9,"mosquito_risk":3,"arthritis_risk":5,"migraine_risk":4,"frizz_risk":1,"updated_at":"2026-03-06T23:07:52.991878+05:30"},{"city":"Agartala","state":"Tripura","latitude":23.8315,"longitude":91.2868,"temp":21.8,"humidity":77,"rain":0.0,"pressure":1009.4,"uv_index":7.55,"wind_gusts":16.9,"aqi":159,"pm10":100.8,"pm2_5":92.7,"mosquito_risk":3,"arthritis_risk":0,"migraine_risk":4,"frizz_risk":1,"updated_at":"2026-03-06T23:07:52.991885+05:30"},{"city":"Shillong","state":"Meghalaya","latitude":25.5788,"longitude":91.8933,"temp":12.5,"humidity":74,"rain":0.0,"pressure":857.5,"uv_index":7.6,"wind_gusts":33.1,"aqi":120,"pm10":46.2,"pm2_5":43.2,"mosquito_risk":3,"arthritis_risk":5,"migraine_risk":7,"frizz_risk":0,"updated_at":"2026-03-06T23:07:52.991891+05:30"},{"city":"Imphal","state":"Manipur","latitude":24.817,"longitude":93.9368,"temp":17.5,"humidity":61,"rain":0.0,"pressure":925.7,"uv_index":7.8,"wind_gusts":34.9,"aqi":156,"pm10":91.5,"pm2_5":86.1,"mosquito_risk":3,"arthritis_risk":5,"migraine_risk":7,"frizz_risk":0,"updated_at":"2026-03-06T23:07:52.991898+05:30"},{"city":"Aizawl","state":"Mizoram","latitude":23.7271,"longitude":92.7176,"temp":19.8,"humidity":57,"rain":0.0,"pressure":895.6,"uv_index":7.7,"wind_gusts":34.6,"aqi":183,"pm10":137.4,"pm2_5":129.9,"mosquito_risk":0,"arthritis_risk":5,"migraine_risk":7,"frizz_risk":0,"updated_at":"2026-03-06T23:07:52.991905+05:30"},{"city":"Kohima","state":"Nagaland","latitude":25.6701,"longitude":94.1077,"temp":16.2,"humidity":59,"rain":0.0,"pressure":857.4,"uv_index":7.65,"wind_gusts":46.8,"aqi":159,"pm10":100.4,"pm2_5":94.3,"mosquito_risk":0,"arthritis_risk":5,"migraine_risk":7,"frizz_risk":0,"updated_at":"2026-03-06T23:07:52.991911+05:30"},{"city":"Gangtok","state":"Sikkim","latitude":27.3314,"longitude":88.6138,"temp":14.4,"humidity":87,"rain":0.0,"pressure":840.1,"uv_index":7.55,"wind_gusts":18.0,"aqi":113,"pm10":64.5,"pm2_5":58.0,"mosquito_risk":3,"arthritis_risk":10,"migraine_risk":7,"frizz_risk":0,"updated_at":"2026-03-06T23:07:52.991918+05:30"},{"city":"Siliguri","state":"West Bengal","latitude":26.7271,"longitude":88.3953,"temp":22.5,"humidity":59,"rain":0.0,"pressure":997.6,"uv_index":7.2,"wind_gusts":15.5,"aqi":147,"pm10":69.8,"pm2_5":62.4,"mosquito_risk":0,"arthritis_risk":5,"migraine_risk":7,"frizz_risk":0,"updated_at":"2026-03-06T23:07:56.304534+05:30"},{"city":"Durgapur","state":"West Bengal","latitude":23.5204,"longitude":87.3119,"temp":25.6,"humidity":64,"rain":0.0,"pressure":997.9,"uv_index":7.75,"wind_gusts":24.1,"aqi":161,"pm10":71.9,"pm2_5":62.9,"mosquito_risk":7,"arthritis_risk":5,"migraine_risk":7,"frizz_risk":1,"updated_at":"2026-03-06T23:07:56.304566+05:30"},{"city":"Asansol","state":"West Bengal","latitude":23.6739,"longitude":86.9524,"temp":26.4,"humidity":58,"rain":0.0,"pressure":996.5,"uv_index":7.75,"wind_gusts":21.6,"aqi":162,"pm10":71.0,"pm2_5":62.9,"mosquito_risk":4,"arthritis_risk":5,"migraine_risk":7,"frizz_risk":1,"updated_at":"2026-03-06T23:07:56.304576+05:30"},{"city":"Pondicherry","state":"Puducherry","latitude":11.9139,"longitude":79.8145,"temp":24.2,"humidity":95,"rain":0.0,"pressure":1009.6,"uv_index":8.9,"wind_gusts":32.4,"aqi":72,"pm10":27.5,"pm2_5":21.3,"mosquito_risk":3,"arthritis_risk":0,"migraine_risk":4,"frizz_risk":1,"updated_at":"2026-03-06T23:07:56.304586+05:30"},{"city":"Port Blair","state":"Andaman and Nicobar Islands","latitude":11.6234,"longitude":92.7265,"temp":27.1,"humidity":71,"rain":0.0,"pressure":1009.1,"uv_index":8.85,"wind_gusts":14.4,"aqi":68,"pm10":54.0,"pm2_5":32.5,"mosquito_risk":7,"arthritis_risk":0,"migraine_risk":4,"frizz_risk":1,"updated_at":"2026-03-06T23:07:56.304595+05:30"},{"city":"Haridwar","state":"Uttarakhand","latitude":29.9457,"longitude":78.1642,"temp":22.7,"humidity":80,"rain":0.0,"pressure":977.6,"uv_index":5.65,"wind_gusts":23.4,"aqi":157,"pm10":101.0,"pm2_5":84.8,"mosquito_risk":3,"arthritis_risk":5,"migraine_risk":3,"frizz_risk":1,"updated_at":"2026-03-06T23:07:56.304604+05:30"},{"city":"Rishikesh","state":"Uttarakhand","latitude":30.0869,"longitude":78.2676,"temp":21.4,"humidity":79,"rain":0.0,"pressure":970.4,"uv_index":5.7,"wind_gusts":21.6,"aqi":168,"pm10":111.5,"pm2_5":80.6,"mosquito_risk":3,"arthritis_risk":5,"migraine_risk":3,"frizz_risk":1,"updated_at":"2026-03-06T23:07:56.304613+05:30"},{"city":"Nainital","state":"Uttarakhand","latitude":29.3919,"longitude":79.4542,"temp":16.2,"humidity":70,"rain":0.0,"pressure":807.8,"uv_index":6.5,"wind_gusts":46.4,"aqi":160,"pm10":105.5,"pm2_5":78.7,"mosquito_risk":3,"arthritis_risk":5,"migraine_risk":7,"frizz_risk":0,"updated_at":"2026-03-06T23:07:56.304622+05:30"},{"city":"Mussoorie","state":"Uttarakhand","latitude":30.4599,"longitude":78.0664,"temp":15.2,"humidity":87,"rain":0.0,"pressure":804.5,"uv_index":6.05,"wind_gusts":40.7,"aqi":164,"pm10":128.1,"pm2_5":89.2,"mosquito_risk":3,"arthritis_risk":10,"migraine_risk":7,"frizz_risk":0,"updated_at":"2026-03-06T23:07:56.304632+05:30"},{"city":"Dharamshala","state":"Himachal Pradesh","latitude":32.219,"longitude":76.3234,"temp":21.7,"humidity":60,"rain":0.0,"pressure":871.8,"uv_index":5.75,"wind_gusts":21.2,"aqi":89,"pm10":33.8,"pm2_5":23.4,"mosquito_risk":0,"arthritis_risk":5,"migraine_risk":3,"frizz_risk":0,"updated_at":"2026-03-06T23:07:56.304640+05:30"},{"city":"Dalhousie","state":"Himachal Pradesh","latitude":32.5387,"longitude":75.971,"temp":17.7,"humidity":67,"rain":0.0,"pressure":805.7,"uv_index":5.85,"wind_gusts":20.9,"aqi":94,"pm10":65.2,"pm2_5":54.0,"mosquito_risk":3,"arthritis_risk":5,"migraine_risk":3,"frizz_risk":0,"updated_at":"2026-03-06T23:07:56.304649+05:30"},{"city":"Patiala","state":"Punjab","latitude":30.3398,"longitude":76.3869,"temp":22.7,"humidity":74,"rain":0.0,"pressure":980.6,"uv_index":5.7,"wind_gusts":13.0,"aqi":161,"pm10":314.8,"pm2_5":110.8,"mosquito_risk":3,"arthritis_risk":5,"migraine_risk":3,"frizz_risk":1,"updated_at":"2026-03-06T23:07:56.304657+05:30"},{"city":"Bhatinda","state":"Punjab","latitude":30.211,"longitude":74.9455,"temp":23.4,"humidity":53,"rain":0.0,"pressure":985.5,"uv_index":6.4,"wind_gusts":16.9,"aqi":137,"pm10":71.7,"pm2_5":59.0,"mosquito_risk":0,"arthritis_risk":5,"migraine_risk":7,"frizz_risk":0,"updated_at":"2026-03-06T23:07:56.304665+05:30"},{"city":"Rohtak","state":"Haryana","latitude":28.8955,"longitude":76.6066,"temp":23.1,"humidity":53,"rain":0.0,"pressure":984.0,"uv_index":5.9,"wind_gusts":19.4,"aqi":169,"pm10":281.3,"pm2_5":121.1,"mosquito_risk":0,"arthritis_risk":5,"migraine_risk":3,"frizz_risk":0,"updated_at":"2026-03-06T23:07:56.304673+05:30"},{"city":"Panipat","state":"Haryana","latitude":29.3909,"longitude":76.9635,"temp":23.0,"humidity":72,"rain":0.0,"pressure":982.9,"uv_index":5.7,"wind_gusts":14.0,"aqi":405,"pm10":410.7,"pm2_5":131.8,"mosquito_risk":3,"arthritis_risk":5,"migraine_risk":3,"frizz_risk":1,"updated_at":"2026-03-06T23:07:56.304682+05:30"},{"city":"Mathura","state":"Uttar Pradesh","latitude":27.4924,"longitude":77.6737,"temp":20.4,"humidity":64,"rain":0.0,"pressure":989.0,"uv_index":6.2,"wind_gusts":19.1,"aqi":198,"pm10":200.2,"pm2_5":97.8,"mosquito_risk":3,"arthritis_risk":5,"migraine_risk":7,"frizz_risk":0,"updated_at":"2026-03-06T23:07:56.304690+05:30"},{"city":"Vrindavan","state":"Uttar Pradesh","latitude":27.5823,"longitude":77.7027,"temp":21.9,"humidity":61,"rain":0.0,"pressure":989.6,"uv_index":6.15,"wind_gusts":17.6,"aqi":198,"pm10":200.2,"pm2_5":97.8,"mosquito_risk":3,"arthritis_risk":5,"migraine_risk":7,"frizz_risk":0,"updated_at":"2026-03-06T23:07:56.304698+05:30"},{"city":"Ayodhya","state":"Uttar Pradesh","latitude":26.7922,"longitude":82.1998,"temp":22.5,"humidity":77,"rain":0.0,"pressure":998.9,"uv_index":6.55,"wind_gusts":19.4,"aqi":167,"pm10":137.8,"pm2_5":108.5,"mosquito_risk":3,"arthritis_risk":5,"migraine_risk":7,"frizz_risk":1,"updated_at":"2026-03-06T23:07:56.304706+05:30"},{"city":"Ratlam","state":"Madhya Pradesh","latitude":23.3315,"longitude":75.0367,"temp":24.0,"humidity":53,"rain":0.0,"pressure":956.2,"uv_index":7.4,"wind_gusts":20.9,"aqi":64,"pm10":44.7,"pm2_5":43.3,"mosquito_risk":0,"arthritis_risk":5,"migraine_risk":7,"frizz_risk":0,"updated_at":"2026-03-06T23:07:56.304714+05:30"},{"city":"Sagar","state":"Madhya Pradesh","latitude":23.8388,"longitude":78.7378,"temp":23.6,"humidity":49,"rain":0.0,"pressure":951.6,"uv_index":7.35,"wind_gusts":21.6,"aqi":71,"pm10":48.1,"pm2_5":21.4,"mosquito_risk":0,"arthritis_risk":5,"migraine_risk":7,"frizz_risk":0,"updated_at":"2026-03-06T23:07:56.304722+05:30"},{"city":"Satna","state":"Madhya Pradesh","latitude":24.6005,"longitude":80.8322,"temp":22.9,"humidity":71,"rain":0.0,"pressure":973.8,"uv_index":7.3,"wind_gusts":31.3,"aqi":113,"pm10":124.8,"pm2_5":61.7,"mosquito_risk":3,"arthritis_risk":5,"migraine_risk":7,"frizz_risk":1,"updated_at":"2026-03-06T23:07:56.304729+05:30"},{"city":"Akola","state":"Maharashtra","latitude":20.7002,"longitude":77.0082,"temp":24.6,"humidity":50,"rain":0.0,"pressure":975.9,"uv_index":7.85,"wind_gusts":19.8,"aqi":81,"pm10":39.5,"pm2_5":33.3,"mosquito_risk":0,"arthritis_risk":5,"migraine_risk":7,"frizz_risk":0,"updated_at":"2026-03-06T23:07:56.304736+05:30"},{"city":"Amravati","state":"Maharashtra","latitude":20.9374,"longitude":77.7796,"temp":24.6,"humidity":58,"rain":0.0,"pressure":967.8,"uv_index":7.75,"wind_gusts":15.1,"aqi":78,"pm10":46.0,"pm2_5":37.5,"mosquito_risk":0,"arthritis_risk":5,"migraine_risk":7,"frizz_risk":0,"updated_at":"2026-03-06T23:07:56.304744+05:30"},{"city":"Latur","state":"Maharashtra","latitude":18.4088,"longitude":76.5604,"temp":25.7,"humidity":40,"rain":0.0,"pressure":940.4,"uv_index":8.3,"wind_gusts":31.7,"aqi":100,"pm10":36.8,"pm2_5":30.5,"mosquito_risk":4,"arthritis_risk":5,"migraine_risk":7,"frizz_risk":0,"updated_at":"2026-03-06T23:07:56.304751+05:30"},{"city":"Nanded","state":"Maharashtra","latitude":19.1383,"longitude":77.3091,"temp":26.6,"humidity":46,"rain":0.0,"pressure":969.1,"uv_index":8.1,"wind_gusts":20.9,"aqi":91,"pm10":56.8,"pm2_5":48.1,"mosquito_risk":4,"arthritis_risk":5,"migraine_risk":7,"frizz_risk":0,"updated_at":"2026-03-06T23:07:56.304758+05:30"},{"city":"Gulbarga","state":"Karnataka","latitude":17.3297,"longitude":76.8343,"temp":27.0,"humidity":38,"rain":0.0,"pressure":958.9,"uv_index":8.4,"wind_gusts":33.1,"aqi":82,"pm10":24.9,"pm2_5":20.3,"mosquito_risk":4,"arthritis_risk":5,"migraine_risk":7,"frizz_risk":0,"updated_at":"2026-03-06T23:07:56.304764+05:30"},{"city":"Bidar","state":"Karnataka","latitude":17.9104,"longitude":77.5199,"temp":25.5,"humidity":42,"rain":0.0,"pressure":936.0,"uv_index":8.35,"wind_gusts":32.8,"aqi":75,"pm10":37.7,"pm2_5":27.4,"mosquito_risk":4,"arthritis_risk":5,"migraine_risk":7,"frizz_risk":0,"updated_at":"2026-03-06T23:07:56.304770+05:30"},{"city":"Hospet","state":"Karnataka","latitude":15.2689,"longitude":76.3909,"temp":27.2,"humidity":38,"rain":0.0,"pressure":956.1,"uv_index":8.75,"wind_gusts":20.2,"aqi":130,"pm10":34.3,"pm2_5":32.0,"mosquito_risk":4,"arthritis_risk":5,"migraine_risk":7,"frizz_risk":0,"updated_at":"2026-03-06T23:07:56.304777+05:30"},{"city":"Tirupur","state":"Tamil Nadu","latitude":11.1085,"longitude":77.3411,"temp":26.4,"humidity":78,"rain":0.0,"pressure":976.2,"uv_index":9.2,"wind_gusts":30.2,"aqi":139,"pm10":44.4,"pm2_5":42.6,"mosquito_risk":7,"arthritis_risk":5,"migraine_risk":7,"frizz_risk":1,"updated_at":"2026-03-06T23:07:56.304783+05:30"},{"city":"Alappuzha","state":"Kerala","latitude":9.4981,"longitude":76.3388,"temp":27.6,"humidity":82,"rain":0.0,"pressure":1010.7,"uv_index":8.95,"wind_gusts":31.0,"aqi":107,"pm10":41.4,"pm2_5":38.5,"mosquito_risk":7,"arthritis_risk":0,"migraine_risk":4,"frizz_risk":1,"updated_at":"2026-03-06T23:07:56.304790+05:30"},{"city":"Munnar","state":"Kerala","latitude":10.0889,"longitude":77.0595,"temp":19.8,"humidity":93,"rain":0.0,"pressure":857.5,"uv_index":9.45,"wind_gusts":29.9,"aqi":100,"pm10":51.9,"pm2_5":50.1,"mosquito_risk":3,"arthritis_risk":10,"migraine_risk":7,"frizz_risk":1,"updated_at":"2026-03-06T23:07:56.304796+05:30"},{"city":"Silchar","state":"Assam","latitude":24.8333,"longitude":92.7789,"temp":26.8,"humidity":60,"rain":0.0,"pressure":1007.7,"uv_index":7.55,"wind_gusts":12.6,"aqi":170,"pm10":122.9,"pm2_5":118.5,"mosquito_risk":4,"arthritis_risk":5,"migraine_risk":4,"frizz_risk":1,"updated_at":"2026-03-06T23:07:56.304803+05:30"},{"city":"Dibrugarh","state":"Assam","latitude":27.4728,"longitude":94.912,"temp":24.0,"humidity":78,"rain":0.0,"pressure":998.1,"uv_index":7.25,"wind_gusts":16.6,"aqi":96,"pm10":46.8,"pm2_5":44.0,"mosquito_risk":3,"arthritis_risk":5,"migraine_risk":7,"frizz_risk":1,"updated_at":"2026-03-06T23:07:56.304809+05:30"}]