[{"city":"Delhi","state":"Delhi","latitude":28.6139,"longitude":77.209,"temp":32.5,"humidity":46,"rain":0.0,"pressure":977.4,"uv_index":7.8,"wind_gusts":40.3,"aqi":163,"pm10":237.5,"pm2_5":76.6,"no2":27.1,"co":1555.0,"o3":109.0,"so2":21.9,"mosquito_risk":0,"arthritis_risk":5,"migraine_risk":7,"frizz_risk":1,"updated_at":"2026-06-04T23:50:37.086476+05:30"},{"city":"Mumbai","state":"Maharashtra","latitude":19.076,"longitude":72.8777,"temp":30.6,"humidity":67,"rain":0.0,"pressure":1005.5,"uv_index":7.7,"wind_gusts":40.0,"aqi":60,"pm10":36.0,"pm2_5":15.5,"no2":9.3,"co":166.0,"o3":45.0,"so2":8.6,"mosquito_risk":3,"arthritis_risk":5,"migraine_risk":4,"frizz_risk":1,"updated_at":"2026-06-04T23:50:37.086524+05:30"},{"city":"Bangalore","state":"Karnataka","latitude":12.9716,"longitude":77.5946,"temp":21.5,"humidity":91,"rain":0.0,"pressure":911.0,"uv_index":9.1,"wind_gusts":44.6,"aqi":32,"pm10":7.7,"pm2_5":6.9,"no2":17.3,"co":308.0,"o3":33.0,"so2":5.3,"mosquito_risk":3,"arthritis_risk":5,"migraine_risk":7,"frizz_risk":1,"updated_at":"2026-06-04T23:50:37.086540+05:30"},{"city":"Hyderabad","state":"Telangana","latitude":17.385,"longitude":78.4867,"temp":29.4,"humidity":55,"rain":0.0,"pressure":951.1,"uv_index":9.0,"wind_gusts":37.1,"aqi":67,"pm10":19.8,"pm2_5":15.7,"no2":11.7,"co":450.0,"o3":77.0,"so2":5.4,"mosquito_risk":4,"arthritis_risk":5,"migraine_risk":7,"frizz_risk":1,"updated_at":"2026-06-04T23:50:37.086550+05:30"},{"city":"Chennai","state":"Tamil Nadu","latitude":13.0827,"longitude":80.2707,"temp":30.7,"humidity":69,"rain":0.0,"pressure":1004.4,"uv_index":8.65,"wind_gusts":41.8,"aqi":62,"pm10":15.8,"pm2_5":12.1,"no2":14.8,"co":378.0,"o3":72.0,"so2":8.0,"mosquito_risk":3,"arthritis_risk":5,"migraine_risk":4,"frizz_risk":1,"updated_at":"2026-06-04T23:50:37.086558+05:30"},{"city":"Kolkata","state":"West Bengal","latitude":22.5726,"longitude":88.3639,"temp":29.2,"humidity":91,"rain":0.0,"pressure":1000.9,"uv_index":8.95,"wind_gusts":38.5,"aqi":133,"pm10":41.3,"pm2_5":37.0,"no2":12.0,"co":681.0,"o3":81.0,"so2":9.4,"mosquito_risk":7,"arthritis_risk":5,"migraine_risk":4,"frizz_risk":1,"updated_at":"2026-06-04T23:50:37.086569+05:30"},{"city":"Pune","state":"Maharashtra","latitude":18.5204,"longitude":73.8567,"temp":25.3,"humidity":81,"rain":0.0,"pressure":946.1,"uv_index":8.35,"wind_gusts":52.6,"aqi":55,"pm10":8.0,"pm2_5":5.8,"no2":9.2,"co":152.0,"o3":47.0,"so2":7.6,"mosquito_risk":7,"arthritis_risk":5,"migraine_risk":7,"frizz_risk":1,"updated_at":"2026-06-04T23:50:37.086576+05:30"},{"city":"Ahmedabad","state":"Gujarat","latitude":23.0225,"longitude":72.5714,"temp":31.6,"humidity":70,"rain":0.0,"pressure":997.5,"uv_index":8.05,"wind_gusts":36.7,"aqi":76,"pm10":29.3,"pm2_5":20.5,"no2":11.4,"co":190.0,"o3":50.0,"so2":7.1,"mosquito_risk":3,"arthritis_risk":5,"migraine_risk":7,"frizz_risk":1,"updated_at":"2026-06-04T23:50:37.086583+05:30"},{"city":"Jaipur","state":"Rajasthan","latitude":26.9124,"longitude":75.7873,"temp":25.0,"humidity":81,"rain":0.2,"pressure":956.0,"uv_index":8.25,"wind_gusts":45.0,"aqi":119,"pm10":51.9,"pm2_5":27.4,"no2":12.6,"co":296.0,"o3":57.0,"so2":6.4,"mosquito_risk":10,"arthritis_risk":5,"migraine_risk":7,"frizz_risk":1,"updated_at":"2026-06-04T23:50:37.086593+05:30"},{"city":"Lucknow","state":"Uttar Pradesh","latitude":26.8467,"longitude":80.9462,"temp":32.5,"humidity":51,"rain":0.0,"pressure":987.9,"uv_index":8.0,"wind_gusts":28.4,"aqi":155,"pm10":125.7,"pm2_5":85.4,"no2":64.2,"co":657.0,"o3":31.0,"so2":25.6,"mosquito_risk":0,"arthritis_risk":5,"migraine_risk":7,"frizz_risk":1,"updated_at":"2026-06-04T23:50:37.086599+05:30"},{"city":"Kanpur","state":"Uttar Pradesh","latitude":26.4499,"longitude":80.3319,"temp":32.5,"humidity":45,"rain":0.0,"pressure":986.1,"uv_index":8.3,"wind_gusts":35.3,"aqi":152,"pm10":111.1,"pm2_5":59.0,"no2":42.4,"co":931.0,"o3":44.0,"so2":13.9,"mosquito_risk":0,"arthritis_risk":5,"migraine_risk":7,"frizz_risk":1,"updated_at":"2026-06-04T23:50:37.086606+05:30"},{"city":"Chandigarh","state":"Chandigarh","latitude":30.7333,"longitude":76.7794,"temp":27.5,"humidity":58,"rain":0.0,"pressure":962.5,"uv_index":7.8,"wind_gusts":41.8,"aqi":126,"pm10":59.8,"pm2_5":47.1,"no2":27.0,"co":1190.0,"o3":85.0,"so2":14.2,"mosquito_risk":4,"arthritis_risk":5,"migraine_risk":7,"frizz_risk":1,"updated_at":"2026-06-04T23:50:37.086612+05:30"},{"city":"Srinagar","state":"Jammu and Kashmir","latitude":34.0837,"longitude":74.7973,"temp":14.8,"humidity":95,"rain":0.0,"pressure":840.0,"uv_index":9.05,"wind_gusts":34.9,"aqi":83,"pm10":54.1,"pm2_5":48.8,"no2":38.4,"co":424.0,"o3":21.0,"so2":2.5,"mosquito_risk":3,"arthritis_risk":10,"migraine_risk":7,"frizz_risk":0,"updated_at":"2026-06-04T23:50:37.086619+05:30"},{"city":"Jammu","state":"Jammu and Kashmir","latitude":32.7266,"longitude":74.857,"temp":26.0,"humidity":67,"rain":0.0,"pressure":966.1,"uv_index":8.6,"wind_gusts":55.1,"aqi":95,"pm10":81.0,"pm2_5":60.1,"no2":61.7,"co":614.0,"o3":13.0,"so2":8.0,"mosquito_risk":7,"arthritis_risk":5,"migraine_risk":7,"frizz_risk":1,"updated_at":"2026-06-04T23:50:37.086626+05:30"},{"city":"Amritsar","state":"Punjab","latitude":31.634,"longitude":74.8723,"temp":28.8,"humidity":56,"rain":0.0,"pressure":974.2,"uv_index":8.45,"wind_gusts":55.1,"aqi":150,"pm10":58.6,"pm2_5":47.8,"no2":21.7,"co":1286.0,"o3":76.0,"so2":7.0,"mosquito_risk":4,"arthritis_risk":5,"migraine_risk":7,"frizz_risk":1,"updated_at":"2026-06-04T23:50:37.086632+05:30"},{"city":"Ludhiana","state":"Punjab","latitude":30.901,"longitude":75.8573,"temp":29.4,"humidity":60,"rain":0.0,"pressure":972.1,"uv_index":8.05,"wind_gusts":40.0,"aqi":153,"pm10":54.7,"pm2_5":43.4,"no2":15.0,"co":1252.0,"o3":98.0,"so2":11.0,"mosquito_risk":4,"arthritis_risk":5,"migraine_risk":7,"frizz_risk":1,"updated_at":"2026-06-04T23:50:37.086638+05:30"},{"city":"Jalandhar","state":"Punjab","latitude":31.326,"longitude":75.5762,"temp":30.7,"humidity":50,"rain":0.0,"pressure":973.0,"uv_index":8.25,"wind_gusts":31.0,"aqi":150,"pm10":58.7,"pm2_5":44.5,"no2":18.2,"co":1358.0,"o3":84.0,"so2":6.8,"mosquito_risk":0,"arthritis_risk":5,"migraine_risk":7,"frizz_risk":1,"updated_at":"2026-06-04T23:50:37.086644+05:30"},{"city":"Dehradun","state":"Uttarakhand","latitude":30.6284,"longitude":78.0322,"temp":14.6,"humidity":100,"rain":0.0,"pressure":825.8,"uv_index":7.7,"wind_gusts":28.1,"aqi":74,"pm10":29.6,"pm2_5":17.6,"no2":24.0,"co":228.0,"o3":57.0,"so2":1.3,"mosquito_risk":3,"arthritis_risk":10,"migraine_risk":7,"frizz_risk":0,"updated_at":"2026-06-04T23:50:37.086651+05:30"},{"city":"Shimla","state":"Himachal Pradesh","latitude":31.1048,"longitude":77.1734,"temp":12.3,"humidity":93,"rain":0.0,"pressure":779.4,"uv_index":6.65,"wind_gusts":36.0,"aqi":108,"pm10":13.8,"pm2_5":10.2,"no2":12.2,"co":414.0,"o3":110.0,"so2":0.5,"mosquito_risk":3,"arthritis_risk":10,"migraine_risk":7,"frizz_risk":0,"updated_at":"2026-06-04T23:50:37.086660+05:30"},{"city":"Manali","state":"Himachal Pradesh","latitude":32.2396,"longitude":77.1887,"temp":11.7,"humidity":88,"rain":0.0,"pressure":813.0,"uv_index":9.2,"wind_gusts":33.5,"aqi":85,"pm10":4.3,"pm2_5":4.2,"no2":28.5,"co":389.0,"o3":99.0,"so2":0.1,"mosquito_risk":3,"arthritis_risk":10,"migraine_risk":7,"frizz_risk":0,"updated_at":"2026-06-04T23:50:37.086666+05:30"},{"city":"Gurgaon","state":"Haryana","latitude":28.4595,"longitude":77.0266,"temp":30.8,"humidity":48,"rain":0.0,"pressure":975.7,"uv_index":7.9,"wind_gusts":41.0,"aqi":507,"pm10":285.0,"pm2_5":92.0,"no2":45.4,"co":1597.0,"o3":58.0,"so2":16.5,"mosquito_risk":0,"arthritis_risk":5,"migraine_risk":7,"frizz_risk":1,"updated_at":"2026-06-04T23:50:37.086672+05:30"},{"city":"Noida","state":"Uttar Pradesh","latitude":28.5355,"longitude":77.391,"temp":29.0,"humidity":67,"rain":0.0,"pressure":978.6,"uv_index":7.85,"wind_gusts":36.4,"aqi":507,"pm10":285.0,"pm2_5":92.0,"no2":45.4,"co":2426.0,"o3":58.0,"so2":16.5,"mosquito_risk":7,"arthritis_risk":5,"migraine_risk":7,"frizz_risk":1,"updated_at":"2026-06-04T23:50:37.086678+05:30"},{"city":"Ghaziabad","state":"Uttar Pradesh","latitude":28.6692,"longitude":77.4538,"temp":28.2,"humidity":71,"rain":0.0,"pressure":976.8,"uv_index":7.8,"wind_gusts":37.4,"aqi":160,"pm10":115.9,"pm2_5":63.8,"no2":21.8,"co":782.0,"o3":95.0,"so2":11.8,"mosquito_risk":7,"arthritis_risk":5,"migraine_risk":7,"frizz_risk":1,"updated_at":"2026-06-04T23:50:37.086687+05:30"},{"city":"Faridabad","state":"Haryana","latitude":28.4089,"longitude":77.3178,"temp":31.4,"humidity":50,"rain":0.0,"pressure":978.1,"uv_index":7.85,"wind_gusts":42.8,"aqi":507,"pm10":285.0,"pm2_5":92.0,"no2":45.4,"co":1810.0,"o3":58.0,"so2":16.5,"mosquito_risk":0,"arthritis_risk":5,"migraine_risk":7,"frizz_risk":1,"updated_at":"2026-06-04T23:50:37.086693+05:30"},{"city":"Meerut","state":"Uttar Pradesh","latitude":28.9845,"longitude":77.7064,"temp":28.8,"humidity":68,"rain":0.0,"pressure":975.6,"uv_index":7.7,"wind_gusts":42.1,"aqi":160,"pm10":115.9,"pm2_5":63.8,"no2":21.8,"co":691.0,"o3":95.0,"so2":11.8,"mosquito_risk":7,"arthritis_risk":5,"migraine_risk":7,"frizz_risk":1,"updated_at":"2026-06-04T23:50:37.086699+05:30"},{"city":"Agra","state":"Uttar Pradesh","latitude":27.1767,"longitude":78.0081,"temp":32.2,"humidity":41,"rain":0.0,"pressure":982.3,"uv_index":8.15,"wind_gusts":29.5,"aqi":171,"pm10":659.4,"pm2_5":100.6,"no2":25.5,"co":966.0,"o3":49.0,"so2":8.5,"mosquito_risk":0,"arthritis_risk":5,"migraine_risk":7,"frizz_risk":1,"updated_at":"2026-06-04T23:50:37.086705+05:30"},{"city":"Varanasi","state":"Uttar Pradesh","latitude":25.3176,"longitude":82.9739,"temp":33.7,"humidity":46,"rain":0.0,"pressure":992.1,"uv_index":8.45,"wind_gusts":36.0,"aqi":136,"pm10":92.2,"pm2_5":73.6,"no2":54.9,"co":1125.0,"o3":23.0,"so2":18.0,"mosquito_risk":0,"arthritis_risk":5,"migraine_risk":7,"frizz_risk":1,"updated_at":"2026-06-04T23:50:37.086712+05:30"},{"city":"Prayagraj","state":"Uttar Pradesh","latitude":25.4358,"longitude":81.8463,"temp":32.3,"humidity":53,"rain":0.0,"pressure":990.6,"uv_index":8.55,"wind_gusts":25.6,"aqi":138,"pm10":110.4,"pm2_5":79.4,"no2":71.4,"co":633.0,"o3":19.0,"so2":25.9,"mosquito_risk":0,"arthritis_risk":5,"migraine_risk":7,"frizz_risk":1,"updated_at":"2026-06-04T23:50:37.086718+05:30"},{"city":"Gorakhpur","state":"Uttar Pradesh","latitude":26.7606,"longitude":83.3732,"temp":29.9,"humidity":63,"rain":0.0,"pressure":991.9,"uv_index":8.35,"wind_gusts":21.6,"aqi":152,"pm10":127.1,"pm2_5":82.2,"no2":61.4,"co":571.0,"o3":29.0,"so2":20.6,"mosquito_risk":7,"arthritis_risk":5,"migraine_risk":7,"frizz_risk":1,"updated_at":"2026-06-04T23:50:37.086731+05:30"},{"city":"Bareilly","state":"Uttar Pradesh","latitude":28.367,"longitude":79.4304,"temp":28.4,"humidity":70,"rain":0.0,"pressure":980.9,"uv_index":8.15,"wind_gusts":47.2,"aqi":149,"pm10":80.1,"pm2_5":55.8,"no2":31.7,"co":719.0,"o3":63.0,"so2":12.7,"mosquito_risk":7,"arthritis_risk":5,"migraine_risk":7,"frizz_risk":1,"updated_at":"2026-06-04T23:50:37.086737+05:30"},{"city":"Aligarh","state":"Uttar Pradesh","latitude":27.8974,"longitude":78.088,"temp":28.6,"humidity":61,"rain":0.0,"pressure":979.7,"uv_index":8.0,"wind_gusts":35.3,"aqi":154,"pm10":163.9,"pm2_5":85.0,"no2":59.4,"co":865.0,"o3":34.0,"so2":18.8,"mosquito_risk":7,"arthritis_risk":5,"migraine_risk":7,"frizz_risk":1,"updated_at":"2026-06-04T23:50:37.086744+05:30"},{"city":"Moradabad","state":"Uttar Pradesh","latitude":28.8386,"longitude":78.7733,"temp":29.5,"humidity":64,"rain":0.0,"pressure":977.9,"uv_index":7.95,"wind_gusts":50.8,"aqi":155,"pm10":185.3,"pm2_5":88.2,"no2":43.9,"co":624.0,"o3":74.0,"so2":24.1,"mosquito_risk":7,"arthritis_risk":5,"migraine_risk":7,"frizz_risk":1,"updated_at":"2026-06-04T23:50:37.086750+05:30"},{"city":"Saharanpur","state":"Uttar Pradesh","latitude":29.9637,"longitude":77.546,"temp":27.8,"humidity":67,"rain":0.0,"pressure":969.9,"uv_index":7.5,"wind_gusts":39.6,"aqi":142,"pm10":172.8,"pm2_5":102.0,"no2":71.3,"co":779.0,"o3":29.0,"so2":24.3,"mosquito_risk":7,"arthritis_risk":5,"migraine_risk":7,"frizz_risk":1,"updated_at":"2026-06-04T23:50:37.086756+05:30"},{"city":"Jhansi","state":"Uttar Pradesh","latitude":25.4484,"longitude":78.5685,"temp":30.4,"humidity":49,"rain":0.0,"pressure":973.1,"uv_index":8.5,"wind_gusts":30.2,"aqi":83,"pm10":51.6,"pm2_5":25.0,"no2":4.4,"co":182.0,"o3":66.0,"so2":2.9,"mosquito_risk":0,"arthritis_risk":5,"migraine_risk":7,"frizz_risk":1,"updated_at":"2026-06-04T23:50:40.404896+05:30"},{"city":"Surat","state":"Gujarat","latitude":21.1702,"longitude":72.8311,"temp":29.7,"humidity":80,"rain":0.0,"pressure":1003.1,"uv_index":7.6,"wind_gusts":47.9,"aqi":75,"pm10":42.4,"pm2_5":23.5,"no2":15.3,"co":206.0,"o3":39.0,"so2":25.7,"mosquito_risk":7,"arthritis_risk":5,"migraine_risk":4,"frizz_risk":1,"updated_at":"2026-06-04T23:50:40.404934+05:30"},{"city":"Vadodara","state":"Gujarat","latitude":22.3072,"longitude":73.1812,"temp":29.8,"humidity":78,"rain":0.0,"pressure":1000.3,"uv_index":8.0,"wind_gusts":42.8,"aqi":79,"pm10":37.1,"pm2_5":22.7,"no2":19.6,"co":194.0,"o3":32.0,"so2":22.6,"mosquito_risk":7,"arthritis_risk":5,"migraine_risk":4,"frizz_risk":1,"updated_at":"2026-06-04T23:50:40.404944+05:30"},{"city":"Rajkot","state":"Gujarat","latitude":22.3039,"longitude":70.8022,"temp":29.9,"humidity":69,"rain":0.0,"pressure":989.9,"uv_index":7.55,"wind_gusts":47.2,"aqi":65,"pm10":49.1,"pm2_5":22.3,"no2":2.9,"co":113.0,"o3":50.0,"so2":2.5,"mosquito_risk":7,"arthritis_risk":5,"migraine_risk":7,"frizz_risk":1,"updated_at":"2026-06-04T23:50:40.404953+05:30"},{"city":"Thane","state":"Maharashtra","latitude":19.2183,"longitude":72.9781,"temp":29.7,"humidity":75,"rain":0.0,"pressure":1005.0,"uv_index":7.7,"wind_gusts":37.1,"aqi":60,"pm10":36.0,"pm2_5":15.5,"no2":9.3,"co":184.0,"o3":45.0,"so2":8.6,"mosquito_risk":7,"arthritis_risk":5,"migraine_risk":4,"frizz_risk":1,"updated_at":"2026-06-04T23:50:40.404961+05:30"},{"city":"Nagpur","state":"Maharashtra","latitude":21.1458,"longitude":79.0882,"temp":33.8,"humidity":37,"rain":0.0,"pressure":969.5,"uv_index":8.9,"wind_gusts":38.9,"aqi":85,"pm10":54.9,"pm2_5":36.2,"no2":20.9,"co":345.0,"o3":54.0,"so2":10.9,"mosquito_risk":0,"arthritis_risk":5,"migraine_risk":7,"frizz_risk":1,"updated_at":"2026-06-04T23:50:40.404969+05:30"},{"city":"Nashik","state":"Maharashtra","latitude":19.9975,"longitude":73.7898,"temp":25.1,"humidity":86,"rain":0.0,"pressure":942.8,"uv_index":8.1,"wind_gusts":38.2,"aqi":62,"pm10":17.8,"pm2_5":9.7,"no2":8.9,"co":143.0,"o3":44.0,"so2":7.5,"mosquito_risk":7,"arthritis_risk":5,"migraine_risk":7,"frizz_risk":1,"updated_at":"2026-06-04T23:50:40.404976+05:30"},{"city":"Aurangabad","state":"Maharashtra","latitude":19.8762,"longitude":75.3433,"temp":29.5,"humidity":56,"rain":0.0,"pressure":941.7,"uv_index":9.0,"wind_gusts":49.0,"aqi":70,"pm10":25.6,"pm2_5":17.3,"no2":5.8,"co":155.0,"o3":93.0,"so2":7.3,"mosquito_risk":4,"arthritis_risk":5,"migraine_risk":7,"frizz_risk":1,"updated_at":"2026-06-04T23:50:40.404984+05:30"},{"city":"Solapur","state":"Maharashtra","latitude":17.6599,"longitude":75.9064,"temp":27.3,"humidity":73,"rain":0.0,"pressure":955.2,"uv_index":9.0,"wind_gusts":46.4,"aqi":57,"pm10":8.3,"pm2_5":7.3,"no2":7.6,"co":196.0,"o3":53.0,"so2":2.4,"mosquito_risk":7,"arthritis_risk":5,"migraine_risk":7,"frizz_risk":1,"updated_at":"2026-06-04T23:50:40.404991+05:30"},{"city":"Kolhapur","state":"Maharashtra","latitude":16.705,"longitude":74.2433,"temp":23.7,"humidity":92,"rain":0.0,"pressure":946.3,"uv_index":8.8,"wind_gusts":52.2,"aqi":43,"pm10":8.6,"pm2_5":7.3,"no2":7.6,"co":172.0,"o3":44.0,"so2":2.6,"mosquito_risk":3,"arthritis_risk":5,"migraine_risk":7,"frizz_risk":1,"updated_at":"2026-06-04T23:50:40.404999+05:30"},{"city":"Goa","state":"Goa","latitude":15.2993,"longitude":74.124,"temp":25.4,"humidity":97,"rain":0.0,"pressure":996.8,"uv_index":8.4,"wind_gusts":35.6,"aqi":33,"pm10":13.9,"pm2_5":9.9,"no2":5.3,"co":240.0,"o3":48.0,"so2":1.0,"mosquito_risk":7,"arthritis_risk":5,"migraine_risk":7,"frizz_risk":1,"updated_at":"2026-06-04T23:50:40.405006+05:30"},{"city":"Jodhpur","state":"Rajasthan","latitude":26.2389,"longitude":73.0243,"temp":31.4,"humidity":51,"rain":0.0,"pressure":976.8,"uv_index":8.45,"wind_gusts":51.1,"aqi":131,"pm10":145.8,"pm2_5":41.9,"no2":5.5,"co":155.0,"o3":69.0,"so2":2.5,"mosquito_risk":0,"arthritis_risk":5,"migraine_risk":7,"frizz_risk":1,"updated_at":"2026-06-04T23:50:40.405013+05:30"},{"city":"Udaipur","state":"Rajasthan","latitude":24.5854,"longitude":73.7125,"temp":28.4,"humidity":63,"rain":0.0,"pressure":942.4,"uv_index":8.8,"wind_gusts":43.2,"aqi":79,"pm10":36.1,"pm2_5":22.7,"no2":5.7,"co":234.0,"o3":82.0,"so2":7.8,"mosquito_risk":7,"arthritis_risk":5,"migraine_risk":7,"frizz_risk":1,"updated_at":"2026-06-04T23:50:40.405021+05:30"},{"city":"Kota","state":"Rajasthan","latitude":25.2138,"longitude":75.8648,"temp":31.5,"humidity":49,"rain":0.0,"pressure":974.1,"uv_index":8.4,"wind_gusts":49.0,"aqi":81,"pm10":35.6,"pm2_5":22.8,"no2":7.7,"co":211.0,"o3":66.0,"so2":5.1,"mosquito_risk":0,"arthritis_risk":5,"migraine_risk":7,"frizz_risk":1,"updated_at":"2026-06-04T23:50:40.405028+05:30"},{"city":"Bikaner","state":"Rajasthan","latitude":28.0229,"longitude":73.3119,"temp":30.9,"humidity":44,"rain":0.0,"pressure":975.2,"uv_index":8.4,"wind_gusts":63.7,"aqi":129,"pm10":246.8,"pm2_5":66.6,"no2":3.2,"co":161.0,"o3":70.0,"so2":4.2,"mosquito_risk":0,"arthritis_risk":5,"migraine_risk":7,"frizz_risk":1,"updated_at":"2026-06-04T23:50:40.405034+05:30"},{"city":"Ajmer","state":"Rajasthan","latitude":26.4499,"longitude":74.6399,"temp":27.0,"humidity":64,"rain":0.0,"pressure":950.1,"uv_index":8.35,"wind_gusts":46.8,"aqi":76,"pm10":42.6,"pm2_5":23.2,"no2":7.7,"co":191.0,"o3":65.0,"so2":4.7,"mosquito_risk":7,"arthritis_risk":5,"migraine_risk":7,"frizz_risk":1,"updated_at":"2026-06-04T23:50:40.405041+05:30"},{"city":"Gwalior","state":"Madhya Pradesh","latitude":26.2183,"longitude":78.1828,"temp":30.7,"humidity":47,"rain":0.0,"pressure":977.8,"uv_index":8.3,"wind_gusts":33.1,"aqi":91,"pm10":68.5,"pm2_5":30.2,"no2":5.9,"co":160.0,"o3":68.0,"so2":3.0,"mosquito_risk":0,"arthritis_risk":5,"migraine_risk":7,"frizz_risk":1,"updated_at":"2026-06-04T23:50:40.405048+05:30"},{"city":"Indore","state":"Madhya Pradesh","latitude":22.7196,"longitude":75.8577,"temp":28.1,"humidity":70,"rain":0.0,"pressure":945.0,"uv_index":8.65,"wind_gusts":54.7,"aqi":87,"pm10":43.2,"pm2_5":32.8,"no2":14.4,"co":306.0,"o3":57.0,"so2":8.1,"mosquito_risk":7,"arthritis_risk":5,"migraine_risk":7,"frizz_risk":1,"updated_at":"2026-06-04T23:50:40.405056+05:30"},{"city":"Bhopal","state":"Madhya Pradesh","latitude":23.2599,"longitude":77.4126,"temp":28.5,"humidity":61,"rain":0.0,"pressure":950.4,"uv_index":8.7,"wind_gusts":37.8,"aqi":84,"pm10":31.3,"pm2_5":23.1,"no2":8.4,"co":352.0,"o3":63.0,"so2":4.3,"mosquito_risk":7,"arthritis_risk":5,"migraine_risk":7,"frizz_risk":1,"updated_at":"2026-06-04T23:50:40.405063+05:30"},{"city":"Jabalpur","state":"Madhya Pradesh","latitude":23.1815,"longitude":79.9864,"temp":30.1,"humidity":51,"rain":0.0,"pressure":957.2,"uv_index":8.85,"wind_gusts":28.8,"aqi":90,"pm10":82.4,"pm2_5":48.5,"no2":36.3,"co":506.0,"o3":45.0,"so2":9.7,"mosquito_risk":0,"arthritis_risk":5,"migraine_risk":7,"frizz_risk":1,"updated_at":"2026-06-04T23:50:40.405070+05:30"},{"city":"Ujjain","state":"Madhya Pradesh","latitude":23.1765,"longitude":75.7885,"temp":28.1,"humidity":72,"rain":0.0,"pressure":950.3,"uv_index":8.6,"wind_gusts":43.9,"aqi":85,"pm10":41.6,"pm2_5":29.5,"no2":5.5,"co":400.0,"o3":79.0,"so2":6.2,"mosquito_risk":7,"arthritis_risk":5,"migraine_risk":7,"frizz_risk":1,"updated_at":"2026-06-04T23:50:40.405079+05:30"},{"city":"Visakhapatnam","state":"Andhra Pradesh","latitude":17.6868,"longitude":83.2185,"temp":31.2,"humidity":79,"rain":0.0,"pressure":999.2,"uv_index":9.05,"wind_gusts":41.0,"aqi":97,"pm10":48.8,"pm2_5":42.1,"no2":41.2,"co":402.0,"o3":91.0,"so2":49.5,"mosquito_risk":3,"arthritis_risk":5,"migraine_risk":7,"frizz_risk":1,"updated_at":"2026-06-04T23:50:40.405086+05:30"},{"city":"Vijayawada","state":"Andhra Pradesh","latitude":16.5062,"longitude":80.648,"temp":31.6,"humidity":64,"rain":0.0,"pressure":998.9,"uv_index":9.05,"wind_gusts":46.1,"aqi":77,"pm10":27.6,"pm2_5":25.4,"no2":13.9,"co":317.0,"o3":69.0,"so2":5.9,"mosquito_risk":3,"arthritis_risk":5,"migraine_risk":7,"frizz_risk":1,"updated_at":"2026-06-04T23:50:40.405092+05:30"},{"city":"Guntur","state":"Andhra Pradesh","latitude":16.3067,"longitude":80.4365,"temp":30.7,"humidity":74,"rain":0.0,"pressure":1000.2,"uv_index":9.05,"wind_gusts":39.6,"aqi":72,"pm10":25.1,"pm2_5":23.1,"no2":15.0,"co":316.0,"o3":63.0,"so2":5.6,"mosquito_risk":3,"arthritis_risk":5,"migraine_risk":4,"frizz_risk":1,"updated_at":"2026-06-04T23:50:40.405100+05:30"},{"city":"Nellore","state":"Andhra Pradesh","latitude":14.4426,"longitude":79.9865,"temp":30.5,"humidity":69,"rain":0.0,"pressure":1003.3,"uv_index":9.0,"wind_gusts":40.0,"aqi":72,"pm10":21.0,"pm2_5":17.0,"no2":8.2,"co":164.0,"o3":94.0,"so2":6.2,"mosquito_risk":3,"arthritis_risk":5,"migraine_risk":4,"frizz_risk":1,"updated_at":"2026-06-04T23:50:40.405108+05:30"},{"city":"Kurnool","state":"Andhra Pradesh","latitude":15.8281,"longitude":78.0373,"temp":27.3,"humidity":76,"rain":0.0,"pressure":975.6,"uv_index":8.9,"wind_gusts":33.8,"aqi":49,"pm10":6.9,"pm2_5":5.7,"no2":10.5,"co":219.0,"o3":50.0,"so2":6.5,"mosquito_risk":7,"arthritis_risk":5,"migraine_risk":7,"frizz_risk":1,"updated_at":"2026-06-04T23:50:40.405116+05:30"},{"city":"Kakinada","state":"Andhra Pradesh","latitude":16.9891,"longitude":82.2475,"temp":30.6,"humidity":68,"rain":0.0,"pressure":1003.3,"uv_index":9.05,"wind_gusts":52.2,"aqi":112,"pm10":30.9,"pm2_5":24.6,"no2":5.2,"co":483.0,"o3":122.0,"so2":6.0,"mosquito_risk":3,"arthritis_risk":5,"migraine_risk":4,"frizz_risk":1,"updated_at":"2026-06-04T23:50:40.405123+05:30"},{"city":"Tirupati","state":"Andhra Pradesh","latitude":13.6288,"longitude":79.4192,"temp":28.6,"humidity":69,"rain":0.0,"pressure":989.3,"uv_index":8.45,"wind_gusts":31.7,"aqi":46,"pm10":15.7,"pm2_5":12.4,"no2":13.9,"co":209.0,"o3":50.0,"so2":2.7,"mosquito_risk":7,"arthritis_risk":5,"migraine_risk":7,"frizz_risk":1,"updated_at":"2026-06-04T23:50:40.405131+05:30"},{"city":"Warangal","state":"Telangana","latitude":17.9689,"longitude":79.5941,"temp":30.1,"humidity":64,"rain":0.0,"pressure":975.2,"uv_index":9.05,"wind_gusts":38.9,"aqi":75,"pm10":35.0,"pm2_5":29.7,"no2":15.6,"co":255.0,"o3":62.0,"so2":4.9,"mosquito_risk":3,"arthritis_risk":5,"migraine_risk":7,"frizz_risk":1,"updated_at":"2026-06-04T23:50:40.405138+05:30"},{"city":"Nizamabad","state":"Telangana","latitude":18.6725,"longitude":78.0941,"temp":30.1,"humidity":57,"rain":0.0,"pressure":961.5,"uv_index":8.9,"wind_gusts":38.9,"aqi":77,"pm10":32.2,"pm2_5":24.0,"no2":9.5,"co":282.0,"o3":81.0,"so2":3.6,"mosquito_risk":0,"arthritis_risk":5,"migraine_risk":7,"frizz_risk":1,"updated_at":"2026-06-04T23:50:40.405144+05:30"},{"city":"Mysore","state":"Karnataka","latitude":12.2958,"longitude":76.6396,"temp":22.2,"humidity":91,"rain":0.0,"pressure":928.1,"uv_index":8.2,"wind_gusts":50.0,"aqi":26,"pm10":4.1,"pm2_5":3.6,"no2":7.5,"co":167.0,"o3":39.0,"so2":1.9,"mosquito_risk":3,"arthritis_risk":5,"migraine_risk":7,"frizz_risk":1,"updated_at":"2026-06-04T23:50:40.405152+05:30"},{"city":"Mangalore","state":"Karnataka","latitude":12.9141,"longitude":74.856,"temp":25.0,"humidity":95,"rain":0.3,"pressure":1007.3,"uv_index":8.45,"wind_gusts":37.1,"aqi":30,"pm10":13.9,"pm2_5":9.5,"no2":7.7,"co":217.0,"o3":38.0,"so2":2.2,"mosquito_risk":10,"arthritis_risk":5,"migraine_risk":4,"frizz_risk":1,"updated_at":"2026-06-04T23:50:40.405159+05:30"},{"city":"Hubli-Dharwad","state":"Karnataka","latitude":15.3647,"longitude":75.124,"temp":23.5,"humidity":88,"rain":0.0,"pressure":939.5,"uv_index":8.85,"wind_gusts":45.4,"aqi":25,"pm10":2.6,"pm2_5":1.8,"no2":3.2,"co":114.0,"o3":53.0,"so2":0.7,"mosquito_risk":3,"arthritis_risk":5,"migraine_risk":7,"frizz_risk":1,"updated_at":"2026-06-04T23:50:40.405166+05:30"},{"city":"Belgaum","state":"Karnataka","latitude":15.8497,"longitude":74.4977,"temp":22.5,"humidity":92,"rain":0.0,"pressure":924.1,"uv_index":8.95,"wind_gusts":47.2,"aqi":28,"pm10":4.6,"pm2_5":3.4,"no2":4.6,"co":122.0,"o3":50.0,"so2":1.5,"mosquito_risk":3,"arthritis_risk":5,"migraine_risk":7,"frizz_risk":1,"updated_at":"2026-06-04T23:50:43.747808+05:30"},{"city":"Coimbatore","state":"Tamil Nadu","latitude":11.0168,"longitude":76.9558,"temp":23.8,"humidity":89,"rain":0.0,"pressure":961.4,"uv_index":8.5,"wind_gusts":53.6,"aqi":24,"pm10":3.1,"pm2_5":2.7,"no2":5.6,"co":140.0,"o3":40.0,"so2":2.2,"mosquito_risk":3,"arthritis_risk":5,"migraine_risk":7,"frizz_risk":1,"updated_at":"2026-06-04T23:50:43.747844+05:30"},{"city":"Madurai","state":"Tamil Nadu","latitude":9.9252,"longitude":78.1198,"temp":28.6,"humidity":68,"rain":0.0,"pressure":992.4,"uv_index":8.2,"wind_gusts":48.2,"aqi":39,"pm10":10.0,"pm2_5":9.7,"no2":19.8,"co":166.0,"o3":24.0,"so2":5.0,"mosquito_risk":7,"arthritis_risk":5,"migraine_risk":7,"frizz_risk":1,"updated_at":"2026-06-04T23:50:43.747855+05:30"},{"city":"Trichy","state":"Tamil Nadu","latitude":10.7905,"longitude":78.7047,"temp":29.2,"humidity":65,"rain":0.0,"pressure":998.9,"uv_index":8.25,"wind_gusts":49.7,"aqi":29,"pm10":5.4,"pm2_5":4.8,"no2":9.7,"co":140.0,"o3":33.0,"so2":3.4,"mosquito_risk":7,"arthritis_risk":5,"migraine_risk":7,"frizz_risk":1,"updated_at":"2026-06-04T23:50:43.747863+05:30"},{"city":"Salem","state":"Tamil Nadu","latitude":11.6643,"longitude":78.146,"temp":26.2,"humidity":82,"rain":0.0,"pressure":976.9,"uv_index":8.1,"wind_gusts":38.2,"aqi":45,"pm10":11.4,"pm2_5":10.2,"no2":17.8,"co":267.0,"o3":34.0,"so2":6.0,"mosquito_risk":7,"arthritis_risk":5,"migraine_risk":7,"frizz_risk":1,"updated_at":"2026-06-04T23:50:43.747871+05:30"},{"city":"Tirunelveli","state":"Tamil Nadu","latitude":8.7139,"longitude":77.7567,"temp":28.3,"humidity":71,"rain":0.0,"pressure":1003.6,"uv_index":8.15,"wind_gusts":41.8,"aqi":21,"pm10":5.2,"pm2_5":4.2,"no2":6.9,"co":181.0,"o3":36.0,"so2":1.5,"mosquito_risk":7,"arthritis_risk":5,"migraine_risk":4,"frizz_risk":1,"updated_at":"2026-06-04T23:50:43.747879+05:30"},{"city":"Vellore","state":"Tamil Nadu","latitude":12.9165,"longitude":79.1325,"temp":28.8,"humidity":62,"rain":0.0,"pressure":982.6,"uv_index":8.2,"wind_gusts":47.2,"aqi":49,"pm10":19.7,"pm2_5":17.1,"no2":19.8,"co":187.0,"o3":38.0,"so2":4.9,"mosquito_risk":7,"arthritis_risk":5,"migraine_risk":7,"frizz_risk":1,"updated_at":"2026-06-04T23:50:43.747887+05:30"},{"city":"Erode","state":"Tamil Nadu","latitude":11.341,"longitude":77.7172,"temp":26.6,"humidity":75,"rain":0.0,"pressure":988.3,"uv_index":8.6,"wind_gusts":49.3,"aqi":28,"pm10":6.2,"pm2_5":5.6,"no2":10.5,"co":152.0,"o3":37.0,"so2":3.3,"mosquito_risk":7,"arthritis_risk":5,"migraine_risk":7,"frizz_risk":1,"updated_at":"2026-06-04T23:50:43.747894+05:30"},{"city":"Kochi","state":"Kerala","latitude":9.9312,"longitude":76.2673,"temp":25.9,"humidity":96,"rain":0.1,"pressure":1010.2,"uv_index":8.1,"wind_gusts":38.5,"aqi":33,"pm10":13.4,"pm2_5":9.2,"no2":12.3,"co":149.0,"o3":31.0,"so2":3.4,"mosquito_risk":10,"arthritis_risk":0,"migraine_risk":4,"frizz_risk":1,"updated_at":"2026-06-04T23:50:43.747902+05:30"},{"city":"Thiruvananthapuram","state":"Kerala","latitude":8.5241,"longitude":76.9366,"temp":25.2,"humidity":95,"rain":0.0,"pressure":1009.7,"uv_index":7.35,"wind_gusts":42.8,"aqi":24,"pm10":12.4,"pm2_5":5.8,"no2":1.7,"co":99.0,"o3":51.0,"so2":0.5,"mosquito_risk":7,"arthritis_risk":0,"migraine_risk":4,"frizz_risk":1,"updated_at":"2026-06-04T23:50:43.747910+05:30"},{"city":"Kozhikode","state":"Kerala","latitude":11.2588,"longitude":75.7804,"temp":24.9,"humidity":97,"rain":0.2,"pressure":1009.3,"uv_index":8.6,"wind_gusts":36.0,"aqi":26,"pm10":14.6,"pm2_5":6.1,"no2":0.9,"co":185.0,"o3":56.0,"so2":0.4,"mosquito_risk":6,"arthritis_risk":0,"migraine_risk":4,"frizz_risk":1,"updated_at":"2026-06-04T23:50:43.747916+05:30"},{"city":"Thrissur","state":"Kerala","latitude":10.5276,"longitude":76.2144,"temp":24.4,"humidity":100,"rain":0.4,"pressure":1008.5,"uv_index":8.6,"wind_gusts":30.2,"aqi":34,"pm10":14.1,"pm2_5":10.7,"no2":11.0,"co":322.0,"o3":33.0,"so2":3.2,"mosquito_risk":6,"arthritis_risk":0,"migraine_risk":4,"frizz_risk":1,"updated_at":"2026-06-04T23:50:43.747924+05:30"},{"city":"Kannur","state":"Kerala","latitude":11.8745,"longitude":75.3704,"temp":25.1,"humidity":95,"rain":0.3,"pressure":1008.1,"uv_index":8.65,"wind_gusts":36.0,"aqi":25,"pm10":12.1,"pm2_5":7.5,"no2":6.9,"co":196.0,"o3":39.0,"so2":1.7,"mosquito_risk":10,"arthritis_risk":0,"migraine_risk":4,"frizz_risk":1,"updated_at":"2026-06-04T23:50:43.747932+05:30"},{"city":"Patna","state":"Bihar","latitude":25.5941,"longitude":85.1376,"temp":30.6,"humidity":75,"rain":0.0,"pressure":995.2,"uv_index":8.85,"wind_gusts":19.4,"aqi":160,"pm10":83.4,"pm2_5":72.4,"no2":41.4,"co":828.0,"o3":46.0,"so2":17.3,"mosquito_risk":3,"arthritis_risk":5,"migraine_risk":7,"frizz_risk":1,"updated_at":"2026-06-04T23:50:43.747939+05:30"},{"city":"Gaya","state":"Bihar","latitude":24.7914,"longitude":85.0002,"temp":30.3,"humidity":63,"rain":0.1,"pressure":989.1,"uv_index":8.65,"wind_gusts":29.9,"aqi":152,"pm10":91.3,"pm2_5":77.5,"no2":31.6,"co":594.0,"o3":70.0,"so2":14.0,"mosquito_risk":6,"arthritis_risk":5,"migraine_risk":7,"frizz_risk":1,"updated_at":"2026-06-04T23:50:43.747946+05:30"},{"city":"Muzaffarpur","state":"Bihar","latitude":26.1209,"longitude":85.3647,"temp":29.5,"humidity":74,"rain":0.0,"pressure":994.9,"uv_index":8.65,"wind_gusts":23.4,"aqi":165,"pm10":91.5,"pm2_5":80.3,"no2":38.5,"co":779.0,"o3":55.0,"so2":16.4,"mosquito_risk":7,"arthritis_risk":5,"migraine_risk":7,"frizz_risk":1,"updated_at":"2026-06-04T23:50:43.747953+05:30"},{"city":"Bhagalpur","state":"Bihar","latitude":25.2425,"longitude":87.0117,"temp":31.0,"humidity":62,"rain":0.0,"pressure":995.9,"uv_index":8.75,"wind_gusts":41.0,"aqi":156,"pm10":74.7,"pm2_5":69.4,"no2":11.4,"co":699.0,"o3":148.0,"so2":28.7,"mosquito_risk":3,"arthritis_risk":5,"migraine_risk":7,"frizz_risk":1,"updated_at":"2026-06-04T23:50:43.747960+05:30"},{"city":"Ranchi","state":"Jharkhand","latitude":23.3441,"longitude":85.3096,"temp":25.5,"humidity":76,"rain":0.0,"pressure":933.9,"uv_index":9.05,"wind_gusts":27.0,"aqi":114,"pm10":68.7,"pm2_5":57.5,"no2":28.8,"co":300.0,"o3":65.0,"so2":8.3,"mosquito_risk":7,"arthritis_risk":5,"migraine_risk":7,"frizz_risk":1,"updated_at":"2026-06-04T23:50:43.747968+05:30"},{"city":"Jamshedpur","state":"Jharkhand","latitude":22.8046,"longitude":86.2029,"temp":27.9,"humidity":80,"rain":0.0,"pressure":986.2,"uv_index":9.1,"wind_gusts":30.2,"aqi":155,"pm10":68.5,"pm2_5":58.8,"no2":20.1,"co":691.0,"o3":94.0,"so2":22.2,"mosquito_risk":7,"arthritis_risk":5,"migraine_risk":7,"frizz_risk":1,"updated_at":"2026-06-04T23:50:43.747976+05:30"},{"city":"Dhanbad","state":"Jharkhand","latitude":23.7957,"longitude":86.4304,"temp":29.7,"humidity":63,"rain":0.0,"pressure":975.3,"uv_index":8.9,"wind_gusts":31.7,"aqi":166,"pm10":140.6,"pm2_5":129.9,"no2":83.1,"co":1082.0,"o3":25.0,"so2":190.3,"mosquito_risk":7,"arthritis_risk":5,"migraine_risk":7,"frizz_risk":1,"updated_at":"2026-06-04T23:50:43.747983+05:30"},{"city":"Bokaro","state":"Jharkhand","latitude":23.6693,"longitude":86.1511,"temp":28.3,"humidity":77,"rain":0.0,"pressure":979.1,"uv_index":8.9,"wind_gusts":38.5,"aqi":158,"pm10":109.0,"pm2_5":97.6,"no2":49.2,"co":571.0,"o3":53.0,"so2":132.4,"mosquito_risk":7,"arthritis_risk":5,"migraine_risk":7,"frizz_risk":1,"updated_at":"2026-06-04T23:50:43.747990+05:30"},{"city":"Bhubaneswar","state":"Odisha","latitude":20.2961,"longitude":85.8245,"temp":29.7,"humidity":91,"rain":0.0,"pressure":997.7,"uv_index":9.05,"wind_gusts":34.6,"aqi":99,"pm10":37.5,"pm2_5":34.7,"no2":10.6,"co":616.0,"o3":107.0,"so2":8.2,"mosquito_risk":7,"arthritis_risk":5,"migraine_risk":7,"frizz_risk":1,"updated_at":"2026-06-04T23:50:43.747998+05:30"},{"city":"Cuttack","state":"Odisha","latitude":20.4625,"longitude":85.8828,"temp":29.8,"humidity":93,"rain":0.0,"pressure":999.5,"uv_index":9.15,"wind_gusts":38.9,"aqi":99,"pm10":37.5,"pm2_5":34.7,"no2":10.6,"co":860.0,"o3":107.0,"so2":8.2,"mosquito_risk":7,"arthritis_risk":5,"migraine_risk":7,"frizz_risk":1,"updated_at":"2026-06-04T23:50:43.748005+05:30"},{"city":"Rourkela","state":"Odisha","latitude":22.2604,"longitude":84.8536,"temp":27.3,"humidity":92,"rain":0.0,"pressure":980.6,"uv_index":9.05,"wind_gusts":46.1,"aqi":154,"pm10":79.6,"pm2_5":67.8,"no2":31.3,"co":560.0,"o3":81.0,"so2":18.8,"mosquito_risk":7,"arthritis_risk":5,"migraine_risk":7,"frizz_risk":1,"updated_at":"2026-06-04T23:50:43.748013+05:30"},{"city":"Raipur","state":"Chhattisgarh","latitude":21.2514,"longitude":81.6296,"temp":32.4,"humidity":50,"rain":0.0,"pressure":970.5,"uv_index":8.55,"wind_gusts":38.2,"aqi":115,"pm10":70.8,"pm2_5":58.9,"no2":61.7,"co":296.0,"o3":33.0,"so2":74.1,"mosquito_risk":0,"arthritis_risk":5,"migraine_risk":7,"frizz_risk":1,"updated_at":"2026-06-04T23:50:43.748019+05:30"},{"city":"Bhilai","state":"Chhattisgarh","latitude":21.1938,"longitude":81.3509,"temp":31.4,"humidity":54,"rain":0.0,"pressure":970.9,"uv_index":8.5,"wind_gusts":38.9,"aqi":110,"pm10":72.2,"pm2_5":58.7,"no2":52.2,"co":406.0,"o3":39.0,"so2":52.2,"mosquito_risk":0,"arthritis_risk":5,"migraine_risk":7,"frizz_risk":1,"updated_at":"2026-06-04T23:50:43.748025+05:30"},{"city":"Guwahati","state":"Assam","latitude":26.1158,"longitude":91.7086,"temp":24.6,"humidity":99,"rain":0.0,"pressure":998.7,"uv_index":8.85,"wind_gusts":35.3,"aqi":109,"pm10":48.4,"pm2_5":45.2,"no2":11.7,"co":544.0,"o3":66.0,"so2":4.6,"mosquito_risk":3,"arthritis_risk":5,"migraine_risk":7,"frizz_risk":1,"updated_at":"2026-06-04T23:50:43.748032+05:30"},{"city":"Agartala","state":"Tripura","latitude":23.8315,"longitude":91.2868,"temp":28.2,"humidity":89,"rain":0.0,"pressure":1002.1,"uv_index":8.85,"wind_gusts":29.5,"aqi":104,"pm10":58.4,"pm2_5":56.2,"no2":29.0,"co":340.0,"o3":33.0,"so2":3.4,"mosquito_risk":7,"arthritis_risk":5,"migraine_risk":4,"frizz_risk":1,"updated_at":"2026-06-04T23:50:43.748039+05:30"},{"city":"Shillong","state":"Meghalaya","latitude":25.5788,"longitude":91.8933,"temp":18.7,"humidity":96,"rain":0.0,"pressure":854.6,"uv_index":7.15,"wind_gusts":28.8,"aqi":66,"pm10":16.8,"pm2_5":14.9,"no2":5.2,"co":320.0,"o3":104.0,"so2":4.0,"mosquito_risk":3,"arthritis_risk":10,"migraine_risk":7,"frizz_risk":1,"updated_at":"2026-06-04T23:50:43.748046+05:30"},{"city":"Imphal","state":"Manipur","latitude":24.817,"longitude":93.9368,"temp":22.0,"humidity":95,"rain":0.0,"pressure":920.1,"uv_index":9.25,"wind_gusts":30.2,"aqi":95,"pm10":60.5,"pm2_5":56.5,"no2":27.4,"co":1012.0,"o3":22.0,"so2":4.6,"mosquito_risk":3,"arthritis_risk":5,"migraine_risk":7,"frizz_risk":1,"updated_at":"2026-06-04T23:50:43.748053+05:30"},{"city":"Aizawl","state":"Mizoram","latitude":23.7271,"longitude":92.7176,"temp":20.2,"humidity":98,"rain":0.0,"pressure":889.5,"uv_index":9.1,"wind_gusts":24.5,"aqi":81,"pm10":22.6,"pm2_5":19.2,"no2":10.5,"co":245.0,"o3":42.0,"so2":1.8,"mosquito_risk":3,"arthritis_risk":5,"migraine_risk":7,"frizz_risk":1,"updated_at":"2026-06-04T23:50:43.748060+05:30"},{"city":"Kohima","state":"Nagaland","latitude":25.6701,"longitude":94.1077,"temp":18.4,"humidity":94,"rain":0.0,"pressure":852.4,"uv_index":8.9,"wind_gusts":30.2,"aqi":69,"pm10":20.4,"pm2_5":17.8,"no2":8.8,"co":343.0,"o3":68.0,"so2":2.0,"mosquito_risk":3,"arthritis_risk":10,"migraine_risk":7,"frizz_risk":1,"updated_at":"2026-06-04T23:50:43.748066+05:30"},{"city":"Gangtok","state":"Sikkim","latitude":27.3314,"longitude":88.6138,"temp":17.5,"humidity":85,"rain":0.2,"pressure":834.9,"uv_index":9.25,"wind_gusts":40.7,"aqi":84,"pm10":7.9,"pm2_5":7.0,"no2":5.8,"co":508.0,"o3":128.0,"so2":2.3,"mosquito_risk":6,"arthritis_risk":10,"migraine_risk":7,"frizz_risk":0,"updated_at":"2026-06-04T23:50:43.748073+05:30"},{"city":"Siliguri","state":"West Bengal","latitude":26.7271,"longitude":88.3953,"temp":24.2,"humidity":99,"rain":0.0,"pressure":989.6,"uv_index":8.8,"wind_gusts":31.7,"aqi":153,"pm10":38.4,"pm2_5":34.6,"no2":12.2,"co":375.0,"o3":115.0,"so2":5.4,"mosquito_risk":3,"arthritis_risk":5,"migraine_risk":7,"frizz_risk":1,"updated_at":"2026-06-04T23:50:46.999971+05:30"},{"city":"Durgapur","state":"West Bengal","latitude":23.5204,"longitude":87.3119,"temp":28.1,"humidity":90,"rain":0.0,"pressure":990.2,"uv_index":8.85,"wind_gusts":25.6,"aqi":169,"pm10":73.6,"pm2_5":69.4,"no2":26.5,"co":524.0,"o3":83.0,"so2":33.6,"mosquito_risk":7,"arthritis_risk":5,"migraine_risk":7,"frizz_risk":1,"updated_at":"2026-06-04T23:50:47.000007+05:30"},{"city":"Asansol","state":"West Bengal","latitude":23.6739,"longitude":86.9524,"temp":28.7,"humidity":82,"rain":0.0,"pressure":989.0,"uv_index":8.85,"wind_gusts":28.8,"aqi":164,"pm10":81.7,"pm2_5":76.1,"no2":35.9,"co":798.0,"o3":65.0,"so2":44.8,"mosquito_risk":7,"arthritis_risk":5,"migraine_risk":7,"frizz_risk":1,"updated_at":"2026-06-04T23:50:47.000019+05:30"},{"city":"Pondicherry","state":"Puducherry","latitude":11.9139,"longitude":79.8145,"temp":29.0,"humidity":76,"rain":0.0,"pressure":1006.4,"uv_index":8.05,"wind_gusts":43.2,"aqi":59,"pm10":19.8,"pm2_5":17.5,"no2":20.8,"co":289.0,"o3":56.0,"so2":7.5,"mosquito_risk":7,"arthritis_risk":5,"migraine_risk":4,"frizz_risk":1,"updated_at":"2026-06-04T23:50:47.000028+05:30"},{"city":"Port Blair","state":"Andaman and Nicobar Islands","latitude":11.6234,"longitude":92.7265,"temp":26.2,"humidity":94,"rain":0.0,"pressure":1004.8,"uv_index":1.45,"wind_gusts":34.9,"aqi":28,"pm10":7.4,"pm2_5":4.5,"no2":0.3,"co":98.0,"o3":62.0,"so2":0.4,"mosquito_risk":7,"arthritis_risk":5,"migraine_risk":0,"frizz_risk":1,"updated_at":"2026-06-04T23:50:47.000037+05:30"},{"city":"Haridwar","state":"Uttarakhand","latitude":29.9457,"longitude":78.1642,"temp":26.2,"humidity":79,"rain":0.0,"pressure":968.4,"uv_index":7.65,"wind_gusts":40.0,"aqi":107,"pm10":99.7,"pm2_5":59.5,"no2":35.2,"co":396.0,"o3":45.0,"so2":10.0,"mosquito_risk":7,"arthritis_risk":5,"migraine_risk":7,"frizz_risk":1,"updated_at":"2026-06-04T23:50:47.000045+05:30"},{"city":"Rishikesh","state":"Uttarakhand","latitude":30.0869,"longitude":78.2676,"temp":24.0,"humidity":81,"rain":0.0,"pressure":961.2,"uv_index":7.75,"wind_gusts":35.6,"aqi":100,"pm10":85.7,"pm2_5":33.1,"no2":10.8,"co":407.0,"o3":100.0,"so2":5.0,"mosquito_risk":3,"arthritis_risk":5,"migraine_risk":7,"frizz_risk":1,"updated_at":"2026-06-04T23:50:47.000052+05:30"},{"city":"Nainital","state":"Uttarakhand","latitude":29.3919,"longitude":79.4542,"temp":14.4,"humidity":91,"rain":0.0,"pressure":802.0,"uv_index":7.2,"wind_gusts":28.1,"aqi":118,"pm10":27.1,"pm2_5":23.6,"no2":16.6,"co":317.0,"o3":83.0,"so2":4.5,"mosquito_risk":3,"arthritis_risk":10,"migraine_risk":7,"frizz_risk":0,"updated_at":"2026-06-04T23:50:47.000059+05:30"},{"city":"Mussoorie","state":"Uttarakhand","latitude":30.4599,"longitude":78.0664,"temp":15.0,"humidity":83,"rain":0.0,"pressure":799.3,"uv_index":7.6,"wind_gusts":34.6,"aqi":79,"pm10":53.6,"pm2_5":31.1,"no2":30.2,"co":293.0,"o3":58.0,"so2":6.2,"mosquito_risk":3,"arthritis_risk":10,"migraine_risk":7,"frizz_risk":0,"updated_at":"2026-06-04T23:50:47.000066+05:30"},{"city":"Dharamshala","state":"Himachal Pradesh","latitude":32.219,"longitude":76.3234,"temp":21.5,"humidity":52,"rain":0.0,"pressure":865.1,"uv_index":8.55,"wind_gusts":41.8,"aqi":63,"pm10":10.6,"pm2_5":8.8,"no2":13.6,"co":357.0,"o3":68.0,"so2":0.2,"mosquito_risk":0,"arthritis_risk":5,"migraine_risk":7,"frizz_risk":0,"updated_at":"2026-06-04T23:50:47.000074+05:30"},{"city":"Dalhousie","state":"Himachal Pradesh","latitude":32.5387,"longitude":75.971,"temp":13.2,"humidity":89,"rain":0.0,"pressure":799.3,"uv_index":6.7,"wind_gusts":36.7,"aqi":98,"pm10":37.8,"pm2_5":27.8,"no2":34.2,"co":684.0,"o3":62.0,"so2":3.0,"mosquito_risk":3,"arthritis_risk":10,"migraine_risk":7,"frizz_risk":0,"updated_at":"2026-06-04T23:50:47.000081+05:30"},{"city":"Patiala","state":"Punjab","latitude":30.3398,"longitude":76.3869,"temp":30.0,"humidity":52,"rain":0.0,"pressure":971.6,"uv_index":7.7,"wind_gusts":42.8,"aqi":193,"pm10":48.8,"pm2_5":41.0,"no2":11.1,"co":739.0,"o3":116.0,"so2":15.4,"mosquito_risk":4,"arthritis_risk":5,"migraine_risk":7,"frizz_risk":1,"updated_at":"2026-06-04T23:50:47.000089+05:30"},{"city":"Bhatinda","state":"Punjab","latitude":30.211,"longitude":74.9455,"temp":29.4,"humidity":58,"rain":0.0,"pressure":976.8,"uv_index":8.35,"wind_gusts":43.2,"aqi":150,"pm10":322.2,"pm2_5":85.2,"no2":14.5,"co":473.0,"o3":101.0,"so2":10.1,"mosquito_risk":4,"arthritis_risk":5,"migraine_risk":7,"frizz_risk":1,"updated_at":"2026-06-04T23:50:47.000096+05:30"},{"city":"Rohtak","state":"Haryana","latitude":28.8955,"longitude":76.6066,"temp":29.8,"humidity":55,"rain":0.0,"pressure":975.7,"uv_index":7.8,"wind_gusts":30.2,"aqi":183,"pm10":145.8,"pm2_5":63.8,"no2":31.4,"co":836.0,"o3":70.0,"so2":9.3,"mosquito_risk":4,"arthritis_risk":5,"migraine_risk":7,"frizz_risk":1,"updated_at":"2026-06-04T23:50:47.000103+05:30"},{"city":"Panipat","state":"Haryana","latitude":29.3909,"longitude":76.9635,"temp":28.5,"humidity":61,"rain":0.0,"pressure":974.3,"uv_index":7.65,"wind_gusts":40.0,"aqi":414,"pm10":728.3,"pm2_5":121.1,"no2":18.7,"co":617.0,"o3":106.0,"so2":12.5,"mosquito_risk":7,"arthritis_risk":5,"migraine_risk":7,"frizz_risk":1,"updated_at":"2026-06-04T23:50:47.000111+05:30"},{"city":"Mathura","state":"Uttar Pradesh","latitude":27.4924,"longitude":77.6737,"temp":29.9,"humidity":54,"rain":0.0,"pressure":981.0,"uv_index":8.1,"wind_gusts":34.2,"aqi":185,"pm10":199.8,"pm2_5":47.7,"no2":10.7,"co":639.0,"o3":72.0,"so2":2.9,"mosquito_risk":4,"arthritis_risk":5,"migraine_risk":7,"frizz_risk":1,"updated_at":"2026-06-04T23:50:47.000118+05:30"},{"city":"Vrindavan","state":"Uttar Pradesh","latitude":27.5823,"longitude":77.7027,"temp":29.9,"humidity":55,"rain":0.0,"pressure":981.5,"uv_index":8.05,"wind_gusts":36.7,"aqi":185,"pm10":199.8,"pm2_5":47.7,"no2":10.7,"co":582.0,"o3":72.0,"so2":2.9,"mosquito_risk":4,"arthritis_risk":5,"migraine_risk":7,"frizz_risk":1,"updated_at":"2026-06-04T23:50:47.000125+05:30"},{"city":"Ayodhya","state":"Uttar Pradesh","latitude":26.7922,"longitude":82.1998,"temp":30.0,"humidity":67,"rain":0.0,"pressure":989.7,"uv_index":8.05,"wind_gusts":18.7,"aqi":154,"pm10":140.2,"pm2_5":85.0,"no2":67.2,"co":837.0,"o3":31.0,"so2":20.0,"mosquito_risk":7,"arthritis_risk":5,"migraine_risk":7,"frizz_risk":1,"updated_at":"2026-06-04T23:50:47.000132+05:30"},{"city":"Ratlam","state":"Madhya Pradesh","latitude":23.3315,"longitude":75.0367,"temp":28.3,"humidity":70,"rain":0.0,"pressure":951.1,"uv_index":8.5,"wind_gusts":44.6,"aqi":83,"pm10":41.0,"pm2_5":28.3,"no2":4.1,"co":239.0,"o3":88.0,"so2":6.9,"mosquito_risk":7,"arthritis_risk":5,"migraine_risk":7,"frizz_risk":1,"updated_at":"2026-06-04T23:50:47.000138+05:30"},{"city":"Sagar","state":"Madhya Pradesh","latitude":23.8388,"longitude":78.7378,"temp":27.9,"humidity":57,"rain":0.0,"pressure":946.7,"uv_index":8.75,"wind_gusts":49.3,"aqi":81,"pm10":41.0,"pm2_5":25.3,"no2":7.6,"co":176.0,"o3":80.0,"so2":5.0,"mosquito_risk":4,"arthritis_risk":5,"migraine_risk":7,"frizz_risk":1,"updated_at":"2026-06-04T23:50:47.000145+05:30"},{"city":"Satna","state":"Madhya Pradesh","latitude":24.6005,"longitude":80.8322,"temp":29.6,"humidity":56,"rain":0.0,"pressure":966.5,"uv_index":8.35,"wind_gusts":25.6,"aqi":86,"pm10":66.4,"pm2_5":37.7,"no2":35.6,"co":413.0,"o3":51.0,"so2":6.5,"mosquito_risk":4,"arthritis_risk":5,"migraine_risk":7,"frizz_risk":1,"updated_at":"2026-06-04T23:50:47.000152+05:30"},{"city":"Akola","state":"Maharashtra","latitude":20.7002,"longitude":77.0082,"temp":29.9,"humidity":56,"rain":0.0,"pressure":971.3,"uv_index":8.85,"wind_gusts":65.9,"aqi":80,"pm10":43.7,"pm2_5":26.7,"no2":8.1,"co":223.0,"o3":81.0,"so2":5.3,"mosquito_risk":4,"arthritis_risk":5,"migraine_risk":7,"frizz_risk":1,"updated_at":"2026-06-04T23:50:47.000159+05:30"},{"city":"Amravati","state":"Maharashtra","latitude":20.9374,"longitude":77.7796,"temp":32.0,"humidity":46,"rain":0.0,"pressure":964.1,"uv_index":8.85,"wind_gusts":48.2,"aqi":84,"pm10":62.4,"pm2_5":37.8,"no2":24.4,"co":194.0,"o3":52.0,"so2":7.5,"mosquito_risk":0,"arthritis_risk":5,"migraine_risk":7,"frizz_risk":1,"updated_at":"2026-06-04T23:50:47.000167+05:30"},{"city":"Latur","state":"Maharashtra","latitude":18.4088,"longitude":76.5604,"temp":25.2,"humidity":78,"rain":0.3,"pressure":937.7,"uv_index":9.0,"wind_gusts":35.6,"aqi":64,"pm10":19.1,"pm2_5":14.3,"no2":6.9,"co":179.0,"o3":75.0,"so2":2.4,"mosquito_risk":10,"arthritis_risk":5,"migraine_risk":7,"frizz_risk":1,"updated_at":"2026-06-04T23:50:47.000175+05:30"},{"city":"Nanded","state":"Maharashtra","latitude":19.1383,"longitude":77.3091,"temp":30.8,"humidity":57,"rain":0.0,"pressure":965.2,"uv_index":8.75,"wind_gusts":36.7,"aqi":79,"pm10":48.2,"pm2_5":30.3,"no2":12.3,"co":250.0,"o3":77.0,"so2":7.4,"mosquito_risk":0,"arthritis_risk":5,"migraine_risk":7,"frizz_risk":1,"updated_at":"2026-06-04T23:50:47.000182+05:30"},{"city":"Gulbarga","state":"Karnataka","latitude":17.3297,"longitude":76.8343,"temp":26.1,"humidity":76,"rain":0.0,"pressure":956.8,"uv_index":9.0,"wind_gusts":46.1,"aqi":59,"pm10":11.3,"pm2_5":9.4,"no2":10.3,"co":201.0,"o3":59.0,"so2":2.2,"mosquito_risk":7,"arthritis_risk":5,"migraine_risk":7,"frizz_risk":1,"updated_at":"2026-06-04T23:50:47.000189+05:30"},{"city":"Bidar","state":"Karnataka","latitude":17.9104,"longitude":77.5199,"temp":27.5,"humidity":62,"rain":0.0,"pressure":933.4,"uv_index":9.0,"wind_gusts":37.4,"aqi":66,"pm10":17.7,"pm2_5":14.1,"no2":11.7,"co":189.0,"o3":79.0,"so2":2.8,"mosquito_risk":7,"arthritis_risk":5,"migraine_risk":7,"frizz_risk":1,"updated_at":"2026-06-04T23:50:47.000196+05:30"},{"city":"Hospet","state":"Karnataka","latitude":15.2689,"longitude":76.3909,"temp":25.6,"humidity":78,"rain":0.0,"pressure":955.0,"uv_index":9.0,"wind_gusts":42.5,"aqi":29,"pm10":4.3,"pm2_5":3.6,"no2":6.9,"co":145.0,"o3":42.0,"so2":1.6,"mosquito_risk":7,"arthritis_risk":5,"migraine_risk":7,"frizz_risk":1,"updated_at":"2026-06-04T23:50:47.000201+05:30"},{"city":"Tirupur","state":"Tamil Nadu","latitude":11.1085,"longitude":77.3411,"temp":24.2,"humidity":88,"rain":0.0,"pressure":974.7,"uv_index":8.3,"wind_gusts":56.5,"aqi":31,"pm10":7.2,"pm2_5":6.6,"no2":11.7,"co":144.0,"o3":36.0,"so2":4.1,"mosquito_risk":3,"arthritis_risk":5,"migraine_risk":7,"frizz_risk":1,"updated_at":"2026-06-04T23:50:47.000208+05:30"},{"city":"Alappuzha","state":"Kerala","latitude":9.4981,"longitude":76.3388,"temp":26.4,"humidity":93,"rain":0.0,"pressure":1010.2,"uv_index":5.15,"wind_gusts":39.2,"aqi":28,"pm10":14.3,"pm2_5":7.5,"no2":4.2,"co":88.0,"o3":47.0,"so2":1.2,"mosquito_risk":7,"arthritis_risk":0,"migraine_risk":0,"frizz_risk":1,"updated_at":"2026-06-04T23:50:47.000215+05:30"},{"city":"Munnar","state":"Kerala","latitude":10.0889,"longitude":77.0595,"temp":17.5,"humidity":100,"rain":0.2,"pressure":857.0,"uv_index":6.8,"wind_gusts":38.2,"aqi":20,"pm10":3.0,"pm2_5":3.0,"no2":9.5,"co":113.0,"o3":24.0,"so2":1.8,"mosquito_risk":6,"arthritis_risk":10,"migraine_risk":7,"frizz_risk":1,"updated_at":"2026-06-04T23:50:47.000223+05:30"},{"city":"Silchar","state":"Assam","latitude":24.8333,"longitude":92.7789,"temp":26.1,"humidity":98,"rain":0.1,"pressure":1001.7,"uv_index":8.95,"wind_gusts":18.0,"aqi":121,"pm10":58.2,"pm2_5":51.9,"no2":14.3,"co":335.0,"o3":71.0,"so2":5.4,"mosquito_risk":10,"arthritis_risk":5,"migraine_risk":4,"frizz_risk":1,"updated_at":"2026-06-04T23:50:47.000229+05:30"},{"city":"Dibrugarh","state":"Assam","latitude":27.4728,"longitude":94.912,"temp":24.4,"humidity":91,"rain":0.0,"pressure":992.2,"uv_index":7.35,"wind_gusts":34.6,"aqi":83,"pm10":24.1,"pm2_5":23.4,"no2":14.3,"co":350.0,"o3":47.0,"so2":1.6,"mosquito_risk":3,"arthritis_risk":5,"migraine_risk":7,"frizz_risk":1,"updated_at":"2026-06-04T23:50:47.000236+05:30"}]