[{"city":"Delhi","state":"Delhi","latitude":28.6139,"longitude":77.209,"temp":30.3,"humidity":43,"rain":0.0,"pressure":984.3,"uv_index":5.9,"wind_gusts":18.7,"aqi":222,"pm10":211.9,"pm2_5":57.3,"mosquito_risk":0,"arthritis_risk":5,"migraine_risk":3,"frizz_risk":1,"updated_at":"2026-03-06T18:33:22.871421+05:30"},{"city":"Mumbai","state":"Maharashtra","latitude":19.076,"longitude":72.8777,"temp":27.8,"humidity":68,"rain":0.0,"pressure":1007.8,"uv_index":7.4,"wind_gusts":25.6,"aqi":183,"pm10":42.1,"pm2_5":39.8,"mosquito_risk":7,"arthritis_risk":5,"migraine_risk":4,"frizz_risk":1,"updated_at":"2026-03-06T18:33:22.871465+05:30"},{"city":"Bangalore","state":"Karnataka","latitude":12.9716,"longitude":77.5946,"temp":29.7,"humidity":28,"rain":0.0,"pressure":910.9,"uv_index":9.15,"wind_gusts":24.5,"aqi":191,"pm10":43.4,"pm2_5":40.7,"mosquito_risk":4,"arthritis_risk":5,"migraine_risk":7,"frizz_risk":0,"updated_at":"2026-03-06T18:33:22.871480+05:30"},{"city":"Hyderabad","state":"Telangana","latitude":17.385,"longitude":78.4867,"temp":32.7,"humidity":22,"rain":0.0,"pressure":952.4,"uv_index":8.45,"wind_gusts":24.1,"aqi":136,"pm10":29.0,"pm2_5":23.3,"mosquito_risk":0,"arthritis_risk":5,"migraine_risk":7,"frizz_risk":0,"updated_at":"2026-03-06T18:33:22.871490+05:30"},{"city":"Chennai","state":"Tamil Nadu","latitude":13.0827,"longitude":80.2707,"temp":28.5,"humidity":69,"rain":0.0,"pressure":1006.3,"uv_index":8.9,"wind_gusts":33.8,"aqi":101,"pm10":31.7,"pm2_5":27.1,"mosquito_risk":7,"arthritis_risk":5,"migraine_risk":4,"frizz_risk":1,"updated_at":"2026-03-06T18:33:22.871499+05:30"},{"city":"Kolkata","state":"West Bengal","latitude":22.5726,"longitude":88.3639,"temp":28.0,"humidity":60,"rain":0.0,"pressure":1007.1,"uv_index":7.8,"wind_gusts":13.0,"aqi":161,"pm10":68.5,"pm2_5":56.1,"mosquito_risk":4,"arthritis_risk":5,"migraine_risk":4,"frizz_risk":1,"updated_at":"2026-03-06T18:33:22.871507+05:30"},{"city":"Pune","state":"Maharashtra","latitude":18.5204,"longitude":73.8567,"temp":34.1,"humidity":21,"rain":0.0,"pressure":947.6,"uv_index":8.0,"wind_gusts":27.7,"aqi":132,"pm10":17.2,"pm2_5":15.4,"mosquito_risk":0,"arthritis_risk":5,"migraine_risk":7,"frizz_risk":0,"updated_at":"2026-03-06T18:33:22.871520+05:30"},{"city":"Ahmedabad","state":"Gujarat","latitude":23.0225,"longitude":72.5714,"temp":33.0,"humidity":25,"rain":0.0,"pressure":1002.6,"uv_index":7.25,"wind_gusts":20.5,"aqi":91,"pm10":22.4,"pm2_5":20.0,"mosquito_risk":0,"arthritis_risk":5,"migraine_risk":4,"frizz_risk":0,"updated_at":"2026-03-06T18:33:22.871528+05:30"},{"city":"Jaipur","state":"Rajasthan","latitude":26.9124,"longitude":75.7873,"temp":32.1,"humidity":15,"rain":0.0,"pressure":960.9,"uv_index":6.7,"wind_gusts":24.5,"aqi":122,"pm10":100.6,"pm2_5":24.4,"mosquito_risk":0,"arthritis_risk":5,"migraine_risk":7,"frizz_risk":0,"updated_at":"2026-03-06T18:33:22.871536+05:30"},{"city":"Lucknow","state":"Uttar Pradesh","latitude":26.8467,"longitude":80.9462,"temp":29.0,"humidity":49,"rain":0.0,"pressure":995.1,"uv_index":6.4,"wind_gusts":22.3,"aqi":170,"pm10":120.1,"pm2_5":79.6,"mosquito_risk":4,"arthritis_risk":5,"migraine_risk":7,"frizz_risk":1,"updated_at":"2026-03-06T18:33:22.871544+05:30"},{"city":"Kanpur","state":"Uttar Pradesh","latitude":26.4499,"longitude":80.3319,"temp":28.3,"humidity":61,"rain":0.0,"pressure":993.1,"uv_index":6.4,"wind_gusts":13.3,"aqi":176,"pm10":177.0,"pm2_5":81.7,"mosquito_risk":7,"arthritis_risk":5,"migraine_risk":7,"frizz_risk":1,"updated_at":"2026-03-06T18:33:22.871551+05:30"},{"city":"Chandigarh","state":"Chandigarh","latitude":30.7333,"longitude":76.7794,"temp":28.0,"humidity":64,"rain":0.0,"pressure":970.1,"uv_index":5.8,"wind_gusts":15.8,"aqi":143,"pm10":69.2,"pm2_5":54.6,"mosquito_risk":7,"arthritis_risk":5,"migraine_risk":3,"frizz_risk":1,"updated_at":"2026-03-06T18:33:22.871559+05:30"},{"city":"Srinagar","state":"Jammu and Kashmir","latitude":34.0837,"longitude":74.7973,"temp":17.6,"humidity":55,"rain":0.0,"pressure":843.1,"uv_index":6.75,"wind_gusts":16.6,"aqi":145,"pm10":61.7,"pm2_5":43.1,"mosquito_risk":0,"arthritis_risk":5,"migraine_risk":7,"frizz_risk":0,"updated_at":"2026-03-06T18:33:22.871566+05:30"},{"city":"Jammu","state":"Jammu and Kashmir","latitude":32.7266,"longitude":74.857,"temp":28.0,"humidity":65,"rain":0.0,"pressure":973.1,"uv_index":6.45,"wind_gusts":18.7,"aqi":126,"pm10":85.2,"pm2_5":65.7,"mosquito_risk":7,"arthritis_risk":5,"migraine_risk":7,"frizz_risk":1,"updated_at":"2026-03-06T18:33:22.871573+05:30"},{"city":"Amritsar","state":"Punjab","latitude":31.634,"longitude":74.8723,"temp":27.5,"humidity":65,"rain":0.0,"pressure":981.1,"uv_index":6.2,"wind_gusts":12.2,"aqi":159,"pm10":57.2,"pm2_5":51.3,"mosquito_risk":7,"arthritis_risk":5,"migraine_risk":7,"frizz_risk":1,"updated_at":"2026-03-06T18:33:22.871580+05:30"},{"city":"Ludhiana","state":"Punjab","latitude":30.901,"longitude":75.8573,"temp":29.0,"humidity":60,"rain":0.0,"pressure":979.8,"uv_index":6.05,"wind_gusts":15.1,"aqi":163,"pm10":102.0,"pm2_5":67.5,"mosquito_risk":4,"arthritis_risk":5,"migraine_risk":7,"frizz_risk":1,"updated_at":"2026-03-06T18:33:22.871586+05:30"},{"city":"Jalandhar","state":"Punjab","latitude":31.326,"longitude":75.5762,"temp":28.9,"humidity":62,"rain":0.0,"pressure":980.8,"uv_index":6.2,"wind_gusts":13.7,"aqi":164,"pm10":70.8,"pm2_5":54.2,"mosquito_risk":7,"arthritis_risk":5,"migraine_risk":7,"frizz_risk":1,"updated_at":"2026-03-06T18:33:22.871595+05:30"},{"city":"Dehradun","state":"Uttarakhand","latitude":30.6284,"longitude":78.0322,"temp":17.7,"humidity":82,"rain":0.0,"pressure":832.3,"uv_index":6.15,"wind_gusts":28.1,"aqi":135,"pm10":71.0,"pm2_5":47.7,"mosquito_risk":3,"arthritis_risk":10,"migraine_risk":7,"frizz_risk":0,"updated_at":"2026-03-06T18:33:22.871602+05:30"},{"city":"Shimla","state":"Himachal Pradesh","latitude":31.1048,"longitude":77.1734,"temp":17.0,"humidity":67,"rain":0.0,"pressure":787.3,"uv_index":6.25,"wind_gusts":34.9,"aqi":118,"pm10":42.8,"pm2_5":30.7,"mosquito_risk":3,"arthritis_risk":5,"migraine_risk":7,"frizz_risk":0,"updated_at":"2026-03-06T18:33:22.871608+05:30"},{"city":"Manali","state":"Himachal Pradesh","latitude":32.2396,"longitude":77.1887,"temp":21.1,"humidity":31,"rain":0.0,"pressure":823.8,"uv_index":7.9,"wind_gusts":39.2,"aqi":131,"pm10":17.4,"pm2_5":10.7,"mosquito_risk":0,"arthritis_risk":5,"migraine_risk":7,"frizz_risk":0,"updated_at":"2026-03-06T18:33:22.871615+05:30"},{"city":"Gurgaon","state":"Haryana","latitude":28.4595,"longitude":77.0266,"temp":28.1,"humidity":48,"rain":0.0,"pressure":982.6,"uv_index":6.0,"wind_gusts":16.9,"aqi":632,"pm10":401.4,"pm2_5":75.4,"mosquito_risk":4,"arthritis_risk":5,"migraine_risk":3,"frizz_risk":1,"updated_at":"2026-03-06T18:33:22.871622+05:30"},{"city":"Noida","state":"Uttar Pradesh","latitude":28.5355,"longitude":77.391,"temp":30.4,"humidity":45,"rain":0.0,"pressure":985.8,"uv_index":5.9,"wind_gusts":17.3,"aqi":632,"pm10":401.4,"pm2_5":75.4,"mosquito_risk":0,"arthritis_risk":5,"migraine_risk":3,"frizz_risk":1,"updated_at":"2026-03-06T18:33:22.871629+05:30"},{"city":"Ghaziabad","state":"Uttar Pradesh","latitude":28.6692,"longitude":77.4538,"temp":29.7,"humidity":54,"rain":0.0,"pressure":984.0,"uv_index":5.85,"wind_gusts":14.4,"aqi":190,"pm10":145.3,"pm2_5":61.2,"mosquito_risk":4,"arthritis_risk":5,"migraine_risk":3,"frizz_risk":1,"updated_at":"2026-03-06T18:33:22.871635+05:30"},{"city":"Faridabad","state":"Haryana","latitude":28.4089,"longitude":77.3178,"temp":28.6,"humidity":53,"rain":0.0,"pressure":985.0,"uv_index":5.95,"wind_gusts":16.6,"aqi":632,"pm10":401.4,"pm2_5":75.4,"mosquito_risk":4,"arthritis_risk":5,"migraine_risk":3,"frizz_risk":1,"updated_at":"2026-03-06T18:33:22.871658+05:30"},{"city":"Meerut","state":"Uttar Pradesh","latitude":28.9845,"longitude":77.7064,"temp":28.9,"humidity":59,"rain":0.0,"pressure":982.9,"uv_index":5.75,"wind_gusts":14.0,"aqi":190,"pm10":145.3,"pm2_5":61.2,"mosquito_risk":4,"arthritis_risk":5,"migraine_risk":3,"frizz_risk":1,"updated_at":"2026-03-06T18:33:22.871664+05:30"},{"city":"Agra","state":"Uttar Pradesh","latitude":27.1767,"longitude":78.0081,"temp":28.4,"humidity":41,"rain":0.0,"pressure":988.7,"uv_index":6.25,"wind_gusts":18.7,"aqi":398,"pm10":219.3,"pm2_5":66.8,"mosquito_risk":4,"arthritis_risk":5,"migraine_risk":7,"frizz_risk":0,"updated_at":"2026-03-06T18:33:22.871671+05:30"},{"city":"Varanasi","state":"Uttar Pradesh","latitude":25.3176,"longitude":82.9739,"temp":26.5,"humidity":62,"rain":0.0,"pressure":998.9,"uv_index":7.1,"wind_gusts":17.6,"aqi":181,"pm10":108.5,"pm2_5":78.5,"mosquito_risk":7,"arthritis_risk":5,"migraine_risk":7,"frizz_risk":1,"updated_at":"2026-03-06T18:33:22.871681+05:30"},{"city":"Prayagraj","state":"Uttar Pradesh","latitude":25.4358,"longitude":81.8463,"temp":26.7,"humidity":65,"rain":0.0,"pressure":997.4,"uv_index":6.95,"wind_gusts":16.2,"aqi":180,"pm10":112.9,"pm2_5":72.2,"mosquito_risk":7,"arthritis_risk":5,"migraine_risk":7,"frizz_risk":1,"updated_at":"2026-03-06T18:33:22.871688+05:30"},{"city":"Gorakhpur","state":"Uttar Pradesh","latitude":26.7606,"longitude":83.3732,"temp":26.2,"humidity":62,"rain":0.0,"pressure":999.0,"uv_index":6.75,"wind_gusts":17.3,"aqi":194,"pm10":94.5,"pm2_5":74.7,"mosquito_risk":7,"arthritis_risk":5,"migraine_risk":7,"frizz_risk":1,"updated_at":"2026-03-06T18:33:22.871694+05:30"},{"city":"Bareilly","state":"Uttar Pradesh","latitude":28.367,"longitude":79.4304,"temp":27.1,"humidity":67,"rain":0.0,"pressure":988.4,"uv_index":6.1,"wind_gusts":14.4,"aqi":192,"pm10":153.7,"pm2_5":98.7,"mosquito_risk":7,"arthritis_risk":5,"migraine_risk":7,"frizz_risk":1,"updated_at":"2026-03-06T18:33:22.871700+05:30"},{"city":"Aligarh","state":"Uttar Pradesh","latitude":27.8974,"longitude":78.088,"temp":28.5,"humidity":53,"rain":0.0,"pressure":986.7,"uv_index":6.0,"wind_gusts":16.6,"aqi":417,"pm10":227.7,"pm2_5":76.8,"mosquito_risk":4,"arthritis_risk":5,"migraine_risk":3,"frizz_risk":1,"updated_at":"2026-03-06T18:33:22.871709+05:30"},{"city":"Moradabad","state":"Uttar Pradesh","latitude":28.8386,"longitude":78.7733,"temp":27.8,"humidity":62,"rain":0.0,"pressure":985.2,"uv_index":5.9,"wind_gusts":18.4,"aqi":173,"pm10":126.7,"pm2_5":96.2,"mosquito_risk":7,"arthritis_risk":5,"migraine_risk":3,"frizz_risk":1,"updated_at":"2026-03-06T18:33:22.871716+05:30"},{"city":"Saharanpur","state":"Uttar Pradesh","latitude":29.9637,"longitude":77.546,"temp":27.4,"humidity":65,"rain":0.0,"pressure":977.3,"uv_index":5.55,"wind_gusts":19.8,"aqi":162,"pm10":110.4,"pm2_5":77.1,"mosquito_risk":7,"arthritis_risk":5,"migraine_risk":3,"frizz_risk":1,"updated_at":"2026-03-06T18:33:22.871722+05:30"},{"city":"Jhansi","state":"Uttar Pradesh","latitude":25.4484,"longitude":78.5685,"temp":29.5,"humidity":33,"rain":0.0,"pressure":978.8,"uv_index":6.85,"wind_gusts":24.1,"aqi":88,"pm10":63.8,"pm2_5":23.2,"mosquito_risk":4,"arthritis_risk":5,"migraine_risk":7,"frizz_risk":0,"updated_at":"2026-03-06T18:33:26.169564+05:30"},{"city":"Surat","state":"Gujarat","latitude":21.1702,"longitude":72.8311,"temp":29.2,"humidity":53,"rain":0.0,"pressure":1006.8,"uv_index":7.15,"wind_gusts":24.1,"aqi":133,"pm10":56.3,"pm2_5":55.4,"mosquito_risk":4,"arthritis_risk":5,"migraine_risk":4,"frizz_risk":1,"updated_at":"2026-03-06T18:33:26.169595+05:30"},{"city":"Vadodara","state":"Gujarat","latitude":22.3072,"longitude":73.1812,"temp":32.6,"humidity":31,"rain":0.0,"pressure":1004.5,"uv_index":7.25,"wind_gusts":20.2,"aqi":146,"pm10":35.5,"pm2_5":34.2,"mosquito_risk":0,"arthritis_risk":5,"migraine_risk":4,"frizz_risk":0,"updated_at":"2026-03-06T18:33:26.169605+05:30"},{"city":"Rajkot","state":"Gujarat","latitude":22.3039,"longitude":70.8022,"temp":31.2,"humidity":31,"rain":0.0,"pressure":995.2,"uv_index":7.1,"wind_gusts":24.1,"aqi":74,"pm10":21.4,"pm2_5":15.5,"mosquito_risk":0,"arthritis_risk":5,"migraine_risk":7,"frizz_risk":0,"updated_at":"2026-03-06T18:33:26.169613+05:30"},{"city":"Thane","state":"Maharashtra","latitude":19.2183,"longitude":72.9781,"temp":29.0,"humidity":49,"rain":0.0,"pressure":1007.2,"uv_index":7.4,"wind_gusts":37.8,"aqi":183,"pm10":42.1,"pm2_5":39.8,"mosquito_risk":4,"arthritis_risk":5,"migraine_risk":4,"frizz_risk":1,"updated_at":"2026-03-06T18:33:26.169621+05:30"},{"city":"Nagpur","state":"Maharashtra","latitude":21.1458,"longitude":79.0882,"temp":32.8,"humidity":24,"rain":0.0,"pressure":972.5,"uv_index":7.8,"wind_gusts":25.9,"aqi":101,"pm10":29.0,"pm2_5":18.8,"mosquito_risk":0,"arthritis_risk":5,"migraine_risk":7,"frizz_risk":0,"updated_at":"2026-03-06T18:33:26.169628+05:30"},{"city":"Nashik","state":"Maharashtra","latitude":19.9975,"longitude":73.7898,"temp":30.5,"humidity":26,"rain":0.0,"pressure":945.6,"uv_index":7.6,"wind_gusts":34.9,"aqi":130,"pm10":28.0,"pm2_5":25.7,"mosquito_risk":0,"arthritis_risk":5,"migraine_risk":7,"frizz_risk":0,"updated_at":"2026-03-06T18:33:26.169635+05:30"},{"city":"Aurangabad","state":"Maharashtra","latitude":19.8762,"longitude":75.3433,"temp":32.5,"humidity":23,"rain":0.0,"pressure":943.9,"uv_index":8.1,"wind_gusts":23.8,"aqi":123,"pm10":19.8,"pm2_5":17.5,"mosquito_risk":0,"arthritis_risk":5,"migraine_risk":7,"frizz_risk":0,"updated_at":"2026-03-06T18:33:26.169659+05:30"},{"city":"Solapur","state":"Maharashtra","latitude":17.6599,"longitude":75.9064,"temp":32.2,"humidity":28,"rain":0.0,"pressure":956.2,"uv_index":8.4,"wind_gusts":18.0,"aqi":142,"pm10":21.2,"pm2_5":17.5,"mosquito_risk":0,"arthritis_risk":5,"migraine_risk":7,"frizz_risk":0,"updated_at":"2026-03-06T18:33:26.169667+05:30"},{"city":"Kolhapur","state":"Maharashtra","latitude":16.705,"longitude":74.2433,"temp":31.6,"humidity":25,"rain":0.0,"pressure":947.0,"uv_index":8.5,"wind_gusts":31.7,"aqi":148,"pm10":28.4,"pm2_5":26.8,"mosquito_risk":0,"arthritis_risk":5,"migraine_risk":7,"frizz_risk":0,"updated_at":"2026-03-06T18:33:26.169674+05:30"},{"city":"Goa","state":"Goa","latitude":15.2993,"longitude":74.124,"temp":28.1,"humidity":78,"rain":0.0,"pressure":996.9,"uv_index":8.55,"wind_gusts":32.0,"aqi":156,"pm10":48.4,"pm2_5":45.6,"mosquito_risk":7,"arthritis_risk":5,"migraine_risk":7,"frizz_risk":1,"updated_at":"2026-03-06T18:33:26.169681+05:30"},{"city":"Jodhpur","state":"Rajasthan","latitude":26.2389,"longitude":73.0243,"temp":31.9,"humidity":26,"rain":0.0,"pressure":984.0,"uv_index":6.95,"wind_gusts":22.7,"aqi":122,"pm10":45.6,"pm2_5":16.2,"mosquito_risk":0,"arthritis_risk":5,"migraine_risk":7,"frizz_risk":0,"updated_at":"2026-03-06T18:33:26.169688+05:30"},{"city":"Udaipur","state":"Rajasthan","latitude":24.5854,"longitude":73.7125,"temp":31.0,"humidity":21,"rain":0.0,"pressure":947.9,"uv_index":7.6,"wind_gusts":22.3,"aqi":90,"pm10":11.7,"pm2_5":9.4,"mosquito_risk":0,"arthritis_risk":5,"migraine_risk":7,"frizz_risk":0,"updated_at":"2026-03-06T18:33:26.169695+05:30"},{"city":"Kota","state":"Rajasthan","latitude":25.2138,"longitude":75.8648,"temp":32.9,"humidity":30,"rain":0.0,"pressure":979.4,"uv_index":7.0,"wind_gusts":17.3,"aqi":85,"pm10":27.0,"pm2_5":16.5,"mosquito_risk":0,"arthritis_risk":5,"migraine_risk":7,"frizz_risk":0,"updated_at":"2026-03-06T18:33:26.169702+05:30"},{"city":"Bikaner","state":"Rajasthan","latitude":28.0229,"longitude":73.3119,"temp":32.3,"humidity":18,"rain":0.0,"pressure":982.5,"uv_index":6.65,"wind_gusts":23.8,"aqi":89,"pm10":15.4,"pm2_5":8.2,"mosquito_risk":0,"arthritis_risk":5,"migraine_risk":7,"frizz_risk":0,"updated_at":"2026-03-06T18:33:26.169708+05:30"},{"city":"Ajmer","state":"Rajasthan","latitude":26.4499,"longitude":74.6399,"temp":30.8,"humidity":24,"rain":0.0,"pressure":955.9,"uv_index":6.95,"wind_gusts":26.3,"aqi":108,"pm10":13.9,"pm2_5":11.9,"mosquito_risk":0,"arthritis_risk":5,"migraine_risk":7,"frizz_risk":0,"updated_at":"2026-03-06T18:33:26.169714+05:30"},{"city":"Gwalior","state":"Madhya Pradesh","latitude":26.2183,"longitude":78.1828,"temp":27.5,"humidity":53,"rain":0.0,"pressure":984.3,"uv_index":6.6,"wind_gusts":20.9,"aqi":102,"pm10":72.2,"pm2_5":25.8,"mosquito_risk":4,"arthritis_risk":5,"migraine_risk":7,"frizz_risk":1,"updated_at":"2026-03-06T18:33:26.169721+05:30"},{"city":"Indore","state":"Madhya Pradesh","latitude":22.7196,"longitude":75.8577,"temp":27.4,"humidity":38,"rain":0.0,"pressure":948.5,"uv_index":7.55,"wind_gusts":22.3,"aqi":102,"pm10":17.5,"pm2_5":16.2,"mosquito_risk":4,"arthritis_risk":5,"migraine_risk":7,"frizz_risk":0,"updated_at":"2026-03-06T18:33:26.169727+05:30"},{"city":"Bhopal","state":"Madhya Pradesh","latitude":23.2599,"longitude":77.4126,"temp":27.8,"humidity":40,"rain":0.0,"pressure":954.3,"uv_index":7.4,"wind_gusts":24.8,"aqi":110,"pm10":26.8,"pm2_5":18.5,"mosquito_risk":4,"arthritis_risk":5,"migraine_risk":7,"frizz_risk":0,"updated_at":"2026-03-06T18:33:26.169734+05:30"},{"city":"Jabalpur","state":"Madhya Pradesh","latitude":23.1815,"longitude":79.9864,"temp":30.4,"humidity":35,"rain":0.0,"pressure":961.9,"uv_index":7.5,"wind_gusts":26.6,"aqi":84,"pm10":45.8,"pm2_5":21.7,"mosquito_risk":0,"arthritis_risk":5,"migraine_risk":7,"frizz_risk":0,"updated_at":"2026-03-06T18:33:26.169740+05:30"},{"city":"Ujjain","state":"Madhya Pradesh","latitude":23.1765,"longitude":75.7885,"temp":28.2,"humidity":45,"rain":0.0,"pressure":954.4,"uv_index":7.45,"wind_gusts":19.1,"aqi":88,"pm10":22.1,"pm2_5":20.7,"mosquito_risk":4,"arthritis_risk":5,"migraine_risk":7,"frizz_risk":0,"updated_at":"2026-03-06T18:33:26.169747+05:30"},{"city":"Visakhapatnam","state":"Andhra Pradesh","latitude":17.6868,"longitude":83.2185,"temp":26.6,"humidity":88,"rain":0.0,"pressure":1002.8,"uv_index":8.45,"wind_gusts":35.3,"aqi":141,"pm10":33.1,"pm2_5":28.3,"mosquito_risk":7,"arthritis_risk":5,"migraine_risk":4,"frizz_risk":1,"updated_at":"2026-03-06T18:33:26.169754+05:30"},{"city":"Vijayawada","state":"Andhra Pradesh","latitude":16.5062,"longitude":80.648,"temp":32.7,"humidity":41,"rain":0.0,"pressure":1000.6,"uv_index":8.55,"wind_gusts":14.8,"aqi":153,"pm10":34.7,"pm2_5":30.9,"mosquito_risk":0,"arthritis_risk":5,"migraine_risk":4,"frizz_risk":1,"updated_at":"2026-03-06T18:33:26.169760+05:30"},{"city":"Guntur","state":"Andhra Pradesh","latitude":16.3067,"longitude":80.4365,"temp":33.0,"humidity":43,"rain":0.0,"pressure":1002.0,"uv_index":8.55,"wind_gusts":18.0,"aqi":147,"pm10":28.8,"pm2_5":24.7,"mosquito_risk":0,"arthritis_risk":5,"migraine_risk":4,"frizz_risk":1,"updated_at":"2026-03-06T18:33:26.169766+05:30"},{"city":"Nellore","state":"Andhra Pradesh","latitude":14.4426,"longitude":79.9865,"temp":30.7,"humidity":46,"rain":0.0,"pressure":1004.4,"uv_index":8.75,"wind_gusts":28.8,"aqi":158,"pm10":26.7,"pm2_5":23.8,"mosquito_risk":0,"arthritis_risk":5,"migraine_risk":4,"frizz_risk":1,"updated_at":"2026-03-06T18:33:26.169773+05:30"},{"city":"Kurnool","state":"Andhra Pradesh","latitude":15.8281,"longitude":78.0373,"temp":34.9,"humidity":17,"rain":0.0,"pressure":975.3,"uv_index":8.55,"wind_gusts":23.4,"aqi":139,"pm10":17.8,"pm2_5":15.4,"mosquito_risk":0,"arthritis_risk":5,"migraine_risk":7,"frizz_risk":0,"updated_at":"2026-03-06T18:33:26.169780+05:30"},{"city":"Kakinada","state":"Andhra Pradesh","latitude":16.9891,"longitude":82.2475,"temp":28.8,"humidity":68,"rain":0.0,"pressure":1005.7,"uv_index":8.5,"wind_gusts":31.0,"aqi":107,"pm10":29.0,"pm2_5":24.2,"mosquito_risk":7,"arthritis_risk":5,"migraine_risk":4,"frizz_risk":1,"updated_at":"2026-03-06T18:33:26.169788+05:30"},{"city":"Tirupati","state":"Andhra Pradesh","latitude":13.6288,"longitude":79.4192,"temp":31.4,"humidity":30,"rain":0.0,"pressure":990.1,"uv_index":8.85,"wind_gusts":30.6,"aqi":152,"pm10":34.9,"pm2_5":33.2,"mosquito_risk":0,"arthritis_risk":5,"migraine_risk":7,"frizz_risk":0,"updated_at":"2026-03-06T18:33:26.169794+05:30"},{"city":"Warangal","state":"Telangana","latitude":17.9689,"longitude":79.5941,"temp":32.1,"humidity":34,"rain":0.0,"pressure":977.7,"uv_index":8.3,"wind_gusts":24.5,"aqi":122,"pm10":33.9,"pm2_5":25.1,"mosquito_risk":0,"arthritis_risk":5,"migraine_risk":7,"frizz_risk":0,"updated_at":"2026-03-06T18:33:26.169800+05:30"},{"city":"Nizamabad","state":"Telangana","latitude":18.6725,"longitude":78.0941,"temp":31.6,"humidity":29,"rain":0.0,"pressure":964.1,"uv_index":8.2,"wind_gusts":28.8,"aqi":106,"pm10":36.1,"pm2_5":25.2,"mosquito_risk":0,"arthritis_risk":5,"migraine_risk":7,"frizz_risk":0,"updated_at":"2026-03-06T18:33:26.169807+05:30"},{"city":"Mysore","state":"Karnataka","latitude":12.2958,"longitude":76.6396,"temp":30.9,"humidity":26,"rain":0.0,"pressure":927.2,"uv_index":9.2,"wind_gusts":36.4,"aqi":197,"pm10":38.6,"pm2_5":36.2,"mosquito_risk":0,"arthritis_risk":5,"migraine_risk":7,"frizz_risk":0,"updated_at":"2026-03-06T18:33:26.169813+05:30"},{"city":"Mangalore","state":"Karnataka","latitude":12.9141,"longitude":74.856,"temp":28.9,"humidity":78,"rain":0.0,"pressure":1005.8,"uv_index":8.8,"wind_gusts":23.8,"aqi":122,"pm10":47.0,"pm2_5":43.2,"mosquito_risk":7,"arthritis_risk":5,"migraine_risk":4,"frizz_risk":1,"updated_at":"2026-03-06T18:33:26.169819+05:30"},{"city":"Hubli-Dharwad","state":"Karnataka","latitude":15.3647,"longitude":75.124,"temp":32.7,"humidity":20,"rain":0.0,"pressure":939.6,"uv_index":8.75,"wind_gusts":36.7,"aqi":169,"pm10":25.7,"pm2_5":24.2,"mosquito_risk":0,"arthritis_risk":5,"migraine_risk":7,"frizz_risk":0,"updated_at":"2026-03-06T18:33:26.169826+05:30"},{"city":"Belgaum","state":"Karnataka","latitude":15.8497,"longitude":74.4977,"temp":30.0,"humidity":41,"rain":0.0,"pressure":925.1,"uv_index":8.8,"wind_gusts":40.0,"aqi":164,"pm10":24.7,"pm2_5":23.5,"mosquito_risk":4,"arthritis_risk":5,"migraine_risk":7,"frizz_risk":0,"updated_at":"2026-03-06T18:33:29.469683+05:30"},{"city":"Coimbatore","state":"Tamil Nadu","latitude":11.0168,"longitude":76.9558,"temp":28.0,"humidity":66,"rain":0.0,"pressure":960.5,"uv_index":9.15,"wind_gusts":47.9,"aqi":171,"pm10":35.2,"pm2_5":32.9,"mosquito_risk":7,"arthritis_risk":5,"migraine_risk":7,"frizz_risk":1,"updated_at":"2026-03-06T18:33:29.469715+05:30"},{"city":"Madurai","state":"Tamil Nadu","latitude":9.9252,"longitude":78.1198,"temp":33.2,"humidity":34,"rain":0.0,"pressure":990.7,"uv_index":9.15,"wind_gusts":33.5,"aqi":150,"pm10":32.0,"pm2_5":29.3,"mosquito_risk":0,"arthritis_risk":5,"migraine_risk":7,"frizz_risk":0,"updated_at":"2026-03-06T18:33:29.469725+05:30"},{"city":"Trichy","state":"Tamil Nadu","latitude":10.7905,"longitude":78.7047,"temp":32.7,"humidity":34,"rain":0.0,"pressure":997.8,"uv_index":9.05,"wind_gusts":26.6,"aqi":125,"pm10":27.9,"pm2_5":26.5,"mosquito_risk":0,"arthritis_risk":5,"migraine_risk":7,"frizz_risk":0,"updated_at":"2026-03-06T18:33:29.469733+05:30"},{"city":"Salem","state":"Tamil Nadu","latitude":11.6643,"longitude":78.146,"temp":33.5,"humidity":34,"rain":0.0,"pressure":975.1,"uv_index":9.05,"wind_gusts":18.0,"aqi":180,"pm10":41.1,"pm2_5":37.3,"mosquito_risk":0,"arthritis_risk":5,"migraine_risk":7,"frizz_risk":0,"updated_at":"2026-03-06T18:33:29.469741+05:30"},{"city":"Tirunelveli","state":"Tamil Nadu","latitude":8.7139,"longitude":77.7567,"temp":30.5,"humidity":57,"rain":0.0,"pressure":1001.5,"uv_index":9.15,"wind_gusts":48.6,"aqi":145,"pm10":28.0,"pm2_5":25.2,"mosquito_risk":0,"arthritis_risk":5,"migraine_risk":4,"frizz_risk":1,"updated_at":"2026-03-06T18:33:29.469748+05:30"},{"city":"Vellore","state":"Tamil Nadu","latitude":12.9165,"longitude":79.1325,"temp":31.4,"humidity":29,"rain":0.0,"pressure":983.0,"uv_index":8.95,"wind_gusts":31.3,"aqi":159,"pm10":40.9,"pm2_5":39.5,"mosquito_risk":0,"arthritis_risk":5,"migraine_risk":7,"frizz_risk":0,"updated_at":"2026-03-06T18:33:29.469755+05:30"},{"city":"Erode","state":"Tamil Nadu","latitude":11.341,"longitude":77.7172,"temp":34.5,"humidity":34,"rain":0.0,"pressure":986.4,"uv_index":9.05,"wind_gusts":20.2,"aqi":174,"pm10":36.8,"pm2_5":32.8,"mosquito_risk":0,"arthritis_risk":5,"migraine_risk":7,"frizz_risk":1,"updated_at":"2026-03-06T18:33:29.469762+05:30"},{"city":"Kochi","state":"Kerala","latitude":9.9312,"longitude":76.2673,"temp":28.1,"humidity":82,"rain":0.0,"pressure":1007.6,"uv_index":8.95,"wind_gusts":34.6,"aqi":134,"pm10":35.0,"pm2_5":32.6,"mosquito_risk":7,"arthritis_risk":5,"migraine_risk":4,"frizz_risk":1,"updated_at":"2026-03-06T18:33:29.469769+05:30"},{"city":"Thiruvananthapuram","state":"Kerala","latitude":8.5241,"longitude":76.9366,"temp":28.1,"humidity":79,"rain":0.0,"pressure":1007.2,"uv_index":9.0,"wind_gusts":35.3,"aqi":81,"pm10":29.8,"pm2_5":26.3,"mosquito_risk":7,"arthritis_risk":5,"migraine_risk":4,"frizz_risk":1,"updated_at":"2026-03-06T18:33:29.469776+05:30"},{"city":"Kozhikode","state":"Kerala","latitude":11.2588,"longitude":75.7804,"temp":29.0,"humidity":77,"rain":0.0,"pressure":1007.1,"uv_index":8.85,"wind_gusts":27.0,"aqi":104,"pm10":40.5,"pm2_5":36.8,"mosquito_risk":7,"arthritis_risk":5,"migraine_risk":4,"frizz_risk":1,"updated_at":"2026-03-06T18:33:29.469783+05:30"},{"city":"Thrissur","state":"Kerala","latitude":10.5276,"longitude":76.2144,"temp":28.7,"humidity":75,"rain":0.0,"pressure":1005.9,"uv_index":8.95,"wind_gusts":33.5,"aqi":127,"pm10":34.5,"pm2_5":32.5,"mosquito_risk":7,"arthritis_risk":5,"migraine_risk":4,"frizz_risk":1,"updated_at":"2026-03-06T18:33:29.469789+05:30"},{"city":"Kannur","state":"Kerala","latitude":11.8745,"longitude":75.3704,"temp":28.6,"humidity":77,"rain":0.0,"pressure":1006.6,"uv_index":8.85,"wind_gusts":32.0,"aqi":108,"pm10":42.1,"pm2_5":38.6,"mosquito_risk":7,"arthritis_risk":5,"migraine_risk":4,"frizz_risk":1,"updated_at":"2026-03-06T18:33:29.469797+05:30"},{"city":"Patna","state":"Bihar","latitude":25.5941,"longitude":85.1376,"temp":28.2,"humidity":51,"rain":0.0,"pressure":1002.0,"uv_index":7.25,"wind_gusts":21.6,"aqi":195,"pm10":77.1,"pm2_5":68.5,"mosquito_risk":4,"arthritis_risk":5,"migraine_risk":4,"frizz_risk":1,"updated_at":"2026-03-06T18:33:29.469803+05:30"},{"city":"Gaya","state":"Bihar","latitude":24.7914,"longitude":85.0002,"temp":25.7,"humidity":65,"rain":0.0,"pressure":994.9,"uv_index":7.35,"wind_gusts":20.5,"aqi":206,"pm10":68.7,"pm2_5":60.5,"mosquito_risk":7,"arthritis_risk":5,"migraine_risk":7,"frizz_risk":1,"updated_at":"2026-03-06T18:33:29.469810+05:30"},{"city":"Muzaffarpur","state":"Bihar","latitude":26.1209,"longitude":85.3647,"temp":27.2,"humidity":54,"rain":0.0,"pressure":1002.3,"uv_index":7.2,"wind_gusts":20.5,"aqi":187,"pm10":81.5,"pm2_5":72.2,"mosquito_risk":4,"arthritis_risk":5,"migraine_risk":4,"frizz_risk":1,"updated_at":"2026-03-06T18:33:29.469816+05:30"},{"city":"Bhagalpur","state":"Bihar","latitude":25.2425,"longitude":87.0117,"temp":25.8,"humidity":65,"rain":0.0,"pressure":1002.9,"uv_index":7.25,"wind_gusts":17.3,"aqi":165,"pm10":72.4,"pm2_5":64.3,"mosquito_risk":7,"arthritis_risk":5,"migraine_risk":4,"frizz_risk":1,"updated_at":"2026-03-06T18:33:29.469822+05:30"},{"city":"Ranchi","state":"Jharkhand","latitude":23.3441,"longitude":85.3096,"temp":25.8,"humidity":45,"rain":0.0,"pressure":938.2,"uv_index":8.0,"wind_gusts":31.0,"aqi":200,"pm10":82.2,"pm2_5":55.3,"mosquito_risk":4,"arthritis_risk":5,"migraine_risk":7,"frizz_risk":0,"updated_at":"2026-03-06T18:33:29.469829+05:30"},{"city":"Jamshedpur","state":"Jharkhand","latitude":22.8046,"longitude":86.2029,"temp":28.8,"humidity":50,"rain":0.0,"pressure":991.1,"uv_index":7.9,"wind_gusts":21.2,"aqi":179,"pm10":68.9,"pm2_5":50.1,"mosquito_risk":4,"arthritis_risk":5,"migraine_risk":7,"frizz_risk":1,"updated_at":"2026-03-06T18:33:29.469836+05:30"},{"city":"Dhanbad","state":"Jharkhand","latitude":23.7957,"longitude":86.4304,"temp":29.9,"humidity":34,"rain":0.0,"pressure":980.6,"uv_index":7.75,"wind_gusts":27.4,"aqi":210,"pm10":102.4,"pm2_5":84.8,"mosquito_risk":4,"arthritis_risk":5,"migraine_risk":7,"frizz_risk":0,"updated_at":"2026-03-06T18:33:29.469843+05:30"},{"city":"Bokaro","state":"Jharkhand","latitude":23.6693,"longitude":86.1511,"temp":28.6,"humidity":39,"rain":0.0,"pressure":984.7,"uv_index":7.75,"wind_gusts":29.5,"aqi":215,"pm10":116.2,"pm2_5":90.8,"mosquito_risk":4,"arthritis_risk":5,"migraine_risk":7,"frizz_risk":0,"updated_at":"2026-03-06T18:33:29.469849+05:30"},{"city":"Bhubaneswar","state":"Odisha","latitude":20.2961,"longitude":85.8245,"temp":27.6,"humidity":65,"rain":0.0,"pressure":1002.9,"uv_index":8.2,"wind_gusts":29.9,"aqi":161,"pm10":50.4,"pm2_5":45.1,"mosquito_risk":7,"arthritis_risk":5,"migraine_risk":4,"frizz_risk":1,"updated_at":"2026-03-06T18:33:29.469856+05:30"},{"city":"Cuttack","state":"Odisha","latitude":20.4625,"longitude":85.8828,"temp":28.9,"humidity":61,"rain":0.0,"pressure":1004.4,"uv_index":8.2,"wind_gusts":32.4,"aqi":161,"pm10":50.4,"pm2_5":45.1,"mosquito_risk":7,"arthritis_risk":5,"migraine_risk":4,"frizz_risk":1,"updated_at":"2026-03-06T18:33:29.469862+05:30"},{"city":"Rourkela","state":"Odisha","latitude":22.2604,"longitude":84.8536,"temp":30.5,"humidity":45,"rain":0.0,"pressure":984.5,"uv_index":7.8,"wind_gusts":10.4,"aqi":208,"pm10":104.3,"pm2_5":63.8,"mosquito_risk":0,"arthritis_risk":5,"migraine_risk":7,"frizz_risk":1,"updated_at":"2026-03-06T18:33:29.469868+05:30"},{"city":"Raipur","state":"Chhattisgarh","latitude":21.2514,"longitude":81.6296,"temp":33.0,"humidity":26,"rain":0.0,"pressure":973.6,"uv_index":7.9,"wind_gusts":22.7,"aqi":90,"pm10":63.6,"pm2_5":37.6,"mosquito_risk":0,"arthritis_risk":5,"migraine_risk":7,"frizz_risk":0,"updated_at":"2026-03-06T18:33:29.469874+05:30"},{"city":"Bhilai","state":"Chhattisgarh","latitude":21.1938,"longitude":81.3509,"temp":31.8,"humidity":25,"rain":0.0,"pressure":973.9,"uv_index":7.9,"wind_gusts":23.8,"aqi":79,"pm10":50.9,"pm2_5":35.3,"mosquito_risk":0,"arthritis_risk":5,"migraine_risk":7,"frizz_risk":0,"updated_at":"2026-03-06T18:33:29.469881+05:30"},{"city":"Guwahati","state":"Assam","latitude":26.1158,"longitude":91.7086,"temp":28.2,"humidity":65,"rain":0.0,"pressure":1002.7,"uv_index":7.2,"wind_gusts":20.5,"aqi":154,"pm10":68.0,"pm2_5":60.8,"mosquito_risk":7,"arthritis_risk":5,"migraine_risk":4,"frizz_risk":1,"updated_at":"2026-03-06T18:33:29.469886+05:30"},{"city":"Agartala","state":"Tripura","latitude":23.8315,"longitude":91.2868,"temp":26.2,"humidity":70,"rain":0.0,"pressure":1007.1,"uv_index":7.55,"wind_gusts":16.9,"aqi":199,"pm10":65.4,"pm2_5":58.7,"mosquito_risk":7,"arthritis_risk":5,"migraine_risk":4,"frizz_risk":1,"updated_at":"2026-03-06T18:33:29.469893+05:30"},{"city":"Shillong","state":"Meghalaya","latitude":25.5788,"longitude":91.8933,"temp":13.6,"humidity":70,"rain":0.0,"pressure":856.6,"uv_index":7.6,"wind_gusts":33.1,"aqi":130,"pm10":47.7,"pm2_5":43.4,"mosquito_risk":3,"arthritis_risk":5,"migraine_risk":7,"frizz_risk":0,"updated_at":"2026-03-06T18:33:29.469899+05:30"},{"city":"Imphal","state":"Manipur","latitude":24.817,"longitude":93.9368,"temp":20.4,"humidity":50,"rain":0.0,"pressure":924.3,"uv_index":7.8,"wind_gusts":34.9,"aqi":155,"pm10":69.6,"pm2_5":64.5,"mosquito_risk":0,"arthritis_risk":5,"migraine_risk":7,"frizz_risk":0,"updated_at":"2026-03-06T18:33:29.469905+05:30"},{"city":"Aizawl","state":"Mizoram","latitude":23.7271,"longitude":92.7176,"temp":21.8,"humidity":55,"rain":0.0,"pressure":893.5,"uv_index":7.7,"wind_gusts":34.6,"aqi":182,"pm10":113.2,"pm2_5":105.9,"mosquito_risk":0,"arthritis_risk":5,"migraine_risk":7,"frizz_risk":0,"updated_at":"2026-03-06T18:33:29.469911+05:30"},{"city":"Kohima","state":"Nagaland","latitude":25.6701,"longitude":94.1077,"temp":15.8,"humidity":75,"rain":0.0,"pressure":855.7,"uv_index":7.65,"wind_gusts":43.9,"aqi":157,"pm10":85.2,"pm2_5":78.9,"mosquito_risk":3,"arthritis_risk":5,"migraine_risk":7,"frizz_risk":0,"updated_at":"2026-03-06T18:33:29.469918+05:30"},{"city":"Gangtok","state":"Sikkim","latitude":27.3314,"longitude":88.6138,"temp":15.3,"humidity":87,"rain":0.0,"pressure":839.6,"uv_index":7.55,"wind_gusts":18.0,"aqi":126,"pm10":50.6,"pm2_5":44.0,"mosquito_risk":3,"arthritis_risk":10,"migraine_risk":7,"frizz_risk":0,"updated_at":"2026-03-06T18:33:29.469925+05:30"},{"city":"Siliguri","state":"West Bengal","latitude":26.7271,"longitude":88.3953,"temp":23.2,"humidity":52,"rain":0.0,"pressure":996.0,"uv_index":7.2,"wind_gusts":14.8,"aqi":145,"pm10":65.4,"pm2_5":56.7,"mosquito_risk":0,"arthritis_risk":5,"migraine_risk":7,"frizz_risk":0,"updated_at":"2026-03-06T18:33:32.770694+05:30"},{"city":"Durgapur","state":"West Bengal","latitude":23.5204,"longitude":87.3119,"temp":28.9,"humidity":41,"rain":0.0,"pressure":996.1,"uv_index":7.75,"wind_gusts":24.1,"aqi":186,"pm10":72.6,"pm2_5":61.0,"mosquito_risk":4,"arthritis_risk":5,"migraine_risk":7,"frizz_risk":0,"updated_at":"2026-03-06T18:33:32.770725+05:30"},{"city":"Asansol","state":"West Bengal","latitude":23.6739,"longitude":86.9524,"temp":29.4,"humidity":39,"rain":0.0,"pressure":994.5,"uv_index":7.75,"wind_gusts":21.6,"aqi":206,"pm10":81.7,"pm2_5":68.0,"mosquito_risk":4,"arthritis_risk":5,"migraine_risk":7,"frizz_risk":0,"updated_at":"2026-03-06T18:33:32.770734+05:30"},{"city":"Pondicherry","state":"Puducherry","latitude":11.9139,"longitude":79.8145,"temp":28.3,"humidity":65,"rain":0.0,"pressure":1007.4,"uv_index":8.9,"wind_gusts":32.4,"aqi":71,"pm10":26.9,"pm2_5":21.1,"mosquito_risk":7,"arthritis_risk":5,"migraine_risk":4,"frizz_risk":1,"updated_at":"2026-03-06T18:33:32.770742+05:30"},{"city":"Port Blair","state":"Andaman and Nicobar Islands","latitude":11.6234,"longitude":92.7265,"temp":27.6,"humidity":68,"rain":0.0,"pressure":1007.9,"uv_index":8.85,"wind_gusts":14.4,"aqi":61,"pm10":50.8,"pm2_5":30.0,"mosquito_risk":7,"arthritis_risk":5,"migraine_risk":4,"frizz_risk":1,"updated_at":"2026-03-06T18:33:32.770749+05:30"},{"city":"Haridwar","state":"Uttarakhand","latitude":29.9457,"longitude":78.1642,"temp":27.8,"humidity":65,"rain":0.0,"pressure":976.3,"uv_index":5.65,"wind_gusts":23.4,"aqi":170,"pm10":112.2,"pm2_5":71.9,"mosquito_risk":7,"arthritis_risk":5,"migraine_risk":3,"frizz_risk":1,"updated_at":"2026-03-06T18:33:32.770756+05:30"},{"city":"Rishikesh","state":"Uttarakhand","latitude":30.0869,"longitude":78.2676,"temp":26.4,"humidity":63,"rain":0.0,"pressure":969.2,"uv_index":5.7,"wind_gusts":21.6,"aqi":177,"pm10":95.2,"pm2_5":64.0,"mosquito_risk":7,"arthritis_risk":5,"migraine_risk":3,"frizz_risk":1,"updated_at":"2026-03-06T18:33:32.770763+05:30"},{"city":"Nainital","state":"Uttarakhand","latitude":29.3919,"longitude":79.4542,"temp":18.4,"humidity":65,"rain":0.0,"pressure":807.8,"uv_index":6.5,"wind_gusts":46.4,"aqi":160,"pm10":101.5,"pm2_5":72.4,"mosquito_risk":3,"arthritis_risk":5,"migraine_risk":7,"frizz_risk":0,"updated_at":"2026-03-06T18:33:32.770770+05:30"},{"city":"Mussoorie","state":"Uttarakhand","latitude":30.4599,"longitude":78.0664,"temp":17.5,"humidity":79,"rain":0.0,"pressure":804.6,"uv_index":6.05,"wind_gusts":40.7,"aqi":172,"pm10":98.5,"pm2_5":65.9,"mosquito_risk":3,"arthritis_risk":5,"migraine_risk":7,"frizz_risk":0,"updated_at":"2026-03-06T18:33:32.770777+05:30"},{"city":"Dharamshala","state":"Himachal Pradesh","latitude":32.219,"longitude":76.3234,"temp":23.3,"humidity":61,"rain":0.0,"pressure":871.4,"uv_index":5.75,"wind_gusts":21.2,"aqi":106,"pm10":29.8,"pm2_5":18.1,"mosquito_risk":3,"arthritis_risk":5,"migraine_risk":3,"frizz_risk":0,"updated_at":"2026-03-06T18:33:32.770783+05:30"},{"city":"Dalhousie","state":"Himachal Pradesh","latitude":32.5387,"longitude":75.971,"temp":21.5,"humidity":54,"rain":0.0,"pressure":806.5,"uv_index":5.85,"wind_gusts":20.9,"aqi":115,"pm10":52.9,"pm2_5":36.3,"mosquito_risk":0,"arthritis_risk":5,"migraine_risk":3,"frizz_risk":0,"updated_at":"2026-03-06T18:33:32.770790+05:30"},{"city":"Patiala","state":"Punjab","latitude":30.3398,"longitude":76.3869,"temp":28.5,"humidity":63,"rain":0.0,"pressure":979.3,"uv_index":5.7,"wind_gusts":13.0,"aqi":162,"pm10":262.6,"pm2_5":74.7,"mosquito_risk":7,"arthritis_risk":5,"migraine_risk":3,"frizz_risk":1,"updated_at":"2026-03-06T18:33:32.770797+05:30"},{"city":"Bhatinda","state":"Punjab","latitude":30.211,"longitude":74.9455,"temp":28.6,"humidity":51,"rain":0.0,"pressure":984.4,"uv_index":6.4,"wind_gusts":16.9,"aqi":140,"pm10":41.1,"pm2_5":31.4,"mosquito_risk":4,"arthritis_risk":5,"migraine_risk":7,"frizz_risk":1,"updated_at":"2026-03-06T18:33:32.770803+05:30"},{"city":"Rohtak","state":"Haryana","latitude":28.8955,"longitude":76.6066,"temp":27.7,"humidity":48,"rain":0.0,"pressure":982.9,"uv_index":5.9,"wind_gusts":19.4,"aqi":236,"pm10":210.5,"pm2_5":59.3,"mosquito_risk":4,"arthritis_risk":5,"migraine_risk":3,"frizz_risk":0,"updated_at":"2026-03-06T18:33:32.770810+05:30"},{"city":"Panipat","state":"Haryana","latitude":29.3909,"longitude":76.9635,"temp":28.7,"humidity":59,"rain":0.0,"pressure":981.5,"uv_index":5.7,"wind_gusts":14.0,"aqi":558,"pm10":302.7,"pm2_5":67.8,"mosquito_risk":4,"arthritis_risk":5,"migraine_risk":3,"frizz_risk":1,"updated_at":"2026-03-06T18:33:32.770816+05:30"},{"city":"Mathura","state":"Uttar Pradesh","latitude":27.4924,"longitude":77.6737,"temp":29.0,"humidity":41,"rain":0.0,"pressure":987.9,"uv_index":6.2,"wind_gusts":19.1,"aqi":355,"pm10":183.0,"pm2_5":55.1,"mosquito_risk":4,"arthritis_risk":5,"migraine_risk":7,"frizz_risk":0,"updated_at":"2026-03-06T18:33:32.770822+05:30"},{"city":"Vrindavan","state":"Uttar Pradesh","latitude":27.5823,"longitude":77.7027,"temp":28.4,"humidity":48,"rain":0.0,"pressure":988.4,"uv_index":6.15,"wind_gusts":17.6,"aqi":355,"pm10":183.0,"pm2_5":55.1,"mosquito_risk":4,"arthritis_risk":5,"migraine_risk":7,"frizz_risk":1,"updated_at":"2026-03-06T18:33:32.770829+05:30"},{"city":"Ayodhya","state":"Uttar Pradesh","latitude":26.7922,"longitude":82.1998,"temp":26.6,"humidity":60,"rain":0.0,"pressure":997.1,"uv_index":6.55,"wind_gusts":19.4,"aqi":183,"pm10":104.5,"pm2_5":77.8,"mosquito_risk":4,"arthritis_risk":5,"migraine_risk":7,"frizz_risk":1,"updated_at":"2026-03-06T18:33:32.770835+05:30"},{"city":"Ratlam","state":"Madhya Pradesh","latitude":23.3315,"longitude":75.0367,"temp":29.0,"humidity":40,"rain":0.0,"pressure":955.5,"uv_index":7.4,"wind_gusts":20.9,"aqi":96,"pm10":17.3,"pm2_5":15.9,"mosquito_risk":4,"arthritis_risk":5,"migraine_risk":7,"frizz_risk":0,"updated_at":"2026-03-06T18:33:32.770841+05:30"},{"city":"Sagar","state":"Madhya Pradesh","latitude":23.8388,"longitude":78.7378,"temp":28.2,"humidity":44,"rain":0.0,"pressure":950.6,"uv_index":7.35,"wind_gusts":21.6,"aqi":93,"pm10":36.1,"pm2_5":15.3,"mosquito_risk":4,"arthritis_risk":5,"migraine_risk":7,"frizz_risk":0,"updated_at":"2026-03-06T18:33:32.770848+05:30"},{"city":"Satna","state":"Madhya Pradesh","latitude":24.6005,"longitude":80.8322,"temp":29.2,"humidity":39,"rain":0.0,"pressure":972.1,"uv_index":7.3,"wind_gusts":31.3,"aqi":104,"pm10":116.4,"pm2_5":43.4,"mosquito_risk":4,"arthritis_risk":5,"migraine_risk":7,"frizz_risk":0,"updated_at":"2026-03-06T18:33:32.770854+05:30"},{"city":"Akola","state":"Maharashtra","latitude":20.7002,"longitude":77.0082,"temp":32.7,"humidity":25,"rain":0.0,"pressure":974.4,"uv_index":7.85,"wind_gusts":19.8,"aqi":123,"pm10":29.0,"pm2_5":20.5,"mosquito_risk":0,"arthritis_risk":5,"migraine_risk":7,"frizz_risk":0,"updated_at":"2026-03-06T18:33:32.770861+05:30"},{"city":"Amravati","state":"Maharashtra","latitude":20.9374,"longitude":77.7796,"temp":34.3,"humidity":25,"rain":0.0,"pressure":966.6,"uv_index":7.75,"wind_gusts":15.1,"aqi":118,"pm10":28.1,"pm2_5":19.0,"mosquito_risk":0,"arthritis_risk":5,"migraine_risk":7,"frizz_risk":0,"updated_at":"2026-03-06T18:33:32.770868+05:30"},{"city":"Latur","state":"Maharashtra","latitude":18.4088,"longitude":76.5604,"temp":30.9,"humidity":26,"rain":0.0,"pressure":939.5,"uv_index":8.3,"wind_gusts":31.7,"aqi":133,"pm10":23.8,"pm2_5":19.3,"mosquito_risk":0,"arthritis_risk":5,"migraine_risk":7,"frizz_risk":0,"updated_at":"2026-03-06T18:33:32.770874+05:30"},{"city":"Nanded","state":"Maharashtra","latitude":19.1383,"longitude":77.3091,"temp":32.7,"humidity":29,"rain":0.0,"pressure":967.8,"uv_index":8.1,"wind_gusts":20.9,"aqi":115,"pm10":25.8,"pm2_5":18.1,"mosquito_risk":0,"arthritis_risk":5,"migraine_risk":7,"frizz_risk":0,"updated_at":"2026-03-06T18:33:32.770881+05:30"},{"city":"Gulbarga","state":"Karnataka","latitude":17.3297,"longitude":76.8343,"temp":34.2,"humidity":18,"rain":0.0,"pressure":957.8,"uv_index":8.4,"wind_gusts":33.1,"aqi":124,"pm10":18.1,"pm2_5":13.5,"mosquito_risk":0,"arthritis_risk":5,"migraine_risk":7,"frizz_risk":0,"updated_at":"2026-03-06T18:33:32.770886+05:30"},{"city":"Bidar","state":"Karnataka","latitude":17.9104,"longitude":77.5199,"temp":31.5,"humidity":23,"rain":0.0,"pressure":935.1,"uv_index":8.35,"wind_gusts":32.8,"aqi":109,"pm10":26.5,"pm2_5":19.3,"mosquito_risk":0,"arthritis_risk":5,"migraine_risk":7,"frizz_risk":0,"updated_at":"2026-03-06T18:33:32.770892+05:30"},{"city":"Hospet","state":"Karnataka","latitude":15.2689,"longitude":76.3909,"temp":34.5,"humidity":19,"rain":0.0,"pressure":954.7,"uv_index":8.75,"wind_gusts":20.2,"aqi":164,"pm10":21.0,"pm2_5":19.6,"mosquito_risk":0,"arthritis_risk":5,"migraine_risk":7,"frizz_risk":0,"updated_at":"2026-03-06T18:33:32.770898+05:30"},{"city":"Tirupur","state":"Tamil Nadu","latitude":11.1085,"longitude":77.3411,"temp":34.3,"humidity":23,"rain":0.0,"pressure":973.2,"uv_index":9.2,"wind_gusts":31.7,"aqi":182,"pm10":41.9,"pm2_5":38.6,"mosquito_risk":0,"arthritis_risk":5,"migraine_risk":7,"frizz_risk":0,"updated_at":"2026-03-06T18:33:32.770904+05:30"},{"city":"Alappuzha","state":"Kerala","latitude":9.4981,"longitude":76.3388,"temp":28.3,"humidity":79,"rain":0.0,"pressure":1007.5,"uv_index":8.95,"wind_gusts":31.0,"aqi":111,"pm10":32.4,"pm2_5":29.6,"mosquito_risk":7,"arthritis_risk":5,"migraine_risk":4,"frizz_risk":1,"updated_at":"2026-03-06T18:33:32.770910+05:30"},{"city":"Munnar","state":"Kerala","latitude":10.0889,"longitude":77.0595,"temp":23.0,"humidity":80,"rain":0.0,"pressure":856.5,"uv_index":9.45,"wind_gusts":29.9,"aqi":126,"pm10":35.3,"pm2_5":32.7,"mosquito_risk":3,"arthritis_risk":5,"migraine_risk":7,"frizz_risk":1,"updated_at":"2026-03-06T18:33:32.770917+05:30"},{"city":"Silchar","state":"Assam","latitude":24.8333,"longitude":92.7789,"temp":28.8,"humidity":54,"rain":0.0,"pressure":1005.0,"uv_index":7.55,"wind_gusts":12.6,"aqi":169,"pm10":92.7,"pm2_5":88.2,"mosquito_risk":4,"arthritis_risk":5,"migraine_risk":4,"frizz_risk":1,"updated_at":"2026-03-06T18:33:32.770923+05:30"},{"city":"Dibrugarh","state":"Assam","latitude":27.4728,"longitude":94.912,"temp":27.0,"humidity":63,"rain":0.0,"pressure":996.2,"uv_index":7.25,"wind_gusts":16.6,"aqi":110,"pm10":46.6,"pm2_5":42.3,"mosquito_risk":7,"arthritis_risk":5,"migraine_risk":7,"frizz_risk":1,"updated_at":"2026-03-06T18:33:32.770929+05:30"}]