[{"city":"Delhi","state":"Delhi","latitude":28.6139,"longitude":77.209,"temp":29.8,"humidity":64,"rain":0.0,"pressure":975.2,"uv_index":7.7,"wind_gusts":36.0,"aqi":183,"pm10":203.0,"pm2_5":109.2,"no2":62.2,"co":933.0,"o3":34.0,"so2":32.1,"mosquito_risk":7,"arthritis_risk":5,"migraine_risk":7,"frizz_risk":1,"updated_at":"2026-05-14T02:19:35.717269+05:30"},{"city":"Mumbai","state":"Maharashtra","latitude":19.076,"longitude":72.8777,"temp":29.5,"humidity":77,"rain":0.0,"pressure":1003.8,"uv_index":7.9,"wind_gusts":45.0,"aqi":74,"pm10":29.6,"pm2_5":16.4,"no2":6.5,"co":318.0,"o3":75.0,"so2":5.7,"mosquito_risk":7,"arthritis_risk":5,"migraine_risk":4,"frizz_risk":1,"updated_at":"2026-05-14T02:19:35.717315+05:30"},{"city":"Bangalore","state":"Karnataka","latitude":12.9716,"longitude":77.5946,"temp":24.8,"humidity":63,"rain":0.0,"pressure":907.3,"uv_index":9.45,"wind_gusts":37.1,"aqi":78,"pm10":22.0,"pm2_5":19.2,"no2":29.1,"co":353.0,"o3":52.0,"so2":8.2,"mosquito_risk":3,"arthritis_risk":5,"migraine_risk":7,"frizz_risk":1,"updated_at":"2026-05-14T02:19:35.717331+05:30"},{"city":"Hyderabad","state":"Telangana","latitude":17.385,"longitude":78.4867,"temp":29.5,"humidity":49,"rain":0.0,"pressure":948.7,"uv_index":8.55,"wind_gusts":24.5,"aqi":67,"pm10":30.9,"pm2_5":23.2,"no2":12.6,"co":345.0,"o3":75.0,"so2":7.3,"mosquito_risk":4,"arthritis_risk":5,"migraine_risk":7,"frizz_risk":1,"updated_at":"2026-05-14T02:19:35.717342+05:30"},{"city":"Chennai","state":"Tamil Nadu","latitude":13.0827,"longitude":80.2707,"temp":28.6,"humidity":82,"rain":0.0,"pressure":1000.8,"uv_index":8.45,"wind_gusts":42.8,"aqi":25,"pm10":10.4,"pm2_5":7.5,"no2":7.8,"co":348.0,"o3":38.0,"so2":4.5,"mosquito_risk":7,"arthritis_risk":5,"migraine_risk":4,"frizz_risk":1,"updated_at":"2026-05-14T02:19:35.717351+05:30"},{"city":"Kolkata","state":"West Bengal","latitude":22.5726,"longitude":88.3639,"temp":27.7,"humidity":86,"rain":0.0,"pressure":1000.6,"uv_index":9.0,"wind_gusts":36.0,"aqi":57,"pm10":9.2,"pm2_5":7.5,"no2":5.6,"co":180.0,"o3":34.0,"so2":2.9,"mosquito_risk":7,"arthritis_risk":5,"migraine_risk":4,"frizz_risk":1,"updated_at":"2026-05-14T02:19:35.717360+05:30"},{"city":"Pune","state":"Maharashtra","latitude":18.5204,"longitude":73.8567,"temp":25.5,"humidity":80,"rain":0.0,"pressure":943.9,"uv_index":8.55,"wind_gusts":42.5,"aqi":73,"pm10":44.2,"pm2_5":25.4,"no2":14.8,"co":281.0,"o3":66.0,"so2":17.4,"mosquito_risk":7,"arthritis_risk":5,"migraine_risk":7,"frizz_risk":1,"updated_at":"2026-05-14T02:19:35.717373+05:30"},{"city":"Ahmedabad","state":"Gujarat","latitude":23.0225,"longitude":72.5714,"temp":32.5,"humidity":42,"rain":0.0,"pressure":995.5,"uv_index":8.15,"wind_gusts":42.8,"aqi":76,"pm10":26.3,"pm2_5":16.1,"no2":6.4,"co":197.0,"o3":68.0,"so2":3.8,"mosquito_risk":0,"arthritis_risk":5,"migraine_risk":7,"frizz_risk":1,"updated_at":"2026-05-14T02:19:35.717386+05:30"},{"city":"Jaipur","state":"Rajasthan","latitude":26.9124,"longitude":75.7873,"temp":30.8,"humidity":30,"rain":0.0,"pressure":952.9,"uv_index":8.25,"wind_gusts":41.4,"aqi":126,"pm10":109.7,"pm2_5":46.4,"no2":23.7,"co":346.0,"o3":37.0,"so2":9.2,"mosquito_risk":0,"arthritis_risk":5,"migraine_risk":7,"frizz_risk":0,"updated_at":"2026-05-14T02:19:35.717394+05:30"},{"city":"Lucknow","state":"Uttar Pradesh","latitude":26.8467,"longitude":80.9462,"temp":28.4,"humidity":54,"rain":0.0,"pressure":986.9,"uv_index":8.2,"wind_gusts":29.9,"aqi":156,"pm10":153.7,"pm2_5":91.0,"no2":31.1,"co":468.0,"o3":50.0,"so2":16.0,"mosquito_risk":4,"arthritis_risk":5,"migraine_risk":7,"frizz_risk":1,"updated_at":"2026-05-14T02:19:35.717403+05:30"},{"city":"Kanpur","state":"Uttar Pradesh","latitude":26.4499,"longitude":80.3319,"temp":29.8,"humidity":49,"rain":0.0,"pressure":985.0,"uv_index":8.2,"wind_gusts":26.3,"aqi":160,"pm10":124.3,"pm2_5":75.2,"no2":20.2,"co":480.0,"o3":63.0,"so2":13.2,"mosquito_risk":4,"arthritis_risk":5,"migraine_risk":7,"frizz_risk":1,"updated_at":"2026-05-14T02:19:35.717411+05:30"},{"city":"Chandigarh","state":"Chandigarh","latitude":30.7333,"longitude":76.7794,"temp":22.0,"humidity":67,"rain":0.0,"pressure":961.1,"uv_index":7.65,"wind_gusts":29.9,"aqi":133,"pm10":51.7,"pm2_5":38.9,"no2":22.0,"co":748.0,"o3":66.0,"so2":13.1,"mosquito_risk":3,"arthritis_risk":5,"migraine_risk":7,"frizz_risk":0,"updated_at":"2026-05-14T02:19:35.717418+05:30"},{"city":"Srinagar","state":"Jammu and Kashmir","latitude":34.0837,"longitude":74.7973,"temp":9.9,"humidity":100,"rain":0.0,"pressure":839.5,"uv_index":8.65,"wind_gusts":31.7,"aqi":64,"pm10":29.2,"pm2_5":28.3,"no2":24.2,"co":547.0,"o3":16.0,"so2":0.0,"mosquito_risk":3,"arthritis_risk":10,"migraine_risk":7,"frizz_risk":0,"updated_at":"2026-05-14T02:19:35.717426+05:30"},{"city":"Jammu","state":"Jammu and Kashmir","latitude":32.7266,"longitude":74.857,"temp":22.0,"humidity":60,"rain":0.0,"pressure":966.7,"uv_index":8.45,"wind_gusts":43.6,"aqi":74,"pm10":23.2,"pm2_5":20.7,"no2":20.1,"co":326.0,"o3":34.0,"so2":2.3,"mosquito_risk":0,"arthritis_risk":5,"migraine_risk":7,"frizz_risk":0,"updated_at":"2026-05-14T02:19:35.717433+05:30"},{"city":"Amritsar","state":"Punjab","latitude":31.634,"longitude":74.8723,"temp":24.2,"humidity":67,"rain":0.0,"pressure":973.9,"uv_index":8.3,"wind_gusts":40.0,"aqi":152,"pm10":57.9,"pm2_5":43.0,"no2":16.3,"co":929.0,"o3":65.0,"so2":5.4,"mosquito_risk":3,"arthritis_risk":5,"migraine_risk":7,"frizz_risk":1,"updated_at":"2026-05-14T02:19:35.717440+05:30"},{"city":"Ludhiana","state":"Punjab","latitude":30.901,"longitude":75.8573,"temp":24.9,"humidity":71,"rain":0.0,"pressure":971.5,"uv_index":7.9,"wind_gusts":42.5,"aqi":157,"pm10":50.4,"pm2_5":43.3,"no2":17.3,"co":881.0,"o3":63.0,"so2":8.2,"mosquito_risk":3,"arthritis_risk":5,"migraine_risk":7,"frizz_risk":1,"updated_at":"2026-05-14T02:19:35.717447+05:30"},{"city":"Jalandhar","state":"Punjab","latitude":31.326,"longitude":75.5762,"temp":24.0,"humidity":60,"rain":0.0,"pressure":972.8,"uv_index":8.1,"wind_gusts":25.2,"aqi":137,"pm10":47.5,"pm2_5":33.9,"no2":12.8,"co":1151.0,"o3":71.0,"so2":4.7,"mosquito_risk":0,"arthritis_risk":5,"migraine_risk":7,"frizz_risk":0,"updated_at":"2026-05-14T02:19:35.717454+05:30"},{"city":"Dehradun","state":"Uttarakhand","latitude":30.6284,"longitude":78.0322,"temp":12.6,"humidity":93,"rain":0.0,"pressure":822.7,"uv_index":8.1,"wind_gusts":41.8,"aqi":71,"pm10":30.0,"pm2_5":23.1,"no2":32.9,"co":330.0,"o3":36.0,"so2":2.2,"mosquito_risk":3,"arthritis_risk":10,"migraine_risk":7,"frizz_risk":0,"updated_at":"2026-05-14T02:19:35.717464+05:30"},{"city":"Shimla","state":"Himachal Pradesh","latitude":31.1048,"longitude":77.1734,"temp":10.9,"humidity":68,"rain":0.0,"pressure":777.6,"uv_index":8.15,"wind_gusts":48.2,"aqi":70,"pm10":26.8,"pm2_5":19.8,"no2":22.8,"co":322.0,"o3":52.0,"so2":3.0,"mosquito_risk":3,"arthritis_risk":5,"migraine_risk":7,"frizz_risk":0,"updated_at":"2026-05-14T02:19:35.717470+05:30"},{"city":"Manali","state":"Himachal Pradesh","latitude":32.2396,"longitude":77.1887,"temp":8.8,"humidity":69,"rain":0.0,"pressure":811.2,"uv_index":9.7,"wind_gusts":44.6,"aqi":47,"pm10":7.5,"pm2_5":5.2,"no2":32.6,"co":194.0,"o3":87.0,"so2":0.0,"mosquito_risk":3,"arthritis_risk":5,"migraine_risk":7,"frizz_risk":0,"updated_at":"2026-05-14T02:19:35.717477+05:30"},{"city":"Gurgaon","state":"Haryana","latitude":28.4595,"longitude":77.0266,"temp":28.0,"humidity":56,"rain":0.0,"pressure":973.6,"uv_index":7.8,"wind_gusts":29.9,"aqi":663,"pm10":356.7,"pm2_5":129.5,"no2":46.8,"co":873.0,"o3":64.0,"so2":40.9,"mosquito_risk":4,"arthritis_risk":5,"migraine_risk":7,"frizz_risk":1,"updated_at":"2026-05-14T02:19:35.717500+05:30"},{"city":"Noida","state":"Uttar Pradesh","latitude":28.5355,"longitude":77.391,"temp":26.9,"humidity":79,"rain":0.0,"pressure":976.6,"uv_index":7.7,"wind_gusts":29.5,"aqi":663,"pm10":356.7,"pm2_5":129.5,"no2":46.8,"co":1139.0,"o3":64.0,"so2":40.9,"mosquito_risk":7,"arthritis_risk":5,"migraine_risk":7,"frizz_risk":1,"updated_at":"2026-05-14T02:19:35.717508+05:30"},{"city":"Ghaziabad","state":"Uttar Pradesh","latitude":28.6692,"longitude":77.4538,"temp":26.5,"humidity":81,"rain":0.0,"pressure":974.8,"uv_index":7.7,"wind_gusts":27.7,"aqi":164,"pm10":215.1,"pm2_5":103.8,"no2":30.8,"co":775.0,"o3":61.0,"so2":20.3,"mosquito_risk":7,"arthritis_risk":5,"migraine_risk":7,"frizz_risk":1,"updated_at":"2026-05-14T02:19:35.717515+05:30"},{"city":"Faridabad","state":"Haryana","latitude":28.4089,"longitude":77.3178,"temp":28.4,"humidity":71,"rain":0.0,"pressure":975.9,"uv_index":7.75,"wind_gusts":35.6,"aqi":663,"pm10":356.7,"pm2_5":129.5,"no2":46.8,"co":759.0,"o3":64.0,"so2":40.9,"mosquito_risk":7,"arthritis_risk":5,"migraine_risk":7,"frizz_risk":1,"updated_at":"2026-05-14T02:19:35.717522+05:30"},{"city":"Meerut","state":"Uttar Pradesh","latitude":28.9845,"longitude":77.7064,"temp":27.9,"humidity":73,"rain":0.0,"pressure":973.9,"uv_index":7.6,"wind_gusts":27.0,"aqi":164,"pm10":215.1,"pm2_5":103.8,"no2":30.8,"co":787.0,"o3":61.0,"so2":20.3,"mosquito_risk":7,"arthritis_risk":5,"migraine_risk":7,"frizz_risk":1,"updated_at":"2026-05-14T02:19:35.717529+05:30"},{"city":"Agra","state":"Uttar Pradesh","latitude":27.1767,"longitude":78.0081,"temp":28.9,"humidity":61,"rain":0.0,"pressure":980.4,"uv_index":7.95,"wind_gusts":38.9,"aqi":545,"pm10":521.5,"pm2_5":126.7,"no2":12.5,"co":547.0,"o3":84.0,"so2":14.8,"mosquito_risk":7,"arthritis_risk":5,"migraine_risk":7,"frizz_risk":1,"updated_at":"2026-05-14T02:19:35.717536+05:30"},{"city":"Varanasi","state":"Uttar Pradesh","latitude":25.3176,"longitude":82.9739,"temp":27.9,"humidity":62,"rain":0.0,"pressure":991.8,"uv_index":8.7,"wind_gusts":28.4,"aqi":157,"pm10":82.7,"pm2_5":73.6,"no2":17.1,"co":513.0,"o3":90.0,"so2":16.7,"mosquito_risk":7,"arthritis_risk":5,"migraine_risk":7,"frizz_risk":1,"updated_at":"2026-05-14T02:19:35.717542+05:30"},{"city":"Prayagraj","state":"Uttar Pradesh","latitude":25.4358,"longitude":81.8463,"temp":28.9,"humidity":54,"rain":0.0,"pressure":989.7,"uv_index":8.6,"wind_gusts":25.6,"aqi":156,"pm10":92.0,"pm2_5":72.6,"no2":21.7,"co":445.0,"o3":72.0,"so2":14.0,"mosquito_risk":4,"arthritis_risk":5,"migraine_risk":7,"frizz_risk":1,"updated_at":"2026-05-14T02:19:35.717555+05:30"},{"city":"Gorakhpur","state":"Uttar Pradesh","latitude":26.7606,"longitude":83.3732,"temp":24.9,"humidity":83,"rain":0.0,"pressure":992.4,"uv_index":8.6,"wind_gusts":33.1,"aqi":142,"pm10":65.4,"pm2_5":56.5,"no2":14.6,"co":485.0,"o3":87.0,"so2":11.7,"mosquito_risk":3,"arthritis_risk":5,"migraine_risk":7,"frizz_risk":1,"updated_at":"2026-05-14T02:19:35.717562+05:30"},{"city":"Bareilly","state":"Uttar Pradesh","latitude":28.367,"longitude":79.4304,"temp":26.0,"humidity":83,"rain":0.0,"pressure":979.3,"uv_index":8.0,"wind_gusts":29.9,"aqi":156,"pm10":217.0,"pm2_5":102.2,"no2":35.7,"co":511.0,"o3":69.0,"so2":24.0,"mosquito_risk":7,"arthritis_risk":5,"migraine_risk":7,"frizz_risk":1,"updated_at":"2026-05-14T02:19:35.717569+05:30"},{"city":"Aligarh","state":"Uttar Pradesh","latitude":27.8974,"longitude":78.088,"temp":27.8,"humidity":71,"rain":0.0,"pressure":977.7,"uv_index":7.85,"wind_gusts":22.7,"aqi":274,"pm10":217.0,"pm2_5":94.5,"no2":20.4,"co":613.0,"o3":69.0,"so2":13.7,"mosquito_risk":7,"arthritis_risk":5,"migraine_risk":7,"frizz_risk":1,"updated_at":"2026-05-14T02:19:35.717575+05:30"},{"city":"Moradabad","state":"Uttar Pradesh","latitude":28.8386,"longitude":78.7733,"temp":25.8,"humidity":83,"rain":0.0,"pressure":975.9,"uv_index":7.8,"wind_gusts":33.1,"aqi":157,"pm10":190.9,"pm2_5":102.7,"no2":41.0,"co":673.0,"o3":39.0,"so2":15.5,"mosquito_risk":7,"arthritis_risk":5,"migraine_risk":7,"frizz_risk":1,"updated_at":"2026-05-14T02:19:35.717582+05:30"},{"city":"Saharanpur","state":"Uttar Pradesh","latitude":29.9637,"longitude":77.546,"temp":25.0,"humidity":70,"rain":0.0,"pressure":968.2,"uv_index":7.3,"wind_gusts":30.6,"aqi":160,"pm10":147.1,"pm2_5":82.0,"no2":28.0,"co":814.0,"o3":85.0,"so2":19.5,"mosquito_risk":7,"arthritis_risk":5,"migraine_risk":7,"frizz_risk":1,"updated_at":"2026-05-14T02:19:35.717588+05:30"},{"city":"Jhansi","state":"Uttar Pradesh","latitude":25.4484,"longitude":78.5685,"temp":30.0,"humidity":40,"rain":0.0,"pressure":970.8,"uv_index":8.15,"wind_gusts":31.0,"aqi":115,"pm10":92.0,"pm2_5":42.7,"no2":14.2,"co":347.0,"o3":45.0,"so2":6.1,"mosquito_risk":4,"arthritis_risk":5,"migraine_risk":7,"frizz_risk":0,"updated_at":"2026-05-14T02:19:39.020376+05:30"},{"city":"Surat","state":"Gujarat","latitude":21.1702,"longitude":72.8311,"temp":29.2,"humidity":84,"rain":0.0,"pressure":1000.6,"uv_index":7.7,"wind_gusts":42.5,"aqi":86,"pm10":24.2,"pm2_5":19.3,"no2":27.9,"co":510.0,"o3":47.0,"so2":44.6,"mosquito_risk":7,"arthritis_risk":5,"migraine_risk":4,"frizz_risk":1,"updated_at":"2026-05-14T02:19:39.020411+05:30"},{"city":"Vadodara","state":"Gujarat","latitude":22.3072,"longitude":73.1812,"temp":30.0,"humidity":76,"rain":0.0,"pressure":997.9,"uv_index":8.15,"wind_gusts":39.2,"aqi":79,"pm10":29.7,"pm2_5":21.6,"no2":21.2,"co":234.0,"o3":46.0,"so2":29.2,"mosquito_risk":7,"arthritis_risk":5,"migraine_risk":7,"frizz_risk":1,"updated_at":"2026-05-14T02:19:39.020422+05:30"},{"city":"Rajkot","state":"Gujarat","latitude":22.3039,"longitude":70.8022,"temp":28.7,"humidity":56,"rain":0.0,"pressure":989.1,"uv_index":7.75,"wind_gusts":58.7,"aqi":60,"pm10":20.1,"pm2_5":14.3,"no2":5.5,"co":166.0,"o3":69.0,"so2":5.7,"mosquito_risk":4,"arthritis_risk":5,"migraine_risk":7,"frizz_risk":1,"updated_at":"2026-05-14T02:19:39.020431+05:30"},{"city":"Thane","state":"Maharashtra","latitude":19.2183,"longitude":72.9781,"temp":29.5,"humidity":76,"rain":0.0,"pressure":1003.1,"uv_index":7.95,"wind_gusts":40.7,"aqi":74,"pm10":29.6,"pm2_5":16.4,"no2":6.5,"co":294.0,"o3":75.0,"so2":5.7,"mosquito_risk":7,"arthritis_risk":5,"migraine_risk":4,"frizz_risk":1,"updated_at":"2026-05-14T02:19:39.020441+05:30"},{"city":"Nagpur","state":"Maharashtra","latitude":21.1458,"longitude":79.0882,"temp":32.5,"humidity":40,"rain":0.0,"pressure":967.3,"uv_index":8.95,"wind_gusts":38.9,"aqi":98,"pm10":56.9,"pm2_5":35.4,"no2":16.3,"co":271.0,"o3":81.0,"so2":14.6,"mosquito_risk":0,"arthritis_risk":5,"migraine_risk":7,"frizz_risk":1,"updated_at":"2026-05-14T02:19:39.020449+05:30"},{"city":"Nashik","state":"Maharashtra","latitude":19.9975,"longitude":73.7898,"temp":24.8,"humidity":84,"rain":0.0,"pressure":941.0,"uv_index":8.2,"wind_gusts":41.8,"aqi":69,"pm10":29.7,"pm2_5":15.7,"no2":7.4,"co":216.0,"o3":62.0,"so2":2.9,"mosquito_risk":3,"arthritis_risk":5,"migraine_risk":7,"frizz_risk":1,"updated_at":"2026-05-14T02:19:39.020456+05:30"},{"city":"Aurangabad","state":"Maharashtra","latitude":19.8762,"longitude":75.3433,"temp":29.8,"humidity":52,"rain":0.0,"pressure":939.6,"uv_index":9.1,"wind_gusts":33.1,"aqi":76,"pm10":28.8,"pm2_5":19.2,"no2":8.9,"co":251.0,"o3":79.0,"so2":5.5,"mosquito_risk":4,"arthritis_risk":5,"migraine_risk":7,"frizz_risk":1,"updated_at":"2026-05-14T02:19:39.020464+05:30"},{"city":"Solapur","state":"Maharashtra","latitude":17.6599,"longitude":75.9064,"temp":28.3,"humidity":70,"rain":0.0,"pressure":952.2,"uv_index":8.8,"wind_gusts":30.6,"aqi":94,"pm10":47.6,"pm2_5":34.7,"no2":14.4,"co":393.0,"o3":85.0,"so2":7.9,"mosquito_risk":7,"arthritis_risk":5,"migraine_risk":7,"frizz_risk":1,"updated_at":"2026-05-14T02:19:39.020471+05:30"},{"city":"Kolhapur","state":"Maharashtra","latitude":16.705,"longitude":74.2433,"temp":24.8,"humidity":91,"rain":0.0,"pressure":943.6,"uv_index":8.95,"wind_gusts":42.1,"aqi":67,"pm10":34.6,"pm2_5":20.7,"no2":8.9,"co":189.0,"o3":61.0,"so2":3.9,"mosquito_risk":3,"arthritis_risk":5,"migraine_risk":7,"frizz_risk":1,"updated_at":"2026-05-14T02:19:39.020478+05:30"},{"city":"Goa","state":"Goa","latitude":15.2993,"longitude":74.124,"temp":26.9,"humidity":95,"rain":0.0,"pressure":993.4,"uv_index":8.9,"wind_gusts":35.3,"aqi":69,"pm10":64.3,"pm2_5":32.0,"no2":9.3,"co":200.0,"o3":58.0,"so2":2.4,"mosquito_risk":7,"arthritis_risk":5,"migraine_risk":7,"frizz_risk":1,"updated_at":"2026-05-14T02:19:39.020504+05:30"},{"city":"Jodhpur","state":"Rajasthan","latitude":26.2389,"longitude":73.0243,"temp":33.0,"humidity":26,"rain":0.0,"pressure":975.3,"uv_index":8.4,"wind_gusts":39.2,"aqi":104,"pm10":187.7,"pm2_5":46.1,"no2":6.7,"co":187.0,"o3":71.0,"so2":2.1,"mosquito_risk":0,"arthritis_risk":5,"migraine_risk":7,"frizz_risk":0,"updated_at":"2026-05-14T02:19:39.020512+05:30"},{"city":"Udaipur","state":"Rajasthan","latitude":24.5854,"longitude":73.7125,"temp":30.5,"humidity":33,"rain":0.0,"pressure":940.7,"uv_index":8.85,"wind_gusts":39.2,"aqi":62,"pm10":68.2,"pm2_5":28.6,"no2":5.0,"co":186.0,"o3":78.0,"so2":4.4,"mosquito_risk":0,"arthritis_risk":5,"migraine_risk":7,"frizz_risk":0,"updated_at":"2026-05-14T02:19:39.020520+05:30"},{"city":"Kota","state":"Rajasthan","latitude":25.2138,"longitude":75.8648,"temp":33.5,"humidity":24,"rain":0.0,"pressure":971.8,"uv_index":8.4,"wind_gusts":42.8,"aqi":69,"pm10":36.3,"pm2_5":21.4,"no2":7.6,"co":264.0,"o3":68.0,"so2":3.5,"mosquito_risk":0,"arthritis_risk":5,"migraine_risk":7,"frizz_risk":0,"updated_at":"2026-05-14T02:19:39.020527+05:30"},{"city":"Bikaner","state":"Rajasthan","latitude":28.0229,"longitude":73.3119,"temp":29.0,"humidity":45,"rain":0.0,"pressure":973.6,"uv_index":8.35,"wind_gusts":27.0,"aqi":109,"pm10":126.7,"pm2_5":53.0,"no2":5.0,"co":300.0,"o3":92.0,"so2":15.7,"mosquito_risk":4,"arthritis_risk":5,"migraine_risk":7,"frizz_risk":0,"updated_at":"2026-05-14T02:19:39.020534+05:30"},{"city":"Ajmer","state":"Rajasthan","latitude":26.4499,"longitude":74.6399,"temp":29.8,"humidity":34,"rain":0.0,"pressure":948.2,"uv_index":8.4,"wind_gusts":38.2,"aqi":73,"pm10":53.3,"pm2_5":23.0,"no2":6.3,"co":230.0,"o3":85.0,"so2":5.7,"mosquito_risk":4,"arthritis_risk":5,"migraine_risk":7,"frizz_risk":0,"updated_at":"2026-05-14T02:19:39.020542+05:30"},{"city":"Gwalior","state":"Madhya Pradesh","latitude":26.2183,"longitude":78.1828,"temp":31.0,"humidity":30,"rain":0.0,"pressure":975.7,"uv_index":8.25,"wind_gusts":39.6,"aqi":140,"pm10":229.6,"pm2_5":70.5,"no2":13.0,"co":377.0,"o3":67.0,"so2":9.2,"mosquito_risk":0,"arthritis_risk":5,"migraine_risk":7,"frizz_risk":0,"updated_at":"2026-05-14T02:19:39.020548+05:30"},{"city":"Indore","state":"Madhya Pradesh","latitude":22.7196,"longitude":75.8577,"temp":32.3,"humidity":28,"rain":0.0,"pressure":942.6,"uv_index":8.75,"wind_gusts":45.0,"aqi":82,"pm10":31.3,"pm2_5":22.9,"no2":8.7,"co":279.0,"o3":81.0,"so2":6.3,"mosquito_risk":0,"arthritis_risk":5,"migraine_risk":7,"frizz_risk":0,"updated_at":"2026-05-14T02:19:39.020555+05:30"},{"city":"Bhopal","state":"Madhya Pradesh","latitude":23.2599,"longitude":77.4126,"temp":31.9,"humidity":25,"rain":0.0,"pressure":947.2,"uv_index":8.75,"wind_gusts":40.0,"aqi":83,"pm10":29.3,"pm2_5":20.5,"no2":7.2,"co":233.0,"o3":69.0,"so2":5.3,"mosquito_risk":0,"arthritis_risk":5,"migraine_risk":7,"frizz_risk":0,"updated_at":"2026-05-14T02:19:39.020562+05:30"},{"city":"Jabalpur","state":"Madhya Pradesh","latitude":23.1815,"longitude":79.9864,"temp":30.0,"humidity":38,"rain":0.0,"pressure":955.4,"uv_index":8.9,"wind_gusts":34.2,"aqi":94,"pm10":85.2,"pm2_5":41.0,"no2":35.4,"co":269.0,"o3":40.0,"so2":7.9,"mosquito_risk":4,"arthritis_risk":5,"migraine_risk":7,"frizz_risk":0,"updated_at":"2026-05-14T02:19:39.020569+05:30"},{"city":"Ujjain","state":"Madhya Pradesh","latitude":23.1765,"longitude":75.7885,"temp":32.0,"humidity":27,"rain":0.0,"pressure":947.9,"uv_index":8.65,"wind_gusts":44.3,"aqi":70,"pm10":28.2,"pm2_5":19.4,"no2":3.4,"co":326.0,"o3":105.0,"so2":5.1,"mosquito_risk":0,"arthritis_risk":5,"migraine_risk":7,"frizz_risk":0,"updated_at":"2026-05-14T02:19:39.020576+05:30"},{"city":"Visakhapatnam","state":"Andhra Pradesh","latitude":17.6868,"longitude":83.2185,"temp":28.1,"humidity":83,"rain":0.0,"pressure":998.6,"uv_index":8.95,"wind_gusts":41.4,"aqi":74,"pm10":28.6,"pm2_5":26.3,"no2":24.2,"co":2108.0,"o3":19.0,"so2":83.3,"mosquito_risk":7,"arthritis_risk":5,"migraine_risk":7,"frizz_risk":1,"updated_at":"2026-05-14T02:19:39.020582+05:30"},{"city":"Vijayawada","state":"Andhra Pradesh","latitude":16.5062,"longitude":80.648,"temp":29.0,"humidity":79,"rain":0.0,"pressure":997.6,"uv_index":8.5,"wind_gusts":32.8,"aqi":53,"pm10":11.4,"pm2_5":9.7,"no2":9.7,"co":154.0,"o3":29.0,"so2":6.0,"mosquito_risk":7,"arthritis_risk":5,"migraine_risk":7,"frizz_risk":1,"updated_at":"2026-05-14T02:19:39.020589+05:30"},{"city":"Guntur","state":"Andhra Pradesh","latitude":16.3067,"longitude":80.4365,"temp":28.8,"humidity":79,"rain":0.0,"pressure":998.8,"uv_index":8.7,"wind_gusts":45.7,"aqi":53,"pm10":10.7,"pm2_5":8.8,"no2":8.1,"co":160.0,"o3":31.0,"so2":5.7,"mosquito_risk":7,"arthritis_risk":5,"migraine_risk":7,"frizz_risk":1,"updated_at":"2026-05-14T02:19:39.020596+05:30"},{"city":"Nellore","state":"Andhra Pradesh","latitude":14.4426,"longitude":79.9865,"temp":27.5,"humidity":90,"rain":0.0,"pressure":1000.1,"uv_index":8.8,"wind_gusts":39.6,"aqi":26,"pm10":9.5,"pm2_5":6.9,"no2":6.6,"co":253.0,"o3":34.0,"so2":2.3,"mosquito_risk":7,"arthritis_risk":5,"migraine_risk":4,"frizz_risk":1,"updated_at":"2026-05-14T02:19:39.020605+05:30"},{"city":"Kurnool","state":"Andhra Pradesh","latitude":15.8281,"longitude":78.0373,"temp":31.6,"humidity":39,"rain":0.0,"pressure":971.7,"uv_index":6.1,"wind_gusts":34.2,"aqi":57,"pm10":20.1,"pm2_5":15.0,"no2":9.8,"co":172.0,"o3":64.0,"so2":3.3,"mosquito_risk":0,"arthritis_risk":5,"migraine_risk":7,"frizz_risk":0,"updated_at":"2026-05-14T02:19:39.020612+05:30"},{"city":"Kakinada","state":"Andhra Pradesh","latitude":16.9891,"longitude":82.2475,"temp":28.8,"humidity":81,"rain":0.0,"pressure":1002.2,"uv_index":6.4,"wind_gusts":43.9,"aqi":32,"pm10":7.2,"pm2_5":4.5,"no2":1.4,"co":177.0,"o3":47.0,"so2":0.8,"mosquito_risk":7,"arthritis_risk":5,"migraine_risk":4,"frizz_risk":1,"updated_at":"2026-05-14T02:19:39.020619+05:30"},{"city":"Tirupati","state":"Andhra Pradesh","latitude":13.6288,"longitude":79.4192,"temp":26.5,"humidity":78,"rain":0.0,"pressure":985.3,"uv_index":9.25,"wind_gusts":37.1,"aqi":51,"pm10":25.0,"pm2_5":22.6,"no2":30.3,"co":281.0,"o3":3.0,"so2":4.4,"mosquito_risk":7,"arthritis_risk":5,"migraine_risk":7,"frizz_risk":1,"updated_at":"2026-05-14T02:19:39.020625+05:30"},{"city":"Warangal","state":"Telangana","latitude":17.9689,"longitude":79.5941,"temp":30.0,"humidity":54,"rain":0.0,"pressure":973.9,"uv_index":8.2,"wind_gusts":33.1,"aqi":70,"pm10":28.8,"pm2_5":23.6,"no2":12.4,"co":238.0,"o3":63.0,"so2":10.9,"mosquito_risk":4,"arthritis_risk":5,"migraine_risk":7,"frizz_risk":1,"updated_at":"2026-05-14T02:19:39.020632+05:30"},{"city":"Nizamabad","state":"Telangana","latitude":18.6725,"longitude":78.0941,"temp":29.5,"humidity":60,"rain":0.0,"pressure":959.6,"uv_index":8.75,"wind_gusts":29.2,"aqi":81,"pm10":40.9,"pm2_5":30.0,"no2":12.0,"co":265.0,"o3":85.0,"so2":5.8,"mosquito_risk":4,"arthritis_risk":5,"migraine_risk":7,"frizz_risk":1,"updated_at":"2026-05-14T02:19:39.020638+05:30"},{"city":"Mysore","state":"Karnataka","latitude":12.2958,"longitude":76.6396,"temp":23.6,"humidity":86,"rain":0.0,"pressure":924.0,"uv_index":8.9,"wind_gusts":42.8,"aqi":81,"pm10":24.8,"pm2_5":21.0,"no2":15.3,"co":268.0,"o3":67.0,"so2":3.2,"mosquito_risk":3,"arthritis_risk":5,"migraine_risk":7,"frizz_risk":1,"updated_at":"2026-05-14T02:19:39.020645+05:30"},{"city":"Mangalore","state":"Karnataka","latitude":12.9141,"longitude":74.856,"temp":28.1,"humidity":88,"rain":0.0,"pressure":1001.9,"uv_index":8.3,"wind_gusts":47.2,"aqi":76,"pm10":32.8,"pm2_5":23.4,"no2":17.7,"co":340.0,"o3":37.0,"so2":4.3,"mosquito_risk":7,"arthritis_risk":5,"migraine_risk":4,"frizz_risk":1,"updated_at":"2026-05-14T02:19:39.020652+05:30"},{"city":"Hubli-Dharwad","state":"Karnataka","latitude":15.3647,"longitude":75.124,"temp":24.2,"humidity":95,"rain":0.0,"pressure":936.4,"uv_index":9.15,"wind_gusts":42.8,"aqi":64,"pm10":21.7,"pm2_5":14.1,"no2":8.7,"co":185.0,"o3":53.0,"so2":2.2,"mosquito_risk":3,"arthritis_risk":5,"migraine_risk":7,"frizz_risk":1,"updated_at":"2026-05-14T02:19:39.020658+05:30"},{"city":"Belgaum","state":"Karnataka","latitude":15.8497,"longitude":74.4977,"temp":23.3,"humidity":94,"rain":0.0,"pressure":921.4,"uv_index":9.2,"wind_gusts":47.9,"aqi":61,"pm10":34.0,"pm2_5":20.8,"no2":15.2,"co":175.0,"o3":39.0,"so2":2.5,"mosquito_risk":3,"arthritis_risk":5,"migraine_risk":7,"frizz_risk":1,"updated_at":"2026-05-14T02:19:42.325030+05:30"},{"city":"Coimbatore","state":"Tamil Nadu","latitude":11.0168,"longitude":76.9558,"temp":24.6,"humidity":90,"rain":0.0,"pressure":956.3,"uv_index":8.3,"wind_gusts":40.3,"aqi":64,"pm10":22.6,"pm2_5":18.7,"no2":8.5,"co":269.0,"o3":74.0,"so2":4.0,"mosquito_risk":3,"arthritis_risk":5,"migraine_risk":7,"frizz_risk":1,"updated_at":"2026-05-14T02:19:42.325065+05:30"},{"city":"Madurai","state":"Tamil Nadu","latitude":9.9252,"longitude":78.1198,"temp":27.8,"humidity":84,"rain":0.0,"pressure":986.8,"uv_index":8.55,"wind_gusts":28.1,"aqi":76,"pm10":25.4,"pm2_5":23.6,"no2":29.3,"co":406.0,"o3":36.0,"so2":8.7,"mosquito_risk":7,"arthritis_risk":5,"migraine_risk":7,"frizz_risk":1,"updated_at":"2026-05-14T02:19:42.325077+05:30"},{"city":"Trichy","state":"Tamil Nadu","latitude":10.7905,"longitude":78.7047,"temp":27.6,"humidity":85,"rain":0.0,"pressure":993.4,"uv_index":8.1,"wind_gusts":29.5,"aqi":75,"pm10":28.5,"pm2_5":26.8,"no2":18.2,"co":330.0,"o3":60.0,"so2":7.8,"mosquito_risk":7,"arthritis_risk":5,"migraine_risk":7,"frizz_risk":1,"updated_at":"2026-05-14T02:19:42.325086+05:30"},{"city":"Salem","state":"Tamil Nadu","latitude":11.6643,"longitude":78.146,"temp":27.8,"humidity":74,"rain":0.0,"pressure":971.7,"uv_index":8.85,"wind_gusts":32.0,"aqi":88,"pm10":43.1,"pm2_5":38.0,"no2":31.4,"co":355.0,"o3":58.0,"so2":14.3,"mosquito_risk":7,"arthritis_risk":5,"migraine_risk":7,"frizz_risk":1,"updated_at":"2026-05-14T02:19:42.325094+05:30"},{"city":"Tirunelveli","state":"Tamil Nadu","latitude":8.7139,"longitude":77.7567,"temp":28.4,"humidity":71,"rain":0.0,"pressure":996.8,"uv_index":7.3,"wind_gusts":22.0,"aqi":57,"pm10":18.5,"pm2_5":14.1,"no2":7.1,"co":381.0,"o3":64.0,"so2":3.0,"mosquito_risk":7,"arthritis_risk":5,"migraine_risk":7,"frizz_risk":1,"updated_at":"2026-05-14T02:19:42.325102+05:30"},{"city":"Vellore","state":"Tamil Nadu","latitude":12.9165,"longitude":79.1325,"temp":27.0,"humidity":81,"rain":0.0,"pressure":978.9,"uv_index":7.25,"wind_gusts":31.3,"aqi":68,"pm10":35.9,"pm2_5":32.8,"no2":32.8,"co":255.0,"o3":18.0,"so2":12.1,"mosquito_risk":7,"arthritis_risk":5,"migraine_risk":7,"frizz_risk":1,"updated_at":"2026-05-14T02:19:42.325109+05:30"},{"city":"Erode","state":"Tamil Nadu","latitude":11.341,"longitude":77.7172,"temp":27.1,"humidity":80,"rain":0.0,"pressure":983.2,"uv_index":8.5,"wind_gusts":31.0,"aqi":91,"pm10":34.0,"pm2_5":28.3,"no2":31.1,"co":309.0,"o3":42.0,"so2":4.3,"mosquito_risk":7,"arthritis_risk":5,"migraine_risk":7,"frizz_risk":1,"updated_at":"2026-05-14T02:19:42.325117+05:30"},{"city":"Kochi","state":"Kerala","latitude":9.9312,"longitude":76.2673,"temp":26.9,"humidity":92,"rain":0.0,"pressure":1003.8,"uv_index":7.4,"wind_gusts":37.1,"aqi":77,"pm10":34.3,"pm2_5":29.6,"no2":27.4,"co":356.0,"o3":15.0,"so2":6.3,"mosquito_risk":7,"arthritis_risk":5,"migraine_risk":4,"frizz_risk":1,"updated_at":"2026-05-14T02:19:42.325124+05:30"},{"city":"Thiruvananthapuram","state":"Kerala","latitude":8.5241,"longitude":76.9366,"temp":26.6,"humidity":91,"rain":0.0,"pressure":1003.0,"uv_index":6.45,"wind_gusts":30.2,"aqi":52,"pm10":18.3,"pm2_5":10.8,"no2":2.8,"co":338.0,"o3":92.0,"so2":1.6,"mosquito_risk":7,"arthritis_risk":5,"migraine_risk":4,"frizz_risk":1,"updated_at":"2026-05-14T02:19:42.325131+05:30"},{"city":"Kozhikode","state":"Kerala","latitude":11.2588,"longitude":75.7804,"temp":26.2,"humidity":97,"rain":0.1,"pressure":1003.1,"uv_index":6.85,"wind_gusts":43.2,"aqi":63,"pm10":38.5,"pm2_5":22.2,"no2":4.6,"co":260.0,"o3":95.0,"so2":2.7,"mosquito_risk":10,"arthritis_risk":5,"migraine_risk":4,"frizz_risk":1,"updated_at":"2026-05-14T02:19:42.325138+05:30"},{"city":"Thrissur","state":"Kerala","latitude":10.5276,"longitude":76.2144,"temp":25.7,"humidity":97,"rain":0.0,"pressure":1002.3,"uv_index":6.5,"wind_gusts":38.9,"aqi":72,"pm10":35.3,"pm2_5":30.9,"no2":23.0,"co":378.0,"o3":26.0,"so2":5.5,"mosquito_risk":7,"arthritis_risk":5,"migraine_risk":4,"frizz_risk":1,"updated_at":"2026-05-14T02:19:42.325146+05:30"},{"city":"Kannur","state":"Kerala","latitude":11.8745,"longitude":75.3704,"temp":26.7,"humidity":94,"rain":0.1,"pressure":1002.5,"uv_index":8.9,"wind_gusts":49.0,"aqi":77,"pm10":37.4,"pm2_5":30.2,"no2":20.2,"co":387.0,"o3":37.0,"so2":3.6,"mosquito_risk":10,"arthritis_risk":5,"migraine_risk":4,"frizz_risk":1,"updated_at":"2026-05-14T02:19:42.325153+05:30"},{"city":"Patna","state":"Bihar","latitude":25.5941,"longitude":85.1376,"temp":25.1,"humidity":88,"rain":0.0,"pressure":994.9,"uv_index":8.8,"wind_gusts":36.4,"aqi":152,"pm10":36.1,"pm2_5":34.3,"no2":13.0,"co":391.0,"o3":89.0,"so2":15.4,"mosquito_risk":7,"arthritis_risk":5,"migraine_risk":7,"frizz_risk":1,"updated_at":"2026-05-14T02:19:42.325159+05:30"},{"city":"Gaya","state":"Bihar","latitude":24.7914,"longitude":85.0002,"temp":26.4,"humidity":81,"rain":0.0,"pressure":987.5,"uv_index":8.9,"wind_gusts":24.8,"aqi":154,"pm10":62.4,"pm2_5":57.2,"no2":17.1,"co":396.0,"o3":86.0,"so2":15.9,"mosquito_risk":7,"arthritis_risk":5,"migraine_risk":7,"frizz_risk":1,"updated_at":"2026-05-14T02:19:42.325166+05:30"},{"city":"Muzaffarpur","state":"Bihar","latitude":26.1209,"longitude":85.3647,"temp":23.8,"humidity":89,"rain":0.0,"pressure":995.6,"uv_index":8.8,"wind_gusts":33.1,"aqi":148,"pm10":24.9,"pm2_5":24.2,"no2":11.8,"co":414.0,"o3":84.0,"so2":9.6,"mosquito_risk":3,"arthritis_risk":5,"migraine_risk":7,"frizz_risk":1,"updated_at":"2026-05-14T02:19:42.325173+05:30"},{"city":"Bhagalpur","state":"Bihar","latitude":25.2425,"longitude":87.0117,"temp":23.7,"humidity":96,"rain":0.0,"pressure":996.6,"uv_index":8.8,"wind_gusts":33.8,"aqi":114,"pm10":48.0,"pm2_5":40.5,"no2":12.2,"co":346.0,"o3":87.0,"so2":14.7,"mosquito_risk":3,"arthritis_risk":5,"migraine_risk":7,"frizz_risk":1,"updated_at":"2026-05-14T02:19:42.325180+05:30"},{"city":"Ranchi","state":"Jharkhand","latitude":23.3441,"longitude":85.3096,"temp":23.8,"humidity":76,"rain":0.0,"pressure":932.4,"uv_index":9.3,"wind_gusts":40.7,"aqi":90,"pm10":38.9,"pm2_5":31.7,"no2":10.0,"co":326.0,"o3":109.0,"so2":26.3,"mosquito_risk":3,"arthritis_risk":5,"migraine_risk":7,"frizz_risk":1,"updated_at":"2026-05-14T02:19:42.325186+05:30"},{"city":"Jamshedpur","state":"Jharkhand","latitude":22.8046,"longitude":86.2029,"temp":27.0,"humidity":80,"rain":0.0,"pressure":985.6,"uv_index":9.15,"wind_gusts":37.1,"aqi":91,"pm10":27.3,"pm2_5":22.9,"no2":19.6,"co":309.0,"o3":57.0,"so2":20.1,"mosquito_risk":7,"arthritis_risk":5,"migraine_risk":7,"frizz_risk":1,"updated_at":"2026-05-14T02:19:42.325193+05:30"},{"city":"Dhanbad","state":"Jharkhand","latitude":23.7957,"longitude":86.4304,"temp":26.2,"humidity":91,"rain":0.0,"pressure":973.9,"uv_index":9.05,"wind_gusts":25.2,"aqi":143,"pm10":58.8,"pm2_5":51.1,"no2":42.1,"co":272.0,"o3":61.0,"so2":97.8,"mosquito_risk":7,"arthritis_risk":5,"migraine_risk":7,"frizz_risk":1,"updated_at":"2026-05-14T02:19:42.325200+05:30"},{"city":"Bokaro","state":"Jharkhand","latitude":23.6693,"longitude":86.1511,"temp":26.5,"humidity":81,"rain":0.0,"pressure":977.7,"uv_index":9.1,"wind_gusts":33.8,"aqi":140,"pm10":48.7,"pm2_5":40.6,"no2":25.2,"co":2259.0,"o3":92.0,"so2":64.2,"mosquito_risk":7,"arthritis_risk":5,"migraine_risk":7,"frizz_risk":1,"updated_at":"2026-05-14T02:19:42.325207+05:30"},{"city":"Bhubaneswar","state":"Odisha","latitude":20.2961,"longitude":85.8245,"temp":28.0,"humidity":84,"rain":0.0,"pressure":998.2,"uv_index":9.2,"wind_gusts":49.7,"aqi":36,"pm10":8.0,"pm2_5":6.9,"no2":6.1,"co":155.0,"o3":32.0,"so2":2.3,"mosquito_risk":7,"arthritis_risk":5,"migraine_risk":7,"frizz_risk":1,"updated_at":"2026-05-14T02:19:42.325214+05:30"},{"city":"Cuttack","state":"Odisha","latitude":20.4625,"longitude":85.8828,"temp":28.1,"humidity":84,"rain":0.0,"pressure":1000.0,"uv_index":9.25,"wind_gusts":48.6,"aqi":36,"pm10":8.0,"pm2_5":6.9,"no2":6.1,"co":183.0,"o3":32.0,"so2":2.3,"mosquito_risk":7,"arthritis_risk":5,"migraine_risk":4,"frizz_risk":1,"updated_at":"2026-05-14T02:19:42.325220+05:30"},{"city":"Rourkela","state":"Odisha","latitude":22.2604,"longitude":84.8536,"temp":27.0,"humidity":76,"rain":0.0,"pressure":979.6,"uv_index":9.05,"wind_gusts":48.6,"aqi":81,"pm10":30.0,"pm2_5":24.5,"no2":17.6,"co":163.0,"o3":72.0,"so2":23.7,"mosquito_risk":7,"arthritis_risk":5,"migraine_risk":7,"frizz_risk":1,"updated_at":"2026-05-14T02:19:42.325227+05:30"},{"city":"Raipur","state":"Chhattisgarh","latitude":21.2514,"longitude":81.6296,"temp":30.5,"humidity":52,"rain":0.0,"pressure":968.9,"uv_index":9.05,"wind_gusts":41.0,"aqi":106,"pm10":49.6,"pm2_5":37.1,"no2":24.3,"co":486.0,"o3":77.0,"so2":35.5,"mosquito_risk":0,"arthritis_risk":5,"migraine_risk":7,"frizz_risk":1,"updated_at":"2026-05-14T02:19:42.325234+05:30"},{"city":"Bhilai","state":"Chhattisgarh","latitude":21.1938,"longitude":81.3509,"temp":28.2,"humidity":60,"rain":0.0,"pressure":969.6,"uv_index":9.05,"wind_gusts":40.3,"aqi":99,"pm10":50.6,"pm2_5":38.6,"no2":28.6,"co":735.0,"o3":73.0,"so2":44.3,"mosquito_risk":4,"arthritis_risk":5,"migraine_risk":7,"frizz_risk":1,"updated_at":"2026-05-14T02:19:42.325241+05:30"},{"city":"Guwahati","state":"Assam","latitude":26.1158,"longitude":91.7086,"temp":21.9,"humidity":99,"rain":0.0,"pressure":998.5,"uv_index":8.55,"wind_gusts":25.2,"aqi":113,"pm10":18.7,"pm2_5":16.6,"no2":7.1,"co":375.0,"o3":76.0,"so2":1.8,"mosquito_risk":3,"arthritis_risk":5,"migraine_risk":7,"frizz_risk":1,"updated_at":"2026-05-14T02:19:42.325248+05:30"},{"city":"Agartala","state":"Tripura","latitude":23.8315,"longitude":91.2868,"temp":24.6,"humidity":95,"rain":0.0,"pressure":1001.9,"uv_index":8.85,"wind_gusts":30.2,"aqi":70,"pm10":14.7,"pm2_5":11.8,"no2":14.1,"co":219.0,"o3":31.0,"so2":1.9,"mosquito_risk":3,"arthritis_risk":5,"migraine_risk":4,"frizz_risk":1,"updated_at":"2026-05-14T02:19:42.325255+05:30"},{"city":"Shillong","state":"Meghalaya","latitude":25.5788,"longitude":91.8933,"temp":15.5,"humidity":98,"rain":0.0,"pressure":852.3,"uv_index":8.95,"wind_gusts":34.6,"aqi":62,"pm10":6.7,"pm2_5":4.4,"no2":3.6,"co":263.0,"o3":95.0,"so2":1.7,"mosquito_risk":3,"arthritis_risk":10,"migraine_risk":7,"frizz_risk":0,"updated_at":"2026-05-14T02:19:42.325262+05:30"},{"city":"Imphal","state":"Manipur","latitude":24.817,"longitude":93.9368,"temp":20.4,"humidity":99,"rain":0.0,"pressure":919.7,"uv_index":9.0,"wind_gusts":32.8,"aqi":77,"pm10":19.8,"pm2_5":19.0,"no2":16.1,"co":411.0,"o3":24.0,"so2":2.0,"mosquito_risk":3,"arthritis_risk":5,"migraine_risk":7,"frizz_risk":1,"updated_at":"2026-05-14T02:19:42.325269+05:30"},{"city":"Aizawl","state":"Mizoram","latitude":23.7271,"longitude":92.7176,"temp":16.3,"humidity":100,"rain":0.0,"pressure":888.2,"uv_index":9.1,"wind_gusts":29.5,"aqi":59,"pm10":14.0,"pm2_5":11.9,"no2":7.3,"co":227.0,"o3":44.0,"so2":2.5,"mosquito_risk":3,"arthritis_risk":10,"migraine_risk":7,"frizz_risk":1,"updated_at":"2026-05-14T02:19:42.325276+05:30"},{"city":"Kohima","state":"Nagaland","latitude":25.6701,"longitude":94.1077,"temp":15.2,"humidity":95,"rain":0.0,"pressure":850.4,"uv_index":8.7,"wind_gusts":28.8,"aqi":61,"pm10":10.5,"pm2_5":9.9,"no2":12.2,"co":250.0,"o3":39.0,"so2":1.0,"mosquito_risk":3,"arthritis_risk":10,"migraine_risk":7,"frizz_risk":0,"updated_at":"2026-05-14T02:19:42.325283+05:30"},{"city":"Gangtok","state":"Sikkim","latitude":27.3314,"longitude":88.6138,"temp":13.2,"humidity":92,"rain":0.1,"pressure":832.1,"uv_index":8.45,"wind_gusts":38.2,"aqi":68,"pm10":14.8,"pm2_5":14.1,"no2":13.4,"co":495.0,"o3":88.0,"so2":2.1,"mosquito_risk":6,"arthritis_risk":10,"migraine_risk":7,"frizz_risk":0,"updated_at":"2026-05-14T02:19:42.325289+05:30"},{"city":"Siliguri","state":"West Bengal","latitude":26.7271,"longitude":88.3953,"temp":22.0,"humidity":92,"rain":0.0,"pressure":989.5,"uv_index":8.65,"wind_gusts":27.7,"aqi":101,"pm10":34.9,"pm2_5":32.7,"no2":11.5,"co":309.0,"o3":101.0,"so2":4.5,"mosquito_risk":3,"arthritis_risk":5,"migraine_risk":7,"frizz_risk":1,"updated_at":"2026-05-14T02:19:45.625158+05:30"},{"city":"Durgapur","state":"West Bengal","latitude":23.5204,"longitude":87.3119,"temp":27.0,"humidity":89,"rain":0.0,"pressure":989.3,"uv_index":9.0,"wind_gusts":32.0,"aqi":96,"pm10":18.8,"pm2_5":17.4,"no2":22.4,"co":210.0,"o3":22.0,"so2":29.4,"mosquito_risk":7,"arthritis_risk":5,"migraine_risk":7,"frizz_risk":1,"updated_at":"2026-05-14T02:19:45.625194+05:30"},{"city":"Asansol","state":"West Bengal","latitude":23.6739,"longitude":86.9524,"temp":26.9,"humidity":88,"rain":0.0,"pressure":987.7,"uv_index":9.05,"wind_gusts":30.6,"aqi":104,"pm10":36.4,"pm2_5":31.8,"no2":28.6,"co":245.0,"o3":43.0,"so2":42.0,"mosquito_risk":7,"arthritis_risk":5,"migraine_risk":7,"frizz_risk":1,"updated_at":"2026-05-14T02:19:45.625205+05:30"},{"city":"Pondicherry","state":"Puducherry","latitude":11.9139,"longitude":79.8145,"temp":27.8,"humidity":91,"rain":0.0,"pressure":1002.2,"uv_index":8.4,"wind_gusts":35.3,"aqi":43,"pm10":9.1,"pm2_5":6.1,"no2":3.4,"co":345.0,"o3":41.0,"so2":0.9,"mosquito_risk":7,"arthritis_risk":5,"migraine_risk":4,"frizz_risk":1,"updated_at":"2026-05-14T02:19:45.625215+05:30"},{"city":"Port Blair","state":"Andaman and Nicobar Islands","latitude":11.6234,"longitude":92.7265,"temp":25.4,"humidity":97,"rain":0.0,"pressure":1002.2,"uv_index":5.7,"wind_gusts":34.9,"aqi":19,"pm10":5.5,"pm2_5":3.5,"no2":0.2,"co":101.0,"o3":44.0,"so2":0.2,"mosquito_risk":7,"arthritis_risk":5,"migraine_risk":0,"frizz_risk":1,"updated_at":"2026-05-14T02:19:45.625223+05:30"},{"city":"Haridwar","state":"Uttarakhand","latitude":29.9457,"longitude":78.1642,"temp":23.2,"humidity":77,"rain":0.0,"pressure":966.7,"uv_index":7.5,"wind_gusts":36.7,"aqi":152,"pm10":78.9,"pm2_5":60.5,"no2":29.9,"co":386.0,"o3":45.0,"so2":10.0,"mosquito_risk":3,"arthritis_risk":5,"migraine_risk":7,"frizz_risk":1,"updated_at":"2026-05-14T02:19:45.625232+05:30"},{"city":"Rishikesh","state":"Uttarakhand","latitude":30.0869,"longitude":78.2676,"temp":20.4,"humidity":84,"rain":0.0,"pressure":959.6,"uv_index":7.6,"wind_gusts":29.5,"aqi":132,"pm10":73.6,"pm2_5":49.0,"no2":19.0,"co":435.0,"o3":80.0,"so2":7.9,"mosquito_risk":3,"arthritis_risk":5,"migraine_risk":7,"frizz_risk":1,"updated_at":"2026-05-14T02:19:45.625239+05:30"},{"city":"Nainital","state":"Uttarakhand","latitude":29.3919,"longitude":79.4542,"temp":12.3,"humidity":99,"rain":0.0,"pressure":798.8,"uv_index":8.45,"wind_gusts":42.8,"aqi":140,"pm10":95.2,"pm2_5":55.8,"no2":21.4,"co":263.0,"o3":66.0,"so2":7.6,"mosquito_risk":3,"arthritis_risk":10,"migraine_risk":7,"frizz_risk":0,"updated_at":"2026-05-14T02:19:45.625248+05:30"},{"city":"Mussoorie","state":"Uttarakhand","latitude":30.4599,"longitude":78.0664,"temp":15.8,"humidity":49,"rain":0.0,"pressure":797.6,"uv_index":7.95,"wind_gusts":52.9,"aqi":121,"pm10":71.7,"pm2_5":52.2,"no2":41.5,"co":300.0,"o3":44.0,"so2":8.9,"mosquito_risk":0,"arthritis_risk":5,"migraine_risk":7,"frizz_risk":0,"updated_at":"2026-05-14T02:19:45.625256+05:30"},{"city":"Dharamshala","state":"Himachal Pradesh","latitude":32.219,"longitude":76.3234,"temp":19.7,"humidity":40,"rain":0.0,"pressure":863.9,"uv_index":8.3,"wind_gusts":45.7,"aqi":44,"pm10":14.2,"pm2_5":11.0,"no2":14.2,"co":216.0,"o3":36.0,"so2":0.2,"mosquito_risk":0,"arthritis_risk":5,"migraine_risk":7,"frizz_risk":0,"updated_at":"2026-05-14T02:19:45.625263+05:30"},{"city":"Dalhousie","state":"Himachal Pradesh","latitude":32.5387,"longitude":75.971,"temp":11.9,"humidity":58,"rain":0.0,"pressure":798.1,"uv_index":8.55,"wind_gusts":38.2,"aqi":67,"pm10":28.8,"pm2_5":24.0,"no2":45.9,"co":381.0,"o3":8.0,"so2":1.5,"mosquito_risk":0,"arthritis_risk":5,"migraine_risk":7,"frizz_risk":0,"updated_at":"2026-05-14T02:19:45.625271+05:30"},{"city":"Patiala","state":"Punjab","latitude":30.3398,"longitude":76.3869,"temp":27.0,"humidity":51,"rain":0.0,"pressure":970.6,"uv_index":7.6,"wind_gusts":52.2,"aqi":183,"pm10":146.2,"pm2_5":101.7,"no2":37.7,"co":500.0,"o3":36.0,"so2":15.2,"mosquito_risk":4,"arthritis_risk":5,"migraine_risk":7,"frizz_risk":0,"updated_at":"2026-05-14T02:19:45.625279+05:30"},{"city":"Bhatinda","state":"Punjab","latitude":30.211,"longitude":74.9455,"temp":28.2,"humidity":40,"rain":0.0,"pressure":976.2,"uv_index":8.2,"wind_gusts":47.5,"aqi":166,"pm10":139.7,"pm2_5":74.0,"no2":18.9,"co":511.0,"o3":52.0,"so2":8.1,"mosquito_risk":4,"arthritis_risk":5,"migraine_risk":7,"frizz_risk":0,"updated_at":"2026-05-14T02:19:45.625286+05:30"},{"city":"Rohtak","state":"Haryana","latitude":28.8955,"longitude":76.6066,"temp":26.6,"humidity":79,"rain":0.0,"pressure":974.0,"uv_index":7.7,"wind_gusts":23.8,"aqi":383,"pm10":332.5,"pm2_5":123.4,"no2":41.3,"co":652.0,"o3":70.0,"so2":30.6,"mosquito_risk":7,"arthritis_risk":5,"migraine_risk":7,"frizz_risk":1,"updated_at":"2026-05-14T02:19:45.625293+05:30"},{"city":"Panipat","state":"Haryana","latitude":29.3909,"longitude":76.9635,"temp":26.8,"humidity":74,"rain":0.0,"pressure":972.7,"uv_index":7.6,"wind_gusts":24.1,"aqi":574,"pm10":484.3,"pm2_5":155.5,"no2":31.0,"co":760.0,"o3":68.0,"so2":22.2,"mosquito_risk":7,"arthritis_risk":5,"migraine_risk":7,"frizz_risk":1,"updated_at":"2026-05-14T02:19:45.625300+05:30"},{"city":"Mathura","state":"Uttar Pradesh","latitude":27.4924,"longitude":77.6737,"temp":27.8,"humidity":69,"rain":0.0,"pressure":979.3,"uv_index":7.95,"wind_gusts":41.4,"aqi":474,"pm10":327.8,"pm2_5":105.9,"no2":17.0,"co":526.0,"o3":78.0,"so2":13.1,"mosquito_risk":7,"arthritis_risk":5,"migraine_risk":7,"frizz_risk":1,"updated_at":"2026-05-14T02:19:45.625307+05:30"},{"city":"Vrindavan","state":"Uttar Pradesh","latitude":27.5823,"longitude":77.7027,"temp":27.8,"humidity":69,"rain":0.0,"pressure":979.8,"uv_index":7.95,"wind_gusts":37.8,"aqi":474,"pm10":327.8,"pm2_5":105.9,"no2":17.0,"co":536.0,"o3":78.0,"so2":13.1,"mosquito_risk":7,"arthritis_risk":5,"migraine_risk":7,"frizz_risk":1,"updated_at":"2026-05-14T02:19:45.625313+05:30"},{"city":"Ayodhya","state":"Uttar Pradesh","latitude":26.7922,"longitude":82.1998,"temp":26.4,"humidity":74,"rain":0.0,"pressure":989.4,"uv_index":8.35,"wind_gusts":30.2,"aqi":153,"pm10":135.0,"pm2_5":84.3,"no2":33.8,"co":449.0,"o3":47.0,"so2":12.1,"mosquito_risk":7,"arthritis_risk":5,"migraine_risk":7,"frizz_risk":1,"updated_at":"2026-05-14T02:19:45.625320+05:30"},{"city":"Ratlam","state":"Madhya Pradesh","latitude":23.3315,"longitude":75.0367,"temp":30.2,"humidity":34,"rain":0.0,"pressure":949.3,"uv_index":8.6,"wind_gusts":41.0,"aqi":63,"pm10":31.0,"pm2_5":20.0,"no2":3.2,"co":216.0,"o3":112.0,"so2":7.4,"mosquito_risk":0,"arthritis_risk":5,"migraine_risk":7,"frizz_risk":0,"updated_at":"2026-05-14T02:19:45.625327+05:30"},{"city":"Sagar","state":"Madhya Pradesh","latitude":23.8388,"longitude":78.7378,"temp":31.5,"humidity":27,"rain":0.0,"pressure":943.7,"uv_index":8.8,"wind_gusts":35.6,"aqi":83,"pm10":47.1,"pm2_5":24.9,"no2":19.8,"co":233.0,"o3":38.0,"so2":3.7,"mosquito_risk":0,"arthritis_risk":5,"migraine_risk":7,"frizz_risk":0,"updated_at":"2026-05-14T02:19:45.625334+05:30"},{"city":"Satna","state":"Madhya Pradesh","latitude":24.6005,"longitude":80.8322,"temp":28.9,"humidity":40,"rain":0.0,"pressure":964.6,"uv_index":8.8,"wind_gusts":50.0,"aqi":109,"pm10":82.4,"pm2_5":45.8,"no2":32.7,"co":360.0,"o3":67.0,"so2":8.7,"mosquito_risk":4,"arthritis_risk":5,"migraine_risk":7,"frizz_risk":0,"updated_at":"2026-05-14T02:19:45.625341+05:30"},{"city":"Akola","state":"Maharashtra","latitude":20.7002,"longitude":77.0082,"temp":32.6,"humidity":41,"rain":0.0,"pressure":969.5,"uv_index":8.95,"wind_gusts":44.6,"aqi":95,"pm10":58.4,"pm2_5":39.2,"no2":27.3,"co":278.0,"o3":54.0,"so2":8.1,"mosquito_risk":0,"arthritis_risk":5,"migraine_risk":7,"frizz_risk":1,"updated_at":"2026-05-14T02:19:45.625348+05:30"},{"city":"Amravati","state":"Maharashtra","latitude":20.9374,"longitude":77.7796,"temp":31.8,"humidity":41,"rain":0.0,"pressure":961.9,"uv_index":8.95,"wind_gusts":48.6,"aqi":93,"pm10":47.4,"pm2_5":29.3,"no2":11.8,"co":289.0,"o3":80.0,"so2":5.2,"mosquito_risk":0,"arthritis_risk":5,"migraine_risk":7,"frizz_risk":1,"updated_at":"2026-05-14T02:19:45.625356+05:30"},{"city":"Latur","state":"Maharashtra","latitude":18.4088,"longitude":76.5604,"temp":28.8,"humidity":56,"rain":0.0,"pressure":935.3,"uv_index":9.0,"wind_gusts":33.5,"aqi":100,"pm10":52.2,"pm2_5":37.8,"no2":12.6,"co":358.0,"o3":91.0,"so2":7.3,"mosquito_risk":4,"arthritis_risk":5,"migraine_risk":7,"frizz_risk":1,"updated_at":"2026-05-14T02:19:45.625363+05:30"},{"city":"Nanded","state":"Maharashtra","latitude":19.1383,"longitude":77.3091,"temp":31.0,"humidity":48,"rain":0.0,"pressure":964.4,"uv_index":9.1,"wind_gusts":29.9,"aqi":96,"pm10":49.1,"pm2_5":34.1,"no2":17.5,"co":293.0,"o3":67.0,"so2":6.0,"mosquito_risk":0,"arthritis_risk":5,"migraine_risk":7,"frizz_risk":1,"updated_at":"2026-05-14T02:19:45.625369+05:30"},{"city":"Gulbarga","state":"Karnataka","latitude":17.3297,"longitude":76.8343,"temp":30.0,"humidity":53,"rain":0.0,"pressure":954.0,"uv_index":8.85,"wind_gusts":30.2,"aqi":80,"pm10":48.9,"pm2_5":33.5,"no2":23.7,"co":325.0,"o3":62.0,"so2":9.6,"mosquito_risk":4,"arthritis_risk":5,"migraine_risk":7,"frizz_risk":1,"updated_at":"2026-05-14T02:19:45.625375+05:30"},{"city":"Bidar","state":"Karnataka","latitude":17.9104,"longitude":77.5199,"temp":29.1,"humidity":49,"rain":0.0,"pressure":931.1,"uv_index":8.25,"wind_gusts":27.0,"aqi":75,"pm10":39.9,"pm2_5":30.4,"no2":19.2,"co":277.0,"o3":69.0,"so2":6.9,"mosquito_risk":4,"arthritis_risk":5,"migraine_risk":7,"frizz_risk":1,"updated_at":"2026-05-14T02:19:45.625381+05:30"},{"city":"Hospet","state":"Karnataka","latitude":15.2689,"longitude":76.3909,"temp":27.4,"humidity":77,"rain":0.0,"pressure":951.2,"uv_index":8.8,"wind_gusts":56.5,"aqi":82,"pm10":17.3,"pm2_5":13.4,"no2":9.1,"co":219.0,"o3":62.0,"so2":2.8,"mosquito_risk":7,"arthritis_risk":5,"migraine_risk":7,"frizz_risk":1,"updated_at":"2026-05-14T02:19:45.625389+05:30"},{"city":"Tirupur","state":"Tamil Nadu","latitude":11.1085,"longitude":77.3411,"temp":25.9,"humidity":83,"rain":0.0,"pressure":969.5,"uv_index":8.15,"wind_gusts":43.6,"aqi":87,"pm10":33.6,"pm2_5":28.1,"no2":27.8,"co":231.0,"o3":50.0,"so2":6.0,"mosquito_risk":7,"arthritis_risk":5,"migraine_risk":7,"frizz_risk":1,"updated_at":"2026-05-14T02:19:45.625396+05:30"},{"city":"Alappuzha","state":"Kerala","latitude":9.4981,"longitude":76.3388,"temp":27.4,"humidity":91,"rain":0.1,"pressure":1003.8,"uv_index":7.85,"wind_gusts":34.9,"aqi":72,"pm10":34.0,"pm2_5":24.0,"no2":14.1,"co":136.0,"o3":63.0,"so2":4.6,"mosquito_risk":10,"arthritis_risk":5,"migraine_risk":4,"frizz_risk":1,"updated_at":"2026-05-14T02:19:45.625403+05:30"},{"city":"Munnar","state":"Kerala","latitude":10.0889,"longitude":77.0595,"temp":17.2,"humidity":97,"rain":0.0,"pressure":852.3,"uv_index":7.6,"wind_gusts":26.3,"aqi":66,"pm10":20.4,"pm2_5":18.1,"no2":11.1,"co":254.0,"o3":41.0,"so2":1.5,"mosquito_risk":3,"arthritis_risk":10,"migraine_risk":7,"frizz_risk":1,"updated_at":"2026-05-14T02:19:45.625410+05:30"},{"city":"Silchar","state":"Assam","latitude":24.8333,"longitude":92.7789,"temp":23.4,"humidity":95,"rain":0.2,"pressure":1001.7,"uv_index":8.9,"wind_gusts":28.8,"aqi":95,"pm10":23.8,"pm2_5":20.7,"no2":10.1,"co":289.0,"o3":58.0,"so2":3.2,"mosquito_risk":6,"arthritis_risk":5,"migraine_risk":4,"frizz_risk":1,"updated_at":"2026-05-14T02:19:45.625417+05:30"},{"city":"Dibrugarh","state":"Assam","latitude":27.4728,"longitude":94.912,"temp":21.8,"humidity":98,"rain":0.0,"pressure":992.8,"uv_index":7.35,"wind_gusts":20.9,"aqi":72,"pm10":21.5,"pm2_5":20.4,"no2":23.0,"co":262.0,"o3":6.0,"so2":1.0,"mosquito_risk":3,"arthritis_risk":5,"migraine_risk":7,"frizz_risk":1,"updated_at":"2026-05-14T02:19:45.625423+05:30"}]