[{"city":"Delhi","state":"Delhi","latitude":28.6139,"longitude":77.209,"temp":28.8,"humidity":86,"rain":0.0,"pressure":977.2,"uv_index":6.25,"wind_gusts":29.9,"aqi":199,"pm10":251.5,"pm2_5":84.3,"no2":29.4,"co":273.0,"o3":41.0,"so2":19.8,"mosquito_risk":7,"arthritis_risk":5,"migraine_risk":7,"frizz_risk":1,"updated_at":"2026-07-20T05:30:21.361856+05:30"},{"city":"Mumbai","state":"Maharashtra","latitude":19.076,"longitude":72.8777,"temp":25.5,"humidity":93,"rain":0.2,"pressure":1005.4,"uv_index":7.4,"wind_gusts":45.0,"aqi":57,"pm10":21.5,"pm2_5":9.2,"no2":4.7,"co":124.0,"o3":45.0,"so2":4.3,"mosquito_risk":10,"arthritis_risk":5,"migraine_risk":4,"frizz_risk":1,"updated_at":"2026-07-20T05:30:21.361891+05:30"},{"city":"Bangalore","state":"Karnataka","latitude":12.9716,"longitude":77.5946,"temp":20.7,"humidity":91,"rain":0.0,"pressure":911.0,"uv_index":9.1,"wind_gusts":51.1,"aqi":49,"pm10":4.4,"pm2_5":3.3,"no2":6.2,"co":160.0,"o3":32.0,"so2":3.9,"mosquito_risk":3,"arthritis_risk":5,"migraine_risk":7,"frizz_risk":1,"updated_at":"2026-07-20T05:30:21.361907+05:30"},{"city":"Hyderabad","state":"Telangana","latitude":17.385,"longitude":78.4867,"temp":23.2,"humidity":91,"rain":0.0,"pressure":950.5,"uv_index":7.95,"wind_gusts":49.0,"aqi":40,"pm10":5.0,"pm2_5":3.7,"no2":6.7,"co":155.0,"o3":31.0,"so2":3.9,"mosquito_risk":3,"arthritis_risk":5,"migraine_risk":7,"frizz_risk":1,"updated_at":"2026-07-20T05:30:21.361917+05:30"},{"city":"Chennai","state":"Tamil Nadu","latitude":13.0827,"longitude":80.2707,"temp":27.5,"humidity":86,"rain":0.0,"pressure":1005.6,"uv_index":3.8,"wind_gusts":37.1,"aqi":75,"pm10":32.1,"pm2_5":23.2,"no2":17.9,"co":189.0,"o3":40.0,"so2":13.6,"mosquito_risk":7,"arthritis_risk":5,"migraine_risk":0,"frizz_risk":1,"updated_at":"2026-07-20T05:30:21.361925+05:30"},{"city":"Kolkata","state":"West Bengal","latitude":22.5726,"longitude":88.3639,"temp":26.9,"humidity":93,"rain":0.0,"pressure":1001.4,"uv_index":4.55,"wind_gusts":29.9,"aqi":69,"pm10":36.8,"pm2_5":27.6,"no2":10.1,"co":257.0,"o3":65.0,"so2":6.2,"mosquito_risk":7,"arthritis_risk":5,"migraine_risk":0,"frizz_risk":1,"updated_at":"2026-07-20T05:30:21.361932+05:30"},{"city":"Pune","state":"Maharashtra","latitude":18.5204,"longitude":73.8567,"temp":22.6,"humidity":89,"rain":0.0,"pressure":945.0,"uv_index":5.2,"wind_gusts":47.2,"aqi":22,"pm10":1.8,"pm2_5":1.6,"no2":5.4,"co":121.0,"o3":35.0,"so2":5.3,"mosquito_risk":3,"arthritis_risk":5,"migraine_risk":3,"frizz_risk":1,"updated_at":"2026-07-20T05:30:21.361938+05:30"},{"city":"Ahmedabad","state":"Gujarat","latitude":23.0225,"longitude":72.5714,"temp":26.8,"humidity":93,"rain":0.0,"pressure":997.3,"uv_index":6.85,"wind_gusts":34.6,"aqi":65,"pm10":19.2,"pm2_5":11.9,"no2":10.7,"co":142.0,"o3":27.0,"so2":4.9,"mosquito_risk":7,"arthritis_risk":5,"migraine_risk":7,"frizz_risk":1,"updated_at":"2026-07-20T05:30:21.361945+05:30"},{"city":"Jaipur","state":"Rajasthan","latitude":26.9124,"longitude":75.7873,"temp":29.4,"humidity":65,"rain":0.0,"pressure":954.6,"uv_index":5.35,"wind_gusts":29.5,"aqi":128,"pm10":287.8,"pm2_5":54.4,"no2":11.3,"co":179.0,"o3":44.0,"so2":5.9,"mosquito_risk":7,"arthritis_risk":5,"migraine_risk":3,"frizz_risk":1,"updated_at":"2026-07-20T05:30:21.361952+05:30"},{"city":"Lucknow","state":"Uttar Pradesh","latitude":26.8467,"longitude":80.9462,"temp":25.5,"humidity":95,"rain":0.1,"pressure":988.7,"uv_index":7.85,"wind_gusts":26.6,"aqi":142,"pm10":50.1,"pm2_5":39.7,"no2":20.2,"co":269.0,"o3":54.0,"so2":8.9,"mosquito_risk":10,"arthritis_risk":5,"migraine_risk":7,"frizz_risk":1,"updated_at":"2026-07-20T05:30:21.361962+05:30"},{"city":"Kanpur","state":"Uttar Pradesh","latitude":26.4499,"longitude":80.3319,"temp":25.9,"humidity":98,"rain":0.9,"pressure":986.7,"uv_index":7.35,"wind_gusts":32.4,"aqi":127,"pm10":40.9,"pm2_5":24.7,"no2":14.0,"co":261.0,"o3":59.0,"so2":3.1,"mosquito_risk":10,"arthritis_risk":5,"migraine_risk":7,"frizz_risk":1,"updated_at":"2026-07-20T05:30:21.361969+05:30"},{"city":"Chandigarh","state":"Chandigarh","latitude":30.7333,"longitude":76.7794,"temp":25.5,"humidity":96,"rain":0.1,"pressure":963.3,"uv_index":1.5,"wind_gusts":29.9,"aqi":162,"pm10":137.4,"pm2_5":60.8,"no2":13.5,"co":249.0,"o3":78.0,"so2":15.2,"mosquito_risk":10,"arthritis_risk":5,"migraine_risk":3,"frizz_risk":1,"updated_at":"2026-07-20T05:30:21.361976+05:30"},{"city":"Srinagar","state":"Jammu and Kashmir","latitude":34.0837,"longitude":74.7973,"temp":20.7,"humidity":98,"rain":0.1,"pressure":838.6,"uv_index":9.05,"wind_gusts":20.9,"aqi":73,"pm10":29.2,"pm2_5":26.2,"no2":14.3,"co":337.0,"o3":48.0,"so2":2.8,"mosquito_risk":6,"arthritis_risk":5,"migraine_risk":7,"frizz_risk":1,"updated_at":"2026-07-20T05:30:21.361983+05:30"},{"city":"Jammu","state":"Jammu and Kashmir","latitude":32.7266,"longitude":74.857,"temp":26.9,"humidity":95,"rain":0.1,"pressure":966.7,"uv_index":7.2,"wind_gusts":22.3,"aqi":133,"pm10":43.5,"pm2_5":25.0,"no2":12.9,"co":237.0,"o3":65.0,"so2":2.6,"mosquito_risk":10,"arthritis_risk":5,"migraine_risk":7,"frizz_risk":1,"updated_at":"2026-07-20T05:30:21.361989+05:30"},{"city":"Amritsar","state":"Punjab","latitude":31.634,"longitude":74.8723,"temp":28.9,"humidity":88,"rain":0.0,"pressure":973.9,"uv_index":7.55,"wind_gusts":36.7,"aqi":174,"pm10":208.6,"pm2_5":95.9,"no2":18.1,"co":353.0,"o3":52.0,"so2":11.9,"mosquito_risk":7,"arthritis_risk":5,"migraine_risk":7,"frizz_risk":1,"updated_at":"2026-07-20T05:30:21.361995+05:30"},{"city":"Ludhiana","state":"Punjab","latitude":30.901,"longitude":75.8573,"temp":28.3,"humidity":90,"rain":0.0,"pressure":972.1,"uv_index":7.05,"wind_gusts":35.3,"aqi":191,"pm10":341.8,"pm2_5":111.8,"no2":17.9,"co":334.0,"o3":63.0,"so2":16.5,"mosquito_risk":7,"arthritis_risk":5,"migraine_risk":7,"frizz_risk":1,"updated_at":"2026-07-20T05:30:21.362002+05:30"},{"city":"Jalandhar","state":"Punjab","latitude":31.326,"longitude":75.5762,"temp":28.2,"humidity":89,"rain":0.0,"pressure":973.0,"uv_index":2.8,"wind_gusts":36.0,"aqi":179,"pm10":375.3,"pm2_5":137.8,"no2":20.3,"co":384.0,"o3":56.0,"so2":17.8,"mosquito_risk":7,"arthritis_risk":5,"migraine_risk":3,"frizz_risk":1,"updated_at":"2026-07-20T05:30:21.362008+05:30"},{"city":"Dehradun","state":"Uttarakhand","latitude":30.6284,"longitude":78.0322,"temp":18.3,"humidity":100,"rain":0.0,"pressure":827.4,"uv_index":0.8,"wind_gusts":19.4,"aqi":54,"pm10":29.1,"pm2_5":12.5,"no2":8.2,"co":245.0,"o3":68.0,"so2":1.6,"mosquito_risk":3,"arthritis_risk":10,"migraine_risk":3,"frizz_risk":1,"updated_at":"2026-07-20T05:30:21.362014+05:30"},{"city":"Shimla","state":"Himachal Pradesh","latitude":31.1048,"longitude":77.1734,"temp":16.4,"humidity":99,"rain":0.1,"pressure":781.7,"uv_index":4.4,"wind_gusts":26.6,"aqi":80,"pm10":87.3,"pm2_5":34.2,"no2":4.7,"co":208.0,"o3":95.0,"so2":4.4,"mosquito_risk":6,"arthritis_risk":10,"migraine_risk":3,"frizz_risk":1,"updated_at":"2026-07-20T05:30:21.362022+05:30"},{"city":"Manali","state":"Himachal Pradesh","latitude":32.2396,"longitude":77.1887,"temp":19.6,"humidity":98,"rain":0.0,"pressure":815.8,"uv_index":8.6,"wind_gusts":31.0,"aqi":41,"pm10":6.5,"pm2_5":5.9,"no2":9.8,"co":182.0,"o3":53.0,"so2":0.2,"mosquito_risk":3,"arthritis_risk":10,"migraine_risk":7,"frizz_risk":1,"updated_at":"2026-07-20T05:30:21.362030+05:30"},{"city":"Gurgaon","state":"Haryana","latitude":28.4595,"longitude":77.0266,"temp":28.9,"humidity":79,"rain":0.0,"pressure":975.4,"uv_index":5.4,"wind_gusts":25.2,"aqi":354,"pm10":437.7,"pm2_5":108.3,"no2":17.4,"co":269.0,"o3":54.0,"so2":9.8,"mosquito_risk":7,"arthritis_risk":5,"migraine_risk":3,"frizz_risk":1,"updated_at":"2026-07-20T05:30:21.362037+05:30"},{"city":"Noida","state":"Uttar Pradesh","latitude":28.5355,"longitude":77.391,"temp":27.7,"humidity":91,"rain":0.0,"pressure":978.7,"uv_index":5.25,"wind_gusts":35.6,"aqi":354,"pm10":437.7,"pm2_5":108.3,"no2":17.4,"co":273.0,"o3":54.0,"so2":9.8,"mosquito_risk":7,"arthritis_risk":5,"migraine_risk":3,"frizz_risk":1,"updated_at":"2026-07-20T05:30:21.362043+05:30"},{"city":"Ghaziabad","state":"Uttar Pradesh","latitude":28.6692,"longitude":77.4538,"temp":27.5,"humidity":94,"rain":0.0,"pressure":977.1,"uv_index":5.45,"wind_gusts":32.0,"aqi":175,"pm10":117.1,"pm2_5":49.9,"no2":19.6,"co":366.0,"o3":45.0,"so2":6.9,"mosquito_risk":7,"arthritis_risk":5,"migraine_risk":3,"frizz_risk":1,"updated_at":"2026-07-20T05:30:21.362049+05:30"},{"city":"Faridabad","state":"Haryana","latitude":28.4089,"longitude":77.3178,"temp":28.1,"humidity":89,"rain":0.0,"pressure":977.8,"uv_index":4.35,"wind_gusts":36.7,"aqi":354,"pm10":437.7,"pm2_5":108.3,"no2":17.4,"co":270.0,"o3":54.0,"so2":9.8,"mosquito_risk":7,"arthritis_risk":5,"migraine_risk":3,"frizz_risk":1,"updated_at":"2026-07-20T05:30:21.362055+05:30"},{"city":"Meerut","state":"Uttar Pradesh","latitude":28.9845,"longitude":77.7064,"temp":26.1,"humidity":98,"rain":0.0,"pressure":976.3,"uv_index":5.75,"wind_gusts":30.6,"aqi":175,"pm10":117.1,"pm2_5":49.9,"no2":19.6,"co":396.0,"o3":45.0,"so2":6.9,"mosquito_risk":7,"arthritis_risk":5,"migraine_risk":3,"frizz_risk":1,"updated_at":"2026-07-20T05:30:21.362060+05:30"},{"city":"Agra","state":"Uttar Pradesh","latitude":27.1767,"longitude":78.0081,"temp":27.8,"humidity":87,"rain":0.0,"pressure":981.9,"uv_index":2.5,"wind_gusts":30.2,"aqi":102,"pm10":27.4,"pm2_5":17.6,"no2":10.7,"co":181.0,"o3":60.0,"so2":5.8,"mosquito_risk":7,"arthritis_risk":5,"migraine_risk":3,"frizz_risk":1,"updated_at":"2026-07-20T05:30:21.362066+05:30"},{"city":"Varanasi","state":"Uttar Pradesh","latitude":25.3176,"longitude":82.9739,"temp":25.8,"humidity":96,"rain":0.4,"pressure":992.9,"uv_index":8.0,"wind_gusts":25.9,"aqi":112,"pm10":57.5,"pm2_5":56.0,"no2":30.3,"co":637.0,"o3":41.0,"so2":19.7,"mosquito_risk":10,"arthritis_risk":5,"migraine_risk":7,"frizz_risk":1,"updated_at":"2026-07-20T05:30:21.362072+05:30"},{"city":"Prayagraj","state":"Uttar Pradesh","latitude":25.4358,"longitude":81.8463,"temp":26.7,"humidity":96,"rain":0.1,"pressure":991.4,"uv_index":7.3,"wind_gusts":29.9,"aqi":123,"pm10":55.3,"pm2_5":53.0,"no2":38.7,"co":210.0,"o3":14.0,"so2":11.0,"mosquito_risk":10,"arthritis_risk":5,"migraine_risk":7,"frizz_risk":1,"updated_at":"2026-07-20T05:30:21.362079+05:30"},{"city":"Gorakhpur","state":"Uttar Pradesh","latitude":26.7606,"longitude":83.3732,"temp":25.4,"humidity":97,"rain":0.1,"pressure":993.1,"uv_index":8.4,"wind_gusts":24.1,"aqi":72,"pm10":16.1,"pm2_5":16.0,"no2":11.4,"co":370.0,"o3":78.0,"so2":6.8,"mosquito_risk":10,"arthritis_risk":5,"migraine_risk":7,"frizz_risk":1,"updated_at":"2026-07-20T05:30:21.362085+05:30"},{"city":"Bareilly","state":"Uttar Pradesh","latitude":28.367,"longitude":79.4304,"temp":25.7,"humidity":97,"rain":0.1,"pressure":982.0,"uv_index":5.6,"wind_gusts":27.4,"aqi":115,"pm10":26.7,"pm2_5":20.3,"no2":12.6,"co":262.0,"o3":77.0,"so2":7.9,"mosquito_risk":10,"arthritis_risk":5,"migraine_risk":3,"frizz_risk":1,"updated_at":"2026-07-20T05:30:21.362092+05:30"},{"city":"Aligarh","state":"Uttar Pradesh","latitude":27.8974,"longitude":78.088,"temp":27.7,"humidity":95,"rain":0.0,"pressure":979.9,"uv_index":3.6,"wind_gusts":21.6,"aqi":160,"pm10":68.5,"pm2_5":33.5,"no2":14.8,"co":226.0,"o3":57.0,"so2":5.7,"mosquito_risk":7,"arthritis_risk":5,"migraine_risk":3,"frizz_risk":1,"updated_at":"2026-07-20T05:30:21.362098+05:30"},{"city":"Moradabad","state":"Uttar Pradesh","latitude":28.8386,"longitude":78.7733,"temp":25.8,"humidity":98,"rain":0.1,"pressure":979.1,"uv_index":5.25,"wind_gusts":24.8,"aqi":144,"pm10":28.9,"pm2_5":15.5,"no2":7.6,"co":281.0,"o3":92.0,"so2":6.2,"mosquito_risk":10,"arthritis_risk":5,"migraine_risk":3,"frizz_risk":1,"updated_at":"2026-07-20T05:30:21.362104+05:30"},{"city":"Saharanpur","state":"Uttar Pradesh","latitude":29.9637,"longitude":77.546,"temp":25.0,"humidity":98,"rain":0.2,"pressure":971.0,"uv_index":4.9,"wind_gusts":27.0,"aqi":160,"pm10":44.0,"pm2_5":28.1,"no2":8.0,"co":250.0,"o3":81.0,"so2":10.4,"mosquito_risk":10,"arthritis_risk":5,"migraine_risk":3,"frizz_risk":1,"updated_at":"2026-07-20T05:30:21.362110+05:30"},{"city":"Jhansi","state":"Uttar Pradesh","latitude":25.4484,"longitude":78.5685,"temp":26.6,"humidity":93,"rain":0.0,"pressure":972.9,"uv_index":3.3,"wind_gusts":29.5,"aqi":86,"pm10":20.9,"pm2_5":16.4,"no2":11.5,"co":202.0,"o3":50.0,"so2":3.7,"mosquito_risk":7,"arthritis_risk":5,"migraine_risk":3,"frizz_risk":1,"updated_at":"2026-07-20T05:30:25.189326+05:30"},{"city":"Surat","state":"Gujarat","latitude":21.1702,"longitude":72.8311,"temp":25.5,"humidity":95,"rain":0.0,"pressure":1002.5,"uv_index":6.55,"wind_gusts":49.3,"aqi":66,"pm10":18.6,"pm2_5":13.9,"no2":22.5,"co":260.0,"o3":21.0,"so2":31.2,"mosquito_risk":7,"arthritis_risk":5,"migraine_risk":4,"frizz_risk":1,"updated_at":"2026-07-20T05:30:25.189353+05:30"},{"city":"Vadodara","state":"Gujarat","latitude":22.3072,"longitude":73.1812,"temp":25.9,"humidity":95,"rain":0.0,"pressure":999.9,"uv_index":7.05,"wind_gusts":45.0,"aqi":64,"pm10":16.0,"pm2_5":11.2,"no2":14.5,"co":128.0,"o3":25.0,"so2":12.8,"mosquito_risk":7,"arthritis_risk":5,"migraine_risk":7,"frizz_risk":1,"updated_at":"2026-07-20T05:30:25.189363+05:30"},{"city":"Rajkot","state":"Gujarat","latitude":22.3039,"longitude":70.8022,"temp":25.9,"humidity":88,"rain":0.1,"pressure":989.1,"uv_index":6.6,"wind_gusts":51.1,"aqi":59,"pm10":17.3,"pm2_5":8.2,"no2":5.1,"co":102.0,"o3":37.0,"so2":3.8,"mosquito_risk":10,"arthritis_risk":5,"migraine_risk":7,"frizz_risk":1,"updated_at":"2026-07-20T05:30:25.189370+05:30"},{"city":"Thane","state":"Maharashtra","latitude":19.2183,"longitude":72.9781,"temp":24.4,"humidity":99,"rain":0.1,"pressure":1004.9,"uv_index":7.5,"wind_gusts":42.8,"aqi":57,"pm10":21.5,"pm2_5":9.2,"no2":4.7,"co":137.0,"o3":45.0,"so2":4.3,"mosquito_risk":6,"arthritis_risk":5,"migraine_risk":4,"frizz_risk":1,"updated_at":"2026-07-20T05:30:25.189377+05:30"},{"city":"Nagpur","state":"Maharashtra","latitude":21.1458,"longitude":79.0882,"temp":25.4,"humidity":90,"rain":0.0,"pressure":969.0,"uv_index":7.6,"wind_gusts":34.6,"aqi":67,"pm10":20.0,"pm2_5":16.8,"no2":15.3,"co":208.0,"o3":30.0,"so2":9.8,"mosquito_risk":7,"arthritis_risk":5,"migraine_risk":7,"frizz_risk":1,"updated_at":"2026-07-20T05:30:25.189384+05:30"},{"city":"Nashik","state":"Maharashtra","latitude":19.9975,"longitude":73.7898,"temp":22.1,"humidity":97,"rain":0.0,"pressure":941.6,"uv_index":7.35,"wind_gusts":51.8,"aqi":22,"pm10":3.4,"pm2_5":2.4,"no2":8.0,"co":123.0,"o3":32.0,"so2":9.3,"mosquito_risk":3,"arthritis_risk":5,"migraine_risk":7,"frizz_risk":1,"updated_at":"2026-07-20T05:30:25.189391+05:30"},{"city":"Aurangabad","state":"Maharashtra","latitude":19.8762,"longitude":75.3433,"temp":22.9,"humidity":90,"rain":0.0,"pressure":940.6,"uv_index":6.9,"wind_gusts":48.2,"aqi":32,"pm10":5.4,"pm2_5":3.6,"no2":8.2,"co":132.0,"o3":30.0,"so2":8.7,"mosquito_risk":3,"arthritis_risk":5,"migraine_risk":7,"frizz_risk":1,"updated_at":"2026-07-20T05:30:25.189397+05:30"},{"city":"Solapur","state":"Maharashtra","latitude":17.6599,"longitude":75.9064,"temp":23.8,"humidity":86,"rain":0.0,"pressure":955.0,"uv_index":7.3,"wind_gusts":53.3,"aqi":35,"pm10":3.7,"pm2_5":3.3,"no2":6.9,"co":127.0,"o3":28.0,"so2":2.5,"mosquito_risk":3,"arthritis_risk":5,"migraine_risk":7,"frizz_risk":1,"updated_at":"2026-07-20T05:30:25.189404+05:30"},{"city":"Kolhapur","state":"Maharashtra","latitude":16.705,"longitude":74.2433,"temp":22.0,"humidity":93,"rain":0.0,"pressure":946.2,"uv_index":8.75,"wind_gusts":53.6,"aqi":27,"pm10":2.3,"pm2_5":2.1,"no2":3.4,"co":104.0,"o3":36.0,"so2":1.9,"mosquito_risk":3,"arthritis_risk":5,"migraine_risk":7,"frizz_risk":1,"updated_at":"2026-07-20T05:30:25.189410+05:30"},{"city":"Goa","state":"Goa","latitude":15.2993,"longitude":74.124,"temp":23.6,"humidity":99,"rain":0.1,"pressure":997.9,"uv_index":5.1,"wind_gusts":36.0,"aqi":59,"pm10":23.2,"pm2_5":12.8,"no2":3.2,"co":215.0,"o3":41.0,"so2":1.1,"mosquito_risk":6,"arthritis_risk":5,"migraine_risk":3,"frizz_risk":1,"updated_at":"2026-07-20T05:30:25.189417+05:30"},{"city":"Jodhpur","state":"Rajasthan","latitude":26.2389,"longitude":73.0243,"temp":29.3,"humidity":66,"rain":0.0,"pressure":977.3,"uv_index":7.05,"wind_gusts":40.0,"aqi":90,"pm10":109.0,"pm2_5":27.6,"no2":6.5,"co":122.0,"o3":50.0,"so2":3.7,"mosquito_risk":7,"arthritis_risk":5,"migraine_risk":7,"frizz_risk":1,"updated_at":"2026-07-20T05:30:25.189423+05:30"},{"city":"Udaipur","state":"Rajasthan","latitude":24.5854,"longitude":73.7125,"temp":24.8,"humidity":87,"rain":0.0,"pressure":941.6,"uv_index":6.75,"wind_gusts":29.5,"aqi":65,"pm10":24.7,"pm2_5":15.0,"no2":10.3,"co":117.0,"o3":40.0,"so2":12.8,"mosquito_risk":3,"arthritis_risk":5,"migraine_risk":7,"frizz_risk":1,"updated_at":"2026-07-20T05:30:25.189430+05:30"},{"city":"Kota","state":"Rajasthan","latitude":25.2138,"longitude":75.8648,"temp":26.7,"humidity":90,"rain":0.2,"pressure":973.9,"uv_index":1.05,"wind_gusts":21.6,"aqi":76,"pm10":28.2,"pm2_5":19.6,"no2":8.5,"co":166.0,"o3":64.0,"so2":6.6,"mosquito_risk":10,"arthritis_risk":5,"migraine_risk":3,"frizz_risk":1,"updated_at":"2026-07-20T05:30:25.189436+05:30"},{"city":"Bikaner","state":"Rajasthan","latitude":28.0229,"longitude":73.3119,"temp":31.3,"humidity":52,"rain":0.0,"pressure":975.4,"uv_index":7.85,"wind_gusts":39.6,"aqi":112,"pm10":60.8,"pm2_5":24.5,"no2":2.2,"co":110.0,"o3":56.0,"so2":1.5,"mosquito_risk":0,"arthritis_risk":5,"migraine_risk":7,"frizz_risk":1,"updated_at":"2026-07-20T05:30:25.189443+05:30"},{"city":"Ajmer","state":"Rajasthan","latitude":26.4499,"longitude":74.6399,"temp":28.1,"humidity":63,"rain":0.0,"pressure":949.6,"uv_index":7.85,"wind_gusts":37.4,"aqi":68,"pm10":24.2,"pm2_5":16.0,"no2":9.1,"co":146.0,"o3":48.0,"so2":5.0,"mosquito_risk":7,"arthritis_risk":5,"migraine_risk":7,"frizz_risk":1,"updated_at":"2026-07-20T05:30:25.189449+05:30"},{"city":"Gwalior","state":"Madhya Pradesh","latitude":26.2183,"longitude":78.1828,"temp":26.8,"humidity":94,"rain":0.2,"pressure":977.6,"uv_index":1.25,"wind_gusts":24.1,"aqi":80,"pm10":21.8,"pm2_5":15.5,"no2":8.8,"co":176.0,"o3":60.0,"so2":8.8,"mosquito_risk":10,"arthritis_risk":5,"migraine_risk":3,"frizz_risk":1,"updated_at":"2026-07-20T05:30:25.189455+05:30"},{"city":"Indore","state":"Madhya Pradesh","latitude":22.7196,"longitude":75.8577,"temp":24.4,"humidity":89,"rain":0.0,"pressure":944.1,"uv_index":3.95,"wind_gusts":37.1,"aqi":61,"pm10":14.7,"pm2_5":11.7,"no2":10.3,"co":168.0,"o3":34.0,"so2":9.2,"mosquito_risk":3,"arthritis_risk":5,"migraine_risk":3,"frizz_risk":1,"updated_at":"2026-07-20T05:30:25.189461+05:30"},{"city":"Bhopal","state":"Madhya Pradesh","latitude":23.2599,"longitude":77.4126,"temp":24.3,"humidity":95,"rain":0.3,"pressure":949.6,"uv_index":5.5,"wind_gusts":29.2,"aqi":70,"pm10":22.8,"pm2_5":17.9,"no2":10.3,"co":178.0,"o3":46.0,"so2":3.9,"mosquito_risk":6,"arthritis_risk":5,"migraine_risk":3,"frizz_risk":1,"updated_at":"2026-07-20T05:30:25.189467+05:30"},{"city":"Jabalpur","state":"Madhya Pradesh","latitude":23.1815,"longitude":79.9864,"temp":24.2,"humidity":97,"rain":0.3,"pressure":957.3,"uv_index":4.8,"wind_gusts":25.9,"aqi":85,"pm10":29.3,"pm2_5":21.5,"no2":6.5,"co":222.0,"o3":70.0,"so2":2.9,"mosquito_risk":6,"arthritis_risk":5,"migraine_risk":3,"frizz_risk":1,"updated_at":"2026-07-20T05:30:25.189473+05:30"},{"city":"Ujjain","state":"Madhya Pradesh","latitude":23.1765,"longitude":75.7885,"temp":24.5,"humidity":90,"rain":0.0,"pressure":949.6,"uv_index":6.3,"wind_gusts":34.2,"aqi":62,"pm10":12.9,"pm2_5":10.2,"no2":9.6,"co":194.0,"o3":34.0,"so2":9.9,"mosquito_risk":3,"arthritis_risk":5,"migraine_risk":7,"frizz_risk":1,"updated_at":"2026-07-20T05:30:25.189520+05:30"},{"city":"Visakhapatnam","state":"Andhra Pradesh","latitude":17.6868,"longitude":83.2185,"temp":25.7,"humidity":96,"rain":0.0,"pressure":999.2,"uv_index":8.15,"wind_gusts":38.2,"aqi":79,"pm10":24.6,"pm2_5":19.9,"no2":19.6,"co":282.0,"o3":38.0,"so2":30.0,"mosquito_risk":7,"arthritis_risk":5,"migraine_risk":7,"frizz_risk":1,"updated_at":"2026-07-20T05:30:25.189529+05:30"},{"city":"Vijayawada","state":"Andhra Pradesh","latitude":16.5062,"longitude":80.648,"temp":27.6,"humidity":73,"rain":0.0,"pressure":999.8,"uv_index":6.35,"wind_gusts":41.4,"aqi":60,"pm10":16.3,"pm2_5":12.1,"no2":7.7,"co":158.0,"o3":40.0,"so2":3.2,"mosquito_risk":7,"arthritis_risk":5,"migraine_risk":7,"frizz_risk":1,"updated_at":"2026-07-20T05:30:25.189536+05:30"},{"city":"Guntur","state":"Andhra Pradesh","latitude":16.3067,"longitude":80.4365,"temp":27.3,"humidity":75,"rain":0.0,"pressure":1001.2,"uv_index":5.6,"wind_gusts":51.8,"aqi":56,"pm10":12.4,"pm2_5":9.1,"no2":7.3,"co":168.0,"o3":40.0,"so2":4.4,"mosquito_risk":7,"arthritis_risk":5,"migraine_risk":0,"frizz_risk":1,"updated_at":"2026-07-20T05:30:25.189543+05:30"},{"city":"Nellore","state":"Andhra Pradesh","latitude":14.4426,"longitude":79.9865,"temp":28.2,"humidity":71,"rain":0.0,"pressure":1004.0,"uv_index":8.1,"wind_gusts":34.9,"aqi":63,"pm10":20.0,"pm2_5":11.8,"no2":6.9,"co":161.0,"o3":38.0,"so2":4.9,"mosquito_risk":7,"arthritis_risk":5,"migraine_risk":4,"frizz_risk":1,"updated_at":"2026-07-20T05:30:25.189550+05:30"},{"city":"Kurnool","state":"Andhra Pradesh","latitude":15.8281,"longitude":78.0373,"temp":24.8,"humidity":86,"rain":0.0,"pressure":975.6,"uv_index":8.5,"wind_gusts":70.2,"aqi":42,"pm10":3.5,"pm2_5":2.8,"no2":7.5,"co":124.0,"o3":29.0,"so2":1.9,"mosquito_risk":3,"arthritis_risk":5,"migraine_risk":7,"frizz_risk":1,"updated_at":"2026-07-20T05:30:25.189557+05:30"},{"city":"Kakinada","state":"Andhra Pradesh","latitude":16.9891,"longitude":82.2475,"temp":27.3,"humidity":80,"rain":0.0,"pressure":1004.0,"uv_index":6.85,"wind_gusts":46.8,"aqi":65,"pm10":23.9,"pm2_5":17.6,"no2":7.4,"co":173.0,"o3":60.0,"so2":5.6,"mosquito_risk":7,"arthritis_risk":5,"migraine_risk":4,"frizz_risk":1,"updated_at":"2026-07-20T05:30:25.189563+05:30"},{"city":"Tirupati","state":"Andhra Pradesh","latitude":13.6288,"longitude":79.4192,"temp":27.1,"humidity":68,"rain":0.0,"pressure":989.7,"uv_index":3.9,"wind_gusts":34.9,"aqi":62,"pm10":30.0,"pm2_5":18.0,"no2":18.6,"co":114.0,"o3":15.0,"so2":2.6,"mosquito_risk":7,"arthritis_risk":5,"migraine_risk":3,"frizz_risk":1,"updated_at":"2026-07-20T05:30:25.189570+05:30"},{"city":"Warangal","state":"Telangana","latitude":17.9689,"longitude":79.5941,"temp":25.0,"humidity":86,"rain":0.0,"pressure":975.4,"uv_index":7.3,"wind_gusts":40.7,"aqi":57,"pm10":8.1,"pm2_5":6.5,"no2":6.9,"co":145.0,"o3":35.0,"so2":2.3,"mosquito_risk":7,"arthritis_risk":5,"migraine_risk":7,"frizz_risk":1,"updated_at":"2026-07-20T05:30:25.189576+05:30"},{"city":"Nizamabad","state":"Telangana","latitude":18.6725,"longitude":78.0941,"temp":23.5,"humidity":93,"rain":0.0,"pressure":961.7,"uv_index":5.35,"wind_gusts":45.4,"aqi":51,"pm10":5.3,"pm2_5":4.2,"no2":8.0,"co":142.0,"o3":30.0,"so2":5.5,"mosquito_risk":3,"arthritis_risk":5,"migraine_risk":3,"frizz_risk":1,"updated_at":"2026-07-20T05:30:25.189581+05:30"},{"city":"Mysore","state":"Karnataka","latitude":12.2958,"longitude":76.6396,"temp":20.6,"humidity":93,"rain":0.0,"pressure":928.3,"uv_index":8.0,"wind_gusts":49.3,"aqi":35,"pm10":2.4,"pm2_5":1.9,"no2":4.1,"co":109.0,"o3":32.0,"so2":1.8,"mosquito_risk":3,"arthritis_risk":5,"migraine_risk":7,"frizz_risk":1,"updated_at":"2026-07-20T05:30:25.189587+05:30"},{"city":"Mangalore","state":"Karnataka","latitude":12.9141,"longitude":74.856,"temp":23.4,"humidity":98,"rain":0.1,"pressure":1008.2,"uv_index":8.5,"wind_gusts":39.6,"aqi":55,"pm10":18.6,"pm2_5":9.3,"no2":4.0,"co":118.0,"o3":35.0,"so2":1.8,"mosquito_risk":6,"arthritis_risk":0,"migraine_risk":4,"frizz_risk":1,"updated_at":"2026-07-20T05:30:25.189593+05:30"},{"city":"Hubli-Dharwad","state":"Karnataka","latitude":15.3647,"longitude":75.124,"temp":21.9,"humidity":95,"rain":0.0,"pressure":939.9,"uv_index":7.35,"wind_gusts":57.6,"aqi":24,"pm10":1.5,"pm2_5":1.0,"no2":2.3,"co":96.0,"o3":37.0,"so2":1.0,"mosquito_risk":3,"arthritis_risk":5,"migraine_risk":7,"frizz_risk":1,"updated_at":"2026-07-20T05:30:25.189600+05:30"},{"city":"Belgaum","state":"Karnataka","latitude":15.8497,"longitude":74.4977,"temp":21.0,"humidity":98,"rain":0.1,"pressure":924.2,"uv_index":8.75,"wind_gusts":54.0,"aqi":23,"pm10":2.3,"pm2_5":1.7,"no2":3.2,"co":116.0,"o3":36.0,"so2":1.6,"mosquito_risk":6,"arthritis_risk":5,"migraine_risk":7,"frizz_risk":1,"updated_at":"2026-07-20T05:30:28.600392+05:30"},{"city":"Coimbatore","state":"Tamil Nadu","latitude":11.0168,"longitude":76.9558,"temp":22.5,"humidity":94,"rain":0.0,"pressure":961.8,"uv_index":8.7,"wind_gusts":51.5,"aqi":40,"pm10":6.4,"pm2_5":4.6,"no2":5.5,"co":136.0,"o3":28.0,"so2":2.7,"mosquito_risk":3,"arthritis_risk":5,"migraine_risk":7,"frizz_risk":1,"updated_at":"2026-07-20T05:30:28.600436+05:30"},{"city":"Madurai","state":"Tamil Nadu","latitude":9.9252,"longitude":78.1198,"temp":27.2,"humidity":68,"rain":0.0,"pressure":992.7,"uv_index":8.15,"wind_gusts":37.4,"aqi":66,"pm10":22.5,"pm2_5":19.6,"no2":27.4,"co":143.0,"o3":3.0,"so2":5.5,"mosquito_risk":7,"arthritis_risk":5,"migraine_risk":7,"frizz_risk":1,"updated_at":"2026-07-20T05:30:28.600450+05:30"},{"city":"Trichy","state":"Tamil Nadu","latitude":10.7905,"longitude":78.7047,"temp":27.0,"humidity":73,"rain":0.0,"pressure":999.3,"uv_index":6.05,"wind_gusts":51.5,"aqi":53,"pm10":9.0,"pm2_5":5.9,"no2":4.8,"co":109.0,"o3":33.0,"so2":2.6,"mosquito_risk":7,"arthritis_risk":5,"migraine_risk":7,"frizz_risk":1,"updated_at":"2026-07-20T05:30:28.600460+05:30"},{"city":"Salem","state":"Tamil Nadu","latitude":11.6643,"longitude":78.146,"temp":24.1,"humidity":95,"rain":0.0,"pressure":977.5,"uv_index":8.1,"wind_gusts":31.7,"aqi":58,"pm10":17.5,"pm2_5":13.6,"no2":17.3,"co":310.0,"o3":20.0,"so2":7.8,"mosquito_risk":3,"arthritis_risk":5,"migraine_risk":7,"frizz_risk":1,"updated_at":"2026-07-20T05:30:28.600469+05:30"},{"city":"Tirunelveli","state":"Tamil Nadu","latitude":8.7139,"longitude":77.7567,"temp":27.7,"humidity":69,"rain":0.0,"pressure":1003.5,"uv_index":7.55,"wind_gusts":44.3,"aqi":34,"pm10":6.9,"pm2_5":5.0,"no2":5.4,"co":122.0,"o3":30.0,"so2":2.1,"mosquito_risk":7,"arthritis_risk":5,"migraine_risk":4,"frizz_risk":1,"updated_at":"2026-07-20T05:30:28.600506+05:30"},{"city":"Vellore","state":"Tamil Nadu","latitude":12.9165,"longitude":79.1325,"temp":27.6,"humidity":64,"rain":0.0,"pressure":983.2,"uv_index":8.8,"wind_gusts":43.9,"aqi":74,"pm10":23.4,"pm2_5":17.2,"no2":17.4,"co":126.0,"o3":21.0,"so2":4.5,"mosquito_risk":7,"arthritis_risk":5,"migraine_risk":7,"frizz_risk":1,"updated_at":"2026-07-20T05:30:28.600518+05:30"},{"city":"Erode","state":"Tamil Nadu","latitude":11.341,"longitude":77.7172,"temp":24.6,"humidity":84,"rain":0.0,"pressure":989.3,"uv_index":7.85,"wind_gusts":33.8,"aqi":53,"pm10":11.6,"pm2_5":9.3,"no2":11.7,"co":133.0,"o3":26.0,"so2":3.6,"mosquito_risk":3,"arthritis_risk":5,"migraine_risk":7,"frizz_risk":1,"updated_at":"2026-07-20T05:30:28.600527+05:30"},{"city":"Kochi","state":"Kerala","latitude":9.9312,"longitude":76.2673,"temp":24.1,"humidity":96,"rain":0.1,"pressure":1011.0,"uv_index":8.0,"wind_gusts":35.3,"aqi":53,"pm10":12.7,"pm2_5":7.6,"no2":6.4,"co":128.0,"o3":29.0,"so2":2.8,"mosquito_risk":6,"arthritis_risk":0,"migraine_risk":4,"frizz_risk":1,"updated_at":"2026-07-20T05:30:28.600536+05:30"},{"city":"Thiruvananthapuram","state":"Kerala","latitude":8.5241,"longitude":76.9366,"temp":23.4,"humidity":99,"rain":0.0,"pressure":1009.9,"uv_index":7.6,"wind_gusts":45.0,"aqi":47,"pm10":13.0,"pm2_5":6.6,"no2":2.8,"co":129.0,"o3":44.0,"so2":1.7,"mosquito_risk":3,"arthritis_risk":0,"migraine_risk":4,"frizz_risk":1,"updated_at":"2026-07-20T05:30:28.600545+05:30"},{"city":"Kozhikode","state":"Kerala","latitude":11.2588,"longitude":75.7804,"temp":23.5,"humidity":99,"rain":0.0,"pressure":1009.9,"uv_index":8.05,"wind_gusts":32.4,"aqi":35,"pm10":13.7,"pm2_5":5.5,"no2":1.1,"co":134.0,"o3":49.0,"so2":0.9,"mosquito_risk":3,"arthritis_risk":0,"migraine_risk":4,"frizz_risk":1,"updated_at":"2026-07-20T05:30:28.600554+05:30"},{"city":"Thrissur","state":"Kerala","latitude":10.5276,"longitude":76.2144,"temp":23.7,"humidity":99,"rain":0.1,"pressure":1009.1,"uv_index":8.55,"wind_gusts":37.4,"aqi":52,"pm10":12.0,"pm2_5":7.3,"no2":4.5,"co":135.0,"o3":33.0,"so2":1.8,"mosquito_risk":6,"arthritis_risk":0,"migraine_risk":4,"frizz_risk":1,"updated_at":"2026-07-20T05:30:28.600563+05:30"},{"city":"Kannur","state":"Kerala","latitude":11.8745,"longitude":75.3704,"temp":23.4,"humidity":96,"rain":0.2,"pressure":1008.9,"uv_index":8.55,"wind_gusts":28.8,"aqi":44,"pm10":11.2,"pm2_5":4.5,"no2":2.6,"co":124.0,"o3":44.0,"so2":1.2,"mosquito_risk":6,"arthritis_risk":0,"migraine_risk":4,"frizz_risk":1,"updated_at":"2026-07-20T05:30:28.600570+05:30"},{"city":"Patna","state":"Bihar","latitude":25.5941,"longitude":85.1376,"temp":25.9,"humidity":98,"rain":0.2,"pressure":996.7,"uv_index":8.45,"wind_gusts":23.4,"aqi":80,"pm10":34.2,"pm2_5":33.9,"no2":11.4,"co":396.0,"o3":81.0,"so2":13.0,"mosquito_risk":10,"arthritis_risk":5,"migraine_risk":7,"frizz_risk":1,"updated_at":"2026-07-20T05:30:28.600576+05:30"},{"city":"Gaya","state":"Bihar","latitude":24.7914,"longitude":85.0002,"temp":25.9,"humidity":97,"rain":0.1,"pressure":989.5,"uv_index":7.5,"wind_gusts":21.6,"aqi":74,"pm10":35.5,"pm2_5":34.8,"no2":14.7,"co":439.0,"o3":57.0,"so2":9.4,"mosquito_risk":10,"arthritis_risk":5,"migraine_risk":7,"frizz_risk":1,"updated_at":"2026-07-20T05:30:28.600583+05:30"},{"city":"Muzaffarpur","state":"Bihar","latitude":26.1209,"longitude":85.3647,"temp":25.7,"humidity":97,"rain":0.1,"pressure":996.5,"uv_index":7.95,"wind_gusts":27.7,"aqi":70,"pm10":17.8,"pm2_5":17.7,"no2":9.4,"co":400.0,"o3":85.0,"so2":7.7,"mosquito_risk":10,"arthritis_risk":5,"migraine_risk":7,"frizz_risk":1,"updated_at":"2026-07-20T05:30:28.600589+05:30"},{"city":"Bhagalpur","state":"Bihar","latitude":25.2425,"longitude":87.0117,"temp":26.5,"humidity":96,"rain":0.1,"pressure":997.7,"uv_index":2.15,"wind_gusts":33.8,"aqi":80,"pm10":25.5,"pm2_5":24.0,"no2":11.9,"co":272.0,"o3":62.0,"so2":10.6,"mosquito_risk":10,"arthritis_risk":5,"migraine_risk":3,"frizz_risk":1,"updated_at":"2026-07-20T05:30:28.600595+05:30"},{"city":"Ranchi","state":"Jharkhand","latitude":23.3441,"longitude":85.3096,"temp":22.9,"humidity":98,"rain":0.0,"pressure":933.3,"uv_index":6.5,"wind_gusts":26.3,"aqi":67,"pm10":20.7,"pm2_5":17.9,"no2":7.9,"co":283.0,"o3":77.0,"so2":6.5,"mosquito_risk":3,"arthritis_risk":5,"migraine_risk":7,"frizz_risk":1,"updated_at":"2026-07-20T05:30:28.600602+05:30"},{"city":"Jamshedpur","state":"Jharkhand","latitude":22.8046,"longitude":86.2029,"temp":25.6,"humidity":98,"rain":0.1,"pressure":986.5,"uv_index":7.1,"wind_gusts":24.1,"aqi":85,"pm10":39.5,"pm2_5":36.2,"no2":20.2,"co":489.0,"o3":50.0,"so2":20.6,"mosquito_risk":10,"arthritis_risk":5,"migraine_risk":7,"frizz_risk":1,"updated_at":"2026-07-20T05:30:28.600608+05:30"},{"city":"Dhanbad","state":"Jharkhand","latitude":23.7957,"longitude":86.4304,"temp":25.1,"humidity":99,"rain":0.0,"pressure":975.4,"uv_index":3.65,"wind_gusts":27.4,"aqi":136,"pm10":65.7,"pm2_5":61.9,"no2":41.8,"co":629.0,"o3":32.0,"so2":117.5,"mosquito_risk":7,"arthritis_risk":5,"migraine_risk":3,"frizz_risk":1,"updated_at":"2026-07-20T05:30:28.600614+05:30"},{"city":"Bokaro","state":"Jharkhand","latitude":23.6693,"longitude":86.1511,"temp":25.5,"humidity":96,"rain":0.0,"pressure":979.4,"uv_index":4.8,"wind_gusts":23.8,"aqi":132,"pm10":75.7,"pm2_5":72.9,"no2":42.5,"co":3886.0,"o3":30.0,"so2":116.2,"mosquito_risk":7,"arthritis_risk":5,"migraine_risk":3,"frizz_risk":1,"updated_at":"2026-07-20T05:30:28.600621+05:30"},{"city":"Bhubaneswar","state":"Odisha","latitude":20.2961,"longitude":85.8245,"temp":26.4,"humidity":99,"rain":0.0,"pressure":998.0,"uv_index":8.55,"wind_gusts":27.7,"aqi":86,"pm10":42.8,"pm2_5":37.6,"no2":13.6,"co":280.0,"o3":68.0,"so2":6.9,"mosquito_risk":7,"arthritis_risk":5,"migraine_risk":7,"frizz_risk":1,"updated_at":"2026-07-20T05:30:28.600627+05:30"},{"city":"Cuttack","state":"Odisha","latitude":20.4625,"longitude":85.8828,"temp":27.0,"humidity":97,"rain":0.0,"pressure":999.8,"uv_index":8.7,"wind_gusts":22.0,"aqi":86,"pm10":42.8,"pm2_5":37.6,"no2":13.6,"co":289.0,"o3":68.0,"so2":6.9,"mosquito_risk":7,"arthritis_risk":5,"migraine_risk":7,"frizz_risk":1,"updated_at":"2026-07-20T05:30:28.600632+05:30"},{"city":"Rourkela","state":"Odisha","latitude":22.2604,"longitude":84.8536,"temp":25.3,"humidity":98,"rain":0.0,"pressure":980.7,"uv_index":8.2,"wind_gusts":28.8,"aqi":76,"pm10":35.3,"pm2_5":26.7,"no2":8.7,"co":251.0,"o3":96.0,"so2":6.1,"mosquito_risk":7,"arthritis_risk":5,"migraine_risk":7,"frizz_risk":1,"updated_at":"2026-07-20T05:30:28.600638+05:30"},{"city":"Raipur","state":"Chhattisgarh","latitude":21.2514,"longitude":81.6296,"temp":24.9,"humidity":96,"rain":0.3,"pressure":970.6,"uv_index":7.35,"wind_gusts":31.7,"aqi":92,"pm10":28.8,"pm2_5":25.6,"no2":23.4,"co":370.0,"o3":46.0,"so2":35.8,"mosquito_risk":6,"arthritis_risk":5,"migraine_risk":7,"frizz_risk":1,"updated_at":"2026-07-20T05:30:28.600644+05:30"},{"city":"Bhilai","state":"Chhattisgarh","latitude":21.1938,"longitude":81.3509,"temp":24.6,"humidity":94,"rain":0.1,"pressure":971.1,"uv_index":7.35,"wind_gusts":32.4,"aqi":86,"pm10":24.4,"pm2_5":22.6,"no2":20.6,"co":699.0,"o3":44.0,"so2":30.8,"mosquito_risk":6,"arthritis_risk":5,"migraine_risk":7,"frizz_risk":1,"updated_at":"2026-07-20T05:30:28.600650+05:30"},{"city":"Guwahati","state":"Assam","latitude":26.1158,"longitude":91.7086,"temp":24.6,"humidity":97,"rain":0.0,"pressure":999.5,"uv_index":3.05,"wind_gusts":22.0,"aqi":54,"pm10":9.1,"pm2_5":8.5,"no2":8.3,"co":179.0,"o3":40.0,"so2":1.6,"mosquito_risk":3,"arthritis_risk":5,"migraine_risk":3,"frizz_risk":1,"updated_at":"2026-07-20T05:30:28.600657+05:30"},{"city":"Agartala","state":"Tripura","latitude":23.8315,"longitude":91.2868,"temp":24.9,"humidity":98,"rain":0.1,"pressure":1003.9,"uv_index":7.6,"wind_gusts":35.6,"aqi":49,"pm10":9.5,"pm2_5":8.2,"no2":9.3,"co":156.0,"o3":31.0,"so2":2.5,"mosquito_risk":6,"arthritis_risk":5,"migraine_risk":4,"frizz_risk":1,"updated_at":"2026-07-20T05:30:28.600663+05:30"},{"city":"Shillong","state":"Meghalaya","latitude":25.5788,"longitude":91.8933,"temp":19.2,"humidity":98,"rain":0.1,"pressure":855.8,"uv_index":2.25,"wind_gusts":19.1,"aqi":20,"pm10":0.8,"pm2_5":0.8,"no2":4.2,"co":165.0,"o3":40.0,"so2":1.3,"mosquito_risk":6,"arthritis_risk":10,"migraine_risk":3,"frizz_risk":1,"updated_at":"2026-07-20T05:30:28.600669+05:30"},{"city":"Imphal","state":"Manipur","latitude":24.817,"longitude":93.9368,"temp":21.6,"humidity":98,"rain":0.1,"pressure":921.7,"uv_index":1.35,"wind_gusts":26.3,"aqi":43,"pm10":7.9,"pm2_5":7.7,"no2":7.0,"co":261.0,"o3":32.0,"so2":1.1,"mosquito_risk":6,"arthritis_risk":5,"migraine_risk":3,"frizz_risk":1,"updated_at":"2026-07-20T05:30:28.600675+05:30"},{"city":"Aizawl","state":"Mizoram","latitude":23.7271,"longitude":92.7176,"temp":19.0,"humidity":97,"rain":0.1,"pressure":890.3,"uv_index":0.95,"wind_gusts":20.2,"aqi":47,"pm10":9.1,"pm2_5":6.3,"no2":2.7,"co":124.0,"o3":35.0,"so2":0.4,"mosquito_risk":6,"arthritis_risk":10,"migraine_risk":3,"frizz_risk":1,"updated_at":"2026-07-20T05:30:28.600681+05:30"},{"city":"Kohima","state":"Nagaland","latitude":25.6701,"longitude":94.1077,"temp":19.7,"humidity":95,"rain":0.4,"pressure":854.2,"uv_index":5.45,"wind_gusts":21.2,"aqi":17,"pm10":2.8,"pm2_5":2.7,"no2":4.8,"co":170.0,"o3":31.0,"so2":0.4,"mosquito_risk":6,"arthritis_risk":10,"migraine_risk":3,"frizz_risk":1,"updated_at":"2026-07-20T05:30:28.600686+05:30"},{"city":"Gangtok","state":"Sikkim","latitude":27.3314,"longitude":88.6138,"temp":18.5,"humidity":97,"rain":0.2,"pressure":836.6,"uv_index":3.65,"wind_gusts":28.8,"aqi":39,"pm10":3.4,"pm2_5":3.3,"no2":3.5,"co":210.0,"o3":83.0,"so2":0.6,"mosquito_risk":6,"arthritis_risk":10,"migraine_risk":3,"frizz_risk":1,"updated_at":"2026-07-20T05:30:28.600692+05:30"},{"city":"Siliguri","state":"West Bengal","latitude":26.7271,"longitude":88.3953,"temp":24.5,"humidity":99,"rain":0.1,"pressure":990.5,"uv_index":2.4,"wind_gusts":24.1,"aqi":51,"pm10":5.9,"pm2_5":5.7,"no2":4.9,"co":241.0,"o3":83.0,"so2":1.0,"mosquito_risk":6,"arthritis_risk":5,"migraine_risk":3,"frizz_risk":1,"updated_at":"2026-07-20T05:30:32.147400+05:30"},{"city":"Durgapur","state":"West Bengal","latitude":23.5204,"longitude":87.3119,"temp":25.7,"humidity":97,"rain":0.1,"pressure":990.8,"uv_index":8.55,"wind_gusts":30.2,"aqi":105,"pm10":42.4,"pm2_5":36.7,"no2":24.1,"co":330.0,"o3":56.0,"so2":32.1,"mosquito_risk":10,"arthritis_risk":5,"migraine_risk":7,"frizz_risk":1,"updated_at":"2026-07-20T05:30:32.147426+05:30"},{"city":"Asansol","state":"West Bengal","latitude":23.6739,"longitude":86.9524,"temp":25.2,"humidity":98,"rain":0.1,"pressure":989.2,"uv_index":7.5,"wind_gusts":24.8,"aqi":101,"pm10":37.5,"pm2_5":33.3,"no2":24.8,"co":450.0,"o3":55.0,"so2":34.3,"mosquito_risk":10,"arthritis_risk":5,"migraine_risk":7,"frizz_risk":1,"updated_at":"2026-07-20T05:30:32.147437+05:30"},{"city":"Pondicherry","state":"Puducherry","latitude":11.9139,"longitude":79.8145,"temp":26.9,"humidity":78,"rain":0.0,"pressure":1007.3,"uv_index":7.8,"wind_gusts":38.5,"aqi":69,"pm10":17.1,"pm2_5":11.3,"no2":11.0,"co":213.0,"o3":46.0,"so2":9.6,"mosquito_risk":7,"arthritis_risk":5,"migraine_risk":4,"frizz_risk":1,"updated_at":"2026-07-20T05:30:32.147445+05:30"},{"city":"Port Blair","state":"Andaman and Nicobar Islands","latitude":11.6234,"longitude":92.7265,"temp":26.7,"humidity":84,"rain":0.0,"pressure":1007.2,"uv_index":6.3,"wind_gusts":44.3,"aqi":53,"pm10":11.5,"pm2_5":6.6,"no2":0.1,"co":85.0,"o3":45.0,"so2":0.4,"mosquito_risk":7,"arthritis_risk":5,"migraine_risk":4,"frizz_risk":1,"updated_at":"2026-07-20T05:30:32.147453+05:30"},{"city":"Haridwar","state":"Uttarakhand","latitude":29.9457,"longitude":78.1642,"temp":25.0,"humidity":98,"rain":0.2,"pressure":969.5,"uv_index":1.2,"wind_gusts":25.2,"aqi":153,"pm10":30.9,"pm2_5":14.1,"no2":4.9,"co":246.0,"o3":94.0,"so2":10.7,"mosquito_risk":10,"arthritis_risk":5,"migraine_risk":3,"frizz_risk":1,"updated_at":"2026-07-20T05:30:32.147460+05:30"},{"city":"Rishikesh","state":"Uttarakhand","latitude":30.0869,"longitude":78.2676,"temp":24.7,"humidity":99,"rain":0.0,"pressure":962.2,"uv_index":1.75,"wind_gusts":17.3,"aqi":119,"pm10":11.2,"pm2_5":6.1,"no2":4.7,"co":215.0,"o3":100.0,"so2":10.8,"mosquito_risk":3,"arthritis_risk":5,"migraine_risk":3,"frizz_risk":1,"updated_at":"2026-07-20T05:30:32.147467+05:30"},{"city":"Nainital","state":"Uttarakhand","latitude":29.3919,"longitude":79.4542,"temp":16.9,"humidity":99,"rain":1.3,"pressure":802.8,"uv_index":1.5,"wind_gusts":34.6,"aqi":58,"pm10":8.0,"pm2_5":6.6,"no2":4.3,"co":228.0,"o3":102.0,"so2":1.5,"mosquito_risk":6,"arthritis_risk":10,"migraine_risk":3,"frizz_risk":1,"updated_at":"2026-07-20T05:30:32.147514+05:30"},{"city":"Mussoorie","state":"Uttarakhand","latitude":30.4599,"longitude":78.0664,"temp":17.2,"humidity":100,"rain":0.0,"pressure":800.3,"uv_index":0.65,"wind_gusts":28.4,"aqi":92,"pm10":41.7,"pm2_5":22.1,"no2":6.9,"co":235.0,"o3":103.0,"so2":9.3,"mosquito_risk":3,"arthritis_risk":10,"migraine_risk":3,"frizz_risk":1,"updated_at":"2026-07-20T05:30:32.147524+05:30"},{"city":"Dharamshala","state":"Himachal Pradesh","latitude":32.219,"longitude":76.3234,"temp":21.1,"humidity":100,"rain":1.7,"pressure":864.8,"uv_index":3.2,"wind_gusts":27.7,"aqi":44,"pm10":17.6,"pm2_5":8.1,"no2":6.7,"co":217.0,"o3":62.0,"so2":1.0,"mosquito_risk":6,"arthritis_risk":5,"migraine_risk":3,"frizz_risk":1,"updated_at":"2026-07-20T05:30:32.147531+05:30"},{"city":"Dalhousie","state":"Himachal Pradesh","latitude":32.5387,"longitude":75.971,"temp":18.2,"humidity":100,"rain":0.5,"pressure":801.4,"uv_index":6.55,"wind_gusts":25.6,"aqi":92,"pm10":60.8,"pm2_5":24.6,"no2":5.4,"co":212.0,"o3":98.0,"so2":1.9,"mosquito_risk":6,"arthritis_risk":10,"migraine_risk":7,"frizz_risk":1,"updated_at":"2026-07-20T05:30:32.147539+05:30"},{"city":"Patiala","state":"Punjab","latitude":30.3398,"longitude":76.3869,"temp":27.5,"humidity":94,"rain":0.0,"pressure":972.4,"uv_index":6.6,"wind_gusts":35.6,"aqi":247,"pm10":258.9,"pm2_5":80.3,"no2":18.0,"co":334.0,"o3":62.0,"so2":14.5,"mosquito_risk":7,"arthritis_risk":5,"migraine_risk":7,"frizz_risk":1,"updated_at":"2026-07-20T05:30:32.147545+05:30"},{"city":"Bhatinda","state":"Punjab","latitude":30.211,"longitude":74.9455,"temp":31.2,"humidity":71,"rain":0.0,"pressure":976.5,"uv_index":4.7,"wind_gusts":34.2,"aqi":226,"pm10":1013.3,"pm2_5":279.4,"no2":22.7,"co":223.0,"o3":31.0,"so2":7.5,"mosquito_risk":3,"arthritis_risk":5,"migraine_risk":3,"frizz_risk":1,"updated_at":"2026-07-20T05:30:32.147552+05:30"},{"city":"Rohtak","state":"Haryana","latitude":28.8955,"longitude":76.6066,"temp":29.2,"humidity":81,"rain":0.0,"pressure":975.6,"uv_index":4.5,"wind_gusts":23.4,"aqi":562,"pm10":373.5,"pm2_5":101.0,"no2":19.0,"co":413.0,"o3":51.0,"so2":9.1,"mosquito_risk":7,"arthritis_risk":5,"migraine_risk":3,"frizz_risk":1,"updated_at":"2026-07-20T05:30:32.147558+05:30"},{"city":"Panipat","state":"Haryana","latitude":29.3909,"longitude":76.9635,"temp":27.0,"humidity":93,"rain":0.0,"pressure":974.8,"uv_index":4.3,"wind_gusts":32.8,"aqi":611,"pm10":320.4,"pm2_5":99.0,"no2":25.8,"co":446.0,"o3":38.0,"so2":13.0,"mosquito_risk":7,"arthritis_risk":5,"migraine_risk":3,"frizz_risk":1,"updated_at":"2026-07-20T05:30:32.147565+05:30"},{"city":"Mathura","state":"Uttar Pradesh","latitude":27.4924,"longitude":77.6737,"temp":28.6,"humidity":80,"rain":0.0,"pressure":980.9,"uv_index":2.0,"wind_gusts":25.6,"aqi":172,"pm10":82.2,"pm2_5":27.8,"no2":12.4,"co":187.0,"o3":56.0,"so2":3.8,"mosquito_risk":7,"arthritis_risk":5,"migraine_risk":3,"frizz_risk":1,"updated_at":"2026-07-20T05:30:32.147571+05:30"},{"city":"Vrindavan","state":"Uttar Pradesh","latitude":27.5823,"longitude":77.7027,"temp":28.4,"humidity":82,"rain":0.0,"pressure":981.3,"uv_index":1.45,"wind_gusts":28.8,"aqi":172,"pm10":82.2,"pm2_5":27.8,"no2":12.4,"co":189.0,"o3":56.0,"so2":3.8,"mosquito_risk":7,"arthritis_risk":5,"migraine_risk":3,"frizz_risk":1,"updated_at":"2026-07-20T05:30:32.147578+05:30"},{"city":"Ayodhya","state":"Uttar Pradesh","latitude":26.7922,"longitude":82.1998,"temp":25.2,"humidity":99,"rain":0.0,"pressure":991.1,"uv_index":7.6,"wind_gusts":23.4,"aqi":86,"pm10":21.5,"pm2_5":21.4,"no2":10.8,"co":358.0,"o3":81.0,"so2":6.3,"mosquito_risk":7,"arthritis_risk":5,"migraine_risk":7,"frizz_risk":1,"updated_at":"2026-07-20T05:30:32.147584+05:30"},{"city":"Ratlam","state":"Madhya Pradesh","latitude":23.3315,"longitude":75.0367,"temp":24.7,"humidity":90,"rain":0.0,"pressure":950.4,"uv_index":5.55,"wind_gusts":35.3,"aqi":62,"pm10":11.7,"pm2_5":8.6,"no2":9.2,"co":153.0,"o3":32.0,"so2":10.0,"mosquito_risk":3,"arthritis_risk":5,"migraine_risk":3,"frizz_risk":1,"updated_at":"2026-07-20T05:30:32.147590+05:30"},{"city":"Sagar","state":"Madhya Pradesh","latitude":23.8388,"longitude":78.7378,"temp":23.7,"humidity":95,"rain":0.1,"pressure":945.6,"uv_index":6.7,"wind_gusts":29.5,"aqi":79,"pm10":22.3,"pm2_5":17.7,"no2":6.6,"co":184.0,"o3":61.0,"so2":2.4,"mosquito_risk":6,"arthritis_risk":5,"migraine_risk":7,"frizz_risk":1,"updated_at":"2026-07-20T05:30:32.147597+05:30"},{"city":"Satna","state":"Madhya Pradesh","latitude":24.6005,"longitude":80.8322,"temp":25.7,"humidity":98,"rain":0.0,"pressure":966.6,"uv_index":6.95,"wind_gusts":29.9,"aqi":97,"pm10":48.1,"pm2_5":29.5,"no2":13.0,"co":216.0,"o3":46.0,"so2":5.5,"mosquito_risk":7,"arthritis_risk":5,"migraine_risk":7,"frizz_risk":1,"updated_at":"2026-07-20T05:30:32.147603+05:30"},{"city":"Akola","state":"Maharashtra","latitude":20.7002,"longitude":77.0082,"temp":25.9,"humidity":83,"rain":0.0,"pressure":972.0,"uv_index":7.95,"wind_gusts":42.5,"aqi":50,"pm10":7.0,"pm2_5":5.5,"no2":9.7,"co":122.0,"o3":28.0,"so2":7.6,"mosquito_risk":7,"arthritis_risk":5,"migraine_risk":7,"frizz_risk":1,"updated_at":"2026-07-20T05:30:32.147610+05:30"},{"city":"Amravati","state":"Maharashtra","latitude":20.9374,"longitude":77.7796,"temp":24.4,"humidity":96,"rain":0.1,"pressure":963.9,"uv_index":4.7,"wind_gusts":41.8,"aqi":51,"pm10":7.2,"pm2_5":5.7,"no2":9.5,"co":128.0,"o3":31.0,"so2":8.0,"mosquito_risk":6,"arthritis_risk":5,"migraine_risk":3,"frizz_risk":1,"updated_at":"2026-07-20T05:30:32.147617+05:30"},{"city":"Latur","state":"Maharashtra","latitude":18.4088,"longitude":76.5604,"temp":22.6,"humidity":94,"rain":0.1,"pressure":937.0,"uv_index":1.6,"wind_gusts":50.8,"aqi":33,"pm10":4.5,"pm2_5":3.4,"no2":5.7,"co":128.0,"o3":31.0,"so2":2.7,"mosquito_risk":6,"arthritis_risk":5,"migraine_risk":3,"frizz_risk":1,"updated_at":"2026-07-20T05:30:32.147623+05:30"},{"city":"Nanded","state":"Maharashtra","latitude":19.1383,"longitude":77.3091,"temp":23.9,"humidity":94,"rain":0.0,"pressure":965.7,"uv_index":4.95,"wind_gusts":41.8,"aqi":51,"pm10":5.4,"pm2_5":3.6,"no2":5.7,"co":132.0,"o3":33.0,"so2":2.8,"mosquito_risk":3,"arthritis_risk":5,"migraine_risk":3,"frizz_risk":1,"updated_at":"2026-07-20T05:30:32.147630+05:30"},{"city":"Gulbarga","state":"Karnataka","latitude":17.3297,"longitude":76.8343,"temp":23.2,"humidity":92,"rain":0.0,"pressure":956.7,"uv_index":7.15,"wind_gusts":54.4,"aqi":33,"pm10":3.4,"pm2_5":2.9,"no2":6.7,"co":116.0,"o3":29.0,"so2":2.9,"mosquito_risk":3,"arthritis_risk":5,"migraine_risk":7,"frizz_risk":1,"updated_at":"2026-07-20T05:30:32.147636+05:30"},{"city":"Bidar","state":"Karnataka","latitude":17.9104,"longitude":77.5199,"temp":22.3,"humidity":96,"rain":0.0,"pressure":932.7,"uv_index":7.6,"wind_gusts":48.6,"aqi":47,"pm10":4.2,"pm2_5":3.4,"no2":6.2,"co":126.0,"o3":30.0,"so2":2.0,"mosquito_risk":3,"arthritis_risk":5,"migraine_risk":7,"frizz_risk":1,"updated_at":"2026-07-20T05:30:32.147642+05:30"},{"city":"Hospet","state":"Karnataka","latitude":15.2689,"longitude":76.3909,"temp":23.3,"humidity":87,"rain":0.0,"pressure":955.0,"uv_index":7.9,"wind_gusts":54.7,"aqi":34,"pm10":1.7,"pm2_5":1.3,"no2":3.4,"co":102.0,"o3":36.0,"so2":1.4,"mosquito_risk":3,"arthritis_risk":5,"migraine_risk":7,"frizz_risk":1,"updated_at":"2026-07-20T05:30:32.147649+05:30"},{"city":"Tirupur","state":"Tamil Nadu","latitude":11.1085,"longitude":77.3411,"temp":23.0,"humidity":93,"rain":0.0,"pressure":975.5,"uv_index":8.4,"wind_gusts":51.8,"aqi":55,"pm10":14.3,"pm2_5":11.4,"no2":14.3,"co":120.0,"o3":21.0,"so2":4.5,"mosquito_risk":3,"arthritis_risk":5,"migraine_risk":7,"frizz_risk":1,"updated_at":"2026-07-20T05:30:32.147655+05:30"},{"city":"Alappuzha","state":"Kerala","latitude":9.4981,"longitude":76.3388,"temp":24.7,"humidity":96,"rain":0.1,"pressure":1010.7,"uv_index":8.55,"wind_gusts":37.8,"aqi":51,"pm10":14.4,"pm2_5":7.6,"no2":3.8,"co":87.0,"o3":40.0,"so2":2.1,"mosquito_risk":6,"arthritis_risk":0,"migraine_risk":4,"frizz_risk":1,"updated_at":"2026-07-20T05:30:32.147661+05:30"},{"city":"Munnar","state":"Kerala","latitude":10.0889,"longitude":77.0595,"temp":16.0,"humidity":99,"rain":0.0,"pressure":856.5,"uv_index":8.6,"wind_gusts":41.0,"aqi":26,"pm10":3.2,"pm2_5":2.1,"no2":2.8,"co":92.0,"o3":31.0,"so2":1.3,"mosquito_risk":3,"arthritis_risk":10,"migraine_risk":7,"frizz_risk":0,"updated_at":"2026-07-20T05:30:32.147668+05:30"},{"city":"Silchar","state":"Assam","latitude":24.8333,"longitude":92.7789,"temp":25.1,"humidity":94,"rain":0.6,"pressure":1003.5,"uv_index":0.85,"wind_gusts":21.2,"aqi":62,"pm10":16.7,"pm2_5":13.4,"no2":6.9,"co":234.0,"o3":46.0,"so2":3.2,"mosquito_risk":10,"arthritis_risk":5,"migraine_risk":0,"frizz_risk":1,"updated_at":"2026-07-20T05:30:32.147674+05:30"},{"city":"Dibrugarh","state":"Assam","latitude":27.4728,"longitude":94.912,"temp":25.1,"humidity":99,"rain":0.0,"pressure":994.1,"uv_index":8.45,"wind_gusts":27.0,"aqi":72,"pm10":42.0,"pm2_5":40.0,"no2":29.8,"co":212.0,"o3":24.0,"so2":2.5,"mosquito_risk":7,"arthritis_risk":5,"migraine_risk":7,"frizz_risk":1,"updated_at":"2026-07-20T05:30:32.147680+05:30"}]