[{"city":"Delhi","state":"Delhi","latitude":28.6139,"longitude":77.209,"temp":28.0,"humidity":42,"rain":0.0,"pressure":980.5,"uv_index":7.35,"wind_gusts":31.7,"aqi":433,"pm10":665.0,"pm2_5":115.9,"mosquito_risk":4,"arthritis_risk":5,"migraine_risk":7,"frizz_risk":0,"updated_at":"2026-04-22T00:47:33.757888+05:30"},{"city":"Mumbai","state":"Maharashtra","latitude":19.076,"longitude":72.8777,"temp":29.6,"humidity":75,"rain":0.0,"pressure":1007.0,"uv_index":8.0,"wind_gusts":31.7,"aqi":92,"pm10":44.9,"pm2_5":22.5,"mosquito_risk":7,"arthritis_risk":5,"migraine_risk":4,"frizz_risk":1,"updated_at":"2026-04-22T00:47:33.757941+05:30"},{"city":"Bangalore","state":"Karnataka","latitude":12.9716,"longitude":77.5946,"temp":25.2,"humidity":49,"rain":0.0,"pressure":911.2,"uv_index":9.5,"wind_gusts":29.5,"aqi":67,"pm10":20.5,"pm2_5":18.9,"mosquito_risk":4,"arthritis_risk":5,"migraine_risk":7,"frizz_risk":0,"updated_at":"2026-04-22T00:47:33.757957+05:30"},{"city":"Hyderabad","state":"Telangana","latitude":17.385,"longitude":78.4867,"temp":27.9,"humidity":69,"rain":0.0,"pressure":952.4,"uv_index":9.3,"wind_gusts":18.7,"aqi":105,"pm10":45.8,"pm2_5":42.0,"mosquito_risk":7,"arthritis_risk":5,"migraine_risk":7,"frizz_risk":1,"updated_at":"2026-04-22T00:47:33.757968+05:30"},{"city":"Chennai","state":"Tamil Nadu","latitude":13.0827,"longitude":80.2707,"temp":29.2,"humidity":80,"rain":0.0,"pressure":1006.4,"uv_index":8.85,"wind_gusts":33.5,"aqi":41,"pm10":10.3,"pm2_5":7.3,"mosquito_risk":7,"arthritis_risk":5,"migraine_risk":4,"frizz_risk":1,"updated_at":"2026-04-22T00:47:33.757978+05:30"},{"city":"Kolkata","state":"West Bengal","latitude":22.5726,"longitude":88.3639,"temp":28.0,"humidity":90,"rain":0.0,"pressure":1002.6,"uv_index":8.95,"wind_gusts":29.9,"aqi":84,"pm10":23.2,"pm2_5":20.5,"mosquito_risk":7,"arthritis_risk":5,"migraine_risk":4,"frizz_risk":1,"updated_at":"2026-04-22T00:47:33.757991+05:30"},{"city":"Pune","state":"Maharashtra","latitude":18.5204,"longitude":73.8567,"temp":26.5,"humidity":74,"rain":0.0,"pressure":948.0,"uv_index":8.6,"wind_gusts":37.4,"aqi":151,"pm10":47.1,"pm2_5":41.9,"mosquito_risk":7,"arthritis_risk":5,"migraine_risk":7,"frizz_risk":1,"updated_at":"2026-04-22T00:47:33.758000+05:30"},{"city":"Ahmedabad","state":"Gujarat","latitude":23.0225,"longitude":72.5714,"temp":28.7,"humidity":34,"rain":0.0,"pressure":1001.8,"uv_index":8.2,"wind_gusts":23.8,"aqi":45,"pm10":15.3,"pm2_5":8.9,"mosquito_risk":4,"arthritis_risk":5,"migraine_risk":4,"frizz_risk":0,"updated_at":"2026-04-22T00:47:33.758008+05:30"},{"city":"Jaipur","state":"Rajasthan","latitude":26.9124,"longitude":75.7873,"temp":29.7,"humidity":26,"rain":0.0,"pressure":958.7,"uv_index":8.0,"wind_gusts":31.3,"aqi":122,"pm10":131.8,"pm2_5":31.5,"mosquito_risk":4,"arthritis_risk":5,"migraine_risk":7,"frizz_risk":0,"updated_at":"2026-04-22T00:47:33.758016+05:30"},{"city":"Lucknow","state":"Uttar Pradesh","latitude":26.8467,"longitude":80.9462,"temp":28.5,"humidity":44,"rain":0.0,"pressure":990.2,"uv_index":7.85,"wind_gusts":43.2,"aqi":136,"pm10":538.3,"pm2_5":93.8,"mosquito_risk":4,"arthritis_risk":5,"migraine_risk":7,"frizz_risk":0,"updated_at":"2026-04-22T00:47:33.758024+05:30"},{"city":"Kanpur","state":"Uttar Pradesh","latitude":26.4499,"longitude":80.3319,"temp":26.2,"humidity":53,"rain":0.0,"pressure":988.9,"uv_index":7.9,"wind_gusts":36.0,"aqi":366,"pm10":676.1,"pm2_5":106.4,"mosquito_risk":4,"arthritis_risk":5,"migraine_risk":7,"frizz_risk":0,"updated_at":"2026-04-22T00:47:33.758033+05:30"},{"city":"Chandigarh","state":"Chandigarh","latitude":30.7333,"longitude":76.7794,"temp":23.8,"humidity":43,"rain":0.0,"pressure":966.3,"uv_index":7.35,"wind_gusts":31.7,"aqi":66,"pm10":24.3,"pm2_5":20.0,"mosquito_risk":0,"arthritis_risk":5,"migraine_risk":7,"frizz_risk":0,"updated_at":"2026-04-22T00:47:33.758043+05:30"},{"city":"Srinagar","state":"Jammu and Kashmir","latitude":34.0837,"longitude":74.7973,"temp":10.9,"humidity":73,"rain":0.0,"pressure":839.6,"uv_index":8.5,"wind_gusts":15.8,"aqi":79,"pm10":50.5,"pm2_5":39.6,"mosquito_risk":3,"arthritis_risk":5,"migraine_risk":7,"frizz_risk":0,"updated_at":"2026-04-22T00:47:33.758051+05:30"},{"city":"Jammu","state":"Jammu and Kashmir","latitude":32.7266,"longitude":74.857,"temp":26.2,"humidity":47,"rain":0.0,"pressure":970.8,"uv_index":8.1,"wind_gusts":29.2,"aqi":66,"pm10":36.4,"pm2_5":30.6,"mosquito_risk":4,"arthritis_risk":5,"migraine_risk":7,"frizz_risk":0,"updated_at":"2026-04-22T00:47:33.758058+05:30"},{"city":"Amritsar","state":"Punjab","latitude":31.634,"longitude":74.8723,"temp":25.9,"humidity":48,"rain":0.0,"pressure":978.7,"uv_index":8.05,"wind_gusts":29.2,"aqi":68,"pm10":49.8,"pm2_5":40.7,"mosquito_risk":4,"arthritis_risk":5,"migraine_risk":7,"frizz_risk":0,"updated_at":"2026-04-22T00:47:33.758066+05:30"},{"city":"Ludhiana","state":"Punjab","latitude":30.901,"longitude":75.8573,"temp":26.9,"humidity":33,"rain":0.0,"pressure":976.5,"uv_index":7.6,"wind_gusts":33.1,"aqi":75,"pm10":45.5,"pm2_5":36.0,"mosquito_risk":4,"arthritis_risk":5,"migraine_risk":7,"frizz_risk":0,"updated_at":"2026-04-22T00:47:33.758075+05:30"},{"city":"Jalandhar","state":"Punjab","latitude":31.326,"longitude":75.5762,"temp":25.3,"humidity":42,"rain":0.0,"pressure":977.7,"uv_index":7.8,"wind_gusts":32.0,"aqi":81,"pm10":43.9,"pm2_5":34.8,"mosquito_risk":4,"arthritis_risk":5,"migraine_risk":7,"frizz_risk":0,"updated_at":"2026-04-22T00:47:33.758082+05:30"},{"city":"Dehradun","state":"Uttarakhand","latitude":30.6284,"longitude":78.0322,"temp":16.6,"humidity":56,"rain":0.0,"pressure":829.6,"uv_index":7.75,"wind_gusts":32.4,"aqi":66,"pm10":23.9,"pm2_5":16.2,"mosquito_risk":0,"arthritis_risk":5,"migraine_risk":7,"frizz_risk":0,"updated_at":"2026-04-22T00:47:33.758088+05:30"},{"city":"Shimla","state":"Himachal Pradesh","latitude":31.1048,"longitude":77.1734,"temp":15.6,"humidity":40,"rain":0.0,"pressure":784.3,"uv_index":7.85,"wind_gusts":52.2,"aqi":72,"pm10":30.6,"pm2_5":15.1,"mosquito_risk":0,"arthritis_risk":5,"migraine_risk":7,"frizz_risk":0,"updated_at":"2026-04-22T00:47:33.758096+05:30"},{"city":"Manali","state":"Himachal Pradesh","latitude":32.2396,"longitude":77.1887,"temp":17.7,"humidity":52,"rain":0.0,"pressure":820.8,"uv_index":9.3,"wind_gusts":31.0,"aqi":71,"pm10":30.6,"pm2_5":11.4,"mosquito_risk":0,"arthritis_risk":5,"migraine_risk":7,"frizz_risk":0,"updated_at":"2026-04-22T00:47:33.758103+05:30"},{"city":"Gurgaon","state":"Haryana","latitude":28.4595,"longitude":77.0266,"temp":26.3,"humidity":48,"rain":0.0,"pressure":978.8,"uv_index":7.45,"wind_gusts":29.2,"aqi":1184,"pm10":670.6,"pm2_5":108.5,"mosquito_risk":4,"arthritis_risk":5,"migraine_risk":7,"frizz_risk":0,"updated_at":"2026-04-22T00:47:33.758110+05:30"},{"city":"Noida","state":"Uttar Pradesh","latitude":28.5355,"longitude":77.391,"temp":27.5,"humidity":44,"rain":0.0,"pressure":982.0,"uv_index":7.35,"wind_gusts":32.4,"aqi":1184,"pm10":670.6,"pm2_5":108.5,"mosquito_risk":4,"arthritis_risk":5,"migraine_risk":7,"frizz_risk":0,"updated_at":"2026-04-22T00:47:33.758117+05:30"},{"city":"Ghaziabad","state":"Uttar Pradesh","latitude":28.6692,"longitude":77.4538,"temp":27.0,"humidity":48,"rain":0.0,"pressure":980.0,"uv_index":7.35,"wind_gusts":32.4,"aqi":317,"pm10":653.8,"pm2_5":111.5,"mosquito_risk":4,"arthritis_risk":5,"migraine_risk":7,"frizz_risk":0,"updated_at":"2026-04-22T00:47:33.758125+05:30"},{"city":"Faridabad","state":"Haryana","latitude":28.4089,"longitude":77.3178,"temp":30.1,"humidity":34,"rain":0.0,"pressure":981.1,"uv_index":7.4,"wind_gusts":33.1,"aqi":1184,"pm10":670.6,"pm2_5":108.5,"mosquito_risk":0,"arthritis_risk":5,"migraine_risk":7,"frizz_risk":0,"updated_at":"2026-04-22T00:47:33.758131+05:30"},{"city":"Meerut","state":"Uttar Pradesh","latitude":28.9845,"longitude":77.7064,"temp":25.3,"humidity":49,"rain":0.0,"pressure":978.6,"uv_index":7.25,"wind_gusts":37.1,"aqi":317,"pm10":653.8,"pm2_5":111.5,"mosquito_risk":4,"arthritis_risk":5,"migraine_risk":7,"frizz_risk":0,"updated_at":"2026-04-22T00:47:33.758138+05:30"},{"city":"Agra","state":"Uttar Pradesh","latitude":27.1767,"longitude":78.0081,"temp":28.1,"humidity":43,"rain":0.0,"pressure":985.3,"uv_index":7.75,"wind_gusts":35.6,"aqi":784,"pm10":1039.4,"pm2_5":152.7,"mosquito_risk":4,"arthritis_risk":5,"migraine_risk":7,"frizz_risk":0,"updated_at":"2026-04-22T00:47:33.758147+05:30"},{"city":"Varanasi","state":"Uttar Pradesh","latitude":25.3176,"longitude":82.9739,"temp":28.6,"humidity":35,"rain":0.0,"pressure":994.0,"uv_index":8.5,"wind_gusts":42.1,"aqi":99,"pm10":113.2,"pm2_5":37.3,"mosquito_risk":4,"arthritis_risk":5,"migraine_risk":7,"frizz_risk":0,"updated_at":"2026-04-22T00:47:33.758155+05:30"},{"city":"Prayagraj","state":"Uttar Pradesh","latitude":25.4358,"longitude":81.8463,"temp":29.7,"humidity":37,"rain":0.0,"pressure":993.0,"uv_index":8.35,"wind_gusts":37.1,"aqi":102,"pm10":216.1,"pm2_5":46.7,"mosquito_risk":4,"arthritis_risk":5,"migraine_risk":7,"frizz_risk":0,"updated_at":"2026-04-22T00:47:33.758162+05:30"},{"city":"Gorakhpur","state":"Uttar Pradesh","latitude":26.7606,"longitude":83.3732,"temp":27.6,"humidity":32,"rain":0.0,"pressure":992.7,"uv_index":8.25,"wind_gusts":43.9,"aqi":88,"pm10":155.1,"pm2_5":38.1,"mosquito_risk":4,"arthritis_risk":5,"migraine_risk":7,"frizz_risk":0,"updated_at":"2026-04-22T00:47:33.758168+05:30"},{"city":"Bareilly","state":"Uttar Pradesh","latitude":28.367,"longitude":79.4304,"temp":24.6,"humidity":50,"rain":0.0,"pressure":983.6,"uv_index":7.55,"wind_gusts":37.8,"aqi":87,"pm10":231.4,"pm2_5":51.6,"mosquito_risk":0,"arthritis_risk":5,"migraine_risk":7,"frizz_risk":0,"updated_at":"2026-04-22T00:47:33.758178+05:30"},{"city":"Aligarh","state":"Uttar Pradesh","latitude":27.8974,"longitude":78.088,"temp":27.0,"humidity":44,"rain":0.0,"pressure":983.0,"uv_index":7.5,"wind_gusts":36.7,"aqi":805,"pm10":687.3,"pm2_5":106.6,"mosquito_risk":4,"arthritis_risk":5,"migraine_risk":7,"frizz_risk":0,"updated_at":"2026-04-22T00:47:33.758185+05:30"},{"city":"Moradabad","state":"Uttar Pradesh","latitude":28.8386,"longitude":78.7733,"temp":25.1,"humidity":45,"rain":0.0,"pressure":980.7,"uv_index":7.4,"wind_gusts":37.4,"aqi":112,"pm10":258.0,"pm2_5":65.7,"mosquito_risk":4,"arthritis_risk":5,"migraine_risk":7,"frizz_risk":0,"updated_at":"2026-04-22T00:47:33.758191+05:30"},{"city":"Saharanpur","state":"Uttar Pradesh","latitude":29.9637,"longitude":77.546,"temp":24.9,"humidity":47,"rain":0.0,"pressure":973.0,"uv_index":7.05,"wind_gusts":36.0,"aqi":81,"pm10":54.0,"pm2_5":33.2,"mosquito_risk":0,"arthritis_risk":5,"migraine_risk":7,"frizz_risk":0,"updated_at":"2026-04-22T00:47:33.758197+05:30"},{"city":"Jhansi","state":"Uttar Pradesh","latitude":25.4484,"longitude":78.5685,"temp":30.5,"humidity":31,"rain":0.0,"pressure":975.4,"uv_index":8.25,"wind_gusts":31.3,"aqi":124,"pm10":27.5,"pm2_5":12.4,"mosquito_risk":0,"arthritis_risk":5,"migraine_risk":7,"frizz_risk":0,"updated_at":"2026-04-22T00:47:37.070904+05:30"},{"city":"Surat","state":"Gujarat","latitude":21.1702,"longitude":72.8311,"temp":28.9,"humidity":73,"rain":0.0,"pressure":1005.5,"uv_index":7.9,"wind_gusts":21.6,"aqi":108,"pm10":36.0,"pm2_5":26.7,"mosquito_risk":7,"arthritis_risk":5,"migraine_risk":4,"frizz_risk":1,"updated_at":"2026-04-22T00:47:37.070934+05:30"},{"city":"Vadodara","state":"Gujarat","latitude":22.3072,"longitude":73.1812,"temp":29.0,"humidity":54,"rain":0.0,"pressure":1003.4,"uv_index":8.15,"wind_gusts":23.0,"aqi":85,"pm10":59.6,"pm2_5":50.4,"mosquito_risk":4,"arthritis_risk":5,"migraine_risk":4,"frizz_risk":1,"updated_at":"2026-04-22T00:47:37.070944+05:30"},{"city":"Rajkot","state":"Gujarat","latitude":22.3039,"longitude":70.8022,"temp":25.5,"humidity":51,"rain":0.0,"pressure":994.6,"uv_index":7.9,"wind_gusts":28.8,"aqi":56,"pm10":26.8,"pm2_5":13.7,"mosquito_risk":4,"arthritis_risk":5,"migraine_risk":7,"frizz_risk":0,"updated_at":"2026-04-22T00:47:37.070951+05:30"},{"city":"Thane","state":"Maharashtra","latitude":19.2183,"longitude":72.9781,"temp":27.7,"humidity":72,"rain":0.0,"pressure":1006.5,"uv_index":8.05,"wind_gusts":41.8,"aqi":92,"pm10":44.9,"pm2_5":22.5,"mosquito_risk":7,"arthritis_risk":5,"migraine_risk":4,"frizz_risk":1,"updated_at":"2026-04-22T00:47:37.070959+05:30"},{"city":"Nagpur","state":"Maharashtra","latitude":21.1458,"longitude":79.0882,"temp":30.0,"humidity":52,"rain":0.0,"pressure":971.8,"uv_index":8.95,"wind_gusts":28.8,"aqi":81,"pm10":26.2,"pm2_5":22.6,"mosquito_risk":4,"arthritis_risk":5,"migraine_risk":7,"frizz_risk":1,"updated_at":"2026-04-22T00:47:37.070967+05:30"},{"city":"Nashik","state":"Maharashtra","latitude":19.9975,"longitude":73.7898,"temp":26.6,"humidity":66,"rain":0.0,"pressure":945.3,"uv_index":8.3,"wind_gusts":37.1,"aqi":104,"pm10":38.6,"pm2_5":23.3,"mosquito_risk":7,"arthritis_risk":5,"migraine_risk":7,"frizz_risk":1,"updated_at":"2026-04-22T00:47:37.070974+05:30"},{"city":"Aurangabad","state":"Maharashtra","latitude":19.8762,"longitude":75.3433,"temp":29.6,"humidity":33,"rain":0.0,"pressure":943.4,"uv_index":9.05,"wind_gusts":31.7,"aqi":80,"pm10":39.3,"pm2_5":32.0,"mosquito_risk":4,"arthritis_risk":5,"migraine_risk":7,"frizz_risk":0,"updated_at":"2026-04-22T00:47:37.070981+05:30"},{"city":"Solapur","state":"Maharashtra","latitude":17.6599,"longitude":75.9064,"temp":28.6,"humidity":60,"rain":0.0,"pressure":956.1,"uv_index":9.05,"wind_gusts":21.6,"aqi":127,"pm10":59.4,"pm2_5":54.0,"mosquito_risk":4,"arthritis_risk":5,"migraine_risk":7,"frizz_risk":1,"updated_at":"2026-04-22T00:47:37.070988+05:30"},{"city":"Kolhapur","state":"Maharashtra","latitude":16.705,"longitude":74.2433,"temp":23.9,"humidity":93,"rain":0.0,"pressure":947.2,"uv_index":9.05,"wind_gusts":31.7,"aqi":99,"pm10":37.7,"pm2_5":30.5,"mosquito_risk":3,"arthritis_risk":5,"migraine_risk":7,"frizz_risk":1,"updated_at":"2026-04-22T00:47:37.070995+05:30"},{"city":"Goa","state":"Goa","latitude":15.2993,"longitude":74.124,"temp":28.1,"humidity":87,"rain":0.0,"pressure":996.6,"uv_index":9.0,"wind_gusts":29.9,"aqi":73,"pm10":37.0,"pm2_5":23.9,"mosquito_risk":7,"arthritis_risk":5,"migraine_risk":7,"frizz_risk":1,"updated_at":"2026-04-22T00:47:37.071003+05:30"},{"city":"Jodhpur","state":"Rajasthan","latitude":26.2389,"longitude":73.0243,"temp":29.5,"humidity":21,"rain":0.0,"pressure":982.4,"uv_index":8.2,"wind_gusts":28.8,"aqi":113,"pm10":156.5,"pm2_5":21.8,"mosquito_risk":4,"arthritis_risk":5,"migraine_risk":7,"frizz_risk":0,"updated_at":"2026-04-22T00:47:37.071009+05:30"},{"city":"Udaipur","state":"Rajasthan","latitude":24.5854,"longitude":73.7125,"temp":25.7,"humidity":27,"rain":0.0,"pressure":946.8,"uv_index":8.75,"wind_gusts":43.2,"aqi":58,"pm10":11.3,"pm2_5":7.4,"mosquito_risk":4,"arthritis_risk":5,"migraine_risk":7,"frizz_risk":0,"updated_at":"2026-04-22T00:47:37.071017+05:30"},{"city":"Kota","state":"Rajasthan","latitude":25.2138,"longitude":75.8648,"temp":29.1,"humidity":24,"rain":0.0,"pressure":977.4,"uv_index":8.25,"wind_gusts":24.8,"aqi":56,"pm10":20.0,"pm2_5":11.4,"mosquito_risk":4,"arthritis_risk":5,"migraine_risk":7,"frizz_risk":0,"updated_at":"2026-04-22T00:47:37.071023+05:30"},{"city":"Bikaner","state":"Rajasthan","latitude":28.0229,"longitude":73.3119,"temp":31.7,"humidity":27,"rain":0.0,"pressure":979.8,"uv_index":8.05,"wind_gusts":28.8,"aqi":54,"pm10":38.8,"pm2_5":16.2,"mosquito_risk":0,"arthritis_risk":5,"migraine_risk":7,"frizz_risk":0,"updated_at":"2026-04-22T00:47:37.071030+05:30"},{"city":"Ajmer","state":"Rajasthan","latitude":26.4499,"longitude":74.6399,"temp":27.9,"humidity":26,"rain":0.0,"pressure":954.1,"uv_index":8.2,"wind_gusts":34.9,"aqi":63,"pm10":74.5,"pm2_5":20.0,"mosquito_risk":4,"arthritis_risk":5,"migraine_risk":7,"frizz_risk":0,"updated_at":"2026-04-22T00:47:37.071036+05:30"},{"city":"Gwalior","state":"Madhya Pradesh","latitude":26.2183,"longitude":78.1828,"temp":28.5,"humidity":44,"rain":0.0,"pressure":980.6,"uv_index":8.0,"wind_gusts":37.8,"aqi":200,"pm10":79.4,"pm2_5":20.5,"mosquito_risk":4,"arthritis_risk":5,"migraine_risk":7,"frizz_risk":0,"updated_at":"2026-04-22T00:47:37.071044+05:30"},{"city":"Indore","state":"Madhya Pradesh","latitude":22.7196,"longitude":75.8577,"temp":26.7,"humidity":42,"rain":0.0,"pressure":947.9,"uv_index":8.65,"wind_gusts":32.8,"aqi":61,"pm10":18.5,"pm2_5":16.5,"mosquito_risk":4,"arthritis_risk":5,"migraine_risk":7,"frizz_risk":0,"updated_at":"2026-04-22T00:47:37.071050+05:30"},{"city":"Bhopal","state":"Madhya Pradesh","latitude":23.2599,"longitude":77.4126,"temp":27.1,"humidity":40,"rain":0.0,"pressure":953.2,"uv_index":8.65,"wind_gusts":36.7,"aqi":56,"pm10":16.2,"pm2_5":14.8,"mosquito_risk":4,"arthritis_risk":5,"migraine_risk":7,"frizz_risk":0,"updated_at":"2026-04-22T00:47:37.071057+05:30"},{"city":"Jabalpur","state":"Madhya Pradesh","latitude":23.1815,"longitude":79.9864,"temp":27.5,"humidity":50,"rain":0.0,"pressure":959.7,"uv_index":8.85,"wind_gusts":30.6,"aqi":69,"pm10":18.1,"pm2_5":16.2,"mosquito_risk":4,"arthritis_risk":5,"migraine_risk":7,"frizz_risk":1,"updated_at":"2026-04-22T00:47:37.071063+05:30"},{"city":"Ujjain","state":"Madhya Pradesh","latitude":23.1765,"longitude":75.7885,"temp":27.2,"humidity":41,"rain":0.0,"pressure":953.7,"uv_index":8.6,"wind_gusts":35.3,"aqi":64,"pm10":17.9,"pm2_5":15.8,"mosquito_risk":4,"arthritis_risk":5,"migraine_risk":7,"frizz_risk":0,"updated_at":"2026-04-22T00:47:37.071070+05:30"},{"city":"Visakhapatnam","state":"Andhra Pradesh","latitude":17.6868,"longitude":83.2185,"temp":27.6,"humidity":89,"rain":0.0,"pressure":1002.3,"uv_index":9.0,"wind_gusts":39.2,"aqi":58,"pm10":18.5,"pm2_5":14.2,"mosquito_risk":7,"arthritis_risk":5,"migraine_risk":4,"frizz_risk":1,"updated_at":"2026-04-22T00:47:37.071076+05:30"},{"city":"Vijayawada","state":"Andhra Pradesh","latitude":16.5062,"longitude":80.648,"temp":27.7,"humidity":88,"rain":0.0,"pressure":1002.1,"uv_index":9.25,"wind_gusts":25.2,"aqi":56,"pm10":13.1,"pm2_5":10.4,"mosquito_risk":7,"arthritis_risk":5,"migraine_risk":4,"frizz_risk":1,"updated_at":"2026-04-22T00:47:37.071083+05:30"},{"city":"Guntur","state":"Andhra Pradesh","latitude":16.3067,"longitude":80.4365,"temp":27.9,"humidity":89,"rain":0.0,"pressure":1003.4,"uv_index":9.25,"wind_gusts":29.9,"aqi":60,"pm10":12.9,"pm2_5":10.2,"mosquito_risk":7,"arthritis_risk":5,"migraine_risk":4,"frizz_risk":1,"updated_at":"2026-04-22T00:47:37.071089+05:30"},{"city":"Nellore","state":"Andhra Pradesh","latitude":14.4426,"longitude":79.9865,"temp":27.5,"humidity":87,"rain":0.0,"pressure":1005.2,"uv_index":9.2,"wind_gusts":34.6,"aqi":48,"pm10":8.9,"pm2_5":7.3,"mosquito_risk":7,"arthritis_risk":5,"migraine_risk":4,"frizz_risk":1,"updated_at":"2026-04-22T00:47:37.071097+05:30"},{"city":"Kurnool","state":"Andhra Pradesh","latitude":15.8281,"longitude":78.0373,"temp":28.8,"humidity":61,"rain":0.0,"pressure":976.2,"uv_index":9.25,"wind_gusts":35.3,"aqi":92,"pm10":46.4,"pm2_5":40.6,"mosquito_risk":7,"arthritis_risk":5,"migraine_risk":7,"frizz_risk":1,"updated_at":"2026-04-22T00:47:37.071104+05:30"},{"city":"Kakinada","state":"Andhra Pradesh","latitude":16.9891,"longitude":82.2475,"temp":27.5,"humidity":90,"rain":0.0,"pressure":1006.6,"uv_index":9.2,"wind_gusts":27.7,"aqi":45,"pm10":13.6,"pm2_5":9.1,"mosquito_risk":7,"arthritis_risk":5,"migraine_risk":4,"frizz_risk":1,"updated_at":"2026-04-22T00:47:37.071110+05:30"},{"city":"Tirupati","state":"Andhra Pradesh","latitude":13.6288,"longitude":79.4192,"temp":26.8,"humidity":73,"rain":0.0,"pressure":991.6,"uv_index":9.35,"wind_gusts":32.8,"aqi":57,"pm10":14.3,"pm2_5":13.6,"mosquito_risk":7,"arthritis_risk":5,"migraine_risk":7,"frizz_risk":1,"updated_at":"2026-04-22T00:47:37.071117+05:30"},{"city":"Warangal","state":"Telangana","latitude":17.9689,"longitude":79.5941,"temp":29.9,"humidity":64,"rain":0.0,"pressure":977.5,"uv_index":9.15,"wind_gusts":21.2,"aqi":90,"pm10":44.7,"pm2_5":42.4,"mosquito_risk":7,"arthritis_risk":5,"migraine_risk":7,"frizz_risk":1,"updated_at":"2026-04-22T00:47:37.071124+05:30"},{"city":"Nizamabad","state":"Telangana","latitude":18.6725,"longitude":78.0941,"temp":29.9,"humidity":54,"rain":0.0,"pressure":963.7,"uv_index":9.15,"wind_gusts":28.1,"aqi":105,"pm10":46.6,"pm2_5":43.4,"mosquito_risk":4,"arthritis_risk":5,"migraine_risk":7,"frizz_risk":1,"updated_at":"2026-04-22T00:47:37.071130+05:30"},{"city":"Mysore","state":"Karnataka","latitude":12.2958,"longitude":76.6396,"temp":24.3,"humidity":85,"rain":0.0,"pressure":928.1,"uv_index":9.45,"wind_gusts":38.2,"aqi":85,"pm10":30.4,"pm2_5":28.3,"mosquito_risk":3,"arthritis_risk":5,"migraine_risk":7,"frizz_risk":1,"updated_at":"2026-04-22T00:47:37.071137+05:30"},{"city":"Mangalore","state":"Karnataka","latitude":12.9141,"longitude":74.856,"temp":29.6,"humidity":85,"rain":0.0,"pressure":1005.8,"uv_index":9.1,"wind_gusts":25.6,"aqi":85,"pm10":38.5,"pm2_5":31.4,"mosquito_risk":7,"arthritis_risk":5,"migraine_risk":4,"frizz_risk":1,"updated_at":"2026-04-22T00:47:37.071143+05:30"},{"city":"Hubli-Dharwad","state":"Karnataka","latitude":15.3647,"longitude":75.124,"temp":24.5,"humidity":75,"rain":0.0,"pressure":939.5,"uv_index":9.2,"wind_gusts":38.9,"aqi":103,"pm10":33.3,"pm2_5":30.4,"mosquito_risk":3,"arthritis_risk":5,"migraine_risk":7,"frizz_risk":1,"updated_at":"2026-04-22T00:47:37.071150+05:30"},{"city":"Belgaum","state":"Karnataka","latitude":15.8497,"longitude":74.4977,"temp":23.0,"humidity":99,"rain":0.0,"pressure":924.8,"uv_index":9.25,"wind_gusts":40.7,"aqi":90,"pm10":37.0,"pm2_5":30.7,"mosquito_risk":3,"arthritis_risk":5,"migraine_risk":7,"frizz_risk":1,"updated_at":"2026-04-22T00:47:40.376993+05:30"},{"city":"Coimbatore","state":"Tamil Nadu","latitude":11.0168,"longitude":76.9558,"temp":25.8,"humidity":84,"rain":0.0,"pressure":961.3,"uv_index":9.4,"wind_gusts":41.4,"aqi":83,"pm10":33.5,"pm2_5":29.9,"mosquito_risk":7,"arthritis_risk":5,"migraine_risk":7,"frizz_risk":1,"updated_at":"2026-04-22T00:47:40.377024+05:30"},{"city":"Madurai","state":"Tamil Nadu","latitude":9.9252,"longitude":78.1198,"temp":27.1,"humidity":84,"rain":0.0,"pressure":992.8,"uv_index":9.3,"wind_gusts":40.0,"aqi":59,"pm10":16.8,"pm2_5":15.8,"mosquito_risk":7,"arthritis_risk":5,"migraine_risk":7,"frizz_risk":1,"updated_at":"2026-04-22T00:47:40.377035+05:30"},{"city":"Trichy","state":"Tamil Nadu","latitude":10.7905,"longitude":78.7047,"temp":28.5,"humidity":83,"rain":0.0,"pressure":999.3,"uv_index":9.3,"wind_gusts":19.1,"aqi":47,"pm10":13.4,"pm2_5":13.1,"mosquito_risk":7,"arthritis_risk":5,"migraine_risk":7,"frizz_risk":1,"updated_at":"2026-04-22T00:47:40.377043+05:30"},{"city":"Salem","state":"Tamil Nadu","latitude":11.6643,"longitude":78.146,"temp":28.6,"humidity":67,"rain":0.0,"pressure":977.0,"uv_index":9.3,"wind_gusts":23.4,"aqi":59,"pm10":15.9,"pm2_5":15.1,"mosquito_risk":7,"arthritis_risk":5,"migraine_risk":7,"frizz_risk":1,"updated_at":"2026-04-22T00:47:40.377051+05:30"},{"city":"Tirunelveli","state":"Tamil Nadu","latitude":8.7139,"longitude":77.7567,"temp":28.0,"humidity":74,"rain":0.0,"pressure":1002.7,"uv_index":9.25,"wind_gusts":50.8,"aqi":62,"pm10":18.9,"pm2_5":17.3,"mosquito_risk":7,"arthritis_risk":5,"migraine_risk":4,"frizz_risk":1,"updated_at":"2026-04-22T00:47:40.377059+05:30"},{"city":"Vellore","state":"Tamil Nadu","latitude":12.9165,"longitude":79.1325,"temp":26.6,"humidity":72,"rain":0.0,"pressure":984.2,"uv_index":9.35,"wind_gusts":29.5,"aqi":61,"pm10":29.2,"pm2_5":28.3,"mosquito_risk":7,"arthritis_risk":5,"migraine_risk":7,"frizz_risk":1,"updated_at":"2026-04-22T00:47:40.377066+05:30"},{"city":"Erode","state":"Tamil Nadu","latitude":11.341,"longitude":77.7172,"temp":30.1,"humidity":69,"rain":0.0,"pressure":988.4,"uv_index":9.35,"wind_gusts":24.5,"aqi":52,"pm10":8.4,"pm2_5":8.1,"mosquito_risk":3,"arthritis_risk":5,"migraine_risk":7,"frizz_risk":1,"updated_at":"2026-04-22T00:47:40.377073+05:30"},{"city":"Kochi","state":"Kerala","latitude":9.9312,"longitude":76.2673,"temp":28.2,"humidity":83,"rain":0.0,"pressure":1008.1,"uv_index":9.05,"wind_gusts":28.8,"aqi":74,"pm10":38.0,"pm2_5":34.0,"mosquito_risk":7,"arthritis_risk":0,"migraine_risk":4,"frizz_risk":1,"updated_at":"2026-04-22T00:47:40.377081+05:30"},{"city":"Thiruvananthapuram","state":"Kerala","latitude":8.5241,"longitude":76.9366,"temp":28.6,"humidity":81,"rain":0.0,"pressure":1007.1,"uv_index":8.95,"wind_gusts":28.4,"aqi":53,"pm10":17.4,"pm2_5":12.5,"mosquito_risk":7,"arthritis_risk":5,"migraine_risk":4,"frizz_risk":1,"updated_at":"2026-04-22T00:47:40.377088+05:30"},{"city":"Kozhikode","state":"Kerala","latitude":11.2588,"longitude":75.7804,"temp":29.7,"humidity":79,"rain":0.0,"pressure":1007.0,"uv_index":9.1,"wind_gusts":29.5,"aqi":70,"pm10":36.2,"pm2_5":26.2,"mosquito_risk":7,"arthritis_risk":5,"migraine_risk":4,"frizz_risk":1,"updated_at":"2026-04-22T00:47:40.377095+05:30"},{"city":"Thrissur","state":"Kerala","latitude":10.5276,"longitude":76.2144,"temp":27.4,"humidity":84,"rain":0.0,"pressure":1006.4,"uv_index":9.0,"wind_gusts":36.7,"aqi":73,"pm10":42.1,"pm2_5":34.8,"mosquito_risk":7,"arthritis_risk":5,"migraine_risk":4,"frizz_risk":1,"updated_at":"2026-04-22T00:47:40.377102+05:30"},{"city":"Kannur","state":"Kerala","latitude":11.8745,"longitude":75.3704,"temp":29.1,"humidity":84,"rain":0.0,"pressure":1006.5,"uv_index":8.9,"wind_gusts":32.8,"aqi":79,"pm10":42.4,"pm2_5":37.1,"mosquito_risk":7,"arthritis_risk":5,"migraine_risk":4,"frizz_risk":1,"updated_at":"2026-04-22T00:47:40.377109+05:30"},{"city":"Patna","state":"Bihar","latitude":25.5941,"longitude":85.1376,"temp":29.1,"humidity":38,"rain":0.0,"pressure":996.2,"uv_index":8.65,"wind_gusts":40.0,"aqi":95,"pm10":40.2,"pm2_5":24.4,"mosquito_risk":4,"arthritis_risk":5,"migraine_risk":7,"frizz_risk":0,"updated_at":"2026-04-22T00:47:40.377116+05:30"},{"city":"Gaya","state":"Bihar","latitude":24.7914,"longitude":85.0002,"temp":29.2,"humidity":38,"rain":0.0,"pressure":990.3,"uv_index":8.75,"wind_gusts":45.0,"aqi":97,"pm10":73.3,"pm2_5":30.7,"mosquito_risk":4,"arthritis_risk":5,"migraine_risk":7,"frizz_risk":0,"updated_at":"2026-04-22T00:47:40.377122+05:30"},{"city":"Muzaffarpur","state":"Bihar","latitude":26.1209,"longitude":85.3647,"temp":26.4,"humidity":42,"rain":0.0,"pressure":995.9,"uv_index":8.6,"wind_gusts":26.3,"aqi":94,"pm10":38.6,"pm2_5":22.4,"mosquito_risk":4,"arthritis_risk":5,"migraine_risk":7,"frizz_risk":0,"updated_at":"2026-04-22T00:47:40.377128+05:30"},{"city":"Bhagalpur","state":"Bihar","latitude":25.2425,"longitude":87.0117,"temp":28.0,"humidity":48,"rain":0.0,"pressure":996.3,"uv_index":8.7,"wind_gusts":19.1,"aqi":105,"pm10":85.9,"pm2_5":31.4,"mosquito_risk":4,"arthritis_risk":5,"migraine_risk":7,"frizz_risk":0,"updated_at":"2026-04-22T00:47:40.377134+05:30"},{"city":"Ranchi","state":"Jharkhand","latitude":23.3441,"longitude":85.3096,"temp":27.6,"humidity":34,"rain":0.0,"pressure":936.4,"uv_index":9.25,"wind_gusts":38.9,"aqi":78,"pm10":77.5,"pm2_5":31.9,"mosquito_risk":4,"arthritis_risk":5,"migraine_risk":7,"frizz_risk":0,"updated_at":"2026-04-22T00:47:40.377141+05:30"},{"city":"Jamshedpur","state":"Jharkhand","latitude":22.8046,"longitude":86.2029,"temp":30.4,"humidity":55,"rain":0.0,"pressure":987.7,"uv_index":9.05,"wind_gusts":25.2,"aqi":112,"pm10":48.2,"pm2_5":46.1,"mosquito_risk":0,"arthritis_risk":5,"migraine_risk":7,"frizz_risk":1,"updated_at":"2026-04-22T00:47:40.377147+05:30"},{"city":"Dhanbad","state":"Jharkhand","latitude":23.7957,"longitude":86.4304,"temp":30.8,"humidity":43,"rain":0.0,"pressure":976.4,"uv_index":9.05,"wind_gusts":42.1,"aqi":139,"pm10":110.6,"pm2_5":68.0,"mosquito_risk":0,"arthritis_risk":5,"migraine_risk":7,"frizz_risk":1,"updated_at":"2026-04-22T00:47:40.377153+05:30"},{"city":"Bokaro","state":"Jharkhand","latitude":23.6693,"longitude":86.1511,"temp":28.3,"humidity":35,"rain":0.0,"pressure":980.8,"uv_index":9.05,"wind_gusts":43.2,"aqi":122,"pm10":110.6,"pm2_5":57.3,"mosquito_risk":4,"arthritis_risk":5,"migraine_risk":7,"frizz_risk":0,"updated_at":"2026-04-22T00:47:40.377160+05:30"},{"city":"Bhubaneswar","state":"Odisha","latitude":20.2961,"longitude":85.8245,"temp":27.2,"humidity":93,"rain":0.0,"pressure":1000.0,"uv_index":9.15,"wind_gusts":29.5,"aqi":75,"pm10":17.5,"pm2_5":15.3,"mosquito_risk":7,"arthritis_risk":5,"migraine_risk":4,"frizz_risk":1,"updated_at":"2026-04-22T00:47:40.377166+05:30"},{"city":"Cuttack","state":"Odisha","latitude":20.4625,"longitude":85.8828,"temp":27.6,"humidity":90,"rain":0.0,"pressure":1001.7,"uv_index":9.2,"wind_gusts":32.0,"aqi":75,"pm10":17.5,"pm2_5":15.3,"mosquito_risk":7,"arthritis_risk":5,"migraine_risk":4,"frizz_risk":1,"updated_at":"2026-04-22T00:47:40.377173+05:30"},{"city":"Rourkela","state":"Odisha","latitude":22.2604,"longitude":84.8536,"temp":30.9,"humidity":58,"rain":0.0,"pressure":982.3,"uv_index":9.0,"wind_gusts":33.5,"aqi":119,"pm10":44.5,"pm2_5":41.4,"mosquito_risk":0,"arthritis_risk":5,"migraine_risk":7,"frizz_risk":1,"updated_at":"2026-04-22T00:47:40.377179+05:30"},{"city":"Raipur","state":"Chhattisgarh","latitude":21.2514,"longitude":81.6296,"temp":30.2,"humidity":51,"rain":0.0,"pressure":972.9,"uv_index":9.0,"wind_gusts":36.4,"aqi":107,"pm10":52.7,"pm2_5":50.2,"mosquito_risk":0,"arthritis_risk":5,"migraine_risk":7,"frizz_risk":1,"updated_at":"2026-04-22T00:47:40.377185+05:30"},{"city":"Bhilai","state":"Chhattisgarh","latitude":21.1938,"longitude":81.3509,"temp":29.4,"humidity":55,"rain":0.0,"pressure":973.3,"uv_index":9.0,"wind_gusts":34.6,"aqi":99,"pm10":49.9,"pm2_5":47.0,"mosquito_risk":4,"arthritis_risk":5,"migraine_risk":7,"frizz_risk":1,"updated_at":"2026-04-22T00:47:40.377191+05:30"},{"city":"Guwahati","state":"Assam","latitude":26.1158,"longitude":91.7086,"temp":24.2,"humidity":88,"rain":0.0,"pressure":997.6,"uv_index":8.6,"wind_gusts":42.5,"aqi":96,"pm10":47.6,"pm2_5":43.0,"mosquito_risk":3,"arthritis_risk":5,"migraine_risk":7,"frizz_risk":1,"updated_at":"2026-04-22T00:47:40.377197+05:30"},{"city":"Agartala","state":"Tripura","latitude":23.8315,"longitude":91.2868,"temp":27.0,"humidity":90,"rain":0.0,"pressure":1003.3,"uv_index":8.85,"wind_gusts":38.9,"aqi":79,"pm10":19.6,"pm2_5":16.7,"mosquito_risk":7,"arthritis_risk":5,"migraine_risk":4,"frizz_risk":1,"updated_at":"2026-04-22T00:47:40.377203+05:30"},{"city":"Shillong","state":"Meghalaya","latitude":25.5788,"longitude":91.8933,"temp":17.1,"humidity":91,"rain":0.0,"pressure":854.5,"uv_index":9.05,"wind_gusts":77.4,"aqi":78,"pm10":12.8,"pm2_5":10.3,"mosquito_risk":3,"arthritis_risk":10,"migraine_risk":7,"frizz_risk":0,"updated_at":"2026-04-22T00:47:40.377210+05:30"},{"city":"Imphal","state":"Manipur","latitude":24.817,"longitude":93.9368,"temp":20.6,"humidity":87,"rain":0.0,"pressure":921.4,"uv_index":9.2,"wind_gusts":84.6,"aqi":153,"pm10":89.4,"pm2_5":82.0,"mosquito_risk":3,"arthritis_risk":5,"migraine_risk":7,"frizz_risk":1,"updated_at":"2026-04-22T00:47:40.377217+05:30"},{"city":"Aizawl","state":"Mizoram","latitude":23.7271,"longitude":92.7176,"temp":22.1,"humidity":83,"rain":0.0,"pressure":891.3,"uv_index":9.05,"wind_gusts":59.4,"aqi":100,"pm10":33.1,"pm2_5":27.8,"mosquito_risk":3,"arthritis_risk":5,"migraine_risk":7,"frizz_risk":1,"updated_at":"2026-04-22T00:47:40.377223+05:30"},{"city":"Kohima","state":"Nagaland","latitude":25.6701,"longitude":94.1077,"temp":18.7,"humidity":75,"rain":0.0,"pressure":853.0,"uv_index":9.15,"wind_gusts":95.8,"aqi":99,"pm10":54.4,"pm2_5":40.7,"mosquito_risk":3,"arthritis_risk":5,"migraine_risk":7,"frizz_risk":0,"updated_at":"2026-04-22T00:47:40.377230+05:30"},{"city":"Gangtok","state":"Sikkim","latitude":27.3314,"longitude":88.6138,"temp":17.0,"humidity":74,"rain":0.0,"pressure":835.6,"uv_index":8.95,"wind_gusts":22.7,"aqi":69,"pm10":18.9,"pm2_5":15.1,"mosquito_risk":3,"arthritis_risk":5,"migraine_risk":7,"frizz_risk":0,"updated_at":"2026-04-22T00:47:40.377236+05:30"},{"city":"Siliguri","state":"West Bengal","latitude":26.7271,"longitude":88.3953,"temp":23.8,"humidity":65,"rain":0.0,"pressure":990.1,"uv_index":7.8,"wind_gusts":20.5,"aqi":143,"pm10":71.5,"pm2_5":60.3,"mosquito_risk":3,"arthritis_risk":5,"migraine_risk":7,"frizz_risk":1,"updated_at":"2026-04-22T00:47:43.688298+05:30"},{"city":"Durgapur","state":"West Bengal","latitude":23.5204,"longitude":87.3119,"temp":29.0,"humidity":84,"rain":0.0,"pressure":991.4,"uv_index":8.95,"wind_gusts":25.9,"aqi":136,"pm10":74.5,"pm2_5":64.5,"mosquito_risk":7,"arthritis_risk":5,"migraine_risk":7,"frizz_risk":1,"updated_at":"2026-04-22T00:47:43.688355+05:30"},{"city":"Asansol","state":"West Bengal","latitude":23.6739,"longitude":86.9524,"temp":30.2,"humidity":79,"rain":0.0,"pressure":989.8,"uv_index":9.0,"wind_gusts":25.2,"aqi":131,"pm10":94.3,"pm2_5":63.6,"mosquito_risk":3,"arthritis_risk":5,"migraine_risk":7,"frizz_risk":1,"updated_at":"2026-04-22T00:47:43.688368+05:30"},{"city":"Pondicherry","state":"Puducherry","latitude":11.9139,"longitude":79.8145,"temp":27.6,"humidity":92,"rain":0.0,"pressure":1007.9,"uv_index":8.95,"wind_gusts":30.6,"aqi":42,"pm10":8.4,"pm2_5":5.8,"mosquito_risk":7,"arthritis_risk":5,"migraine_risk":4,"frizz_risk":1,"updated_at":"2026-04-22T00:47:43.688378+05:30"},{"city":"Port Blair","state":"Andaman and Nicobar Islands","latitude":11.6234,"longitude":92.7265,"temp":29.3,"humidity":75,"rain":0.0,"pressure":1005.8,"uv_index":8.7,"wind_gusts":19.4,"aqi":55,"pm10":15.8,"pm2_5":13.1,"mosquito_risk":7,"arthritis_risk":5,"migraine_risk":4,"frizz_risk":1,"updated_at":"2026-04-22T00:47:43.688387+05:30"},{"city":"Haridwar","state":"Uttarakhand","latitude":29.9457,"longitude":78.1642,"temp":22.2,"humidity":59,"rain":0.0,"pressure":971.6,"uv_index":7.15,"wind_gusts":36.7,"aqi":68,"pm10":29.5,"pm2_5":26.4,"mosquito_risk":0,"arthritis_risk":5,"migraine_risk":7,"frizz_risk":0,"updated_at":"2026-04-22T00:47:43.688396+05:30"},{"city":"Rishikesh","state":"Uttarakhand","latitude":30.0869,"longitude":78.2676,"temp":22.4,"humidity":56,"rain":0.0,"pressure":964.8,"uv_index":7.2,"wind_gusts":36.7,"aqi":96,"pm10":32.5,"pm2_5":21.2,"mosquito_risk":0,"arthritis_risk":5,"migraine_risk":7,"frizz_risk":0,"updated_at":"2026-04-22T00:47:43.688405+05:30"},{"city":"Nainital","state":"Uttarakhand","latitude":29.3919,"longitude":79.4542,"temp":22.0,"humidity":33,"rain":0.0,"pressure":806.2,"uv_index":8.05,"wind_gusts":45.0,"aqi":90,"pm10":38.3,"pm2_5":17.3,"mosquito_risk":0,"arthritis_risk":5,"migraine_risk":7,"frizz_risk":0,"updated_at":"2026-04-22T00:47:43.688413+05:30"},{"city":"Mussoorie","state":"Uttarakhand","latitude":30.4599,"longitude":78.0664,"temp":19.3,"humidity":45,"rain":0.0,"pressure":802.7,"uv_index":7.65,"wind_gusts":40.7,"aqi":73,"pm10":34.1,"pm2_5":28.5,"mosquito_risk":0,"arthritis_risk":5,"migraine_risk":7,"frizz_risk":0,"updated_at":"2026-04-22T00:47:43.688421+05:30"},{"city":"Dharamshala","state":"Himachal Pradesh","latitude":32.219,"longitude":76.3234,"temp":23.4,"humidity":38,"rain":0.0,"pressure":869.1,"uv_index":7.95,"wind_gusts":27.4,"aqi":70,"pm10":25.0,"pm2_5":12.3,"mosquito_risk":0,"arthritis_risk":5,"migraine_risk":7,"frizz_risk":0,"updated_at":"2026-04-22T00:47:43.688429+05:30"},{"city":"Dalhousie","state":"Himachal Pradesh","latitude":32.5387,"longitude":75.971,"temp":19.8,"humidity":39,"rain":0.0,"pressure":804.0,"uv_index":8.25,"wind_gusts":29.9,"aqi":56,"pm10":32.1,"pm2_5":24.4,"mosquito_risk":0,"arthritis_risk":5,"migraine_risk":7,"frizz_risk":0,"updated_at":"2026-04-22T00:47:43.688438+05:30"},{"city":"Patiala","state":"Punjab","latitude":30.3398,"longitude":76.3869,"temp":24.3,"humidity":45,"rain":0.0,"pressure":975.7,"uv_index":7.25,"wind_gusts":26.3,"aqi":372,"pm10":252.4,"pm2_5":55.4,"mosquito_risk":0,"arthritis_risk":5,"migraine_risk":7,"frizz_risk":0,"updated_at":"2026-04-22T00:47:43.688452+05:30"},{"city":"Bhatinda","state":"Punjab","latitude":30.211,"longitude":74.9455,"temp":28.1,"humidity":33,"rain":0.0,"pressure":981.4,"uv_index":7.95,"wind_gusts":27.7,"aqi":74,"pm10":43.0,"pm2_5":31.0,"mosquito_risk":4,"arthritis_risk":5,"migraine_risk":7,"frizz_risk":0,"updated_at":"2026-04-22T00:47:43.688460+05:30"},{"city":"Rohtak","state":"Haryana","latitude":28.8955,"longitude":76.6066,"temp":24.5,"humidity":55,"rain":0.0,"pressure":979.1,"uv_index":7.1,"wind_gusts":33.8,"aqi":603,"pm10":702.2,"pm2_5":111.3,"mosquito_risk":0,"arthritis_risk":5,"migraine_risk":7,"frizz_risk":0,"updated_at":"2026-04-22T00:47:43.688468+05:30"},{"city":"Panipat","state":"Haryana","latitude":29.3909,"longitude":76.9635,"temp":24.3,"humidity":50,"rain":0.0,"pressure":977.7,"uv_index":7.2,"wind_gusts":32.4,"aqi":1129,"pm10":882.9,"pm2_5":131.3,"mosquito_risk":0,"arthritis_risk":5,"migraine_risk":7,"frizz_risk":0,"updated_at":"2026-04-22T00:47:43.688476+05:30"},{"city":"Mathura","state":"Uttar Pradesh","latitude":27.4924,"longitude":77.6737,"temp":28.9,"humidity":41,"rain":0.0,"pressure":984.4,"uv_index":7.65,"wind_gusts":33.5,"aqi":902,"pm10":670.6,"pm2_5":111.3,"mosquito_risk":4,"arthritis_risk":5,"migraine_risk":7,"frizz_risk":0,"updated_at":"2026-04-22T00:47:43.688484+05:30"},{"city":"Vrindavan","state":"Uttar Pradesh","latitude":27.5823,"longitude":77.7027,"temp":25.2,"humidity":51,"rain":0.0,"pressure":984.8,"uv_index":7.65,"wind_gusts":36.0,"aqi":902,"pm10":670.6,"pm2_5":111.3,"mosquito_risk":4,"arthritis_risk":5,"migraine_risk":7,"frizz_risk":0,"updated_at":"2026-04-22T00:47:43.688491+05:30"},{"city":"Ayodhya","state":"Uttar Pradesh","latitude":26.7922,"longitude":82.1998,"temp":27.8,"humidity":37,"rain":0.0,"pressure":991.5,"uv_index":8.05,"wind_gusts":43.9,"aqi":86,"pm10":264.5,"pm2_5":56.0,"mosquito_risk":4,"arthritis_risk":5,"migraine_risk":7,"frizz_risk":0,"updated_at":"2026-04-22T00:47:43.688499+05:30"},{"city":"Ratlam","state":"Madhya Pradesh","latitude":23.3315,"longitude":75.0367,"temp":27.1,"humidity":43,"rain":0.0,"pressure":954.3,"uv_index":8.5,"wind_gusts":29.9,"aqi":74,"pm10":16.7,"pm2_5":14.2,"mosquito_risk":4,"arthritis_risk":5,"migraine_risk":7,"frizz_risk":0,"updated_at":"2026-04-22T00:47:43.688506+05:30"},{"city":"Sagar","state":"Madhya Pradesh","latitude":23.8388,"longitude":78.7378,"temp":28.6,"humidity":32,"rain":0.0,"pressure":949.3,"uv_index":8.7,"wind_gusts":34.2,"aqi":68,"pm10":42.8,"pm2_5":17.8,"mosquito_risk":4,"arthritis_risk":5,"migraine_risk":7,"frizz_risk":0,"updated_at":"2026-04-22T00:47:43.688514+05:30"},{"city":"Satna","state":"Madhya Pradesh","latitude":24.6005,"longitude":80.8322,"temp":30.7,"humidity":34,"rain":0.0,"pressure":969.7,"uv_index":8.7,"wind_gusts":40.7,"aqi":84,"pm10":82.9,"pm2_5":24.9,"mosquito_risk":0,"arthritis_risk":5,"migraine_risk":7,"frizz_risk":0,"updated_at":"2026-04-22T00:47:43.688522+05:30"},{"city":"Akola","state":"Maharashtra","latitude":20.7002,"longitude":77.0082,"temp":30.5,"humidity":39,"rain":0.0,"pressure":973.7,"uv_index":8.85,"wind_gusts":26.3,"aqi":86,"pm10":32.7,"pm2_5":28.7,"mosquito_risk":0,"arthritis_risk":5,"migraine_risk":7,"frizz_risk":0,"updated_at":"2026-04-22T00:47:43.688530+05:30"},{"city":"Amravati","state":"Maharashtra","latitude":20.9374,"longitude":77.7796,"temp":28.8,"humidity":52,"rain":0.0,"pressure":965.8,"uv_index":8.9,"wind_gusts":22.7,"aqi":86,"pm10":33.1,"pm2_5":29.5,"mosquito_risk":4,"arthritis_risk":5,"migraine_risk":7,"frizz_risk":1,"updated_at":"2026-04-22T00:47:43.688539+05:30"},{"city":"Latur","state":"Maharashtra","latitude":18.4088,"longitude":76.5604,"temp":27.0,"humidity":56,"rain":0.0,"pressure":938.6,"uv_index":8.8,"wind_gusts":37.4,"aqi":126,"pm10":55.1,"pm2_5":50.9,"mosquito_risk":4,"arthritis_risk":5,"migraine_risk":7,"frizz_risk":1,"updated_at":"2026-04-22T00:47:43.688546+05:30"},{"city":"Nanded","state":"Maharashtra","latitude":19.1383,"longitude":77.3091,"temp":30.9,"humidity":50,"rain":0.0,"pressure":967.3,"uv_index":8.95,"wind_gusts":28.8,"aqi":99,"pm10":46.8,"pm2_5":42.6,"mosquito_risk":0,"arthritis_risk":5,"migraine_risk":7,"frizz_risk":1,"updated_at":"2026-04-22T00:47:43.688553+05:30"},{"city":"Gulbarga","state":"Karnataka","latitude":17.3297,"longitude":76.8343,"temp":28.5,"humidity":60,"rain":0.0,"pressure":958.0,"uv_index":8.85,"wind_gusts":56.2,"aqi":128,"pm10":46.4,"pm2_5":43.1,"mosquito_risk":4,"arthritis_risk":5,"migraine_risk":7,"frizz_risk":1,"updated_at":"2026-04-22T00:47:43.688561+05:30"},{"city":"Bidar","state":"Karnataka","latitude":17.9104,"longitude":77.5199,"temp":28.3,"humidity":58,"rain":0.0,"pressure":935.2,"uv_index":8.9,"wind_gusts":33.5,"aqi":107,"pm10":46.9,"pm2_5":44.1,"mosquito_risk":4,"arthritis_risk":5,"migraine_risk":7,"frizz_risk":1,"updated_at":"2026-04-22T00:47:43.688568+05:30"},{"city":"Hospet","state":"Karnataka","latitude":15.2689,"longitude":76.3909,"temp":27.7,"humidity":67,"rain":0.0,"pressure":955.3,"uv_index":9.25,"wind_gusts":37.8,"aqi":116,"pm10":43.1,"pm2_5":39.8,"mosquito_risk":7,"arthritis_risk":5,"migraine_risk":7,"frizz_risk":1,"updated_at":"2026-04-22T00:47:43.688575+05:30"},{"city":"Tirupur","state":"Tamil Nadu","latitude":11.1085,"longitude":77.3411,"temp":28.0,"humidity":75,"rain":0.0,"pressure":974.6,"uv_index":9.35,"wind_gusts":28.8,"aqi":68,"pm10":21.8,"pm2_5":19.7,"mosquito_risk":7,"arthritis_risk":5,"migraine_risk":7,"frizz_risk":1,"updated_at":"2026-04-22T00:47:43.688583+05:30"},{"city":"Alappuzha","state":"Kerala","latitude":9.4981,"longitude":76.3388,"temp":27.7,"humidity":81,"rain":0.0,"pressure":1008.2,"uv_index":8.9,"wind_gusts":25.6,"aqi":70,"pm10":32.1,"pm2_5":25.6,"mosquito_risk":7,"arthritis_risk":0,"migraine_risk":4,"frizz_risk":1,"updated_at":"2026-04-22T00:47:43.688590+05:30"},{"city":"Munnar","state":"Kerala","latitude":10.0889,"longitude":77.0595,"temp":21.9,"humidity":86,"rain":0.0,"pressure":856.5,"uv_index":9.6,"wind_gusts":32.4,"aqi":73,"pm10":29.8,"pm2_5":28.3,"mosquito_risk":3,"arthritis_risk":5,"migraine_risk":7,"frizz_risk":1,"updated_at":"2026-04-22T00:47:43.688599+05:30"},{"city":"Silchar","state":"Assam","latitude":24.8333,"longitude":92.7789,"temp":23.9,"humidity":89,"rain":0.0,"pressure":1003.5,"uv_index":8.2,"wind_gusts":44.6,"aqi":142,"pm10":44.6,"pm2_5":36.4,"mosquito_risk":3,"arthritis_risk":5,"migraine_risk":4,"frizz_risk":1,"updated_at":"2026-04-22T00:47:43.688606+05:30"},{"city":"Dibrugarh","state":"Assam","latitude":27.4728,"longitude":94.912,"temp":23.1,"humidity":94,"rain":0.0,"pressure":992.5,"uv_index":8.75,"wind_gusts":22.0,"aqi":60,"pm10":23.9,"pm2_5":16.5,"mosquito_risk":3,"arthritis_risk":5,"migraine_risk":7,"frizz_risk":1,"updated_at":"2026-04-22T00:47:43.688614+05:30"}]