[{"city":"Delhi","state":"Delhi","latitude":28.6139,"longitude":77.209,"temp":35.3,"humidity":54,"rain":0.0,"pressure":971.5,"uv_index":7.7,"wind_gusts":29.5,"aqi":549,"pm10":1203.3,"pm2_5":204.4,"no2":4.3,"co":207.0,"o3":133.0,"so2":11.8,"mosquito_risk":0,"arthritis_risk":5,"migraine_risk":10,"frizz_risk":1,"updated_at":"2026-07-12T14:33:45.302697+05:30"},{"city":"Mumbai","state":"Maharashtra","latitude":19.076,"longitude":72.8777,"temp":29.0,"humidity":81,"rain":0.0,"pressure":1005.0,"uv_index":7.55,"wind_gusts":57.6,"aqi":52,"pm10":35.7,"pm2_5":14.6,"no2":3.0,"co":122.0,"o3":66.0,"so2":5.3,"mosquito_risk":7,"arthritis_risk":5,"migraine_risk":4,"frizz_risk":1,"updated_at":"2026-07-12T14:33:45.302748+05:30"},{"city":"Bangalore","state":"Karnataka","latitude":12.9716,"longitude":77.5946,"temp":31.9,"humidity":42,"rain":0.0,"pressure":909.6,"uv_index":8.8,"wind_gusts":47.2,"aqi":51,"pm10":37.4,"pm2_5":14.0,"no2":2.2,"co":168.0,"o3":79.0,"so2":2.2,"mosquito_risk":0,"arthritis_risk":5,"migraine_risk":7,"frizz_risk":1,"updated_at":"2026-07-12T14:33:45.302764+05:30"},{"city":"Hyderabad","state":"Telangana","latitude":17.385,"longitude":78.4867,"temp":33.0,"humidity":39,"rain":0.0,"pressure":948.6,"uv_index":8.7,"wind_gusts":53.3,"aqi":61,"pm10":44.5,"pm2_5":17.0,"no2":1.3,"co":149.0,"o3":84.0,"so2":2.5,"mosquito_risk":0,"arthritis_risk":5,"migraine_risk":7,"frizz_risk":1,"updated_at":"2026-07-12T14:33:45.302774+05:30"},{"city":"Chennai","state":"Tamil Nadu","latitude":13.0827,"longitude":80.2707,"temp":35.9,"humidity":47,"rain":0.0,"pressure":1001.2,"uv_index":8.8,"wind_gusts":42.5,"aqi":75,"pm10":49.5,"pm2_5":25.8,"no2":4.0,"co":180.0,"o3":131.0,"so2":6.3,"mosquito_risk":0,"arthritis_risk":5,"migraine_risk":7,"frizz_risk":1,"updated_at":"2026-07-12T14:33:45.302782+05:30"},{"city":"Kolkata","state":"West Bengal","latitude":22.5726,"longitude":88.3639,"temp":32.6,"humidity":71,"rain":0.0,"pressure":994.4,"uv_index":8.65,"wind_gusts":24.1,"aqi":143,"pm10":76.4,"pm2_5":48.1,"no2":6.2,"co":355.0,"o3":121.0,"so2":20.8,"mosquito_risk":3,"arthritis_risk":5,"migraine_risk":7,"frizz_risk":1,"updated_at":"2026-07-12T14:33:45.302790+05:30"},{"city":"Pune","state":"Maharashtra","latitude":18.5204,"longitude":73.8567,"temp":29.3,"humidity":62,"rain":0.0,"pressure":944.7,"uv_index":8.35,"wind_gusts":55.4,"aqi":33,"pm10":38.6,"pm2_5":13.2,"no2":1.2,"co":107.0,"o3":64.0,"so2":3.1,"mosquito_risk":7,"arthritis_risk":5,"migraine_risk":7,"frizz_risk":1,"updated_at":"2026-07-12T14:33:45.302797+05:30"},{"city":"Ahmedabad","state":"Gujarat","latitude":23.0225,"longitude":72.5714,"temp":36.7,"humidity":41,"rain":0.0,"pressure":993.2,"uv_index":8.1,"wind_gusts":51.5,"aqi":65,"pm10":51.8,"pm2_5":21.2,"no2":1.3,"co":113.0,"o3":84.0,"so2":3.3,"mosquito_risk":0,"arthritis_risk":5,"migraine_risk":10,"frizz_risk":1,"updated_at":"2026-07-12T14:33:45.302804+05:30"},{"city":"Jaipur","state":"Rajasthan","latitude":26.9124,"longitude":75.7873,"temp":33.8,"humidity":48,"rain":0.0,"pressure":950.3,"uv_index":8.2,"wind_gusts":37.8,"aqi":363,"pm10":415.4,"pm2_5":70.1,"no2":1.2,"co":127.0,"o3":97.0,"so2":3.3,"mosquito_risk":0,"arthritis_risk":5,"migraine_risk":7,"frizz_risk":1,"updated_at":"2026-07-12T14:33:45.302811+05:30"},{"city":"Lucknow","state":"Uttar Pradesh","latitude":26.8467,"longitude":80.9462,"temp":35.3,"humidity":55,"rain":0.0,"pressure":981.5,"uv_index":8.2,"wind_gusts":38.2,"aqi":152,"pm10":153.7,"pm2_5":48.1,"no2":1.5,"co":159.0,"o3":120.0,"so2":4.0,"mosquito_risk":0,"arthritis_risk":5,"migraine_risk":10,"frizz_risk":1,"updated_at":"2026-07-12T14:33:45.302823+05:30"},{"city":"Kanpur","state":"Uttar Pradesh","latitude":26.4499,"longitude":80.3319,"temp":35.2,"humidity":53,"rain":0.0,"pressure":980.3,"uv_index":7.9,"wind_gusts":40.3,"aqi":129,"pm10":129.9,"pm2_5":41.8,"no2":1.5,"co":131.0,"o3":114.0,"so2":4.3,"mosquito_risk":0,"arthritis_risk":5,"migraine_risk":10,"frizz_risk":1,"updated_at":"2026-07-12T14:33:45.302830+05:30"},{"city":"Chandigarh","state":"Chandigarh","latitude":30.7333,"longitude":76.7794,"temp":34.6,"humidity":53,"rain":0.0,"pressure":957.1,"uv_index":7.7,"wind_gusts":25.9,"aqi":155,"pm10":280.3,"pm2_5":89.9,"no2":2.1,"co":456.0,"o3":165.0,"so2":10.3,"mosquito_risk":0,"arthritis_risk":5,"migraine_risk":7,"frizz_risk":1,"updated_at":"2026-07-12T14:33:45.302837+05:30"},{"city":"Srinagar","state":"Jammu and Kashmir","latitude":34.0837,"longitude":74.7973,"temp":22.3,"humidity":72,"rain":0.0,"pressure":836.2,"uv_index":8.3,"wind_gusts":24.8,"aqi":57,"pm10":8.7,"pm2_5":7.5,"no2":1.8,"co":301.0,"o3":142.0,"so2":1.8,"mosquito_risk":3,"arthritis_risk":5,"migraine_risk":7,"frizz_risk":1,"updated_at":"2026-07-12T14:33:45.302845+05:30"},{"city":"Jammu","state":"Jammu and Kashmir","latitude":32.7266,"longitude":74.857,"temp":31.9,"humidity":65,"rain":0.0,"pressure":961.9,"uv_index":8.6,"wind_gusts":27.7,"aqi":113,"pm10":104.8,"pm2_5":44.7,"no2":1.7,"co":351.0,"o3":157.0,"so2":3.2,"mosquito_risk":3,"arthritis_risk":5,"migraine_risk":7,"frizz_risk":1,"updated_at":"2026-07-12T14:33:45.302853+05:30"},{"city":"Amritsar","state":"Punjab","latitude":31.634,"longitude":74.8723,"temp":32.7,"humidity":66,"rain":0.0,"pressure":968.9,"uv_index":8.45,"wind_gusts":37.1,"aqi":162,"pm10":259.8,"pm2_5":84.5,"no2":2.0,"co":268.0,"o3":149.0,"so2":6.2,"mosquito_risk":3,"arthritis_risk":5,"migraine_risk":7,"frizz_risk":1,"updated_at":"2026-07-12T14:33:45.302860+05:30"},{"city":"Ludhiana","state":"Punjab","latitude":30.901,"longitude":75.8573,"temp":34.0,"humidity":62,"rain":0.0,"pressure":966.6,"uv_index":7.95,"wind_gusts":41.0,"aqi":171,"pm10":409.8,"pm2_5":109.7,"no2":2.2,"co":326.0,"o3":150.0,"so2":7.1,"mosquito_risk":3,"arthritis_risk":5,"migraine_risk":7,"frizz_risk":1,"updated_at":"2026-07-12T14:33:45.302867+05:30"},{"city":"Jalandhar","state":"Punjab","latitude":31.326,"longitude":75.5762,"temp":33.4,"humidity":65,"rain":0.0,"pressure":967.7,"uv_index":8.15,"wind_gusts":47.9,"aqi":166,"pm10":336.2,"pm2_5":98.7,"no2":2.1,"co":291.0,"o3":150.0,"so2":6.2,"mosquito_risk":3,"arthritis_risk":5,"migraine_risk":7,"frizz_risk":1,"updated_at":"2026-07-12T14:33:45.302874+05:30"},{"city":"Dehradun","state":"Uttarakhand","latitude":30.6284,"longitude":78.0322,"temp":25.1,"humidity":75,"rain":0.1,"pressure":824.9,"uv_index":8.05,"wind_gusts":29.9,"aqi":67,"pm10":73.8,"pm2_5":31.0,"no2":0.6,"co":229.0,"o3":134.0,"so2":3.1,"mosquito_risk":10,"arthritis_risk":5,"migraine_risk":7,"frizz_risk":1,"updated_at":"2026-07-12T14:33:45.302882+05:30"},{"city":"Shimla","state":"Himachal Pradesh","latitude":31.1048,"longitude":77.1734,"temp":25.4,"humidity":39,"rain":0.0,"pressure":781.6,"uv_index":8.25,"wind_gusts":40.3,"aqi":99,"pm10":74.7,"pm2_5":35.0,"no2":1.1,"co":193.0,"o3":136.0,"so2":6.5,"mosquito_risk":4,"arthritis_risk":5,"migraine_risk":7,"frizz_risk":0,"updated_at":"2026-07-12T14:33:45.302889+05:30"},{"city":"Manali","state":"Himachal Pradesh","latitude":32.2396,"longitude":77.1887,"temp":27.0,"humidity":56,"rain":0.0,"pressure":815.1,"uv_index":9.4,"wind_gusts":34.6,"aqi":65,"pm10":4.8,"pm2_5":3.4,"no2":0.7,"co":215.0,"o3":152.0,"so2":0.9,"mosquito_risk":4,"arthritis_risk":5,"migraine_risk":7,"frizz_risk":1,"updated_at":"2026-07-12T14:33:45.302901+05:30"},{"city":"Gurgaon","state":"Haryana","latitude":28.4595,"longitude":77.0266,"temp":35.6,"humidity":52,"rain":0.0,"pressure":970.1,"uv_index":7.7,"wind_gusts":32.4,"aqi":622,"pm10":815.8,"pm2_5":153.7,"no2":3.7,"co":156.0,"o3":127.0,"so2":8.9,"mosquito_risk":0,"arthritis_risk":5,"migraine_risk":10,"frizz_risk":1,"updated_at":"2026-07-12T14:33:45.302909+05:30"},{"city":"Noida","state":"Uttar Pradesh","latitude":28.5355,"longitude":77.391,"temp":35.8,"humidity":53,"rain":0.0,"pressure":972.9,"uv_index":7.7,"wind_gusts":28.1,"aqi":622,"pm10":815.8,"pm2_5":153.7,"no2":3.7,"co":200.0,"o3":127.0,"so2":8.9,"mosquito_risk":0,"arthritis_risk":5,"migraine_risk":10,"frizz_risk":1,"updated_at":"2026-07-12T14:33:45.302916+05:30"},{"city":"Ghaziabad","state":"Uttar Pradesh","latitude":28.6692,"longitude":77.4538,"temp":35.3,"humidity":55,"rain":0.0,"pressure":971.1,"uv_index":7.7,"wind_gusts":29.2,"aqi":450,"pm10":983.5,"pm2_5":188.6,"no2":3.6,"co":174.0,"o3":154.0,"so2":14.9,"mosquito_risk":0,"arthritis_risk":5,"migraine_risk":10,"frizz_risk":1,"updated_at":"2026-07-12T14:33:45.302922+05:30"},{"city":"Faridabad","state":"Haryana","latitude":28.4089,"longitude":77.3178,"temp":35.5,"humidity":52,"rain":0.0,"pressure":972.2,"uv_index":7.75,"wind_gusts":31.3,"aqi":622,"pm10":815.8,"pm2_5":153.7,"no2":3.7,"co":169.0,"o3":127.0,"so2":8.9,"mosquito_risk":0,"arthritis_risk":5,"migraine_risk":10,"frizz_risk":1,"updated_at":"2026-07-12T14:33:45.302928+05:30"},{"city":"Meerut","state":"Uttar Pradesh","latitude":28.9845,"longitude":77.7064,"temp":35.0,"humidity":57,"rain":0.0,"pressure":969.7,"uv_index":7.6,"wind_gusts":31.7,"aqi":450,"pm10":983.5,"pm2_5":188.6,"no2":3.6,"co":163.0,"o3":154.0,"so2":14.9,"mosquito_risk":0,"arthritis_risk":5,"migraine_risk":7,"frizz_risk":1,"updated_at":"2026-07-12T14:33:45.302935+05:30"},{"city":"Agra","state":"Uttar Pradesh","latitude":27.1767,"longitude":78.0081,"temp":35.2,"humidity":52,"rain":0.0,"pressure":976.7,"uv_index":8.0,"wind_gusts":38.2,"aqi":135,"pm10":255.2,"pm2_5":55.5,"no2":1.5,"co":126.0,"o3":108.0,"so2":3.2,"mosquito_risk":0,"arthritis_risk":5,"migraine_risk":10,"frizz_risk":1,"updated_at":"2026-07-12T14:33:45.302942+05:30"},{"city":"Varanasi","state":"Uttar Pradesh","latitude":25.3176,"longitude":82.9739,"temp":34.5,"humidity":53,"rain":0.0,"pressure":986.1,"uv_index":8.4,"wind_gusts":37.4,"aqi":97,"pm10":67.8,"pm2_5":32.1,"no2":1.6,"co":183.0,"o3":130.0,"so2":6.2,"mosquito_risk":0,"arthritis_risk":5,"migraine_risk":7,"frizz_risk":1,"updated_at":"2026-07-12T14:33:45.302949+05:30"},{"city":"Prayagraj","state":"Uttar Pradesh","latitude":25.4358,"longitude":81.8463,"temp":34.6,"humidity":55,"rain":0.0,"pressure":984.8,"uv_index":8.5,"wind_gusts":41.4,"aqi":101,"pm10":69.6,"pm2_5":32.4,"no2":1.6,"co":146.0,"o3":125.0,"so2":6.5,"mosquito_risk":0,"arthritis_risk":5,"migraine_risk":7,"frizz_risk":1,"updated_at":"2026-07-12T14:33:45.302957+05:30"},{"city":"Gorakhpur","state":"Uttar Pradesh","latitude":26.7606,"longitude":83.3732,"temp":34.8,"humidity":57,"rain":0.0,"pressure":984.6,"uv_index":6.8,"wind_gusts":38.9,"aqi":142,"pm10":168.6,"pm2_5":61.5,"no2":1.6,"co":202.0,"o3":134.0,"so2":5.4,"mosquito_risk":0,"arthritis_risk":5,"migraine_risk":7,"frizz_risk":1,"updated_at":"2026-07-12T14:33:45.302964+05:30"},{"city":"Bareilly","state":"Uttar Pradesh","latitude":28.367,"longitude":79.4304,"temp":35.0,"humidity":58,"rain":0.0,"pressure":974.5,"uv_index":8.0,"wind_gusts":33.8,"aqi":162,"pm10":325.0,"pm2_5":100.8,"no2":1.8,"co":190.0,"o3":152.0,"so2":9.2,"mosquito_risk":0,"arthritis_risk":5,"migraine_risk":7,"frizz_risk":1,"updated_at":"2026-07-12T14:33:45.302972+05:30"},{"city":"Aligarh","state":"Uttar Pradesh","latitude":27.8974,"longitude":78.088,"temp":35.1,"humidity":54,"rain":0.0,"pressure":974.2,"uv_index":7.85,"wind_gusts":36.0,"aqi":525,"pm10":856.8,"pm2_5":156.0,"no2":2.1,"co":136.0,"o3":118.0,"so2":6.8,"mosquito_risk":0,"arthritis_risk":5,"migraine_risk":10,"frizz_risk":1,"updated_at":"2026-07-12T14:33:45.302979+05:30"},{"city":"Moradabad","state":"Uttar Pradesh","latitude":28.8386,"longitude":78.7733,"temp":34.6,"humidity":60,"rain":0.1,"pressure":971.5,"uv_index":7.8,"wind_gusts":36.0,"aqi":175,"pm10":379.0,"pm2_5":117.8,"no2":2.8,"co":232.0,"o3":189.0,"so2":12.7,"mosquito_risk":3,"arthritis_risk":5,"migraine_risk":7,"frizz_risk":1,"updated_at":"2026-07-12T14:33:45.302985+05:30"},{"city":"Saharanpur","state":"Uttar Pradesh","latitude":29.9637,"longitude":77.546,"temp":34.2,"humidity":63,"rain":0.0,"pressure":963.7,"uv_index":7.35,"wind_gusts":25.9,"aqi":164,"pm10":309.2,"pm2_5":97.8,"no2":2.5,"co":274.0,"o3":176.0,"so2":18.6,"mosquito_risk":3,"arthritis_risk":5,"migraine_risk":7,"frizz_risk":1,"updated_at":"2026-07-12T14:33:45.302992+05:30"},{"city":"Jhansi","state":"Uttar Pradesh","latitude":25.4484,"longitude":78.5685,"temp":34.6,"humidity":49,"rain":0.0,"pressure":968.3,"uv_index":8.35,"wind_gusts":45.0,"aqi":84,"pm10":90.3,"pm2_5":35.6,"no2":1.3,"co":127.0,"o3":109.0,"so2":6.8,"mosquito_risk":0,"arthritis_risk":5,"migraine_risk":7,"frizz_risk":1,"updated_at":"2026-07-12T14:33:48.583912+05:30"},{"city":"Surat","state":"Gujarat","latitude":21.1702,"longitude":72.8311,"temp":30.9,"humidity":73,"rain":0.0,"pressure":1000.9,"uv_index":5.9,"wind_gusts":66.6,"aqi":57,"pm10":41.3,"pm2_5":19.5,"no2":5.6,"co":171.0,"o3":50.0,"so2":18.9,"mosquito_risk":3,"arthritis_risk":5,"migraine_risk":0,"frizz_risk":1,"updated_at":"2026-07-12T14:33:48.583945+05:30"},{"city":"Vadodara","state":"Gujarat","latitude":22.3072,"longitude":73.1812,"temp":32.8,"humidity":63,"rain":0.0,"pressure":996.8,"uv_index":8.05,"wind_gusts":59.0,"aqi":57,"pm10":55.4,"pm2_5":21.4,"no2":1.4,"co":111.0,"o3":79.0,"so2":3.4,"mosquito_risk":3,"arthritis_risk":5,"migraine_risk":7,"frizz_risk":1,"updated_at":"2026-07-12T14:33:48.583956+05:30"},{"city":"Rajkot","state":"Gujarat","latitude":22.3039,"longitude":70.8022,"temp":35.0,"humidity":47,"rain":0.0,"pressure":985.9,"uv_index":7.7,"wind_gusts":61.2,"aqi":60,"pm10":58.0,"pm2_5":21.7,"no2":0.8,"co":93.0,"o3":69.0,"so2":2.6,"mosquito_risk":0,"arthritis_risk":5,"migraine_risk":7,"frizz_risk":1,"updated_at":"2026-07-12T14:33:48.583964+05:30"},{"city":"Thane","state":"Maharashtra","latitude":19.2183,"longitude":72.9781,"temp":30.5,"humidity":71,"rain":0.1,"pressure":1004.1,"uv_index":7.0,"wind_gusts":50.4,"aqi":52,"pm10":35.7,"pm2_5":14.6,"no2":3.0,"co":121.0,"o3":66.0,"so2":5.3,"mosquito_risk":6,"arthritis_risk":5,"migraine_risk":4,"frizz_risk":1,"updated_at":"2026-07-12T14:33:48.583972+05:30"},{"city":"Nagpur","state":"Maharashtra","latitude":21.1458,"longitude":79.0882,"temp":32.2,"humidity":52,"rain":0.0,"pressure":966.6,"uv_index":8.45,"wind_gusts":42.1,"aqi":75,"pm10":65.7,"pm2_5":26.2,"no2":4.3,"co":127.0,"o3":86.0,"so2":13.3,"mosquito_risk":0,"arthritis_risk":5,"migraine_risk":7,"frizz_risk":1,"updated_at":"2026-07-12T14:33:48.583980+05:30"},{"city":"Nashik","state":"Maharashtra","latitude":19.9975,"longitude":73.7898,"temp":29.2,"humidity":63,"rain":0.0,"pressure":940.9,"uv_index":8.05,"wind_gusts":65.2,"aqi":34,"pm10":36.3,"pm2_5":13.9,"no2":1.0,"co":97.0,"o3":66.0,"so2":2.8,"mosquito_risk":7,"arthritis_risk":5,"migraine_risk":7,"frizz_risk":1,"updated_at":"2026-07-12T14:33:48.583988+05:30"},{"city":"Aurangabad","state":"Maharashtra","latitude":19.8762,"longitude":75.3433,"temp":32.6,"humidity":45,"rain":0.0,"pressure":939.2,"uv_index":8.95,"wind_gusts":55.4,"aqi":48,"pm10":49.1,"pm2_5":18.8,"no2":1.0,"co":110.0,"o3":94.0,"so2":4.6,"mosquito_risk":0,"arthritis_risk":5,"migraine_risk":7,"frizz_risk":1,"updated_at":"2026-07-12T14:33:48.583995+05:30"},{"city":"Solapur","state":"Maharashtra","latitude":17.6599,"longitude":75.9064,"temp":33.4,"humidity":42,"rain":0.0,"pressure":953.1,"uv_index":8.85,"wind_gusts":52.9,"aqi":49,"pm10":36.1,"pm2_5":12.7,"no2":0.8,"co":103.0,"o3":76.0,"so2":1.5,"mosquito_risk":0,"arthritis_risk":5,"migraine_risk":7,"frizz_risk":1,"updated_at":"2026-07-12T14:33:48.584003+05:30"},{"city":"Kolhapur","state":"Maharashtra","latitude":16.705,"longitude":74.2433,"temp":27.9,"humidity":67,"rain":0.0,"pressure":945.7,"uv_index":8.2,"wind_gusts":54.0,"aqi":37,"pm10":22.9,"pm2_5":9.8,"no2":1.1,"co":101.0,"o3":58.0,"so2":1.6,"mosquito_risk":7,"arthritis_risk":5,"migraine_risk":7,"frizz_risk":1,"updated_at":"2026-07-12T14:33:48.584010+05:30"},{"city":"Goa","state":"Goa","latitude":15.2993,"longitude":74.124,"temp":30.3,"humidity":69,"rain":0.1,"pressure":996.6,"uv_index":7.4,"wind_gusts":38.2,"aqi":57,"pm10":23.6,"pm2_5":10.4,"no2":0.6,"co":102.0,"o3":51.0,"so2":1.1,"mosquito_risk":6,"arthritis_risk":5,"migraine_risk":7,"frizz_risk":1,"updated_at":"2026-07-12T14:33:48.584017+05:30"},{"city":"Jodhpur","state":"Rajasthan","latitude":26.2389,"longitude":73.0243,"temp":36.4,"humidity":40,"rain":0.0,"pressure":972.2,"uv_index":8.45,"wind_gusts":52.9,"aqi":192,"pm10":397.7,"pm2_5":72.6,"no2":0.6,"co":100.0,"o3":80.0,"so2":2.0,"mosquito_risk":0,"arthritis_risk":5,"migraine_risk":10,"frizz_risk":1,"updated_at":"2026-07-12T14:33:48.584025+05:30"},{"city":"Udaipur","state":"Rajasthan","latitude":24.5854,"longitude":73.7125,"temp":31.1,"humidity":52,"rain":0.0,"pressure":938.4,"uv_index":8.8,"wind_gusts":51.8,"aqi":70,"pm10":67.3,"pm2_5":25.7,"no2":0.7,"co":104.0,"o3":85.0,"so2":3.1,"mosquito_risk":0,"arthritis_risk":5,"migraine_risk":7,"frizz_risk":1,"updated_at":"2026-07-12T14:33:48.584034+05:30"},{"city":"Kota","state":"Rajasthan","latitude":25.2138,"longitude":75.8648,"temp":34.8,"humidity":47,"rain":0.0,"pressure":969.2,"uv_index":8.3,"wind_gusts":37.1,"aqi":77,"pm10":82.7,"pm2_5":32.4,"no2":1.2,"co":124.0,"o3":105.0,"so2":5.6,"mosquito_risk":0,"arthritis_risk":5,"migraine_risk":7,"frizz_risk":1,"updated_at":"2026-07-12T14:33:48.584041+05:30"},{"city":"Bikaner","state":"Rajasthan","latitude":28.0229,"longitude":73.3119,"temp":37.7,"humidity":38,"rain":0.0,"pressure":970.2,"uv_index":8.45,"wind_gusts":41.0,"aqi":159,"pm10":155.5,"pm2_5":51.3,"no2":0.4,"co":105.0,"o3":89.0,"so2":3.3,"mosquito_risk":0,"arthritis_risk":5,"migraine_risk":10,"frizz_risk":1,"updated_at":"2026-07-12T14:33:48.584049+05:30"},{"city":"Ajmer","state":"Rajasthan","latitude":26.4499,"longitude":74.6399,"temp":32.6,"humidity":49,"rain":0.0,"pressure":945.5,"uv_index":8.35,"wind_gusts":48.2,"aqi":73,"pm10":69.6,"pm2_5":27.7,"no2":0.8,"co":111.0,"o3":93.0,"so2":2.9,"mosquito_risk":0,"arthritis_risk":5,"migraine_risk":7,"frizz_risk":1,"updated_at":"2026-07-12T14:33:48.584056+05:30"},{"city":"Gwalior","state":"Madhya Pradesh","latitude":26.2183,"longitude":78.1828,"temp":34.1,"humidity":53,"rain":0.0,"pressure":972.9,"uv_index":8.15,"wind_gusts":43.2,"aqi":83,"pm10":101.3,"pm2_5":34.7,"no2":0.8,"co":111.0,"o3":96.0,"so2":2.6,"mosquito_risk":0,"arthritis_risk":5,"migraine_risk":7,"frizz_risk":1,"updated_at":"2026-07-12T14:33:48.584064+05:30"},{"city":"Indore","state":"Madhya Pradesh","latitude":22.7196,"longitude":75.8577,"temp":30.6,"humidity":58,"rain":0.0,"pressure":941.4,"uv_index":8.55,"wind_gusts":52.9,"aqi":62,"pm10":69.8,"pm2_5":28.9,"no2":1.7,"co":140.0,"o3":87.0,"so2":4.7,"mosquito_risk":0,"arthritis_risk":5,"migraine_risk":7,"frizz_risk":1,"updated_at":"2026-07-12T14:33:48.584071+05:30"},{"city":"Bhopal","state":"Madhya Pradesh","latitude":23.2599,"longitude":77.4126,"temp":30.3,"humidity":59,"rain":0.0,"pressure":946.6,"uv_index":8.3,"wind_gusts":43.2,"aqi":69,"pm10":71.9,"pm2_5":27.6,"no2":1.2,"co":152.0,"o3":82.0,"so2":3.8,"mosquito_risk":0,"arthritis_risk":5,"migraine_risk":7,"frizz_risk":1,"updated_at":"2026-07-12T14:33:48.584079+05:30"},{"city":"Jabalpur","state":"Madhya Pradesh","latitude":23.1815,"longitude":79.9864,"temp":31.8,"humidity":59,"rain":0.0,"pressure":953.8,"uv_index":6.2,"wind_gusts":38.5,"aqi":76,"pm10":59.1,"pm2_5":24.6,"no2":1.2,"co":134.0,"o3":95.0,"so2":3.9,"mosquito_risk":0,"arthritis_risk":5,"migraine_risk":7,"frizz_risk":1,"updated_at":"2026-07-12T14:33:48.584086+05:30"},{"city":"Ujjain","state":"Madhya Pradesh","latitude":23.1765,"longitude":75.7885,"temp":31.5,"humidity":55,"rain":0.0,"pressure":946.7,"uv_index":8.45,"wind_gusts":51.5,"aqi":61,"pm10":71.7,"pm2_5":28.9,"no2":1.2,"co":131.0,"o3":84.0,"so2":3.7,"mosquito_risk":0,"arthritis_risk":5,"migraine_risk":7,"frizz_risk":1,"updated_at":"2026-07-12T14:33:48.584115+05:30"},{"city":"Visakhapatnam","state":"Andhra Pradesh","latitude":17.6868,"longitude":83.2185,"temp":37.0,"humidity":42,"rain":0.0,"pressure":994.3,"uv_index":8.6,"wind_gusts":41.4,"aqi":105,"pm10":60.8,"pm2_5":31.3,"no2":5.2,"co":245.0,"o3":146.0,"so2":20.2,"mosquito_risk":0,"arthritis_risk":5,"migraine_risk":10,"frizz_risk":1,"updated_at":"2026-07-12T14:33:48.584124+05:30"},{"city":"Vijayawada","state":"Andhra Pradesh","latitude":16.5062,"longitude":80.648,"temp":36.2,"humidity":40,"rain":0.0,"pressure":995.6,"uv_index":7.45,"wind_gusts":45.0,"aqi":91,"pm10":49.1,"pm2_5":19.4,"no2":1.2,"co":130.0,"o3":95.0,"so2":3.6,"mosquito_risk":0,"arthritis_risk":5,"migraine_risk":10,"frizz_risk":1,"updated_at":"2026-07-12T14:33:48.584131+05:30"},{"city":"Guntur","state":"Andhra Pradesh","latitude":16.3067,"longitude":80.4365,"temp":36.9,"humidity":36,"rain":0.0,"pressure":996.9,"uv_index":7.8,"wind_gusts":45.4,"aqi":82,"pm10":51.5,"pm2_5":20.1,"no2":1.1,"co":129.0,"o3":93.0,"so2":3.0,"mosquito_risk":0,"arthritis_risk":5,"migraine_risk":10,"frizz_risk":1,"updated_at":"2026-07-12T14:33:48.584139+05:30"},{"city":"Nellore","state":"Andhra Pradesh","latitude":14.4426,"longitude":79.9865,"temp":37.8,"humidity":33,"rain":0.0,"pressure":999.2,"uv_index":8.1,"wind_gusts":45.7,"aqi":71,"pm10":61.5,"pm2_5":20.7,"no2":1.8,"co":110.0,"o3":100.0,"so2":4.7,"mosquito_risk":0,"arthritis_risk":5,"migraine_risk":10,"frizz_risk":1,"updated_at":"2026-07-12T14:33:48.584147+05:30"},{"city":"Kurnool","state":"Andhra Pradesh","latitude":15.8281,"longitude":78.0373,"temp":35.6,"humidity":38,"rain":0.0,"pressure":972.1,"uv_index":8.1,"wind_gusts":48.2,"aqi":57,"pm10":43.7,"pm2_5":17.1,"no2":1.1,"co":110.0,"o3":92.0,"so2":4.6,"mosquito_risk":0,"arthritis_risk":5,"migraine_risk":10,"frizz_risk":1,"updated_at":"2026-07-12T14:33:48.584156+05:30"},{"city":"Kakinada","state":"Andhra Pradesh","latitude":16.9891,"longitude":82.2475,"temp":35.9,"humidity":44,"rain":0.0,"pressure":999.2,"uv_index":8.4,"wind_gusts":47.5,"aqi":92,"pm10":56.0,"pm2_5":22.8,"no2":1.8,"co":144.0,"o3":122.0,"so2":3.8,"mosquito_risk":0,"arthritis_risk":5,"migraine_risk":10,"frizz_risk":1,"updated_at":"2026-07-12T14:33:48.584163+05:30"},{"city":"Tirupati","state":"Andhra Pradesh","latitude":13.6288,"longitude":79.4192,"temp":37.7,"humidity":32,"rain":0.0,"pressure":985.2,"uv_index":8.7,"wind_gusts":33.1,"aqi":79,"pm10":66.8,"pm2_5":18.2,"no2":1.1,"co":105.0,"o3":77.0,"so2":1.5,"mosquito_risk":0,"arthritis_risk":5,"migraine_risk":10,"frizz_risk":1,"updated_at":"2026-07-12T14:33:48.584170+05:30"},{"city":"Warangal","state":"Telangana","latitude":17.9689,"longitude":79.5941,"temp":33.1,"humidity":47,"rain":0.0,"pressure":973.0,"uv_index":8.85,"wind_gusts":42.1,"aqi":75,"pm10":57.6,"pm2_5":21.5,"no2":1.0,"co":122.0,"o3":85.0,"so2":2.3,"mosquito_risk":0,"arthritis_risk":5,"migraine_risk":7,"frizz_risk":1,"updated_at":"2026-07-12T14:33:48.584177+05:30"},{"city":"Nizamabad","state":"Telangana","latitude":18.6725,"longitude":78.0941,"temp":32.0,"humidity":48,"rain":0.0,"pressure":959.8,"uv_index":8.9,"wind_gusts":45.7,"aqi":63,"pm10":49.1,"pm2_5":19.7,"no2":1.0,"co":111.0,"o3":87.0,"so2":4.3,"mosquito_risk":0,"arthritis_risk":5,"migraine_risk":7,"frizz_risk":1,"updated_at":"2026-07-12T14:33:48.584184+05:30"},{"city":"Mysore","state":"Karnataka","latitude":12.2958,"longitude":76.6396,"temp":30.8,"humidity":47,"rain":0.0,"pressure":926.2,"uv_index":8.5,"wind_gusts":47.2,"aqi":41,"pm10":34.7,"pm2_5":12.3,"no2":1.4,"co":109.0,"o3":70.0,"so2":1.4,"mosquito_risk":0,"arthritis_risk":5,"migraine_risk":7,"frizz_risk":1,"updated_at":"2026-07-12T14:33:48.584191+05:30"},{"city":"Mangalore","state":"Karnataka","latitude":12.9141,"longitude":74.856,"temp":29.3,"humidity":72,"rain":0.0,"pressure":1005.8,"uv_index":6.75,"wind_gusts":41.8,"aqi":42,"pm10":20.8,"pm2_5":9.6,"no2":0.7,"co":88.0,"o3":52.0,"so2":1.2,"mosquito_risk":7,"arthritis_risk":5,"migraine_risk":4,"frizz_risk":1,"updated_at":"2026-07-12T14:33:48.584198+05:30"},{"city":"Hubli-Dharwad","state":"Karnataka","latitude":15.3647,"longitude":75.124,"temp":29.6,"humidity":56,"rain":0.0,"pressure":939.0,"uv_index":8.85,"wind_gusts":51.1,"aqi":31,"pm10":19.5,"pm2_5":8.0,"no2":0.9,"co":96.0,"o3":55.0,"so2":1.0,"mosquito_risk":4,"arthritis_risk":5,"migraine_risk":7,"frizz_risk":1,"updated_at":"2026-07-12T14:33:48.584205+05:30"},{"city":"Belgaum","state":"Karnataka","latitude":15.8497,"longitude":74.4977,"temp":26.6,"humidity":71,"rain":0.0,"pressure":924.1,"uv_index":8.8,"wind_gusts":51.1,"aqi":32,"pm10":20.0,"pm2_5":8.6,"no2":0.9,"co":93.0,"o3":53.0,"so2":1.3,"mosquito_risk":7,"arthritis_risk":5,"migraine_risk":7,"frizz_risk":1,"updated_at":"2026-07-12T14:33:51.855400+05:30"},{"city":"Coimbatore","state":"Tamil Nadu","latitude":11.0168,"longitude":76.9558,"temp":31.7,"humidity":55,"rain":0.0,"pressure":958.8,"uv_index":8.2,"wind_gusts":56.5,"aqi":43,"pm10":25.0,"pm2_5":9.5,"no2":1.0,"co":114.0,"o3":69.0,"so2":1.8,"mosquito_risk":0,"arthritis_risk":5,"migraine_risk":7,"frizz_risk":1,"updated_at":"2026-07-12T14:33:51.855433+05:30"},{"city":"Madurai","state":"Tamil Nadu","latitude":9.9252,"longitude":78.1198,"temp":38.9,"humidity":31,"rain":0.0,"pressure":988.1,"uv_index":7.85,"wind_gusts":34.9,"aqi":64,"pm10":49.9,"pm2_5":14.7,"no2":1.4,"co":108.0,"o3":93.0,"so2":2.1,"mosquito_risk":0,"arthritis_risk":5,"migraine_risk":10,"frizz_risk":1,"updated_at":"2026-07-12T14:33:51.855444+05:30"},{"city":"Trichy","state":"Tamil Nadu","latitude":10.7905,"longitude":78.7047,"temp":38.8,"humidity":31,"rain":0.0,"pressure":994.5,"uv_index":8.4,"wind_gusts":55.8,"aqi":48,"pm10":39.2,"pm2_5":13.4,"no2":1.1,"co":106.0,"o3":82.0,"so2":1.8,"mosquito_risk":0,"arthritis_risk":5,"migraine_risk":10,"frizz_risk":1,"updated_at":"2026-07-12T14:33:51.855454+05:30"},{"city":"Salem","state":"Tamil Nadu","latitude":11.6643,"longitude":78.146,"temp":34.1,"humidity":48,"rain":0.0,"pressure":973.3,"uv_index":8.6,"wind_gusts":28.8,"aqi":63,"pm10":43.4,"pm2_5":16.5,"no2":2.1,"co":143.0,"o3":99.0,"so2":5.3,"mosquito_risk":0,"arthritis_risk":5,"migraine_risk":7,"frizz_risk":1,"updated_at":"2026-07-12T14:33:51.855462+05:30"},{"city":"Tirunelveli","state":"Tamil Nadu","latitude":8.7139,"longitude":77.7567,"temp":37.4,"humidity":36,"rain":0.0,"pressure":999.3,"uv_index":7.9,"wind_gusts":45.0,"aqi":31,"pm10":16.9,"pm2_5":7.3,"no2":1.0,"co":107.0,"o3":70.0,"so2":1.3,"mosquito_risk":0,"arthritis_risk":5,"migraine_risk":10,"frizz_risk":1,"updated_at":"2026-07-12T14:33:51.855471+05:30"},{"city":"Vellore","state":"Tamil Nadu","latitude":12.9165,"longitude":79.1325,"temp":38.8,"humidity":27,"rain":0.0,"pressure":978.7,"uv_index":8.25,"wind_gusts":41.0,"aqi":70,"pm10":63.3,"pm2_5":20.1,"no2":1.5,"co":141.0,"o3":95.0,"so2":2.3,"mosquito_risk":0,"arthritis_risk":5,"migraine_risk":10,"frizz_risk":1,"updated_at":"2026-07-12T14:33:51.855478+05:30"},{"city":"Erode","state":"Tamil Nadu","latitude":11.341,"longitude":77.7172,"temp":38.4,"humidity":28,"rain":0.0,"pressure":984.2,"uv_index":8.3,"wind_gusts":52.9,"aqi":54,"pm10":33.5,"pm2_5":12.8,"no2":1.5,"co":146.0,"o3":89.0,"so2":2.1,"mosquito_risk":0,"arthritis_risk":5,"migraine_risk":10,"frizz_risk":1,"updated_at":"2026-07-12T14:33:51.855485+05:30"},{"city":"Kochi","state":"Kerala","latitude":9.9312,"longitude":76.2673,"temp":29.2,"humidity":76,"rain":0.0,"pressure":1007.6,"uv_index":7.65,"wind_gusts":43.9,"aqi":50,"pm10":17.8,"pm2_5":8.9,"no2":1.4,"co":96.0,"o3":63.0,"so2":2.0,"mosquito_risk":7,"arthritis_risk":5,"migraine_risk":4,"frizz_risk":1,"updated_at":"2026-07-12T14:33:51.855493+05:30"},{"city":"Thiruvananthapuram","state":"Kerala","latitude":8.5241,"longitude":76.9366,"temp":28.9,"humidity":77,"rain":0.0,"pressure":1006.9,"uv_index":7.7,"wind_gusts":49.0,"aqi":36,"pm10":18.5,"pm2_5":9.9,"no2":1.4,"co":88.0,"o3":65.0,"so2":1.2,"mosquito_risk":7,"arthritis_risk":5,"migraine_risk":4,"frizz_risk":1,"updated_at":"2026-07-12T14:33:51.855500+05:30"},{"city":"Kozhikode","state":"Kerala","latitude":11.2588,"longitude":75.7804,"temp":29.6,"humidity":73,"rain":0.0,"pressure":1006.7,"uv_index":7.95,"wind_gusts":45.7,"aqi":36,"pm10":18.1,"pm2_5":8.4,"no2":0.4,"co":89.0,"o3":57.0,"so2":1.0,"mosquito_risk":7,"arthritis_risk":5,"migraine_risk":4,"frizz_risk":1,"updated_at":"2026-07-12T14:33:51.855507+05:30"},{"city":"Thrissur","state":"Kerala","latitude":10.5276,"longitude":76.2144,"temp":29.8,"humidity":72,"rain":0.1,"pressure":1005.8,"uv_index":7.7,"wind_gusts":41.0,"aqi":43,"pm10":17.5,"pm2_5":8.8,"no2":0.9,"co":93.0,"o3":60.0,"so2":1.5,"mosquito_risk":10,"arthritis_risk":5,"migraine_risk":4,"frizz_risk":1,"updated_at":"2026-07-12T14:33:51.855515+05:30"},{"city":"Kannur","state":"Kerala","latitude":11.8745,"longitude":75.3704,"temp":29.7,"humidity":73,"rain":0.0,"pressure":1006.2,"uv_index":8.2,"wind_gusts":46.4,"aqi":39,"pm10":19.8,"pm2_5":9.7,"no2":0.9,"co":88.0,"o3":54.0,"so2":1.2,"mosquito_risk":7,"arthritis_risk":5,"migraine_risk":4,"frizz_risk":1,"updated_at":"2026-07-12T14:33:51.855522+05:30"},{"city":"Patna","state":"Bihar","latitude":25.5941,"longitude":85.1376,"temp":34.8,"humidity":54,"rain":0.0,"pressure":988.0,"uv_index":8.6,"wind_gusts":39.6,"aqi":139,"pm10":96.9,"pm2_5":50.1,"no2":2.5,"co":192.0,"o3":142.0,"so2":6.0,"mosquito_risk":0,"arthritis_risk":5,"migraine_risk":7,"frizz_risk":1,"updated_at":"2026-07-12T14:33:51.855530+05:30"},{"city":"Gaya","state":"Bihar","latitude":24.7914,"longitude":85.0002,"temp":35.0,"humidity":53,"rain":0.0,"pressure":982.2,"uv_index":8.85,"wind_gusts":41.8,"aqi":109,"pm10":70.1,"pm2_5":37.8,"no2":1.5,"co":164.0,"o3":127.0,"so2":5.5,"mosquito_risk":0,"arthritis_risk":5,"migraine_risk":7,"frizz_risk":1,"updated_at":"2026-07-12T14:33:51.855537+05:30"},{"city":"Muzaffarpur","state":"Bihar","latitude":26.1209,"longitude":85.3647,"temp":33.8,"humidity":66,"rain":0.0,"pressure":987.5,"uv_index":7.2,"wind_gusts":42.5,"aqi":129,"pm10":105.5,"pm2_5":50.8,"no2":3.0,"co":266.0,"o3":136.0,"so2":6.1,"mosquito_risk":3,"arthritis_risk":5,"migraine_risk":7,"frizz_risk":1,"updated_at":"2026-07-12T14:33:51.855543+05:30"},{"city":"Bhagalpur","state":"Bihar","latitude":25.2425,"longitude":87.0117,"temp":33.0,"humidity":69,"rain":0.1,"pressure":988.5,"uv_index":8.45,"wind_gusts":40.3,"aqi":103,"pm10":86.8,"pm2_5":56.3,"no2":3.6,"co":208.0,"o3":157.0,"so2":13.4,"mosquito_risk":6,"arthritis_risk":5,"migraine_risk":7,"frizz_risk":1,"updated_at":"2026-07-12T14:33:51.855550+05:30"},{"city":"Ranchi","state":"Jharkhand","latitude":23.3441,"longitude":85.3096,"temp":31.4,"humidity":59,"rain":0.1,"pressure":928.7,"uv_index":9.2,"wind_gusts":37.8,"aqi":96,"pm10":57.7,"pm2_5":27.9,"no2":1.5,"co":147.0,"o3":118.0,"so2":6.9,"mosquito_risk":3,"arthritis_risk":5,"migraine_risk":7,"frizz_risk":1,"updated_at":"2026-07-12T14:33:51.855556+05:30"},{"city":"Jamshedpur","state":"Jharkhand","latitude":22.8046,"longitude":86.2029,"temp":33.8,"humidity":58,"rain":0.0,"pressure":979.8,"uv_index":9.1,"wind_gusts":29.2,"aqi":117,"pm10":76.4,"pm2_5":39.0,"no2":3.1,"co":184.0,"o3":135.0,"so2":13.4,"mosquito_risk":0,"arthritis_risk":5,"migraine_risk":7,"frizz_risk":1,"updated_at":"2026-07-12T14:33:51.855563+05:30"},{"city":"Dhanbad","state":"Jharkhand","latitude":23.7957,"longitude":86.4304,"temp":33.9,"humidity":60,"rain":0.0,"pressure":968.6,"uv_index":9.0,"wind_gusts":29.9,"aqi":150,"pm10":77.1,"pm2_5":42.1,"no2":8.0,"co":154.0,"o3":137.0,"so2":33.8,"mosquito_risk":0,"arthritis_risk":5,"migraine_risk":7,"frizz_risk":1,"updated_at":"2026-07-12T14:33:51.855570+05:30"},{"city":"Bokaro","state":"Jharkhand","latitude":23.6693,"longitude":86.1511,"temp":34.4,"humidity":56,"rain":0.0,"pressure":972.4,"uv_index":9.1,"wind_gusts":32.4,"aqi":140,"pm10":73.1,"pm2_5":40.5,"no2":8.8,"co":162.0,"o3":142.0,"so2":38.6,"mosquito_risk":0,"arthritis_risk":5,"migraine_risk":7,"frizz_risk":1,"updated_at":"2026-07-12T14:33:51.855577+05:30"},{"city":"Bhubaneswar","state":"Odisha","latitude":20.2961,"longitude":85.8245,"temp":34.1,"humidity":58,"rain":0.0,"pressure":992.4,"uv_index":8.5,"wind_gusts":37.1,"aqi":128,"pm10":69.6,"pm2_5":35.0,"no2":2.6,"co":154.0,"o3":130.0,"so2":10.5,"mosquito_risk":0,"arthritis_risk":5,"migraine_risk":7,"frizz_risk":1,"updated_at":"2026-07-12T14:33:51.855584+05:30"},{"city":"Cuttack","state":"Odisha","latitude":20.4625,"longitude":85.8828,"temp":34.4,"humidity":58,"rain":0.0,"pressure":994.0,"uv_index":8.5,"wind_gusts":39.6,"aqi":128,"pm10":69.6,"pm2_5":35.0,"no2":2.6,"co":182.0,"o3":130.0,"so2":10.5,"mosquito_risk":0,"arthritis_risk":5,"migraine_risk":7,"frizz_risk":1,"updated_at":"2026-07-12T14:33:51.855591+05:30"},{"city":"Rourkela","state":"Odisha","latitude":22.2604,"longitude":84.8536,"temp":34.2,"humidity":55,"rain":0.0,"pressure":974.5,"uv_index":8.8,"wind_gusts":32.8,"aqi":117,"pm10":59.8,"pm2_5":30.4,"no2":1.7,"co":202.0,"o3":126.0,"so2":7.1,"mosquito_risk":0,"arthritis_risk":5,"migraine_risk":7,"frizz_risk":1,"updated_at":"2026-07-12T14:33:51.855598+05:30"},{"city":"Raipur","state":"Chhattisgarh","latitude":21.2514,"longitude":81.6296,"temp":33.0,"humidity":53,"rain":0.0,"pressure":966.8,"uv_index":8.3,"wind_gusts":45.7,"aqi":104,"pm10":59.4,"pm2_5":30.9,"no2":6.0,"co":130.0,"o3":115.0,"so2":24.2,"mosquito_risk":0,"arthritis_risk":5,"migraine_risk":7,"frizz_risk":1,"updated_at":"2026-07-12T14:33:51.855605+05:30"},{"city":"Bhilai","state":"Chhattisgarh","latitude":21.1938,"longitude":81.3509,"temp":32.3,"humidity":55,"rain":0.0,"pressure":967.5,"uv_index":7.4,"wind_gusts":47.2,"aqi":97,"pm10":58.1,"pm2_5":28.0,"no2":5.5,"co":289.0,"o3":104.0,"so2":19.4,"mosquito_risk":0,"arthritis_risk":5,"migraine_risk":7,"frizz_risk":1,"updated_at":"2026-07-12T14:33:51.855611+05:30"},{"city":"Guwahati","state":"Assam","latitude":26.1158,"longitude":91.7086,"temp":28.8,"humidity":92,"rain":0.2,"pressure":988.9,"uv_index":3.65,"wind_gusts":16.2,"aqi":41,"pm10":5.9,"pm2_5":5.7,"no2":2.0,"co":299.0,"o3":110.0,"so2":1.6,"mosquito_risk":10,"arthritis_risk":5,"migraine_risk":3,"frizz_risk":1,"updated_at":"2026-07-12T14:33:51.855618+05:30"},{"city":"Agartala","state":"Tripura","latitude":23.8315,"longitude":91.2868,"temp":27.8,"humidity":93,"rain":0.4,"pressure":994.4,"uv_index":7.9,"wind_gusts":31.7,"aqi":90,"pm10":42.5,"pm2_5":37.7,"no2":13.9,"co":217.0,"o3":79.0,"so2":7.7,"mosquito_risk":10,"arthritis_risk":5,"migraine_risk":7,"frizz_risk":1,"updated_at":"2026-07-12T14:33:51.855625+05:30"},{"city":"Shillong","state":"Meghalaya","latitude":25.5788,"longitude":91.8933,"temp":24.3,"humidity":77,"rain":0.1,"pressure":849.3,"uv_index":3.3,"wind_gusts":37.1,"aqi":39,"pm10":8.3,"pm2_5":6.4,"no2":2.0,"co":242.0,"o3":97.0,"so2":2.7,"mosquito_risk":6,"arthritis_risk":5,"migraine_risk":3,"frizz_risk":1,"updated_at":"2026-07-12T14:33:51.855632+05:30"},{"city":"Imphal","state":"Manipur","latitude":24.817,"longitude":93.9368,"temp":28.5,"humidity":75,"rain":0.0,"pressure":913.6,"uv_index":7.15,"wind_gusts":24.8,"aqi":44,"pm10":19.3,"pm2_5":10.8,"no2":1.0,"co":183.0,"o3":102.0,"so2":2.4,"mosquito_risk":7,"arthritis_risk":5,"migraine_risk":7,"frizz_risk":1,"updated_at":"2026-07-12T14:33:51.855640+05:30"},{"city":"Aizawl","state":"Mizoram","latitude":23.7271,"longitude":92.7176,"temp":25.4,"humidity":73,"rain":0.0,"pressure":884.0,"uv_index":8.0,"wind_gusts":36.7,"aqi":46,"pm10":34.9,"pm2_5":17.4,"no2":0.6,"co":152.0,"o3":90.0,"so2":3.8,"mosquito_risk":7,"arthritis_risk":5,"migraine_risk":7,"frizz_risk":1,"updated_at":"2026-07-12T14:33:51.855647+05:30"},{"city":"Kohima","state":"Nagaland","latitude":25.6701,"longitude":94.1077,"temp":23.8,"humidity":94,"rain":0.0,"pressure":847.6,"uv_index":8.05,"wind_gusts":19.4,"aqi":42,"pm10":11.0,"pm2_5":7.5,"no2":1.5,"co":204.0,"o3":80.0,"so2":1.5,"mosquito_risk":3,"arthritis_risk":5,"migraine_risk":7,"frizz_risk":1,"updated_at":"2026-07-12T14:33:51.855654+05:30"},{"city":"Gangtok","state":"Sikkim","latitude":27.3314,"longitude":88.6138,"temp":21.7,"humidity":100,"rain":0.1,"pressure":830.2,"uv_index":4.55,"wind_gusts":30.2,"aqi":50,"pm10":2.2,"pm2_5":2.2,"no2":2.0,"co":228.0,"o3":109.0,"so2":1.3,"mosquito_risk":6,"arthritis_risk":5,"migraine_risk":3,"frizz_risk":1,"updated_at":"2026-07-12T14:33:51.855661+05:30"},{"city":"Siliguri","state":"West Bengal","latitude":26.7271,"longitude":88.3953,"temp":27.9,"humidity":95,"rain":0.1,"pressure":980.6,"uv_index":8.65,"wind_gusts":18.7,"aqi":54,"pm10":7.6,"pm2_5":7.6,"no2":3.3,"co":352.0,"o3":119.0,"so2":2.0,"mosquito_risk":10,"arthritis_risk":5,"migraine_risk":7,"frizz_risk":1,"updated_at":"2026-07-12T14:33:55.132674+05:30"},{"city":"Durgapur","state":"West Bengal","latitude":23.5204,"longitude":87.3119,"temp":34.5,"humidity":59,"rain":0.0,"pressure":983.3,"uv_index":5.2,"wind_gusts":28.1,"aqi":150,"pm10":80.1,"pm2_5":46.1,"no2":8.0,"co":192.0,"o3":146.0,"so2":30.5,"mosquito_risk":0,"arthritis_risk":5,"migraine_risk":3,"frizz_risk":1,"updated_at":"2026-07-12T14:33:55.132707+05:30"},{"city":"Asansol","state":"West Bengal","latitude":23.6739,"longitude":86.9524,"temp":34.5,"humidity":61,"rain":0.0,"pressure":981.8,"uv_index":8.15,"wind_gusts":29.5,"aqi":134,"pm10":81.0,"pm2_5":44.5,"no2":7.1,"co":205.0,"o3":139.0,"so2":27.2,"mosquito_risk":3,"arthritis_risk":5,"migraine_risk":7,"frizz_risk":1,"updated_at":"2026-07-12T14:33:55.132719+05:30"},{"city":"Pondicherry","state":"Puducherry","latitude":11.9139,"longitude":79.8145,"temp":35.0,"humidity":54,"rain":0.0,"pressure":1002.7,"uv_index":8.55,"wind_gusts":48.2,"aqi":68,"pm10":48.8,"pm2_5":26.2,"no2":2.9,"co":179.0,"o3":142.0,"so2":9.7,"mosquito_risk":0,"arthritis_risk":5,"migraine_risk":4,"frizz_risk":1,"updated_at":"2026-07-12T14:33:55.132728+05:30"},{"city":"Port Blair","state":"Andaman and Nicobar Islands","latitude":11.6234,"longitude":92.7265,"temp":30.0,"humidity":75,"rain":0.0,"pressure":1002.8,"uv_index":8.7,"wind_gusts":56.2,"aqi":54,"pm10":31.3,"pm2_5":15.1,"no2":0.2,"co":87.0,"o3":45.0,"so2":0.4,"mosquito_risk":7,"arthritis_risk":5,"migraine_risk":4,"frizz_risk":1,"updated_at":"2026-07-12T14:33:55.132736+05:30"},{"city":"Haridwar","state":"Uttarakhand","latitude":29.9457,"longitude":78.1642,"temp":34.4,"humidity":62,"rain":0.0,"pressure":962.1,"uv_index":7.45,"wind_gusts":37.4,"aqi":149,"pm10":244.0,"pm2_5":81.0,"no2":1.6,"co":246.0,"o3":160.0,"so2":12.8,"mosquito_risk":3,"arthritis_risk":5,"migraine_risk":7,"frizz_risk":1,"updated_at":"2026-07-12T14:33:55.132744+05:30"},{"city":"Rishikesh","state":"Uttarakhand","latitude":30.0869,"longitude":78.2676,"temp":33.8,"humidity":59,"rain":0.0,"pressure":955.1,"uv_index":7.6,"wind_gusts":24.8,"aqi":88,"pm10":197.4,"pm2_5":64.3,"no2":0.9,"co":214.0,"o3":142.0,"so2":7.8,"mosquito_risk":0,"arthritis_risk":5,"migraine_risk":7,"frizz_risk":1,"updated_at":"2026-07-12T14:33:55.132752+05:30"},{"city":"Nainital","state":"Uttarakhand","latitude":29.3919,"longitude":79.4542,"temp":23.9,"humidity":67,"rain":0.1,"pressure":800.6,"uv_index":6.3,"wind_gusts":32.4,"aqi":117,"pm10":196.0,"pm2_5":68.9,"no2":1.5,"co":218.0,"o3":160.0,"so2":12.8,"mosquito_risk":6,"arthritis_risk":5,"migraine_risk":7,"frizz_risk":1,"updated_at":"2026-07-12T14:33:55.132760+05:30"},{"city":"Mussoorie","state":"Uttarakhand","latitude":30.4599,"longitude":78.0664,"temp":23.9,"humidity":68,"rain":0.0,"pressure":798.6,"uv_index":8.0,"wind_gusts":43.6,"aqi":95,"pm10":182.1,"pm2_5":61.0,"no2":1.1,"co":213.0,"o3":141.0,"so2":7.2,"mosquito_risk":3,"arthritis_risk":5,"migraine_risk":7,"frizz_risk":1,"updated_at":"2026-07-12T14:33:55.132768+05:30"},{"city":"Dharamshala","state":"Himachal Pradesh","latitude":32.219,"longitude":76.3234,"temp":25.8,"humidity":69,"rain":0.0,"pressure":862.0,"uv_index":8.45,"wind_gusts":34.9,"aqi":81,"pm10":41.4,"pm2_5":19.6,"no2":0.5,"co":378.0,"o3":135.0,"so2":1.6,"mosquito_risk":7,"arthritis_risk":5,"migraine_risk":7,"frizz_risk":1,"updated_at":"2026-07-12T14:33:55.132776+05:30"},{"city":"Dalhousie","state":"Himachal Pradesh","latitude":32.5387,"longitude":75.971,"temp":23.1,"humidity":71,"rain":0.0,"pressure":800.1,"uv_index":8.65,"wind_gusts":25.6,"aqi":93,"pm10":88.7,"pm2_5":38.5,"no2":1.2,"co":396.0,"o3":148.0,"so2":2.6,"mosquito_risk":3,"arthritis_risk":5,"migraine_risk":7,"frizz_risk":1,"updated_at":"2026-07-12T14:33:55.132785+05:30"},{"city":"Patiala","state":"Punjab","latitude":30.3398,"longitude":76.3869,"temp":34.8,"humidity":58,"rain":0.0,"pressure":966.3,"uv_index":7.5,"wind_gusts":24.8,"aqi":164,"pm10":435.9,"pm2_5":112.5,"no2":2.2,"co":310.0,"o3":151.0,"so2":8.0,"mosquito_risk":0,"arthritis_risk":5,"migraine_risk":7,"frizz_risk":1,"updated_at":"2026-07-12T14:33:55.132792+05:30"},{"city":"Bhatinda","state":"Punjab","latitude":30.211,"longitude":74.9455,"temp":37.4,"humidity":46,"rain":0.0,"pressure":971.4,"uv_index":8.25,"wind_gusts":29.2,"aqi":363,"pm10":502.9,"pm2_5":163.9,"no2":2.6,"co":140.0,"o3":138.0,"so2":10.2,"mosquito_risk":0,"arthritis_risk":5,"migraine_risk":10,"frizz_risk":1,"updated_at":"2026-07-12T14:33:55.132800+05:30"},{"city":"Rohtak","state":"Haryana","latitude":28.8955,"longitude":76.6066,"temp":36.0,"humidity":52,"rain":0.0,"pressure":970.1,"uv_index":7.6,"wind_gusts":32.0,"aqi":819,"pm10":1255.4,"pm2_5":196.0,"no2":1.7,"co":138.0,"o3":109.0,"so2":3.5,"mosquito_risk":0,"arthritis_risk":5,"migraine_risk":10,"frizz_risk":1,"updated_at":"2026-07-12T14:33:55.132808+05:30"},{"city":"Panipat","state":"Haryana","latitude":29.3909,"longitude":76.9635,"temp":35.6,"humidity":54,"rain":0.0,"pressure":968.5,"uv_index":7.45,"wind_gusts":30.2,"aqi":922,"pm10":1981.9,"pm2_5":276.6,"no2":2.8,"co":161.0,"o3":122.0,"so2":11.4,"mosquito_risk":0,"arthritis_risk":5,"migraine_risk":10,"frizz_risk":1,"updated_at":"2026-07-12T14:33:55.132815+05:30"},{"city":"Mathura","state":"Uttar Pradesh","latitude":27.4924,"longitude":77.6737,"temp":35.2,"humidity":54,"rain":0.0,"pressure":975.7,"uv_index":7.95,"wind_gusts":36.7,"aqi":702,"pm10":663.1,"pm2_5":101.5,"no2":1.6,"co":137.0,"o3":107.0,"so2":2.8,"mosquito_risk":0,"arthritis_risk":5,"migraine_risk":10,"frizz_risk":1,"updated_at":"2026-07-12T14:33:55.132823+05:30"},{"city":"Vrindavan","state":"Uttar Pradesh","latitude":27.5823,"longitude":77.7027,"temp":35.3,"humidity":54,"rain":0.0,"pressure":976.0,"uv_index":7.9,"wind_gusts":36.0,"aqi":702,"pm10":663.1,"pm2_5":101.5,"no2":1.6,"co":139.0,"o3":107.0,"so2":2.8,"mosquito_risk":0,"arthritis_risk":5,"migraine_risk":10,"frizz_risk":1,"updated_at":"2026-07-12T14:33:55.132831+05:30"},{"city":"Ayodhya","state":"Uttar Pradesh","latitude":26.7922,"longitude":82.1998,"temp":33.8,"humidity":64,"rain":0.1,"pressure":983.0,"uv_index":7.05,"wind_gusts":35.6,"aqi":152,"pm10":110.4,"pm2_5":48.0,"no2":1.4,"co":214.0,"o3":146.0,"so2":5.5,"mosquito_risk":6,"arthritis_risk":5,"migraine_risk":7,"frizz_risk":1,"updated_at":"2026-07-12T14:33:55.132839+05:30"},{"city":"Ratlam","state":"Madhya Pradesh","latitude":23.3315,"longitude":75.0367,"temp":31.4,"humidity":56,"rain":0.0,"pressure":947.6,"uv_index":8.45,"wind_gusts":51.5,"aqi":60,"pm10":70.8,"pm2_5":28.0,"no2":1.2,"co":113.0,"o3":83.0,"so2":3.7,"mosquito_risk":0,"arthritis_risk":5,"migraine_risk":7,"frizz_risk":1,"updated_at":"2026-07-12T14:33:55.132846+05:30"},{"city":"Sagar","state":"Madhya Pradesh","latitude":23.8388,"longitude":78.7378,"temp":29.4,"humidity":64,"rain":0.0,"pressure":942.8,"uv_index":7.25,"wind_gusts":44.3,"aqi":74,"pm10":71.7,"pm2_5":27.6,"no2":0.9,"co":134.0,"o3":88.0,"so2":3.3,"mosquito_risk":7,"arthritis_risk":5,"migraine_risk":7,"frizz_risk":1,"updated_at":"2026-07-12T14:33:55.132853+05:30"},{"city":"Satna","state":"Madhya Pradesh","latitude":24.6005,"longitude":80.8322,"temp":33.5,"humidity":55,"rain":0.0,"pressure":962.0,"uv_index":8.2,"wind_gusts":45.7,"aqi":81,"pm10":58.2,"pm2_5":26.0,"no2":0.8,"co":127.0,"o3":102.0,"so2":3.2,"mosquito_risk":0,"arthritis_risk":5,"migraine_risk":7,"frizz_risk":1,"updated_at":"2026-07-12T14:33:55.132860+05:30"},{"city":"Akola","state":"Maharashtra","latitude":20.7002,"longitude":77.0082,"temp":33.0,"humidity":53,"rain":0.0,"pressure":969.2,"uv_index":7.9,"wind_gusts":45.0,"aqi":58,"pm10":56.1,"pm2_5":20.6,"no2":1.9,"co":107.0,"o3":82.0,"so2":6.0,"mosquito_risk":0,"arthritis_risk":5,"migraine_risk":7,"frizz_risk":1,"updated_at":"2026-07-12T14:33:55.132868+05:30"},{"city":"Amravati","state":"Maharashtra","latitude":20.9374,"longitude":77.7796,"temp":32.0,"humidity":53,"rain":0.0,"pressure":961.2,"uv_index":6.0,"wind_gusts":49.0,"aqi":60,"pm10":58.8,"pm2_5":21.7,"no2":2.3,"co":110.0,"o3":81.0,"so2":6.9,"mosquito_risk":0,"arthritis_risk":5,"migraine_risk":3,"frizz_risk":1,"updated_at":"2026-07-12T14:33:55.132876+05:30"},{"city":"Latur","state":"Maharashtra","latitude":18.4088,"longitude":76.5604,"temp":31.7,"humidity":49,"rain":0.0,"pressure":935.9,"uv_index":8.9,"wind_gusts":46.8,"aqi":51,"pm10":43.0,"pm2_5":15.9,"no2":0.8,"co":107.0,"o3":79.0,"so2":1.8,"mosquito_risk":0,"arthritis_risk":5,"migraine_risk":7,"frizz_risk":1,"updated_at":"2026-07-12T14:33:55.132884+05:30"},{"city":"Nanded","state":"Maharashtra","latitude":19.1383,"longitude":77.3091,"temp":32.8,"humidity":48,"rain":0.0,"pressure":963.5,"uv_index":8.85,"wind_gusts":40.3,"aqi":59,"pm10":51.1,"pm2_5":18.9,"no2":0.9,"co":112.0,"o3":83.0,"so2":2.7,"mosquito_risk":0,"arthritis_risk":5,"migraine_risk":7,"frizz_risk":1,"updated_at":"2026-07-12T14:33:55.132891+05:30"},{"city":"Gulbarga","state":"Karnataka","latitude":17.3297,"longitude":76.8343,"temp":33.6,"humidity":39,"rain":0.0,"pressure":954.5,"uv_index":8.7,"wind_gusts":49.3,"aqi":51,"pm10":33.6,"pm2_5":12.1,"no2":1.1,"co":105.0,"o3":79.0,"so2":1.9,"mosquito_risk":0,"arthritis_risk":5,"migraine_risk":7,"frizz_risk":1,"updated_at":"2026-07-12T14:33:55.132898+05:30"},{"city":"Bidar","state":"Karnataka","latitude":17.9104,"longitude":77.5199,"temp":30.9,"humidity":48,"rain":0.0,"pressure":931.6,"uv_index":8.95,"wind_gusts":50.4,"aqi":57,"pm10":41.3,"pm2_5":15.8,"no2":1.2,"co":109.0,"o3":78.0,"so2":1.7,"mosquito_risk":0,"arthritis_risk":5,"migraine_risk":7,"frizz_risk":1,"updated_at":"2026-07-12T14:33:55.132905+05:30"},{"city":"Hospet","state":"Karnataka","latitude":15.2689,"longitude":76.3909,"temp":32.9,"humidity":43,"rain":0.0,"pressure":952.6,"uv_index":8.55,"wind_gusts":51.8,"aqi":40,"pm10":31.4,"pm2_5":11.4,"no2":1.1,"co":101.0,"o3":68.0,"so2":1.7,"mosquito_risk":0,"arthritis_risk":5,"migraine_risk":7,"frizz_risk":1,"updated_at":"2026-07-12T14:33:55.132911+05:30"},{"city":"Tirupur","state":"Tamil Nadu","latitude":11.1085,"longitude":77.3411,"temp":33.9,"humidity":48,"rain":0.0,"pressure":971.5,"uv_index":8.3,"wind_gusts":64.1,"aqi":57,"pm10":31.8,"pm2_5":12.1,"no2":1.4,"co":120.0,"o3":84.0,"so2":2.2,"mosquito_risk":0,"arthritis_risk":5,"migraine_risk":7,"frizz_risk":1,"updated_at":"2026-07-12T14:33:55.132918+05:30"},{"city":"Alappuzha","state":"Kerala","latitude":9.4981,"longitude":76.3388,"temp":29.3,"humidity":75,"rain":0.0,"pressure":1007.7,"uv_index":7.8,"wind_gusts":43.9,"aqi":45,"pm10":18.5,"pm2_5":9.7,"no2":1.5,"co":83.0,"o3":67.0,"so2":2.0,"mosquito_risk":7,"arthritis_risk":5,"migraine_risk":4,"frizz_risk":1,"updated_at":"2026-07-12T14:33:55.132925+05:30"},{"city":"Munnar","state":"Kerala","latitude":10.0889,"longitude":77.0595,"temp":21.5,"humidity":79,"rain":0.1,"pressure":856.6,"uv_index":7.95,"wind_gusts":38.9,"aqi":32,"pm10":20.7,"pm2_5":7.8,"no2":0.7,"co":95.0,"o3":63.0,"so2":1.2,"mosquito_risk":6,"arthritis_risk":5,"migraine_risk":7,"frizz_risk":1,"updated_at":"2026-07-12T14:33:55.132933+05:30"},{"city":"Silchar","state":"Assam","latitude":24.8333,"longitude":92.7789,"temp":29.6,"humidity":83,"rain":0.3,"pressure":993.1,"uv_index":6.05,"wind_gusts":30.6,"aqi":65,"pm10":34.9,"pm2_5":18.4,"no2":1.8,"co":215.0,"o3":97.0,"so2":3.9,"mosquito_risk":10,"arthritis_risk":5,"migraine_risk":7,"frizz_risk":1,"updated_at":"2026-07-12T14:33:55.132940+05:30"},{"city":"Dibrugarh","state":"Assam","latitude":27.4728,"longitude":94.912,"temp":32.6,"humidity":68,"rain":0.0,"pressure":983.0,"uv_index":1.95,"wind_gusts":24.5,"aqi":47,"pm10":8.2,"pm2_5":7.3,"no2":1.2,"co":261.0,"o3":124.0,"so2":2.7,"mosquito_risk":3,"arthritis_risk":5,"migraine_risk":3,"frizz_risk":1,"updated_at":"2026-07-12T14:33:55.132947+05:30"}]