[{"city":"Delhi","state":"Delhi","latitude":28.6139,"longitude":77.209,"temp":34.6,"humidity":40,"rain":0.0,"pressure":978.7,"uv_index":7.75,"wind_gusts":27.4,"aqi":179,"pm10":244.9,"pm2_5":102.7,"no2":57.2,"co":817.0,"o3":49.0,"so2":24.7,"mosquito_risk":0,"arthritis_risk":5,"migraine_risk":7,"frizz_risk":1,"updated_at":"2026-06-25T21:57:34.061300+05:30"},{"city":"Mumbai","state":"Maharashtra","latitude":19.076,"longitude":72.8777,"temp":27.8,"humidity":85,"rain":0.0,"pressure":1006.7,"uv_index":7.2,"wind_gusts":42.1,"aqi":53,"pm10":19.8,"pm2_5":11.6,"no2":14.4,"co":355.0,"o3":40.0,"so2":10.9,"mosquito_risk":7,"arthritis_risk":5,"migraine_risk":4,"frizz_risk":1,"updated_at":"2026-06-25T21:57:34.061339+05:30"},{"city":"Bangalore","state":"Karnataka","latitude":12.9716,"longitude":77.5946,"temp":23.2,"humidity":78,"rain":0.0,"pressure":911.8,"uv_index":8.45,"wind_gusts":52.9,"aqi":27,"pm10":14.3,"pm2_5":11.2,"no2":22.3,"co":427.0,"o3":39.0,"so2":5.7,"mosquito_risk":3,"arthritis_risk":5,"migraine_risk":7,"frizz_risk":1,"updated_at":"2026-06-25T21:57:34.061354+05:30"},{"city":"Hyderabad","state":"Telangana","latitude":17.385,"longitude":78.4867,"temp":26.5,"humidity":74,"rain":0.0,"pressure":951.9,"uv_index":6.05,"wind_gusts":43.6,"aqi":39,"pm10":20.4,"pm2_5":15.3,"no2":16.5,"co":462.0,"o3":58.0,"so2":5.9,"mosquito_risk":7,"arthritis_risk":5,"migraine_risk":7,"frizz_risk":1,"updated_at":"2026-06-25T21:57:34.061363+05:30"},{"city":"Chennai","state":"Tamil Nadu","latitude":13.0827,"longitude":80.2707,"temp":27.7,"humidity":82,"rain":0.0,"pressure":1006.0,"uv_index":7.9,"wind_gusts":38.9,"aqi":69,"pm10":23.9,"pm2_5":19.3,"no2":20.1,"co":419.0,"o3":91.0,"so2":12.0,"mosquito_risk":7,"arthritis_risk":5,"migraine_risk":4,"frizz_risk":1,"updated_at":"2026-06-25T21:57:34.061371+05:30"},{"city":"Kolkata","state":"West Bengal","latitude":22.5726,"longitude":88.3639,"temp":28.2,"humidity":92,"rain":0.0,"pressure":1003.2,"uv_index":8.7,"wind_gusts":33.8,"aqi":100,"pm10":30.2,"pm2_5":27.8,"no2":10.1,"co":553.0,"o3":79.0,"so2":10.1,"mosquito_risk":7,"arthritis_risk":5,"migraine_risk":4,"frizz_risk":1,"updated_at":"2026-06-25T21:57:34.061379+05:30"},{"city":"Pune","state":"Maharashtra","latitude":18.5204,"longitude":73.8567,"temp":23.8,"humidity":85,"rain":0.0,"pressure":946.9,"uv_index":8.3,"wind_gusts":38.5,"aqi":33,"pm10":13.0,"pm2_5":9.6,"no2":17.3,"co":212.0,"o3":35.0,"so2":9.4,"mosquito_risk":3,"arthritis_risk":5,"migraine_risk":7,"frizz_risk":1,"updated_at":"2026-06-25T21:57:34.061385+05:30"},{"city":"Ahmedabad","state":"Gujarat","latitude":23.0225,"longitude":72.5714,"temp":32.9,"humidity":54,"rain":0.0,"pressure":998.2,"uv_index":8.0,"wind_gusts":36.4,"aqi":72,"pm10":55.9,"pm2_5":26.9,"no2":10.3,"co":193.0,"o3":66.0,"so2":4.8,"mosquito_risk":0,"arthritis_risk":5,"migraine_risk":7,"frizz_risk":1,"updated_at":"2026-06-25T21:57:34.061392+05:30"},{"city":"Jaipur","state":"Rajasthan","latitude":26.9124,"longitude":75.7873,"temp":30.4,"humidity":64,"rain":0.0,"pressure":956.3,"uv_index":8.2,"wind_gusts":33.5,"aqi":135,"pm10":105.5,"pm2_5":48.4,"no2":17.3,"co":446.0,"o3":50.0,"so2":5.9,"mosquito_risk":3,"arthritis_risk":5,"migraine_risk":7,"frizz_risk":1,"updated_at":"2026-06-25T21:57:34.061398+05:30"},{"city":"Lucknow","state":"Uttar Pradesh","latitude":26.8467,"longitude":80.9462,"temp":35.2,"humidity":44,"rain":0.0,"pressure":989.0,"uv_index":8.3,"wind_gusts":34.2,"aqi":157,"pm10":205.8,"pm2_5":78.9,"no2":32.3,"co":402.0,"o3":68.0,"so2":12.7,"mosquito_risk":0,"arthritis_risk":5,"migraine_risk":10,"frizz_risk":1,"updated_at":"2026-06-25T21:57:34.061409+05:30"},{"city":"Kanpur","state":"Uttar Pradesh","latitude":26.4499,"longitude":80.3319,"temp":35.6,"humidity":38,"rain":0.0,"pressure":987.3,"uv_index":8.05,"wind_gusts":45.0,"aqi":151,"pm10":186.3,"pm2_5":66.4,"no2":30.3,"co":330.0,"o3":60.0,"so2":10.7,"mosquito_risk":0,"arthritis_risk":5,"migraine_risk":10,"frizz_risk":1,"updated_at":"2026-06-25T21:57:34.061415+05:30"},{"city":"Chandigarh","state":"Chandigarh","latitude":30.7333,"longitude":76.7794,"temp":29.6,"humidity":71,"rain":0.0,"pressure":964.5,"uv_index":7.8,"wind_gusts":27.4,"aqi":159,"pm10":92.9,"pm2_5":76.1,"no2":60.2,"co":1426.0,"o3":52.0,"so2":14.7,"mosquito_risk":7,"arthritis_risk":5,"migraine_risk":7,"frizz_risk":1,"updated_at":"2026-06-25T21:57:34.061422+05:30"},{"city":"Srinagar","state":"Jammu and Kashmir","latitude":34.0837,"longitude":74.7973,"temp":22.7,"humidity":72,"rain":0.0,"pressure":839.6,"uv_index":9.1,"wind_gusts":27.0,"aqi":94,"pm10":34.0,"pm2_5":31.2,"no2":31.3,"co":1348.0,"o3":51.0,"so2":3.2,"mosquito_risk":3,"arthritis_risk":5,"migraine_risk":7,"frizz_risk":1,"updated_at":"2026-06-25T21:57:34.061428+05:30"},{"city":"Jammu","state":"Jammu and Kashmir","latitude":32.7266,"longitude":74.857,"temp":27.3,"humidity":68,"rain":0.0,"pressure":968.3,"uv_index":8.65,"wind_gusts":31.3,"aqi":103,"pm10":66.4,"pm2_5":50.1,"no2":43.9,"co":598.0,"o3":68.0,"so2":7.7,"mosquito_risk":7,"arthritis_risk":5,"migraine_risk":7,"frizz_risk":1,"updated_at":"2026-06-25T21:57:34.061434+05:30"},{"city":"Amritsar","state":"Punjab","latitude":31.634,"longitude":74.8723,"temp":27.4,"humidity":77,"rain":0.0,"pressure":976.2,"uv_index":8.45,"wind_gusts":31.3,"aqi":142,"pm10":110.1,"pm2_5":87.8,"no2":61.2,"co":1159.0,"o3":50.0,"so2":12.4,"mosquito_risk":7,"arthritis_risk":5,"migraine_risk":7,"frizz_risk":1,"updated_at":"2026-06-25T21:57:34.061441+05:30"},{"city":"Ludhiana","state":"Punjab","latitude":30.901,"longitude":75.8573,"temp":31.6,"humidity":52,"rain":0.0,"pressure":974.1,"uv_index":8.05,"wind_gusts":34.6,"aqi":165,"pm10":167.6,"pm2_5":99.2,"no2":49.7,"co":851.0,"o3":79.0,"so2":13.2,"mosquito_risk":0,"arthritis_risk":5,"migraine_risk":7,"frizz_risk":1,"updated_at":"2026-06-25T21:57:34.061446+05:30"},{"city":"Jalandhar","state":"Punjab","latitude":31.326,"longitude":75.5762,"temp":29.5,"humidity":62,"rain":0.0,"pressure":975.2,"uv_index":7.55,"wind_gusts":33.5,"aqi":153,"pm10":134.6,"pm2_5":95.5,"no2":57.6,"co":559.0,"o3":65.0,"so2":11.5,"mosquito_risk":7,"arthritis_risk":5,"migraine_risk":7,"frizz_risk":1,"updated_at":"2026-06-25T21:57:34.061452+05:30"},{"city":"Dehradun","state":"Uttarakhand","latitude":30.6284,"longitude":78.0322,"temp":17.9,"humidity":92,"rain":0.0,"pressure":828.8,"uv_index":7.65,"wind_gusts":28.4,"aqi":125,"pm10":42.1,"pm2_5":38.5,"no2":28.1,"co":249.0,"o3":90.0,"so2":2.3,"mosquito_risk":3,"arthritis_risk":10,"migraine_risk":7,"frizz_risk":1,"updated_at":"2026-06-25T21:57:34.061458+05:30"},{"city":"Shimla","state":"Himachal Pradesh","latitude":31.1048,"longitude":77.1734,"temp":14.7,"humidity":93,"rain":0.0,"pressure":782.3,"uv_index":6.5,"wind_gusts":34.2,"aqi":129,"pm10":57.4,"pm2_5":46.8,"no2":20.1,"co":520.0,"o3":94.0,"so2":0.8,"mosquito_risk":3,"arthritis_risk":10,"migraine_risk":7,"frizz_risk":0,"updated_at":"2026-06-25T21:57:34.061464+05:30"},{"city":"Manali","state":"Himachal Pradesh","latitude":32.2396,"longitude":77.1887,"temp":17.0,"humidity":94,"rain":0.0,"pressure":817.2,"uv_index":8.85,"wind_gusts":39.2,"aqi":44,"pm10":12.6,"pm2_5":11.8,"no2":82.0,"co":330.0,"o3":5.0,"so2":0.1,"mosquito_risk":3,"arthritis_risk":10,"migraine_risk":7,"frizz_risk":0,"updated_at":"2026-06-25T21:57:34.061474+05:30"},{"city":"Gurgaon","state":"Haryana","latitude":28.4595,"longitude":77.0266,"temp":30.8,"humidity":62,"rain":0.0,"pressure":976.9,"uv_index":7.8,"wind_gusts":26.3,"aqi":187,"pm10":270.1,"pm2_5":94.3,"no2":63.7,"co":1297.0,"o3":31.0,"so2":20.4,"mosquito_risk":3,"arthritis_risk":5,"migraine_risk":7,"frizz_risk":1,"updated_at":"2026-06-25T21:57:34.061482+05:30"},{"city":"Noida","state":"Uttar Pradesh","latitude":28.5355,"longitude":77.391,"temp":30.9,"humidity":66,"rain":0.0,"pressure":980.1,"uv_index":7.8,"wind_gusts":20.9,"aqi":187,"pm10":270.1,"pm2_5":94.3,"no2":63.7,"co":730.0,"o3":31.0,"so2":20.4,"mosquito_risk":3,"arthritis_risk":5,"migraine_risk":7,"frizz_risk":1,"updated_at":"2026-06-25T21:57:34.061488+05:30"},{"city":"Ghaziabad","state":"Uttar Pradesh","latitude":28.6692,"longitude":77.4538,"temp":31.3,"humidity":62,"rain":0.0,"pressure":978.3,"uv_index":7.2,"wind_gusts":23.4,"aqi":192,"pm10":269.2,"pm2_5":128.5,"no2":44.5,"co":531.0,"o3":90.0,"so2":27.6,"mosquito_risk":3,"arthritis_risk":5,"migraine_risk":7,"frizz_risk":1,"updated_at":"2026-06-25T21:57:34.061494+05:30"},{"city":"Faridabad","state":"Haryana","latitude":28.4089,"longitude":77.3178,"temp":33.2,"humidity":48,"rain":0.0,"pressure":979.5,"uv_index":7.8,"wind_gusts":28.4,"aqi":187,"pm10":270.1,"pm2_5":94.3,"no2":63.7,"co":779.0,"o3":31.0,"so2":20.4,"mosquito_risk":0,"arthritis_risk":5,"migraine_risk":7,"frizz_risk":1,"updated_at":"2026-06-25T21:57:34.061501+05:30"},{"city":"Meerut","state":"Uttar Pradesh","latitude":28.9845,"longitude":77.7064,"temp":32.3,"humidity":55,"rain":0.0,"pressure":977.2,"uv_index":7.25,"wind_gusts":35.6,"aqi":192,"pm10":269.2,"pm2_5":128.5,"no2":44.5,"co":543.0,"o3":90.0,"so2":27.6,"mosquito_risk":0,"arthritis_risk":5,"migraine_risk":7,"frizz_risk":1,"updated_at":"2026-06-25T21:57:34.061507+05:30"},{"city":"Agra","state":"Uttar Pradesh","latitude":27.1767,"longitude":78.0081,"temp":34.7,"humidity":44,"rain":0.0,"pressure":983.5,"uv_index":8.1,"wind_gusts":31.0,"aqi":156,"pm10":285.0,"pm2_5":99.2,"no2":64.7,"co":564.0,"o3":21.0,"so2":18.9,"mosquito_risk":0,"arthritis_risk":5,"migraine_risk":7,"frizz_risk":1,"updated_at":"2026-06-25T21:57:34.061513+05:30"},{"city":"Varanasi","state":"Uttar Pradesh","latitude":25.3176,"longitude":82.9739,"temp":35.7,"humidity":49,"rain":0.0,"pressure":993.3,"uv_index":8.75,"wind_gusts":37.4,"aqi":112,"pm10":121.5,"pm2_5":78.9,"no2":39.9,"co":285.0,"o3":63.0,"so2":23.0,"mosquito_risk":0,"arthritis_risk":5,"migraine_risk":10,"frizz_risk":1,"updated_at":"2026-06-25T21:57:34.061519+05:30"},{"city":"Prayagraj","state":"Uttar Pradesh","latitude":25.4358,"longitude":81.8463,"temp":35.7,"humidity":46,"rain":0.0,"pressure":991.7,"uv_index":8.6,"wind_gusts":34.6,"aqi":133,"pm10":151.3,"pm2_5":83.4,"no2":39.9,"co":292.0,"o3":50.0,"so2":16.3,"mosquito_risk":0,"arthritis_risk":5,"migraine_risk":10,"frizz_risk":1,"updated_at":"2026-06-25T21:57:34.061526+05:30"},{"city":"Gorakhpur","state":"Uttar Pradesh","latitude":26.7606,"longitude":83.3732,"temp":33.8,"humidity":61,"rain":0.0,"pressure":993.0,"uv_index":8.65,"wind_gusts":24.8,"aqi":162,"pm10":151.8,"pm2_5":102.0,"no2":49.4,"co":595.0,"o3":37.0,"so2":17.4,"mosquito_risk":3,"arthritis_risk":5,"migraine_risk":7,"frizz_risk":1,"updated_at":"2026-06-25T21:57:34.061532+05:30"},{"city":"Bareilly","state":"Uttar Pradesh","latitude":28.367,"longitude":79.4304,"temp":32.8,"humidity":47,"rain":0.0,"pressure":982.5,"uv_index":8.1,"wind_gusts":20.5,"aqi":168,"pm10":176.5,"pm2_5":77.8,"no2":27.5,"co":357.0,"o3":80.0,"so2":12.5,"mosquito_risk":0,"arthritis_risk":5,"migraine_risk":7,"frizz_risk":1,"updated_at":"2026-06-25T21:57:34.061543+05:30"},{"city":"Aligarh","state":"Uttar Pradesh","latitude":27.8974,"longitude":78.088,"temp":32.8,"humidity":58,"rain":0.0,"pressure":981.2,"uv_index":7.95,"wind_gusts":24.8,"aqi":239,"pm10":364.1,"pm2_5":106.9,"no2":53.8,"co":641.0,"o3":36.0,"so2":14.3,"mosquito_risk":0,"arthritis_risk":5,"migraine_risk":7,"frizz_risk":1,"updated_at":"2026-06-25T21:57:34.061549+05:30"},{"city":"Moradabad","state":"Uttar Pradesh","latitude":28.8386,"longitude":78.7733,"temp":33.2,"humidity":53,"rain":0.0,"pressure":979.6,"uv_index":7.9,"wind_gusts":30.6,"aqi":175,"pm10":226.3,"pm2_5":103.4,"no2":42.1,"co":498.0,"o3":69.0,"so2":16.8,"mosquito_risk":0,"arthritis_risk":5,"migraine_risk":7,"frizz_risk":1,"updated_at":"2026-06-25T21:57:34.061555+05:30"},{"city":"Saharanpur","state":"Uttar Pradesh","latitude":29.9637,"longitude":77.546,"temp":31.1,"humidity":62,"rain":0.0,"pressure":971.7,"uv_index":7.45,"wind_gusts":37.8,"aqi":158,"pm10":241.2,"pm2_5":114.1,"no2":54.6,"co":652.0,"o3":87.0,"so2":27.8,"mosquito_risk":3,"arthritis_risk":5,"migraine_risk":7,"frizz_risk":1,"updated_at":"2026-06-25T21:57:34.061561+05:30"},{"city":"Jhansi","state":"Uttar Pradesh","latitude":25.4484,"longitude":78.5685,"temp":32.9,"humidity":48,"rain":0.0,"pressure":974.3,"uv_index":8.45,"wind_gusts":39.2,"aqi":85,"pm10":62.2,"pm2_5":32.9,"no2":14.1,"co":330.0,"o3":51.0,"so2":4.6,"mosquito_risk":0,"arthritis_risk":5,"migraine_risk":7,"frizz_risk":1,"updated_at":"2026-06-25T21:57:37.288551+05:30"},{"city":"Surat","state":"Gujarat","latitude":21.1702,"longitude":72.8311,"temp":29.6,"humidity":78,"rain":0.0,"pressure":1003.6,"uv_index":7.6,"wind_gusts":40.7,"aqi":73,"pm10":25.0,"pm2_5":14.7,"no2":19.8,"co":218.0,"o3":32.0,"so2":30.9,"mosquito_risk":7,"arthritis_risk":5,"migraine_risk":4,"frizz_risk":1,"updated_at":"2026-06-25T21:57:37.288581+05:30"},{"city":"Vadodara","state":"Gujarat","latitude":22.3072,"longitude":73.1812,"temp":31.7,"humidity":60,"rain":0.0,"pressure":1000.7,"uv_index":8.0,"wind_gusts":41.8,"aqi":74,"pm10":33.1,"pm2_5":20.1,"no2":19.6,"co":217.0,"o3":42.0,"so2":22.0,"mosquito_risk":0,"arthritis_risk":5,"migraine_risk":4,"frizz_risk":1,"updated_at":"2026-06-25T21:57:37.288592+05:30"},{"city":"Rajkot","state":"Gujarat","latitude":22.3039,"longitude":70.8022,"temp":29.8,"humidity":72,"rain":0.0,"pressure":990.9,"uv_index":7.55,"wind_gusts":51.8,"aqi":68,"pm10":43.4,"pm2_5":19.2,"no2":4.9,"co":124.0,"o3":52.0,"so2":4.7,"mosquito_risk":7,"arthritis_risk":5,"migraine_risk":7,"frizz_risk":1,"updated_at":"2026-06-25T21:57:37.288600+05:30"},{"city":"Thane","state":"Maharashtra","latitude":19.2183,"longitude":72.9781,"temp":27.3,"humidity":90,"rain":0.0,"pressure":1006.1,"uv_index":7.5,"wind_gusts":32.4,"aqi":53,"pm10":19.8,"pm2_5":11.6,"no2":14.4,"co":372.0,"o3":40.0,"so2":10.9,"mosquito_risk":7,"arthritis_risk":5,"migraine_risk":4,"frizz_risk":1,"updated_at":"2026-06-25T21:57:37.288607+05:30"},{"city":"Nagpur","state":"Maharashtra","latitude":21.1458,"longitude":79.0882,"temp":28.3,"humidity":81,"rain":0.0,"pressure":970.6,"uv_index":8.0,"wind_gusts":25.6,"aqi":69,"pm10":36.9,"pm2_5":25.4,"no2":19.2,"co":400.0,"o3":61.0,"so2":13.6,"mosquito_risk":7,"arthritis_risk":5,"migraine_risk":7,"frizz_risk":1,"updated_at":"2026-06-25T21:57:37.288615+05:30"},{"city":"Nashik","state":"Maharashtra","latitude":19.9975,"longitude":73.7898,"temp":24.1,"humidity":87,"rain":0.0,"pressure":943.7,"uv_index":7.35,"wind_gusts":44.3,"aqi":40,"pm10":12.0,"pm2_5":9.0,"no2":11.8,"co":166.0,"o3":54.0,"so2":8.9,"mosquito_risk":3,"arthritis_risk":5,"migraine_risk":7,"frizz_risk":1,"updated_at":"2026-06-25T21:57:37.288621+05:30"},{"city":"Aurangabad","state":"Maharashtra","latitude":19.8762,"longitude":75.3433,"temp":25.9,"humidity":75,"rain":0.0,"pressure":942.4,"uv_index":1.8,"wind_gusts":42.1,"aqi":53,"pm10":18.3,"pm2_5":14.3,"no2":13.4,"co":196.0,"o3":54.0,"so2":6.1,"mosquito_risk":7,"arthritis_risk":5,"migraine_risk":3,"frizz_risk":1,"updated_at":"2026-06-25T21:57:37.288628+05:30"},{"city":"Solapur","state":"Maharashtra","latitude":17.6599,"longitude":75.9064,"temp":27.5,"humidity":73,"rain":0.0,"pressure":955.8,"uv_index":7.45,"wind_gusts":36.4,"aqi":37,"pm10":18.7,"pm2_5":12.0,"no2":8.5,"co":153.0,"o3":56.0,"so2":2.9,"mosquito_risk":7,"arthritis_risk":5,"migraine_risk":7,"frizz_risk":1,"updated_at":"2026-06-25T21:57:37.288635+05:30"},{"city":"Kolhapur","state":"Maharashtra","latitude":16.705,"longitude":74.2433,"temp":23.1,"humidity":93,"rain":0.0,"pressure":947.5,"uv_index":6.75,"wind_gusts":45.4,"aqi":27,"pm10":6.5,"pm2_5":5.5,"no2":7.9,"co":158.0,"o3":38.0,"so2":2.5,"mosquito_risk":3,"arthritis_risk":5,"migraine_risk":7,"frizz_risk":1,"updated_at":"2026-06-25T21:57:37.288642+05:30"},{"city":"Goa","state":"Goa","latitude":15.2993,"longitude":74.124,"temp":24.6,"humidity":97,"rain":0.1,"pressure":998.5,"uv_index":5.55,"wind_gusts":27.7,"aqi":45,"pm10":16.8,"pm2_5":11.5,"no2":6.5,"co":261.0,"o3":45.0,"so2":1.8,"mosquito_risk":6,"arthritis_risk":5,"migraine_risk":3,"frizz_risk":1,"updated_at":"2026-06-25T21:57:37.288649+05:30"},{"city":"Jodhpur","state":"Rajasthan","latitude":26.2389,"longitude":73.0243,"temp":33.5,"humidity":47,"rain":0.0,"pressure":978.5,"uv_index":8.35,"wind_gusts":36.4,"aqi":140,"pm10":179.7,"pm2_5":43.9,"no2":12.2,"co":218.0,"o3":49.0,"so2":2.4,"mosquito_risk":0,"arthritis_risk":5,"migraine_risk":7,"frizz_risk":1,"updated_at":"2026-06-25T21:57:37.288656+05:30"},{"city":"Udaipur","state":"Rajasthan","latitude":24.5854,"longitude":73.7125,"temp":27.7,"humidity":69,"rain":0.0,"pressure":943.5,"uv_index":8.75,"wind_gusts":35.6,"aqi":71,"pm10":57.4,"pm2_5":23.6,"no2":7.1,"co":300.0,"o3":59.0,"so2":2.4,"mosquito_risk":7,"arthritis_risk":5,"migraine_risk":7,"frizz_risk":1,"updated_at":"2026-06-25T21:57:37.288662+05:30"},{"city":"Kota","state":"Rajasthan","latitude":25.2138,"longitude":75.8648,"temp":29.2,"humidity":76,"rain":0.0,"pressure":975.4,"uv_index":8.3,"wind_gusts":42.5,"aqi":86,"pm10":71.2,"pm2_5":37.6,"no2":15.6,"co":299.0,"o3":54.0,"so2":5.6,"mosquito_risk":7,"arthritis_risk":5,"migraine_risk":7,"frizz_risk":1,"updated_at":"2026-06-25T21:57:37.288669+05:30"},{"city":"Bikaner","state":"Rajasthan","latitude":28.0229,"longitude":73.3119,"temp":33.3,"humidity":52,"rain":0.0,"pressure":976.7,"uv_index":8.4,"wind_gusts":31.7,"aqi":155,"pm10":156.0,"pm2_5":59.0,"no2":4.7,"co":185.0,"o3":64.0,"so2":1.6,"mosquito_risk":0,"arthritis_risk":5,"migraine_risk":7,"frizz_risk":1,"updated_at":"2026-06-25T21:57:37.288675+05:30"},{"city":"Ajmer","state":"Rajasthan","latitude":26.4499,"longitude":74.6399,"temp":29.6,"humidity":65,"rain":0.0,"pressure":951.3,"uv_index":8.3,"wind_gusts":42.1,"aqi":102,"pm10":106.6,"pm2_5":44.8,"no2":19.2,"co":275.0,"o3":39.0,"so2":4.7,"mosquito_risk":7,"arthritis_risk":5,"migraine_risk":7,"frizz_risk":1,"updated_at":"2026-06-25T21:57:37.288682+05:30"},{"city":"Gwalior","state":"Madhya Pradesh","latitude":26.2183,"longitude":78.1828,"temp":34.2,"humidity":44,"rain":0.0,"pressure":979.1,"uv_index":8.25,"wind_gusts":34.6,"aqi":89,"pm10":93.4,"pm2_5":39.9,"no2":12.5,"co":244.0,"o3":55.0,"so2":4.3,"mosquito_risk":0,"arthritis_risk":5,"migraine_risk":7,"frizz_risk":1,"updated_at":"2026-06-25T21:57:37.288688+05:30"},{"city":"Indore","state":"Madhya Pradesh","latitude":22.7196,"longitude":75.8577,"temp":26.2,"humidity":89,"rain":0.0,"pressure":945.9,"uv_index":7.35,"wind_gusts":38.9,"aqi":80,"pm10":71.9,"pm2_5":47.6,"no2":27.3,"co":835.0,"o3":41.0,"so2":8.6,"mosquito_risk":7,"arthritis_risk":5,"migraine_risk":7,"frizz_risk":1,"updated_at":"2026-06-25T21:57:37.288695+05:30"},{"city":"Bhopal","state":"Madhya Pradesh","latitude":23.2599,"longitude":77.4126,"temp":24.4,"humidity":95,"rain":0.1,"pressure":951.5,"uv_index":7.85,"wind_gusts":31.3,"aqi":80,"pm10":47.4,"pm2_5":32.1,"no2":15.6,"co":449.0,"o3":51.0,"so2":6.2,"mosquito_risk":6,"arthritis_risk":5,"migraine_risk":7,"frizz_risk":1,"updated_at":"2026-06-25T21:57:37.288702+05:30"},{"city":"Jabalpur","state":"Madhya Pradesh","latitude":23.1815,"longitude":79.9864,"temp":28.0,"humidity":80,"rain":0.0,"pressure":959.1,"uv_index":8.85,"wind_gusts":24.8,"aqi":73,"pm10":32.7,"pm2_5":24.9,"no2":12.1,"co":297.0,"o3":66.0,"so2":4.0,"mosquito_risk":7,"arthritis_risk":5,"migraine_risk":7,"frizz_risk":1,"updated_at":"2026-06-25T21:57:37.288708+05:30"},{"city":"Ujjain","state":"Madhya Pradesh","latitude":23.1765,"longitude":75.7885,"temp":26.2,"humidity":80,"rain":0.0,"pressure":951.3,"uv_index":8.3,"wind_gusts":42.1,"aqi":80,"pm10":67.8,"pm2_5":40.3,"no2":9.4,"co":827.0,"o3":65.0,"so2":5.5,"mosquito_risk":7,"arthritis_risk":5,"migraine_risk":7,"frizz_risk":1,"updated_at":"2026-06-25T21:57:37.288715+05:30"},{"city":"Visakhapatnam","state":"Andhra Pradesh","latitude":17.6868,"longitude":83.2185,"temp":29.5,"humidity":82,"rain":0.1,"pressure":1000.6,"uv_index":8.5,"wind_gusts":30.2,"aqi":78,"pm10":40.3,"pm2_5":36.8,"no2":43.1,"co":411.0,"o3":59.0,"so2":48.3,"mosquito_risk":10,"arthritis_risk":5,"migraine_risk":4,"frizz_risk":1,"updated_at":"2026-06-25T21:57:37.288722+05:30"},{"city":"Vijayawada","state":"Andhra Pradesh","latitude":16.5062,"longitude":80.648,"temp":30.5,"humidity":66,"rain":0.0,"pressure":999.6,"uv_index":8.5,"wind_gusts":40.0,"aqi":60,"pm10":25.3,"pm2_5":23.2,"no2":15.8,"co":550.0,"o3":58.0,"so2":8.1,"mosquito_risk":3,"arthritis_risk":5,"migraine_risk":7,"frizz_risk":1,"updated_at":"2026-06-25T21:57:37.288729+05:30"},{"city":"Guntur","state":"Andhra Pradesh","latitude":16.3067,"longitude":80.4365,"temp":31.2,"humidity":57,"rain":0.0,"pressure":1000.9,"uv_index":8.55,"wind_gusts":38.5,"aqi":55,"pm10":25.2,"pm2_5":22.5,"no2":15.1,"co":273.0,"o3":59.0,"so2":9.1,"mosquito_risk":0,"arthritis_risk":5,"migraine_risk":4,"frizz_risk":1,"updated_at":"2026-06-25T21:57:37.288736+05:30"},{"city":"Nellore","state":"Andhra Pradesh","latitude":14.4426,"longitude":79.9865,"temp":28.3,"humidity":79,"rain":0.0,"pressure":1004.0,"uv_index":8.55,"wind_gusts":46.8,"aqi":46,"pm10":23.9,"pm2_5":17.4,"no2":7.9,"co":190.0,"o3":81.0,"so2":4.2,"mosquito_risk":7,"arthritis_risk":5,"migraine_risk":4,"frizz_risk":1,"updated_at":"2026-06-25T21:57:37.288743+05:30"},{"city":"Kurnool","state":"Andhra Pradesh","latitude":15.8281,"longitude":78.0373,"temp":28.4,"humidity":67,"rain":0.0,"pressure":975.4,"uv_index":6.5,"wind_gusts":49.0,"aqi":39,"pm10":29.9,"pm2_5":17.0,"no2":9.1,"co":195.0,"o3":58.0,"so2":3.9,"mosquito_risk":7,"arthritis_risk":5,"migraine_risk":7,"frizz_risk":1,"updated_at":"2026-06-25T21:57:37.288751+05:30"},{"city":"Kakinada","state":"Andhra Pradesh","latitude":16.9891,"longitude":82.2475,"temp":29.2,"humidity":76,"rain":0.0,"pressure":1004.3,"uv_index":8.7,"wind_gusts":43.9,"aqi":76,"pm10":24.0,"pm2_5":19.7,"no2":9.3,"co":446.0,"o3":93.0,"so2":6.2,"mosquito_risk":7,"arthritis_risk":5,"migraine_risk":4,"frizz_risk":1,"updated_at":"2026-06-25T21:57:37.288757+05:30"},{"city":"Tirupati","state":"Andhra Pradesh","latitude":13.6288,"longitude":79.4192,"temp":27.1,"humidity":92,"rain":0.0,"pressure":990.0,"uv_index":8.25,"wind_gusts":41.8,"aqi":39,"pm10":14.4,"pm2_5":12.0,"no2":20.1,"co":310.0,"o3":29.0,"so2":2.5,"mosquito_risk":7,"arthritis_risk":5,"migraine_risk":7,"frizz_risk":1,"updated_at":"2026-06-25T21:57:37.288764+05:30"},{"city":"Warangal","state":"Telangana","latitude":17.9689,"longitude":79.5941,"temp":29.0,"humidity":67,"rain":0.0,"pressure":976.2,"uv_index":4.25,"wind_gusts":34.9,"aqi":60,"pm10":27.3,"pm2_5":23.7,"no2":13.9,"co":251.0,"o3":62.0,"so2":5.0,"mosquito_risk":7,"arthritis_risk":5,"migraine_risk":3,"frizz_risk":1,"updated_at":"2026-06-25T21:57:37.288770+05:30"},{"city":"Nizamabad","state":"Telangana","latitude":18.6725,"longitude":78.0941,"temp":25.5,"humidity":89,"rain":0.0,"pressure":963.2,"uv_index":8.1,"wind_gusts":47.5,"aqi":63,"pm10":17.9,"pm2_5":14.7,"no2":9.0,"co":233.0,"o3":65.0,"so2":2.4,"mosquito_risk":7,"arthritis_risk":5,"migraine_risk":7,"frizz_risk":1,"updated_at":"2026-06-25T21:57:37.288776+05:30"},{"city":"Mysore","state":"Karnataka","latitude":12.2958,"longitude":76.6396,"temp":22.5,"humidity":89,"rain":0.0,"pressure":929.0,"uv_index":8.2,"wind_gusts":45.0,"aqi":31,"pm10":11.9,"pm2_5":8.2,"no2":9.8,"co":163.0,"o3":48.0,"so2":2.5,"mosquito_risk":3,"arthritis_risk":5,"migraine_risk":7,"frizz_risk":1,"updated_at":"2026-06-25T21:57:37.288783+05:30"},{"city":"Mangalore","state":"Karnataka","latitude":12.9141,"longitude":74.856,"temp":25.1,"humidity":96,"rain":0.0,"pressure":1007.9,"uv_index":8.65,"wind_gusts":31.3,"aqi":41,"pm10":17.8,"pm2_5":13.1,"no2":10.1,"co":317.0,"o3":33.0,"so2":2.9,"mosquito_risk":7,"arthritis_risk":5,"migraine_risk":4,"frizz_risk":1,"updated_at":"2026-06-25T21:57:37.288789+05:30"},{"city":"Hubli-Dharwad","state":"Karnataka","latitude":15.3647,"longitude":75.124,"temp":23.2,"humidity":89,"rain":0.0,"pressure":940.8,"uv_index":8.8,"wind_gusts":49.3,"aqi":23,"pm10":4.3,"pm2_5":3.5,"no2":7.5,"co":143.0,"o3":40.0,"so2":1.4,"mosquito_risk":3,"arthritis_risk":5,"migraine_risk":7,"frizz_risk":1,"updated_at":"2026-06-25T21:57:37.288796+05:30"},{"city":"Belgaum","state":"Karnataka","latitude":15.8497,"longitude":74.4977,"temp":21.8,"humidity":94,"rain":0.0,"pressure":925.5,"uv_index":8.0,"wind_gusts":50.8,"aqi":24,"pm10":4.7,"pm2_5":4.2,"no2":6.6,"co":124.0,"o3":38.0,"so2":1.2,"mosquito_risk":3,"arthritis_risk":5,"migraine_risk":7,"frizz_risk":1,"updated_at":"2026-06-25T21:57:40.520547+05:30"},{"city":"Coimbatore","state":"Tamil Nadu","latitude":11.0168,"longitude":76.9558,"temp":24.6,"humidity":87,"rain":0.0,"pressure":962.1,"uv_index":8.35,"wind_gusts":54.7,"aqi":30,"pm10":10.4,"pm2_5":9.3,"no2":11.0,"co":187.0,"o3":39.0,"so2":4.0,"mosquito_risk":3,"arthritis_risk":5,"migraine_risk":7,"frizz_risk":1,"updated_at":"2026-06-25T21:57:40.520579+05:30"},{"city":"Madurai","state":"Tamil Nadu","latitude":9.9252,"longitude":78.1198,"temp":31.5,"humidity":50,"rain":0.0,"pressure":992.7,"uv_index":8.65,"wind_gusts":24.5,"aqi":66,"pm10":36.2,"pm2_5":34.0,"no2":53.8,"co":150.0,"o3":4.0,"so2":11.3,"mosquito_risk":0,"arthritis_risk":5,"migraine_risk":7,"frizz_risk":1,"updated_at":"2026-06-25T21:57:40.520590+05:30"},{"city":"Trichy","state":"Tamil Nadu","latitude":10.7905,"longitude":78.7047,"temp":29.0,"humidity":69,"rain":0.0,"pressure":999.8,"uv_index":8.3,"wind_gusts":45.0,"aqi":34,"pm10":15.5,"pm2_5":13.8,"no2":16.5,"co":468.0,"o3":39.0,"so2":4.9,"mosquito_risk":7,"arthritis_risk":5,"migraine_risk":7,"frizz_risk":1,"updated_at":"2026-06-25T21:57:40.520598+05:30"},{"city":"Salem","state":"Tamil Nadu","latitude":11.6643,"longitude":78.146,"temp":27.8,"humidity":74,"rain":0.0,"pressure":977.4,"uv_index":8.85,"wind_gusts":37.8,"aqi":49,"pm10":14.0,"pm2_5":12.1,"no2":16.7,"co":343.0,"o3":47.0,"so2":6.1,"mosquito_risk":7,"arthritis_risk":5,"migraine_risk":7,"frizz_risk":1,"updated_at":"2026-06-25T21:57:40.520606+05:30"},{"city":"Tirunelveli","state":"Tamil Nadu","latitude":8.7139,"longitude":77.7567,"temp":29.9,"humidity":60,"rain":0.0,"pressure":1003.4,"uv_index":8.6,"wind_gusts":44.3,"aqi":31,"pm10":9.5,"pm2_5":7.6,"no2":7.0,"co":153.0,"o3":46.0,"so2":2.5,"mosquito_risk":4,"arthritis_risk":5,"migraine_risk":4,"frizz_risk":1,"updated_at":"2026-06-25T21:57:40.520614+05:30"},{"city":"Vellore","state":"Tamil Nadu","latitude":12.9165,"longitude":79.1325,"temp":26.5,"humidity":94,"rain":0.0,"pressure":983.5,"uv_index":8.3,"wind_gusts":43.9,"aqi":45,"pm10":34.1,"pm2_5":30.2,"no2":33.8,"co":579.0,"o3":19.0,"so2":6.6,"mosquito_risk":7,"arthritis_risk":5,"migraine_risk":7,"frizz_risk":1,"updated_at":"2026-06-25T21:57:40.520622+05:30"},{"city":"Erode","state":"Tamil Nadu","latitude":11.341,"longitude":77.7172,"temp":27.8,"humidity":71,"rain":0.0,"pressure":989.2,"uv_index":8.85,"wind_gusts":41.0,"aqi":37,"pm10":15.7,"pm2_5":13.8,"no2":20.2,"co":187.0,"o3":34.0,"so2":4.2,"mosquito_risk":7,"arthritis_risk":5,"migraine_risk":7,"frizz_risk":1,"updated_at":"2026-06-25T21:57:40.520630+05:30"},{"city":"Kochi","state":"Kerala","latitude":9.9312,"longitude":76.2673,"temp":27.6,"humidity":85,"rain":0.0,"pressure":1010.0,"uv_index":8.55,"wind_gusts":32.4,"aqi":40,"pm10":23.3,"pm2_5":21.3,"no2":27.4,"co":158.0,"o3":14.0,"so2":6.2,"mosquito_risk":7,"arthritis_risk":0,"migraine_risk":4,"frizz_risk":1,"updated_at":"2026-06-25T21:57:40.520637+05:30"},{"city":"Thiruvananthapuram","state":"Kerala","latitude":8.5241,"longitude":76.9366,"temp":27.0,"humidity":82,"rain":0.0,"pressure":1009.5,"uv_index":8.4,"wind_gusts":43.9,"aqi":29,"pm10":10.3,"pm2_5":6.4,"no2":3.2,"co":109.0,"o3":50.0,"so2":1.4,"mosquito_risk":7,"arthritis_risk":0,"migraine_risk":4,"frizz_risk":1,"updated_at":"2026-06-25T21:57:40.520644+05:30"},{"city":"Kozhikode","state":"Kerala","latitude":11.2588,"longitude":75.7804,"temp":25.4,"humidity":98,"rain":0.0,"pressure":1009.3,"uv_index":8.5,"wind_gusts":32.8,"aqi":28,"pm10":13.1,"pm2_5":7.4,"no2":1.6,"co":157.0,"o3":55.0,"so2":1.0,"mosquito_risk":7,"arthritis_risk":0,"migraine_risk":4,"frizz_risk":1,"updated_at":"2026-06-25T21:57:40.520650+05:30"},{"city":"Thrissur","state":"Kerala","latitude":10.5276,"longitude":76.2144,"temp":26.4,"humidity":89,"rain":0.0,"pressure":1008.5,"uv_index":8.55,"wind_gusts":33.8,"aqi":40,"pm10":13.7,"pm2_5":11.6,"no2":15.2,"co":208.0,"o3":27.0,"so2":4.2,"mosquito_risk":7,"arthritis_risk":0,"migraine_risk":4,"frizz_risk":1,"updated_at":"2026-06-25T21:57:40.520657+05:30"},{"city":"Kannur","state":"Kerala","latitude":11.8745,"longitude":75.3704,"temp":24.9,"humidity":99,"rain":0.1,"pressure":1008.6,"uv_index":8.55,"wind_gusts":26.3,"aqi":27,"pm10":16.2,"pm2_5":10.5,"no2":9.7,"co":177.0,"o3":37.0,"so2":2.2,"mosquito_risk":6,"arthritis_risk":0,"migraine_risk":4,"frizz_risk":1,"updated_at":"2026-06-25T21:57:40.520664+05:30"},{"city":"Patna","state":"Bihar","latitude":25.5941,"longitude":85.1376,"temp":32.3,"humidity":69,"rain":0.0,"pressure":996.4,"uv_index":8.85,"wind_gusts":26.3,"aqi":151,"pm10":131.3,"pm2_5":88.0,"no2":46.2,"co":696.0,"o3":60.0,"so2":20.4,"mosquito_risk":3,"arthritis_risk":5,"migraine_risk":7,"frizz_risk":1,"updated_at":"2026-06-25T21:57:40.520670+05:30"},{"city":"Gaya","state":"Bihar","latitude":24.7914,"longitude":85.0002,"temp":32.6,"humidity":54,"rain":0.0,"pressure":990.3,"uv_index":8.9,"wind_gusts":23.0,"aqi":98,"pm10":72.9,"pm2_5":50.9,"no2":17.2,"co":369.0,"o3":84.0,"so2":12.1,"mosquito_risk":0,"arthritis_risk":5,"migraine_risk":7,"frizz_risk":1,"updated_at":"2026-06-25T21:57:40.520677+05:30"},{"city":"Muzaffarpur","state":"Bihar","latitude":26.1209,"longitude":85.3647,"temp":30.5,"humidity":72,"rain":0.0,"pressure":996.4,"uv_index":8.85,"wind_gusts":33.5,"aqi":158,"pm10":125.7,"pm2_5":89.4,"no2":40.1,"co":865.0,"o3":76.0,"so2":19.9,"mosquito_risk":3,"arthritis_risk":5,"migraine_risk":7,"frizz_risk":1,"updated_at":"2026-06-25T21:57:40.520683+05:30"},{"city":"Bhagalpur","state":"Bihar","latitude":25.2425,"longitude":87.0117,"temp":31.7,"humidity":66,"rain":0.0,"pressure":997.3,"uv_index":8.8,"wind_gusts":24.5,"aqi":162,"pm10":68.0,"pm2_5":57.9,"no2":13.1,"co":589.0,"o3":127.0,"so2":16.7,"mosquito_risk":3,"arthritis_risk":5,"migraine_risk":7,"frizz_risk":1,"updated_at":"2026-06-25T21:57:40.520690+05:30"},{"city":"Ranchi","state":"Jharkhand","latitude":23.3441,"longitude":85.3096,"temp":25.4,"humidity":85,"rain":0.0,"pressure":935.6,"uv_index":9.05,"wind_gusts":27.4,"aqi":80,"pm10":34.3,"pm2_5":34.1,"no2":15.7,"co":274.0,"o3":71.0,"so2":8.6,"mosquito_risk":7,"arthritis_risk":5,"migraine_risk":7,"frizz_risk":1,"updated_at":"2026-06-25T21:57:40.520696+05:30"},{"city":"Jamshedpur","state":"Jharkhand","latitude":22.8046,"longitude":86.2029,"temp":28.8,"humidity":86,"rain":0.0,"pressure":988.1,"uv_index":9.0,"wind_gusts":27.4,"aqi":130,"pm10":31.2,"pm2_5":30.6,"no2":18.7,"co":559.0,"o3":89.0,"so2":30.4,"mosquito_risk":7,"arthritis_risk":5,"migraine_risk":7,"frizz_risk":1,"updated_at":"2026-06-25T21:57:40.520703+05:30"},{"city":"Dhanbad","state":"Jharkhand","latitude":23.7957,"longitude":86.4304,"temp":29.9,"humidity":77,"rain":0.0,"pressure":977.2,"uv_index":9.0,"wind_gusts":32.4,"aqi":160,"pm10":54.9,"pm2_5":54.5,"no2":46.3,"co":824.0,"o3":74.0,"so2":105.9,"mosquito_risk":7,"arthritis_risk":5,"migraine_risk":7,"frizz_risk":1,"updated_at":"2026-06-25T21:57:40.520710+05:30"},{"city":"Bokaro","state":"Jharkhand","latitude":23.6693,"longitude":86.1511,"temp":29.7,"humidity":77,"rain":0.0,"pressure":980.8,"uv_index":9.05,"wind_gusts":45.7,"aqi":147,"pm10":51.0,"pm2_5":50.5,"no2":33.7,"co":3001.0,"o3":82.0,"so2":74.8,"mosquito_risk":7,"arthritis_risk":5,"migraine_risk":7,"frizz_risk":1,"updated_at":"2026-06-25T21:57:40.520716+05:30"},{"city":"Bhubaneswar","state":"Odisha","latitude":20.2961,"longitude":85.8245,"temp":28.9,"humidity":90,"rain":0.0,"pressure":999.5,"uv_index":9.0,"wind_gusts":34.2,"aqi":81,"pm10":34.1,"pm2_5":32.2,"no2":14.4,"co":613.0,"o3":80.0,"so2":8.8,"mosquito_risk":7,"arthritis_risk":5,"migraine_risk":7,"frizz_risk":1,"updated_at":"2026-06-25T21:57:40.520723+05:30"},{"city":"Cuttack","state":"Odisha","latitude":20.4625,"longitude":85.8828,"temp":29.2,"humidity":92,"rain":0.0,"pressure":1001.2,"uv_index":9.1,"wind_gusts":32.4,"aqi":81,"pm10":34.1,"pm2_5":32.2,"no2":14.4,"co":722.0,"o3":80.0,"so2":8.8,"mosquito_risk":7,"arthritis_risk":5,"migraine_risk":4,"frizz_risk":1,"updated_at":"2026-06-25T21:57:40.520729+05:30"},{"city":"Rourkela","state":"Odisha","latitude":22.2604,"longitude":84.8536,"temp":28.9,"humidity":81,"rain":0.0,"pressure":982.6,"uv_index":8.85,"wind_gusts":50.8,"aqi":94,"pm10":36.0,"pm2_5":35.9,"no2":21.0,"co":543.0,"o3":74.0,"so2":14.5,"mosquito_risk":7,"arthritis_risk":5,"migraine_risk":7,"frizz_risk":1,"updated_at":"2026-06-25T21:57:40.520736+05:30"},{"city":"Raipur","state":"Chhattisgarh","latitude":21.2514,"longitude":81.6296,"temp":28.8,"humidity":72,"rain":0.0,"pressure":972.0,"uv_index":8.85,"wind_gusts":31.0,"aqi":84,"pm10":34.0,"pm2_5":33.8,"no2":37.7,"co":661.0,"o3":49.0,"so2":54.8,"mosquito_risk":7,"arthritis_risk":5,"migraine_risk":7,"frizz_risk":1,"updated_at":"2026-06-25T21:57:40.520742+05:30"},{"city":"Bhilai","state":"Chhattisgarh","latitude":21.1938,"longitude":81.3509,"temp":27.8,"humidity":81,"rain":0.0,"pressure":972.5,"uv_index":8.4,"wind_gusts":41.0,"aqi":76,"pm10":32.6,"pm2_5":31.9,"no2":38.0,"co":1316.0,"o3":57.0,"so2":55.0,"mosquito_risk":7,"arthritis_risk":5,"migraine_risk":7,"frizz_risk":1,"updated_at":"2026-06-25T21:57:40.520749+05:30"},{"city":"Guwahati","state":"Assam","latitude":26.1158,"longitude":91.7086,"temp":28.0,"humidity":88,"rain":0.0,"pressure":998.8,"uv_index":8.8,"wind_gusts":21.2,"aqi":71,"pm10":47.4,"pm2_5":43.4,"no2":14.7,"co":477.0,"o3":55.0,"so2":6.5,"mosquito_risk":7,"arthritis_risk":5,"migraine_risk":7,"frizz_risk":1,"updated_at":"2026-06-25T21:57:40.520755+05:30"},{"city":"Agartala","state":"Tripura","latitude":23.8315,"longitude":91.2868,"temp":27.2,"humidity":88,"rain":0.0,"pressure":1004.6,"uv_index":8.75,"wind_gusts":30.2,"aqi":82,"pm10":33.5,"pm2_5":31.3,"no2":17.1,"co":303.0,"o3":54.0,"so2":4.3,"mosquito_risk":7,"arthritis_risk":5,"migraine_risk":4,"frizz_risk":1,"updated_at":"2026-06-25T21:57:40.520761+05:30"},{"city":"Shillong","state":"Meghalaya","latitude":25.5788,"longitude":91.8933,"temp":20.0,"humidity":95,"rain":0.0,"pressure":856.7,"uv_index":7.05,"wind_gusts":18.7,"aqi":65,"pm10":10.2,"pm2_5":8.8,"no2":6.4,"co":501.0,"o3":95.0,"so2":3.9,"mosquito_risk":3,"arthritis_risk":5,"migraine_risk":7,"frizz_risk":1,"updated_at":"2026-06-25T21:57:40.520767+05:30"},{"city":"Imphal","state":"Manipur","latitude":24.817,"longitude":93.9368,"temp":23.7,"humidity":91,"rain":0.1,"pressure":922.2,"uv_index":9.0,"wind_gusts":24.8,"aqi":59,"pm10":48.3,"pm2_5":37.6,"no2":20.9,"co":556.0,"o3":44.0,"so2":5.4,"mosquito_risk":6,"arthritis_risk":5,"migraine_risk":7,"frizz_risk":1,"updated_at":"2026-06-25T21:57:40.520773+05:30"},{"city":"Aizawl","state":"Mizoram","latitude":23.7271,"longitude":92.7176,"temp":19.8,"humidity":97,"rain":0.0,"pressure":891.5,"uv_index":8.3,"wind_gusts":19.4,"aqi":58,"pm10":23.8,"pm2_5":16.1,"no2":7.1,"co":201.0,"o3":49.0,"so2":1.4,"mosquito_risk":3,"arthritis_risk":10,"migraine_risk":7,"frizz_risk":1,"updated_at":"2026-06-25T21:57:40.520780+05:30"},{"city":"Kohima","state":"Nagaland","latitude":25.6701,"longitude":94.1077,"temp":21.2,"humidity":94,"rain":0.1,"pressure":855.4,"uv_index":9.25,"wind_gusts":23.4,"aqi":43,"pm10":11.4,"pm2_5":9.1,"no2":7.8,"co":353.0,"o3":60.0,"so2":1.8,"mosquito_risk":6,"arthritis_risk":5,"migraine_risk":7,"frizz_risk":1,"updated_at":"2026-06-25T21:57:40.520787+05:30"},{"city":"Gangtok","state":"Sikkim","latitude":27.3314,"longitude":88.6138,"temp":19.0,"humidity":95,"rain":0.0,"pressure":837.3,"uv_index":8.8,"wind_gusts":38.5,"aqi":106,"pm10":15.8,"pm2_5":13.9,"no2":11.3,"co":476.0,"o3":124.0,"so2":3.6,"mosquito_risk":3,"arthritis_risk":10,"migraine_risk":7,"frizz_risk":1,"updated_at":"2026-06-25T21:57:40.520793+05:30"},{"city":"Siliguri","state":"West Bengal","latitude":26.7271,"longitude":88.3953,"temp":26.6,"humidity":96,"rain":0.0,"pressure":990.5,"uv_index":8.75,"wind_gusts":21.2,"aqi":122,"pm10":60.8,"pm2_5":50.9,"no2":18.5,"co":1193.0,"o3":117.0,"so2":10.4,"mosquito_risk":7,"arthritis_risk":5,"migraine_risk":7,"frizz_risk":1,"updated_at":"2026-06-25T21:57:43.749407+05:30"},{"city":"Durgapur","state":"West Bengal","latitude":23.5204,"longitude":87.3119,"temp":29.1,"humidity":85,"rain":0.0,"pressure":992.0,"uv_index":8.85,"wind_gusts":28.4,"aqi":159,"pm10":44.8,"pm2_5":44.4,"no2":28.6,"co":607.0,"o3":82.0,"so2":41.9,"mosquito_risk":7,"arthritis_risk":5,"migraine_risk":7,"frizz_risk":1,"updated_at":"2026-06-25T21:57:43.749444+05:30"},{"city":"Asansol","state":"West Bengal","latitude":23.6739,"longitude":86.9524,"temp":29.5,"humidity":82,"rain":0.0,"pressure":990.6,"uv_index":8.85,"wind_gusts":25.2,"aqi":150,"pm10":38.9,"pm2_5":38.4,"no2":30.2,"co":455.0,"o3":81.0,"so2":44.4,"mosquito_risk":7,"arthritis_risk":5,"migraine_risk":7,"frizz_risk":1,"updated_at":"2026-06-25T21:57:43.749458+05:30"},{"city":"Pondicherry","state":"Puducherry","latitude":11.9139,"longitude":79.8145,"temp":26.8,"humidity":93,"rain":0.0,"pressure":1007.9,"uv_index":8.0,"wind_gusts":42.5,"aqi":74,"pm10":23.4,"pm2_5":19.4,"no2":18.1,"co":306.0,"o3":76.0,"so2":8.4,"mosquito_risk":7,"arthritis_risk":5,"migraine_risk":4,"frizz_risk":1,"updated_at":"2026-06-25T21:57:43.749467+05:30"},{"city":"Port Blair","state":"Andaman and Nicobar Islands","latitude":11.6234,"longitude":92.7265,"temp":26.4,"humidity":89,"rain":0.0,"pressure":1008.1,"uv_index":7.95,"wind_gusts":39.2,"aqi":25,"pm10":4.7,"pm2_5":2.9,"no2":0.3,"co":96.0,"o3":54.0,"so2":0.3,"mosquito_risk":7,"arthritis_risk":0,"migraine_risk":4,"frizz_risk":1,"updated_at":"2026-06-25T21:57:43.749476+05:30"},{"city":"Haridwar","state":"Uttarakhand","latitude":29.9457,"longitude":78.1642,"temp":29.9,"humidity":71,"rain":0.0,"pressure":970.1,"uv_index":7.4,"wind_gusts":31.0,"aqi":168,"pm10":134.6,"pm2_5":69.4,"no2":22.2,"co":395.0,"o3":132.0,"so2":17.1,"mosquito_risk":7,"arthritis_risk":5,"migraine_risk":7,"frizz_risk":1,"updated_at":"2026-06-25T21:57:43.749485+05:30"},{"city":"Rishikesh","state":"Uttarakhand","latitude":30.0869,"longitude":78.2676,"temp":27.6,"humidity":76,"rain":0.0,"pressure":962.9,"uv_index":7.15,"wind_gusts":23.4,"aqi":144,"pm10":75.0,"pm2_5":43.2,"no2":17.2,"co":379.0,"o3":107.0,"so2":8.0,"mosquito_risk":7,"arthritis_risk":5,"migraine_risk":7,"frizz_risk":1,"updated_at":"2026-06-25T21:57:43.749494+05:30"},{"city":"Nainital","state":"Uttarakhand","latitude":29.3919,"longitude":79.4542,"temp":16.6,"humidity":89,"rain":0.0,"pressure":804.5,"uv_index":6.85,"wind_gusts":28.4,"aqi":151,"pm10":74.7,"pm2_5":38.0,"no2":14.0,"co":409.0,"o3":109.0,"so2":6.9,"mosquito_risk":3,"arthritis_risk":10,"migraine_risk":7,"frizz_risk":0,"updated_at":"2026-06-25T21:57:43.749503+05:30"},{"city":"Mussoorie","state":"Uttarakhand","latitude":30.4599,"longitude":78.0664,"temp":16.2,"humidity":100,"rain":0.0,"pressure":801.6,"uv_index":7.15,"wind_gusts":30.6,"aqi":177,"pm10":70.1,"pm2_5":46.3,"no2":21.8,"co":417.0,"o3":139.0,"so2":12.4,"mosquito_risk":3,"arthritis_risk":10,"migraine_risk":7,"frizz_risk":1,"updated_at":"2026-06-25T21:57:43.749512+05:30"},{"city":"Dharamshala","state":"Himachal Pradesh","latitude":32.219,"longitude":76.3234,"temp":21.4,"humidity":70,"rain":0.0,"pressure":866.6,"uv_index":8.45,"wind_gusts":37.1,"aqi":74,"pm10":17.8,"pm2_5":16.4,"no2":19.6,"co":415.0,"o3":52.0,"so2":0.4,"mosquito_risk":3,"arthritis_risk":5,"migraine_risk":7,"frizz_risk":0,"updated_at":"2026-06-25T21:57:43.749521+05:30"},{"city":"Dalhousie","state":"Himachal Pradesh","latitude":32.5387,"longitude":75.971,"temp":16.2,"humidity":94,"rain":0.0,"pressure":802.5,"uv_index":8.25,"wind_gusts":26.3,"aqi":138,"pm10":44.4,"pm2_5":34.2,"no2":26.5,"co":679.0,"o3":112.0,"so2":3.9,"mosquito_risk":3,"arthritis_risk":10,"migraine_risk":7,"frizz_risk":0,"updated_at":"2026-06-25T21:57:43.749530+05:30"},{"city":"Patiala","state":"Punjab","latitude":30.3398,"longitude":76.3869,"temp":31.8,"humidity":62,"rain":0.0,"pressure":973.7,"uv_index":7.7,"wind_gusts":26.6,"aqi":171,"pm10":177.4,"pm2_5":96.4,"no2":41.5,"co":684.0,"o3":76.0,"so2":13.9,"mosquito_risk":3,"arthritis_risk":5,"migraine_risk":7,"frizz_risk":1,"updated_at":"2026-06-25T21:57:43.749539+05:30"},{"city":"Bhatinda","state":"Punjab","latitude":30.211,"longitude":74.9455,"temp":32.1,"humidity":61,"rain":0.0,"pressure":978.8,"uv_index":8.3,"wind_gusts":39.2,"aqi":159,"pm10":182.5,"pm2_5":93.4,"no2":52.8,"co":502.0,"o3":70.0,"so2":18.1,"mosquito_risk":3,"arthritis_risk":5,"migraine_risk":7,"frizz_risk":1,"updated_at":"2026-06-25T21:57:43.749546+05:30"},{"city":"Rohtak","state":"Haryana","latitude":28.8955,"longitude":76.6066,"temp":31.2,"humidity":61,"rain":0.0,"pressure":977.1,"uv_index":7.75,"wind_gusts":19.1,"aqi":171,"pm10":251.5,"pm2_5":102.4,"no2":78.1,"co":971.0,"o3":13.0,"so2":15.7,"mosquito_risk":3,"arthritis_risk":5,"migraine_risk":7,"frizz_risk":1,"updated_at":"2026-06-25T21:57:43.749555+05:30"},{"city":"Panipat","state":"Haryana","latitude":29.3909,"longitude":76.9635,"temp":30.5,"humidity":67,"rain":0.0,"pressure":976.1,"uv_index":7.65,"wind_gusts":29.5,"aqi":270,"pm10":337.1,"pm2_5":126.2,"no2":69.4,"co":765.0,"o3":35.0,"so2":18.9,"mosquito_risk":3,"arthritis_risk":5,"migraine_risk":7,"frizz_risk":1,"updated_at":"2026-06-25T21:57:43.749563+05:30"},{"city":"Mathura","state":"Uttar Pradesh","latitude":27.4924,"longitude":77.6737,"temp":32.0,"humidity":58,"rain":0.0,"pressure":982.5,"uv_index":8.05,"wind_gusts":24.8,"aqi":194,"pm10":311.1,"pm2_5":96.4,"no2":80.9,"co":540.0,"o3":0.0,"so2":10.0,"mosquito_risk":0,"arthritis_risk":5,"migraine_risk":7,"frizz_risk":1,"updated_at":"2026-06-25T21:57:43.749570+05:30"},{"city":"Vrindavan","state":"Uttar Pradesh","latitude":27.5823,"longitude":77.7027,"temp":31.5,"humidity":61,"rain":0.0,"pressure":982.9,"uv_index":8.0,"wind_gusts":22.7,"aqi":194,"pm10":311.1,"pm2_5":96.4,"no2":80.9,"co":490.0,"o3":0.0,"so2":10.0,"mosquito_risk":3,"arthritis_risk":5,"migraine_risk":7,"frizz_risk":1,"updated_at":"2026-06-25T21:57:43.749577+05:30"},{"city":"Ayodhya","state":"Uttar Pradesh","latitude":26.7922,"longitude":82.1998,"temp":32.2,"humidity":64,"rain":0.0,"pressure":991.1,"uv_index":8.4,"wind_gusts":26.6,"aqi":165,"pm10":197.4,"pm2_5":90.3,"no2":41.0,"co":608.0,"o3":59.0,"so2":14.6,"mosquito_risk":3,"arthritis_risk":5,"migraine_risk":7,"frizz_risk":1,"updated_at":"2026-06-25T21:57:43.749583+05:30"},{"city":"Ratlam","state":"Madhya Pradesh","latitude":23.3315,"longitude":75.0367,"temp":26.4,"humidity":89,"rain":0.0,"pressure":951.7,"uv_index":8.35,"wind_gusts":40.0,"aqi":78,"pm10":61.0,"pm2_5":35.0,"no2":5.9,"co":433.0,"o3":76.0,"so2":5.4,"mosquito_risk":7,"arthritis_risk":5,"migraine_risk":7,"frizz_risk":1,"updated_at":"2026-06-25T21:57:43.749590+05:30"},{"city":"Sagar","state":"Madhya Pradesh","latitude":23.8388,"longitude":78.7378,"temp":25.7,"humidity":90,"rain":0.0,"pressure":947.9,"uv_index":8.5,"wind_gusts":31.0,"aqi":80,"pm10":49.9,"pm2_5":31.2,"no2":10.9,"co":207.0,"o3":66.0,"so2":5.4,"mosquito_risk":7,"arthritis_risk":5,"migraine_risk":7,"frizz_risk":1,"updated_at":"2026-06-25T21:57:43.749597+05:30"},{"city":"Satna","state":"Madhya Pradesh","latitude":24.6005,"longitude":80.8322,"temp":32.4,"humidity":50,"rain":0.0,"pressure":968.2,"uv_index":8.5,"wind_gusts":26.3,"aqi":80,"pm10":56.1,"pm2_5":33.5,"no2":13.1,"co":346.0,"o3":68.0,"so2":5.4,"mosquito_risk":0,"arthritis_risk":5,"migraine_risk":7,"frizz_risk":1,"updated_at":"2026-06-25T21:57:43.749603+05:30"},{"city":"Akola","state":"Maharashtra","latitude":20.7002,"longitude":77.0082,"temp":28.0,"humidity":79,"rain":0.0,"pressure":973.1,"uv_index":8.65,"wind_gusts":40.7,"aqi":66,"pm10":47.3,"pm2_5":29.4,"no2":18.0,"co":220.0,"o3":55.0,"so2":7.4,"mosquito_risk":7,"arthritis_risk":5,"migraine_risk":7,"frizz_risk":1,"updated_at":"2026-06-25T21:57:43.749611+05:30"},{"city":"Amravati","state":"Maharashtra","latitude":20.9374,"longitude":77.7796,"temp":26.0,"humidity":97,"rain":0.1,"pressure":965.3,"uv_index":8.65,"wind_gusts":33.8,"aqi":65,"pm10":38.1,"pm2_5":26.1,"no2":21.6,"co":248.0,"o3":38.0,"so2":5.7,"mosquito_risk":10,"arthritis_risk":5,"migraine_risk":7,"frizz_risk":1,"updated_at":"2026-06-25T21:57:43.749618+05:30"},{"city":"Latur","state":"Maharashtra","latitude":18.4088,"longitude":76.5604,"temp":24.9,"humidity":91,"rain":0.0,"pressure":938.5,"uv_index":7.8,"wind_gusts":37.1,"aqi":47,"pm10":19.7,"pm2_5":12.5,"no2":7.2,"co":200.0,"o3":64.0,"so2":1.9,"mosquito_risk":3,"arthritis_risk":5,"migraine_risk":7,"frizz_risk":1,"updated_at":"2026-06-25T21:57:43.749625+05:30"},{"city":"Nanded","state":"Maharashtra","latitude":19.1383,"longitude":77.3091,"temp":26.1,"humidity":93,"rain":0.0,"pressure":967.1,"uv_index":8.0,"wind_gusts":40.7,"aqi":61,"pm10":21.9,"pm2_5":15.7,"no2":11.6,"co":321.0,"o3":56.0,"so2":3.0,"mosquito_risk":7,"arthritis_risk":5,"migraine_risk":7,"frizz_risk":1,"updated_at":"2026-06-25T21:57:43.749632+05:30"},{"city":"Gulbarga","state":"Karnataka","latitude":17.3297,"longitude":76.8343,"temp":26.6,"humidity":70,"rain":0.0,"pressure":957.5,"uv_index":6.25,"wind_gusts":41.8,"aqi":37,"pm10":35.7,"pm2_5":18.9,"no2":13.3,"co":178.0,"o3":54.0,"so2":3.8,"mosquito_risk":7,"arthritis_risk":5,"migraine_risk":7,"frizz_risk":1,"updated_at":"2026-06-25T21:57:43.749638+05:30"},{"city":"Bidar","state":"Karnataka","latitude":17.9104,"longitude":77.5199,"temp":24.4,"humidity":92,"rain":0.0,"pressure":934.1,"uv_index":7.15,"wind_gusts":38.5,"aqi":47,"pm10":24.3,"pm2_5":16.6,"no2":15.3,"co":222.0,"o3":57.0,"so2":3.6,"mosquito_risk":3,"arthritis_risk":5,"migraine_risk":7,"frizz_risk":1,"updated_at":"2026-06-25T21:57:43.749645+05:30"},{"city":"Hospet","state":"Karnataka","latitude":15.2689,"longitude":76.3909,"temp":25.8,"humidity":74,"rain":0.0,"pressure":955.5,"uv_index":8.1,"wind_gusts":44.6,"aqi":26,"pm10":6.4,"pm2_5":4.7,"no2":6.9,"co":148.0,"o3":42.0,"so2":1.8,"mosquito_risk":7,"arthritis_risk":5,"migraine_risk":7,"frizz_risk":1,"updated_at":"2026-06-25T21:57:43.749652+05:30"},{"city":"Tirupur","state":"Tamil Nadu","latitude":11.1085,"longitude":77.3411,"temp":26.1,"humidity":78,"rain":0.0,"pressure":975.5,"uv_index":8.15,"wind_gusts":54.7,"aqi":44,"pm10":18.9,"pm2_5":17.3,"no2":25.4,"co":165.0,"o3":29.0,"so2":5.9,"mosquito_risk":7,"arthritis_risk":5,"migraine_risk":7,"frizz_risk":1,"updated_at":"2026-06-25T21:57:43.749658+05:30"},{"city":"Alappuzha","state":"Kerala","latitude":9.4981,"longitude":76.3388,"temp":27.8,"humidity":84,"rain":0.1,"pressure":1010.1,"uv_index":8.45,"wind_gusts":33.1,"aqi":34,"pm10":15.9,"pm2_5":12.5,"no2":13.6,"co":84.0,"o3":38.0,"so2":3.7,"mosquito_risk":10,"arthritis_risk":0,"migraine_risk":4,"frizz_risk":1,"updated_at":"2026-06-25T21:57:43.749665+05:30"},{"city":"Munnar","state":"Kerala","latitude":10.0889,"longitude":77.0595,"temp":16.7,"humidity":100,"rain":0.0,"pressure":857.5,"uv_index":9.1,"wind_gusts":37.4,"aqi":21,"pm10":10.0,"pm2_5":9.1,"no2":11.7,"co":107.0,"o3":25.0,"so2":2.1,"mosquito_risk":3,"arthritis_risk":10,"migraine_risk":7,"frizz_risk":1,"updated_at":"2026-06-25T21:57:43.749671+05:30"},{"city":"Silchar","state":"Assam","latitude":24.8333,"longitude":92.7789,"temp":27.1,"humidity":95,"rain":0.1,"pressure":1003.5,"uv_index":8.75,"wind_gusts":19.4,"aqi":71,"pm10":42.8,"pm2_5":29.8,"no2":6.5,"co":459.0,"o3":98.0,"so2":5.7,"mosquito_risk":10,"arthritis_risk":5,"migraine_risk":4,"frizz_risk":1,"updated_at":"2026-06-25T21:57:43.749678+05:30"},{"city":"Dibrugarh","state":"Assam","latitude":27.4728,"longitude":94.912,"temp":27.0,"humidity":95,"rain":0.0,"pressure":992.7,"uv_index":8.55,"wind_gusts":22.7,"aqi":53,"pm10":29.0,"pm2_5":26.2,"no2":18.6,"co":464.0,"o3":77.0,"so2":4.2,"mosquito_risk":7,"arthritis_risk":5,"migraine_risk":7,"frizz_risk":1,"updated_at":"2026-06-25T21:57:43.749684+05:30"}]