[{"city":"Delhi","state":"Delhi","latitude":28.6139,"longitude":77.209,"temp":30.7,"humidity":77,"rain":0.0,"pressure":976.5,"uv_index":6.85,"wind_gusts":24.8,"aqi":108,"pm10":82.0,"pm2_5":60.1,"no2":56.1,"co":1115.0,"o3":44.0,"so2":33.8,"mosquito_risk":3,"arthritis_risk":5,"migraine_risk":7,"frizz_risk":1,"updated_at":"2026-07-03T23:44:17.440396+05:30"},{"city":"Mumbai","state":"Maharashtra","latitude":19.076,"longitude":72.8777,"temp":26.0,"humidity":92,"rain":0.2,"pressure":1005.7,"uv_index":1.05,"wind_gusts":40.0,"aqi":43,"pm10":21.5,"pm2_5":10.5,"no2":4.4,"co":197.0,"o3":56.0,"so2":3.2,"mosquito_risk":10,"arthritis_risk":5,"migraine_risk":0,"frizz_risk":1,"updated_at":"2026-07-03T23:44:17.440450+05:30"},{"city":"Bangalore","state":"Karnataka","latitude":12.9716,"longitude":77.5946,"temp":21.7,"humidity":88,"rain":0.0,"pressure":911.8,"uv_index":8.35,"wind_gusts":63.7,"aqi":22,"pm10":3.2,"pm2_5":2.9,"no2":9.8,"co":252.0,"o3":38.0,"so2":3.1,"mosquito_risk":3,"arthritis_risk":5,"migraine_risk":7,"frizz_risk":1,"updated_at":"2026-07-03T23:44:17.440467+05:30"},{"city":"Hyderabad","state":"Telangana","latitude":17.385,"longitude":78.4867,"temp":24.8,"humidity":82,"rain":0.0,"pressure":949.1,"uv_index":2.8,"wind_gusts":63.0,"aqi":23,"pm10":3.9,"pm2_5":3.4,"no2":7.4,"co":197.0,"o3":40.0,"so2":3.4,"mosquito_risk":3,"arthritis_risk":5,"migraine_risk":3,"frizz_risk":1,"updated_at":"2026-07-03T23:44:17.440478+05:30"},{"city":"Chennai","state":"Tamil Nadu","latitude":13.0827,"longitude":80.2707,"temp":27.7,"humidity":78,"rain":0.0,"pressure":1005.4,"uv_index":8.15,"wind_gusts":53.3,"aqi":52,"pm10":10.8,"pm2_5":9.0,"no2":16.9,"co":254.0,"o3":42.0,"so2":7.3,"mosquito_risk":7,"arthritis_risk":5,"migraine_risk":4,"frizz_risk":1,"updated_at":"2026-07-03T23:44:17.440489+05:30"},{"city":"Kolkata","state":"West Bengal","latitude":22.5726,"longitude":88.3639,"temp":27.7,"humidity":89,"rain":0.0,"pressure":997.5,"uv_index":7.85,"wind_gusts":40.7,"aqi":58,"pm10":19.0,"pm2_5":18.0,"no2":16.5,"co":257.0,"o3":37.0,"so2":11.3,"mosquito_risk":7,"arthritis_risk":5,"migraine_risk":7,"frizz_risk":1,"updated_at":"2026-07-03T23:44:17.440498+05:30"},{"city":"Pune","state":"Maharashtra","latitude":18.5204,"longitude":73.8567,"temp":22.2,"humidity":96,"rain":0.4,"pressure":944.7,"uv_index":1.85,"wind_gusts":45.7,"aqi":20,"pm10":2.4,"pm2_5":2.1,"no2":6.2,"co":147.0,"o3":45.0,"so2":3.9,"mosquito_risk":6,"arthritis_risk":5,"migraine_risk":3,"frizz_risk":1,"updated_at":"2026-07-03T23:44:17.440506+05:30"},{"city":"Ahmedabad","state":"Gujarat","latitude":23.0225,"longitude":72.5714,"temp":28.5,"humidity":83,"rain":0.0,"pressure":996.6,"uv_index":6.65,"wind_gusts":27.7,"aqi":66,"pm10":20.7,"pm2_5":13.2,"no2":13.0,"co":203.0,"o3":46.0,"so2":5.3,"mosquito_risk":7,"arthritis_risk":5,"migraine_risk":7,"frizz_risk":1,"updated_at":"2026-07-03T23:44:17.440515+05:30"},{"city":"Jaipur","state":"Rajasthan","latitude":26.9124,"longitude":75.7873,"temp":28.9,"humidity":81,"rain":0.0,"pressure":953.2,"uv_index":7.3,"wind_gusts":42.1,"aqi":99,"pm10":59.5,"pm2_5":38.0,"no2":27.5,"co":434.0,"o3":46.0,"so2":9.2,"mosquito_risk":7,"arthritis_risk":5,"migraine_risk":7,"frizz_risk":1,"updated_at":"2026-07-03T23:44:17.440523+05:30"},{"city":"Lucknow","state":"Uttar Pradesh","latitude":26.8467,"longitude":80.9462,"temp":28.6,"humidity":89,"rain":0.1,"pressure":986.9,"uv_index":7.55,"wind_gusts":28.8,"aqi":74,"pm10":34.0,"pm2_5":33.9,"no2":24.6,"co":486.0,"o3":60.0,"so2":11.4,"mosquito_risk":10,"arthritis_risk":5,"migraine_risk":7,"frizz_risk":1,"updated_at":"2026-07-03T23:44:17.440537+05:30"},{"city":"Kanpur","state":"Uttar Pradesh","latitude":26.4499,"longitude":80.3319,"temp":28.5,"humidity":92,"rain":0.1,"pressure":985.5,"uv_index":7.7,"wind_gusts":26.3,"aqi":74,"pm10":37.4,"pm2_5":36.0,"no2":33.6,"co":320.0,"o3":48.0,"so2":10.4,"mosquito_risk":10,"arthritis_risk":5,"migraine_risk":7,"frizz_risk":1,"updated_at":"2026-07-03T23:44:17.440546+05:30"},{"city":"Chandigarh","state":"Chandigarh","latitude":30.7333,"longitude":76.7794,"temp":28.7,"humidity":86,"rain":0.0,"pressure":963.2,"uv_index":7.6,"wind_gusts":25.6,"aqi":90,"pm10":88.9,"pm2_5":88.7,"no2":76.7,"co":1456.0,"o3":13.0,"so2":11.2,"mosquito_risk":7,"arthritis_risk":5,"migraine_risk":7,"frizz_risk":1,"updated_at":"2026-07-03T23:44:17.440555+05:30"},{"city":"Srinagar","state":"Jammu and Kashmir","latitude":34.0837,"longitude":74.7973,"temp":20.8,"humidity":87,"rain":0.0,"pressure":838.2,"uv_index":9.05,"wind_gusts":18.0,"aqi":64,"pm10":28.4,"pm2_5":27.5,"no2":39.1,"co":1173.0,"o3":9.0,"so2":2.1,"mosquito_risk":3,"arthritis_risk":5,"migraine_risk":7,"frizz_risk":1,"updated_at":"2026-07-03T23:44:17.440564+05:30"},{"city":"Jammu","state":"Jammu and Kashmir","latitude":32.7266,"longitude":74.857,"temp":29.5,"humidity":68,"rain":0.0,"pressure":966.0,"uv_index":8.55,"wind_gusts":25.9,"aqi":102,"pm10":58.7,"pm2_5":54.8,"no2":66.7,"co":709.0,"o3":45.0,"so2":10.4,"mosquito_risk":7,"arthritis_risk":5,"migraine_risk":7,"frizz_risk":1,"updated_at":"2026-07-03T23:44:17.440572+05:30"},{"city":"Amritsar","state":"Punjab","latitude":31.634,"longitude":74.8723,"temp":30.3,"humidity":74,"rain":0.0,"pressure":973.8,"uv_index":8.4,"wind_gusts":31.3,"aqi":116,"pm10":47.6,"pm2_5":45.6,"no2":33.8,"co":682.0,"o3":57.0,"so2":6.3,"mosquito_risk":3,"arthritis_risk":5,"migraine_risk":7,"frizz_risk":1,"updated_at":"2026-07-03T23:44:17.440580+05:30"},{"city":"Ludhiana","state":"Punjab","latitude":30.901,"longitude":75.8573,"temp":29.4,"humidity":87,"rain":0.0,"pressure":972.3,"uv_index":7.95,"wind_gusts":25.6,"aqi":97,"pm10":82.7,"pm2_5":81.7,"no2":57.1,"co":895.0,"o3":43.0,"so2":16.4,"mosquito_risk":7,"arthritis_risk":5,"migraine_risk":7,"frizz_risk":1,"updated_at":"2026-07-03T23:44:17.440588+05:30"},{"city":"Jalandhar","state":"Punjab","latitude":31.326,"longitude":75.5762,"temp":29.3,"humidity":85,"rain":0.0,"pressure":973.1,"uv_index":8.15,"wind_gusts":23.0,"aqi":101,"pm10":67.5,"pm2_5":65.9,"no2":49.0,"co":1164.0,"o3":40.0,"so2":8.0,"mosquito_risk":7,"arthritis_risk":5,"migraine_risk":7,"frizz_risk":1,"updated_at":"2026-07-03T23:44:17.440596+05:30"},{"city":"Dehradun","state":"Uttarakhand","latitude":30.6284,"longitude":78.0322,"temp":18.5,"humidity":100,"rain":0.0,"pressure":828.0,"uv_index":7.5,"wind_gusts":26.6,"aqi":49,"pm10":23.2,"pm2_5":22.9,"no2":22.2,"co":300.0,"o3":56.0,"so2":0.2,"mosquito_risk":3,"arthritis_risk":10,"migraine_risk":7,"frizz_risk":1,"updated_at":"2026-07-03T23:44:17.440604+05:30"},{"city":"Shimla","state":"Himachal Pradesh","latitude":31.1048,"longitude":77.1734,"temp":15.8,"humidity":97,"rain":0.0,"pressure":781.6,"uv_index":7.6,"wind_gusts":28.8,"aqi":47,"pm10":24.2,"pm2_5":23.7,"no2":24.3,"co":486.0,"o3":60.0,"so2":0.0,"mosquito_risk":3,"arthritis_risk":10,"migraine_risk":7,"frizz_risk":0,"updated_at":"2026-07-03T23:44:17.440612+05:30"},{"city":"Manali","state":"Himachal Pradesh","latitude":32.2396,"longitude":77.1887,"temp":16.0,"humidity":100,"rain":0.0,"pressure":815.0,"uv_index":9.45,"wind_gusts":36.0,"aqi":58,"pm10":7.3,"pm2_5":6.9,"no2":115.9,"co":408.0,"o3":15.0,"so2":0.0,"mosquito_risk":3,"arthritis_risk":10,"migraine_risk":7,"frizz_risk":0,"updated_at":"2026-07-03T23:44:17.440622+05:30"},{"city":"Gurgaon","state":"Haryana","latitude":28.4595,"longitude":77.0266,"temp":30.2,"humidity":79,"rain":0.0,"pressure":974.8,"uv_index":7.05,"wind_gusts":20.9,"aqi":131,"pm10":100.1,"pm2_5":65.2,"no2":68.2,"co":1272.0,"o3":31.0,"so2":25.7,"mosquito_risk":3,"arthritis_risk":5,"migraine_risk":7,"frizz_risk":1,"updated_at":"2026-07-03T23:44:17.440630+05:30"},{"city":"Noida","state":"Uttar Pradesh","latitude":28.5355,"longitude":77.391,"temp":30.3,"humidity":79,"rain":0.0,"pressure":977.9,"uv_index":6.4,"wind_gusts":24.1,"aqi":131,"pm10":100.1,"pm2_5":65.2,"no2":68.2,"co":1136.0,"o3":31.0,"so2":25.7,"mosquito_risk":3,"arthritis_risk":5,"migraine_risk":7,"frizz_risk":1,"updated_at":"2026-07-03T23:44:17.440637+05:30"},{"city":"Ghaziabad","state":"Uttar Pradesh","latitude":28.6692,"longitude":77.4538,"temp":30.6,"humidity":77,"rain":0.0,"pressure":976.2,"uv_index":6.75,"wind_gusts":24.8,"aqi":93,"pm10":67.5,"pm2_5":64.5,"no2":41.3,"co":567.0,"o3":52.0,"so2":13.9,"mosquito_risk":3,"arthritis_risk":5,"migraine_risk":7,"frizz_risk":1,"updated_at":"2026-07-03T23:44:17.440644+05:30"},{"city":"Faridabad","state":"Haryana","latitude":28.4089,"longitude":77.3178,"temp":31.4,"humidity":71,"rain":0.0,"pressure":977.2,"uv_index":5.8,"wind_gusts":25.9,"aqi":131,"pm10":100.1,"pm2_5":65.2,"no2":68.2,"co":936.0,"o3":31.0,"so2":25.7,"mosquito_risk":3,"arthritis_risk":5,"migraine_risk":3,"frizz_risk":1,"updated_at":"2026-07-03T23:44:17.440654+05:30"},{"city":"Meerut","state":"Uttar Pradesh","latitude":28.9845,"longitude":77.7064,"temp":30.2,"humidity":81,"rain":0.0,"pressure":975.2,"uv_index":5.8,"wind_gusts":26.6,"aqi":93,"pm10":67.5,"pm2_5":64.5,"no2":41.3,"co":770.0,"o3":52.0,"so2":13.9,"mosquito_risk":3,"arthritis_risk":5,"migraine_risk":3,"frizz_risk":1,"updated_at":"2026-07-03T23:44:17.440661+05:30"},{"city":"Agra","state":"Uttar Pradesh","latitude":27.1767,"longitude":78.0081,"temp":29.5,"humidity":85,"rain":0.0,"pressure":981.4,"uv_index":6.2,"wind_gusts":20.2,"aqi":101,"pm10":70.8,"pm2_5":61.5,"no2":61.8,"co":1041.0,"o3":29.0,"so2":19.5,"mosquito_risk":7,"arthritis_risk":5,"migraine_risk":7,"frizz_risk":1,"updated_at":"2026-07-03T23:44:17.440668+05:30"},{"city":"Varanasi","state":"Uttar Pradesh","latitude":25.3176,"longitude":82.9739,"temp":30.7,"humidity":73,"rain":0.0,"pressure":990.0,"uv_index":7.05,"wind_gusts":34.6,"aqi":94,"pm10":40.9,"pm2_5":40.5,"no2":23.5,"co":742.0,"o3":61.0,"so2":12.1,"mosquito_risk":3,"arthritis_risk":5,"migraine_risk":7,"frizz_risk":1,"updated_at":"2026-07-03T23:44:17.440676+05:30"},{"city":"Prayagraj","state":"Uttar Pradesh","latitude":25.4358,"longitude":81.8463,"temp":28.6,"humidity":95,"rain":0.0,"pressure":988.5,"uv_index":7.15,"wind_gusts":32.8,"aqi":85,"pm10":30.3,"pm2_5":29.9,"no2":16.3,"co":313.0,"o3":82.0,"so2":8.2,"mosquito_risk":7,"arthritis_risk":5,"migraine_risk":7,"frizz_risk":1,"updated_at":"2026-07-03T23:44:17.440683+05:30"},{"city":"Gorakhpur","state":"Uttar Pradesh","latitude":26.7606,"longitude":83.3732,"temp":30.7,"humidity":74,"rain":0.0,"pressure":990.9,"uv_index":8.15,"wind_gusts":35.6,"aqi":84,"pm10":28.1,"pm2_5":27.8,"no2":14.9,"co":466.0,"o3":86.0,"so2":6.9,"mosquito_risk":3,"arthritis_risk":5,"migraine_risk":7,"frizz_risk":1,"updated_at":"2026-07-03T23:44:17.440691+05:30"},{"city":"Bareilly","state":"Uttar Pradesh","latitude":28.367,"longitude":79.4304,"temp":30.1,"humidity":81,"rain":0.0,"pressure":980.5,"uv_index":8.0,"wind_gusts":28.1,"aqi":95,"pm10":67.1,"pm2_5":67.1,"no2":53.0,"co":1029.0,"o3":29.0,"so2":13.2,"mosquito_risk":3,"arthritis_risk":5,"migraine_risk":7,"frizz_risk":1,"updated_at":"2026-07-03T23:44:17.440700+05:30"},{"city":"Aligarh","state":"Uttar Pradesh","latitude":27.8974,"longitude":78.088,"temp":29.8,"humidity":88,"rain":0.0,"pressure":978.8,"uv_index":6.4,"wind_gusts":21.2,"aqi":94,"pm10":71.7,"pm2_5":70.1,"no2":58.7,"co":759.0,"o3":28.0,"so2":17.3,"mosquito_risk":7,"arthritis_risk":5,"migraine_risk":7,"frizz_risk":1,"updated_at":"2026-07-03T23:44:17.440707+05:30"},{"city":"Moradabad","state":"Uttar Pradesh","latitude":28.8386,"longitude":78.7733,"temp":30.4,"humidity":79,"rain":0.0,"pressure":977.4,"uv_index":7.6,"wind_gusts":23.4,"aqi":106,"pm10":86.6,"pm2_5":85.9,"no2":56.2,"co":1031.0,"o3":33.0,"so2":21.6,"mosquito_risk":3,"arthritis_risk":5,"migraine_risk":7,"frizz_risk":1,"updated_at":"2026-07-03T23:44:17.440714+05:30"},{"city":"Saharanpur","state":"Uttar Pradesh","latitude":29.9637,"longitude":77.546,"temp":29.1,"humidity":87,"rain":0.0,"pressure":970.1,"uv_index":6.95,"wind_gusts":28.4,"aqi":95,"pm10":106.2,"pm2_5":105.5,"no2":84.8,"co":794.0,"o3":7.0,"so2":21.7,"mosquito_risk":7,"arthritis_risk":5,"migraine_risk":7,"frizz_risk":1,"updated_at":"2026-07-03T23:44:17.440721+05:30"},{"city":"Jhansi","state":"Uttar Pradesh","latitude":25.4484,"longitude":78.5685,"temp":26.4,"humidity":95,"rain":0.0,"pressure":972.8,"uv_index":7.6,"wind_gusts":26.6,"aqi":69,"pm10":21.5,"pm2_5":19.6,"no2":15.3,"co":253.0,"o3":62.0,"so2":4.0,"mosquito_risk":7,"arthritis_risk":5,"migraine_risk":7,"frizz_risk":1,"updated_at":"2026-07-03T23:44:20.844876+05:30"},{"city":"Surat","state":"Gujarat","latitude":21.1702,"longitude":72.8311,"temp":27.5,"humidity":88,"rain":0.1,"pressure":1001.9,"uv_index":0.6,"wind_gusts":25.9,"aqi":68,"pm10":18.9,"pm2_5":15.0,"no2":23.2,"co":392.0,"o3":31.0,"so2":34.7,"mosquito_risk":10,"arthritis_risk":5,"migraine_risk":0,"frizz_risk":1,"updated_at":"2026-07-03T23:44:20.844915+05:30"},{"city":"Vadodara","state":"Gujarat","latitude":22.3072,"longitude":73.1812,"temp":27.4,"humidity":91,"rain":0.1,"pressure":999.0,"uv_index":1.65,"wind_gusts":32.0,"aqi":61,"pm10":14.1,"pm2_5":11.4,"no2":14.4,"co":289.0,"o3":42.0,"so2":4.9,"mosquito_risk":10,"arthritis_risk":5,"migraine_risk":3,"frizz_risk":1,"updated_at":"2026-07-03T23:44:20.844926+05:30"},{"city":"Rajkot","state":"Gujarat","latitude":22.3039,"longitude":70.8022,"temp":27.4,"humidity":87,"rain":0.0,"pressure":989.5,"uv_index":6.8,"wind_gusts":33.1,"aqi":54,"pm10":24.3,"pm2_5":13.6,"no2":7.6,"co":131.0,"o3":40.0,"so2":6.6,"mosquito_risk":7,"arthritis_risk":5,"migraine_risk":7,"frizz_risk":1,"updated_at":"2026-07-03T23:44:20.844935+05:30"},{"city":"Thane","state":"Maharashtra","latitude":19.2183,"longitude":72.9781,"temp":25.2,"humidity":97,"rain":0.2,"pressure":1004.9,"uv_index":0.65,"wind_gusts":31.0,"aqi":43,"pm10":21.5,"pm2_5":10.5,"no2":4.4,"co":265.0,"o3":56.0,"so2":3.2,"mosquito_risk":10,"arthritis_risk":5,"migraine_risk":0,"frizz_risk":1,"updated_at":"2026-07-03T23:44:20.844944+05:30"},{"city":"Nagpur","state":"Maharashtra","latitude":21.1458,"longitude":79.0882,"temp":25.3,"humidity":94,"rain":0.3,"pressure":966.5,"uv_index":1.4,"wind_gusts":30.6,"aqi":33,"pm10":9.5,"pm2_5":8.8,"no2":11.5,"co":242.0,"o3":70.0,"so2":7.4,"mosquito_risk":10,"arthritis_risk":5,"migraine_risk":3,"frizz_risk":1,"updated_at":"2026-07-03T23:44:20.844952+05:30"},{"city":"Nashik","state":"Maharashtra","latitude":19.9975,"longitude":73.7898,"temp":22.6,"humidity":97,"rain":0.1,"pressure":941.1,"uv_index":0.6,"wind_gusts":48.2,"aqi":22,"pm10":1.8,"pm2_5":1.6,"no2":6.8,"co":148.0,"o3":43.0,"so2":1.7,"mosquito_risk":6,"arthritis_risk":5,"migraine_risk":3,"frizz_risk":1,"updated_at":"2026-07-03T23:44:20.844960+05:30"},{"city":"Aurangabad","state":"Maharashtra","latitude":19.8762,"longitude":75.3433,"temp":22.6,"humidity":96,"rain":0.1,"pressure":939.7,"uv_index":1.65,"wind_gusts":50.8,"aqi":26,"pm10":2.3,"pm2_5":2.2,"no2":7.0,"co":140.0,"o3":45.0,"so2":5.0,"mosquito_risk":6,"arthritis_risk":5,"migraine_risk":3,"frizz_risk":1,"updated_at":"2026-07-03T23:44:20.844969+05:30"},{"city":"Solapur","state":"Maharashtra","latitude":17.6599,"longitude":75.9064,"temp":24.3,"humidity":93,"rain":0.1,"pressure":954.4,"uv_index":6.3,"wind_gusts":45.4,"aqi":22,"pm10":3.3,"pm2_5":3.1,"no2":5.8,"co":139.0,"o3":39.0,"so2":1.9,"mosquito_risk":6,"arthritis_risk":5,"migraine_risk":7,"frizz_risk":1,"updated_at":"2026-07-03T23:44:20.844978+05:30"},{"city":"Kolhapur","state":"Maharashtra","latitude":16.705,"longitude":74.2433,"temp":21.5,"humidity":96,"rain":0.2,"pressure":946.3,"uv_index":7.2,"wind_gusts":52.9,"aqi":20,"pm10":3.4,"pm2_5":3.0,"no2":4.3,"co":122.0,"o3":45.0,"so2":1.8,"mosquito_risk":6,"arthritis_risk":5,"migraine_risk":7,"frizz_risk":1,"updated_at":"2026-07-03T23:44:20.844987+05:30"},{"city":"Goa","state":"Goa","latitude":15.2993,"longitude":74.124,"temp":23.4,"humidity":99,"rain":0.2,"pressure":999.1,"uv_index":3.8,"wind_gusts":36.0,"aqi":55,"pm10":23.8,"pm2_5":13.0,"no2":3.1,"co":243.0,"o3":48.0,"so2":0.9,"mosquito_risk":6,"arthritis_risk":5,"migraine_risk":3,"frizz_risk":1,"updated_at":"2026-07-03T23:44:20.844995+05:30"},{"city":"Jodhpur","state":"Rajasthan","latitude":26.2389,"longitude":73.0243,"temp":29.3,"humidity":73,"rain":0.0,"pressure":976.7,"uv_index":8.4,"wind_gusts":31.3,"aqi":123,"pm10":183.0,"pm2_5":60.1,"no2":6.1,"co":174.0,"o3":66.0,"so2":2.9,"mosquito_risk":7,"arthritis_risk":5,"migraine_risk":7,"frizz_risk":1,"updated_at":"2026-07-03T23:44:20.845003+05:30"},{"city":"Udaipur","state":"Rajasthan","latitude":24.5854,"longitude":73.7125,"temp":25.1,"humidity":93,"rain":0.4,"pressure":941.5,"uv_index":7.75,"wind_gusts":34.9,"aqi":73,"pm10":38.8,"pm2_5":23.5,"no2":9.5,"co":131.0,"o3":59.0,"so2":6.7,"mosquito_risk":10,"arthritis_risk":5,"migraine_risk":7,"frizz_risk":1,"updated_at":"2026-07-03T23:44:20.845011+05:30"},{"city":"Kota","state":"Rajasthan","latitude":25.2138,"longitude":75.8648,"temp":26.5,"humidity":92,"rain":0.2,"pressure":972.6,"uv_index":7.5,"wind_gusts":31.3,"aqi":83,"pm10":64.5,"pm2_5":31.0,"no2":9.0,"co":291.0,"o3":72.0,"so2":3.2,"mosquito_risk":10,"arthritis_risk":5,"migraine_risk":7,"frizz_risk":1,"updated_at":"2026-07-03T23:44:20.845020+05:30"},{"city":"Bikaner","state":"Rajasthan","latitude":28.0229,"longitude":73.3119,"temp":32.2,"humidity":59,"rain":0.0,"pressure":974.5,"uv_index":8.4,"wind_gusts":52.2,"aqi":109,"pm10":116.2,"pm2_5":50.4,"no2":4.1,"co":183.0,"o3":88.0,"so2":4.3,"mosquito_risk":0,"arthritis_risk":5,"migraine_risk":7,"frizz_risk":1,"updated_at":"2026-07-03T23:44:20.845028+05:30"},{"city":"Ajmer","state":"Rajasthan","latitude":26.4499,"longitude":74.6399,"temp":28.0,"humidity":72,"rain":0.0,"pressure":948.4,"uv_index":7.3,"wind_gusts":28.4,"aqi":95,"pm10":87.5,"pm2_5":44.1,"no2":16.4,"co":170.0,"o3":52.0,"so2":3.5,"mosquito_risk":7,"arthritis_risk":5,"migraine_risk":7,"frizz_risk":1,"updated_at":"2026-07-03T23:44:20.845036+05:30"},{"city":"Gwalior","state":"Madhya Pradesh","latitude":26.2183,"longitude":78.1828,"temp":27.3,"humidity":95,"rain":0.1,"pressure":977.3,"uv_index":7.3,"wind_gusts":21.2,"aqi":83,"pm10":27.8,"pm2_5":22.4,"no2":15.9,"co":350.0,"o3":58.0,"so2":4.8,"mosquito_risk":10,"arthritis_risk":5,"migraine_risk":7,"frizz_risk":1,"updated_at":"2026-07-03T23:44:20.845043+05:30"},{"city":"Indore","state":"Madhya Pradesh","latitude":22.7196,"longitude":75.8577,"temp":24.5,"humidity":93,"rain":0.1,"pressure":942.2,"uv_index":5.25,"wind_gusts":29.9,"aqi":55,"pm10":27.0,"pm2_5":18.4,"no2":10.0,"co":278.0,"o3":59.0,"so2":3.4,"mosquito_risk":6,"arthritis_risk":5,"migraine_risk":3,"frizz_risk":1,"updated_at":"2026-07-03T23:44:20.845051+05:30"},{"city":"Bhopal","state":"Madhya Pradesh","latitude":23.2599,"longitude":77.4126,"temp":24.7,"humidity":97,"rain":0.2,"pressure":947.4,"uv_index":7.1,"wind_gusts":33.1,"aqi":63,"pm10":26.9,"pm2_5":20.1,"no2":9.2,"co":414.0,"o3":69.0,"so2":3.4,"mosquito_risk":6,"arthritis_risk":5,"migraine_risk":7,"frizz_risk":1,"updated_at":"2026-07-03T23:44:20.845059+05:30"},{"city":"Jabalpur","state":"Madhya Pradesh","latitude":23.1815,"longitude":79.9864,"temp":24.7,"humidity":98,"rain":0.1,"pressure":954.4,"uv_index":8.6,"wind_gusts":29.9,"aqi":47,"pm10":15.8,"pm2_5":15.4,"no2":11.1,"co":325.0,"o3":72.0,"so2":3.4,"mosquito_risk":6,"arthritis_risk":5,"migraine_risk":7,"frizz_risk":1,"updated_at":"2026-07-03T23:44:20.845067+05:30"},{"city":"Ujjain","state":"Madhya Pradesh","latitude":23.1765,"longitude":75.7885,"temp":25.2,"humidity":90,"rain":0.0,"pressure":947.7,"uv_index":6.95,"wind_gusts":36.7,"aqi":57,"pm10":33.8,"pm2_5":21.1,"no2":7.1,"co":238.0,"o3":63.0,"so2":3.7,"mosquito_risk":7,"arthritis_risk":5,"migraine_risk":7,"frizz_risk":1,"updated_at":"2026-07-03T23:44:20.845076+05:30"},{"city":"Visakhapatnam","state":"Andhra Pradesh","latitude":17.6868,"longitude":83.2185,"temp":25.3,"humidity":94,"rain":0.4,"pressure":995.9,"uv_index":1.55,"wind_gusts":56.9,"aqi":49,"pm10":10.5,"pm2_5":9.5,"no2":15.0,"co":227.0,"o3":44.0,"so2":22.0,"mosquito_risk":10,"arthritis_risk":5,"migraine_risk":3,"frizz_risk":1,"updated_at":"2026-07-03T23:44:20.845084+05:30"},{"city":"Vijayawada","state":"Andhra Pradesh","latitude":16.5062,"longitude":80.648,"temp":28.3,"humidity":73,"rain":0.0,"pressure":998.3,"uv_index":3.3,"wind_gusts":52.9,"aqi":39,"pm10":15.0,"pm2_5":12.3,"no2":11.0,"co":178.0,"o3":48.0,"so2":7.7,"mosquito_risk":7,"arthritis_risk":5,"migraine_risk":3,"frizz_risk":1,"updated_at":"2026-07-03T23:44:20.845091+05:30"},{"city":"Guntur","state":"Andhra Pradesh","latitude":16.3067,"longitude":80.4365,"temp":28.3,"humidity":73,"rain":0.0,"pressure":999.8,"uv_index":3.2,"wind_gusts":52.9,"aqi":33,"pm10":12.4,"pm2_5":10.0,"no2":10.6,"co":174.0,"o3":48.0,"so2":8.1,"mosquito_risk":7,"arthritis_risk":5,"migraine_risk":3,"frizz_risk":1,"updated_at":"2026-07-03T23:44:20.845099+05:30"},{"city":"Nellore","state":"Andhra Pradesh","latitude":14.4426,"longitude":79.9865,"temp":30.1,"humidity":58,"rain":0.0,"pressure":1003.1,"uv_index":7.7,"wind_gusts":49.0,"aqi":36,"pm10":13.9,"pm2_5":9.0,"no2":7.5,"co":174.0,"o3":50.0,"so2":2.5,"mosquito_risk":0,"arthritis_risk":5,"migraine_risk":4,"frizz_risk":1,"updated_at":"2026-07-03T23:44:20.845108+05:30"},{"city":"Kurnool","state":"Andhra Pradesh","latitude":15.8281,"longitude":78.0373,"temp":25.4,"humidity":83,"rain":0.1,"pressure":974.9,"uv_index":8.3,"wind_gusts":57.6,"aqi":28,"pm10":4.8,"pm2_5":3.9,"no2":7.7,"co":142.0,"o3":40.0,"so2":1.8,"mosquito_risk":10,"arthritis_risk":5,"migraine_risk":7,"frizz_risk":1,"updated_at":"2026-07-03T23:44:20.845117+05:30"},{"city":"Kakinada","state":"Andhra Pradesh","latitude":16.9891,"longitude":82.2475,"temp":27.8,"humidity":75,"rain":0.0,"pressure":1001.7,"uv_index":6.0,"wind_gusts":54.4,"aqi":46,"pm10":13.1,"pm2_5":9.5,"no2":6.8,"co":186.0,"o3":56.0,"so2":4.7,"mosquito_risk":7,"arthritis_risk":5,"migraine_risk":0,"frizz_risk":1,"updated_at":"2026-07-03T23:44:20.845125+05:30"},{"city":"Tirupati","state":"Andhra Pradesh","latitude":13.6288,"longitude":79.4192,"temp":28.4,"humidity":65,"rain":0.0,"pressure":989.5,"uv_index":8.65,"wind_gusts":49.3,"aqi":40,"pm10":9.1,"pm2_5":7.2,"no2":10.9,"co":190.0,"o3":40.0,"so2":2.2,"mosquito_risk":7,"arthritis_risk":5,"migraine_risk":7,"frizz_risk":1,"updated_at":"2026-07-03T23:44:20.845133+05:30"},{"city":"Warangal","state":"Telangana","latitude":17.9689,"longitude":79.5941,"temp":25.8,"humidity":85,"rain":0.0,"pressure":973.6,"uv_index":2.55,"wind_gusts":52.2,"aqi":24,"pm10":6.3,"pm2_5":5.7,"no2":8.0,"co":170.0,"o3":42.0,"so2":2.7,"mosquito_risk":7,"arthritis_risk":5,"migraine_risk":3,"frizz_risk":1,"updated_at":"2026-07-03T23:44:20.845141+05:30"},{"city":"Nizamabad","state":"Telangana","latitude":18.6725,"longitude":78.0941,"temp":24.0,"humidity":96,"rain":0.2,"pressure":959.9,"uv_index":0.85,"wind_gusts":58.0,"aqi":25,"pm10":3.6,"pm2_5":3.4,"no2":6.8,"co":151.0,"o3":43.0,"so2":3.6,"mosquito_risk":6,"arthritis_risk":5,"migraine_risk":3,"frizz_risk":1,"updated_at":"2026-07-03T23:44:20.845149+05:30"},{"city":"Mysore","state":"Karnataka","latitude":12.2958,"longitude":76.6396,"temp":21.9,"humidity":95,"rain":0.2,"pressure":929.1,"uv_index":6.0,"wind_gusts":61.6,"aqi":23,"pm10":1.9,"pm2_5":1.8,"no2":5.4,"co":129.0,"o3":44.0,"so2":1.4,"mosquito_risk":6,"arthritis_risk":5,"migraine_risk":3,"frizz_risk":1,"updated_at":"2026-07-03T23:44:20.845177+05:30"},{"city":"Mangalore","state":"Karnataka","latitude":12.9141,"longitude":74.856,"temp":25.6,"humidity":91,"rain":0.3,"pressure":1009.2,"uv_index":6.7,"wind_gusts":47.2,"aqi":40,"pm10":13.8,"pm2_5":7.9,"no2":3.0,"co":109.0,"o3":46.0,"so2":1.2,"mosquito_risk":10,"arthritis_risk":0,"migraine_risk":4,"frizz_risk":1,"updated_at":"2026-07-03T23:44:20.845188+05:30"},{"city":"Hubli-Dharwad","state":"Karnataka","latitude":15.3647,"longitude":75.124,"temp":22.2,"humidity":93,"rain":0.0,"pressure":940.4,"uv_index":8.3,"wind_gusts":62.3,"aqi":21,"pm10":2.5,"pm2_5":2.1,"no2":5.9,"co":112.0,"o3":40.0,"so2":1.4,"mosquito_risk":3,"arthritis_risk":5,"migraine_risk":7,"frizz_risk":1,"updated_at":"2026-07-03T23:44:20.845196+05:30"},{"city":"Belgaum","state":"Karnataka","latitude":15.8497,"longitude":74.4977,"temp":20.4,"humidity":98,"rain":0.1,"pressure":924.9,"uv_index":6.7,"wind_gusts":58.0,"aqi":21,"pm10":2.7,"pm2_5":2.2,"no2":4.6,"co":107.0,"o3":43.0,"so2":1.5,"mosquito_risk":6,"arthritis_risk":5,"migraine_risk":7,"frizz_risk":1,"updated_at":"2026-07-03T23:44:24.238779+05:30"},{"city":"Coimbatore","state":"Tamil Nadu","latitude":11.0168,"longitude":76.9558,"temp":23.0,"humidity":94,"rain":0.0,"pressure":962.8,"uv_index":7.5,"wind_gusts":53.6,"aqi":22,"pm10":3.5,"pm2_5":3.0,"no2":5.4,"co":175.0,"o3":42.0,"so2":2.1,"mosquito_risk":3,"arthritis_risk":5,"migraine_risk":7,"frizz_risk":1,"updated_at":"2026-07-03T23:44:24.238813+05:30"},{"city":"Madurai","state":"Tamil Nadu","latitude":9.9252,"longitude":78.1198,"temp":28.8,"humidity":62,"rain":0.0,"pressure":994.0,"uv_index":8.65,"wind_gusts":72.0,"aqi":29,"pm10":7.3,"pm2_5":5.9,"no2":9.4,"co":137.0,"o3":41.0,"so2":3.4,"mosquito_risk":7,"arthritis_risk":5,"migraine_risk":7,"frizz_risk":1,"updated_at":"2026-07-03T23:44:24.238825+05:30"},{"city":"Trichy","state":"Tamil Nadu","latitude":10.7905,"longitude":78.7047,"temp":29.4,"humidity":60,"rain":0.0,"pressure":1000.1,"uv_index":7.35,"wind_gusts":73.1,"aqi":25,"pm10":6.0,"pm2_5":4.6,"no2":6.8,"co":113.0,"o3":38.0,"so2":2.5,"mosquito_risk":4,"arthritis_risk":5,"migraine_risk":4,"frizz_risk":1,"updated_at":"2026-07-03T23:44:24.238834+05:30"},{"city":"Salem","state":"Tamil Nadu","latitude":11.6643,"longitude":78.146,"temp":25.2,"humidity":91,"rain":0.0,"pressure":978.2,"uv_index":8.0,"wind_gusts":47.5,"aqi":39,"pm10":15.0,"pm2_5":13.2,"no2":21.5,"co":401.0,"o3":26.0,"so2":6.1,"mosquito_risk":7,"arthritis_risk":5,"migraine_risk":7,"frizz_risk":1,"updated_at":"2026-07-03T23:44:24.238844+05:30"},{"city":"Tirunelveli","state":"Tamil Nadu","latitude":8.7139,"longitude":77.7567,"temp":28.5,"humidity":66,"rain":0.0,"pressure":1005.2,"uv_index":8.35,"wind_gusts":54.4,"aqi":23,"pm10":6.3,"pm2_5":4.7,"no2":6.4,"co":157.0,"o3":34.0,"so2":1.7,"mosquito_risk":7,"arthritis_risk":5,"migraine_risk":4,"frizz_risk":1,"updated_at":"2026-07-03T23:44:24.238853+05:30"},{"city":"Vellore","state":"Tamil Nadu","latitude":12.9165,"longitude":79.1325,"temp":28.9,"humidity":58,"rain":0.0,"pressure":983.5,"uv_index":6.4,"wind_gusts":54.4,"aqi":29,"pm10":5.9,"pm2_5":4.9,"no2":9.9,"co":135.0,"o3":41.0,"so2":3.4,"mosquito_risk":4,"arthritis_risk":5,"migraine_risk":7,"frizz_risk":1,"updated_at":"2026-07-03T23:44:24.238861+05:30"},{"city":"Erode","state":"Tamil Nadu","latitude":11.341,"longitude":77.7172,"temp":25.4,"humidity":81,"rain":0.0,"pressure":990.0,"uv_index":7.35,"wind_gusts":50.4,"aqi":29,"pm10":10.1,"pm2_5":9.0,"no2":15.6,"co":181.0,"o3":30.0,"so2":3.8,"mosquito_risk":7,"arthritis_risk":5,"migraine_risk":7,"frizz_risk":1,"updated_at":"2026-07-03T23:44:24.238869+05:30"},{"city":"Kochi","state":"Kerala","latitude":9.9312,"longitude":76.2673,"temp":25.6,"humidity":92,"rain":0.1,"pressure":1012.6,"uv_index":8.3,"wind_gusts":46.1,"aqi":41,"pm10":13.6,"pm2_5":9.6,"no2":12.6,"co":113.0,"o3":28.0,"so2":3.6,"mosquito_risk":10,"arthritis_risk":0,"migraine_risk":4,"frizz_risk":1,"updated_at":"2026-07-03T23:44:24.238877+05:30"},{"city":"Thiruvananthapuram","state":"Kerala","latitude":8.5241,"longitude":76.9366,"temp":24.0,"humidity":97,"rain":0.1,"pressure":1011.6,"uv_index":8.1,"wind_gusts":44.6,"aqi":32,"pm10":13.8,"pm2_5":6.8,"no2":1.9,"co":120.0,"o3":49.0,"so2":0.7,"mosquito_risk":6,"arthritis_risk":0,"migraine_risk":4,"frizz_risk":1,"updated_at":"2026-07-03T23:44:24.238885+05:30"},{"city":"Kozhikode","state":"Kerala","latitude":11.2588,"longitude":75.7804,"temp":25.0,"humidity":98,"rain":0.5,"pressure":1011.4,"uv_index":1.25,"wind_gusts":44.3,"aqi":31,"pm10":18.4,"pm2_5":8.5,"no2":0.8,"co":136.0,"o3":55.0,"so2":0.4,"mosquito_risk":10,"arthritis_risk":0,"migraine_risk":0,"frizz_risk":1,"updated_at":"2026-07-03T23:44:24.238892+05:30"},{"city":"Thrissur","state":"Kerala","latitude":10.5276,"longitude":76.2144,"temp":24.5,"humidity":98,"rain":0.1,"pressure":1010.7,"uv_index":6.5,"wind_gusts":38.5,"aqi":37,"pm10":13.6,"pm2_5":9.3,"no2":7.0,"co":158.0,"o3":36.0,"so2":2.1,"mosquito_risk":6,"arthritis_risk":0,"migraine_risk":4,"frizz_risk":1,"updated_at":"2026-07-03T23:44:24.238900+05:30"},{"city":"Kannur","state":"Kerala","latitude":11.8745,"longitude":75.3704,"temp":25.5,"humidity":96,"rain":0.1,"pressure":1010.1,"uv_index":2.15,"wind_gusts":45.4,"aqi":33,"pm10":15.8,"pm2_5":8.7,"no2":3.7,"co":107.0,"o3":45.0,"so2":0.9,"mosquito_risk":10,"arthritis_risk":0,"migraine_risk":0,"frizz_risk":1,"updated_at":"2026-07-03T23:44:24.238908+05:30"},{"city":"Patna","state":"Bihar","latitude":25.5941,"longitude":85.1376,"temp":30.3,"humidity":77,"rain":0.0,"pressure":993.5,"uv_index":7.65,"wind_gusts":34.9,"aqi":79,"pm10":26.3,"pm2_5":25.6,"no2":16.2,"co":298.0,"o3":78.0,"so2":13.4,"mosquito_risk":3,"arthritis_risk":5,"migraine_risk":7,"frizz_risk":1,"updated_at":"2026-07-03T23:44:24.238916+05:30"},{"city":"Gaya","state":"Bihar","latitude":24.7914,"longitude":85.0002,"temp":29.6,"humidity":76,"rain":0.0,"pressure":986.5,"uv_index":6.8,"wind_gusts":32.0,"aqi":68,"pm10":25.9,"pm2_5":25.5,"no2":14.3,"co":285.0,"o3":64.0,"so2":10.5,"mosquito_risk":7,"arthritis_risk":5,"migraine_risk":7,"frizz_risk":1,"updated_at":"2026-07-03T23:44:24.238924+05:30"},{"city":"Muzaffarpur","state":"Bihar","latitude":26.1209,"longitude":85.3647,"temp":30.4,"humidity":77,"rain":0.0,"pressure":994.0,"uv_index":8.15,"wind_gusts":34.6,"aqi":80,"pm10":29.7,"pm2_5":28.9,"no2":16.8,"co":401.0,"o3":73.0,"so2":11.1,"mosquito_risk":3,"arthritis_risk":5,"migraine_risk":7,"frizz_risk":1,"updated_at":"2026-07-03T23:44:24.238930+05:30"},{"city":"Bhagalpur","state":"Bihar","latitude":25.2425,"longitude":87.0117,"temp":29.6,"humidity":79,"rain":0.0,"pressure":994.7,"uv_index":7.8,"wind_gusts":34.2,"aqi":72,"pm10":16.1,"pm2_5":15.9,"no2":15.4,"co":339.0,"o3":69.0,"so2":12.1,"mosquito_risk":7,"arthritis_risk":5,"migraine_risk":7,"frizz_risk":1,"updated_at":"2026-07-03T23:44:24.238938+05:30"},{"city":"Ranchi","state":"Jharkhand","latitude":23.3441,"longitude":85.3096,"temp":23.9,"humidity":98,"rain":0.0,"pressure":931.1,"uv_index":8.65,"wind_gusts":39.6,"aqi":63,"pm10":22.0,"pm2_5":21.9,"no2":14.4,"co":228.0,"o3":67.0,"so2":17.1,"mosquito_risk":3,"arthritis_risk":5,"migraine_risk":7,"frizz_risk":1,"updated_at":"2026-07-03T23:44:24.238945+05:30"},{"city":"Jamshedpur","state":"Jharkhand","latitude":22.8046,"longitude":86.2029,"temp":26.5,"humidity":95,"rain":0.0,"pressure":983.3,"uv_index":6.35,"wind_gusts":36.7,"aqi":58,"pm10":17.5,"pm2_5":16.7,"no2":13.8,"co":282.0,"o3":44.0,"so2":9.4,"mosquito_risk":7,"arthritis_risk":5,"migraine_risk":7,"frizz_risk":1,"updated_at":"2026-07-03T23:44:24.238953+05:30"},{"city":"Dhanbad","state":"Jharkhand","latitude":23.7957,"longitude":86.4304,"temp":25.5,"humidity":96,"rain":0.0,"pressure":973.2,"uv_index":5.8,"wind_gusts":33.8,"aqi":100,"pm10":42.7,"pm2_5":42.5,"no2":48.9,"co":569.0,"o3":27.0,"so2":104.4,"mosquito_risk":7,"arthritis_risk":5,"migraine_risk":3,"frizz_risk":1,"updated_at":"2026-07-03T23:44:24.238960+05:30"},{"city":"Bokaro","state":"Jharkhand","latitude":23.6693,"longitude":86.1511,"temp":25.8,"humidity":98,"rain":0.0,"pressure":977.0,"uv_index":5.65,"wind_gusts":36.4,"aqi":112,"pm10":51.3,"pm2_5":51.1,"no2":52.8,"co":443.0,"o3":25.0,"so2":116.1,"mosquito_risk":7,"arthritis_risk":5,"migraine_risk":3,"frizz_risk":1,"updated_at":"2026-07-03T23:44:24.238968+05:30"},{"city":"Bhubaneswar","state":"Odisha","latitude":20.2961,"longitude":85.8245,"temp":26.1,"humidity":98,"rain":0.0,"pressure":992.8,"uv_index":7.1,"wind_gusts":28.1,"aqi":64,"pm10":23.3,"pm2_5":23.2,"no2":17.9,"co":446.0,"o3":53.0,"so2":7.8,"mosquito_risk":7,"arthritis_risk":5,"migraine_risk":7,"frizz_risk":1,"updated_at":"2026-07-03T23:44:24.238976+05:30"},{"city":"Cuttack","state":"Odisha","latitude":20.4625,"longitude":85.8828,"temp":26.0,"humidity":98,"rain":0.0,"pressure":994.7,"uv_index":6.95,"wind_gusts":24.1,"aqi":64,"pm10":23.3,"pm2_5":23.2,"no2":17.9,"co":362.0,"o3":53.0,"so2":7.8,"mosquito_risk":7,"arthritis_risk":5,"migraine_risk":7,"frizz_risk":1,"updated_at":"2026-07-03T23:44:24.238983+05:30"},{"city":"Rourkela","state":"Odisha","latitude":22.2604,"longitude":84.8536,"temp":26.6,"humidity":90,"rain":0.0,"pressure":977.0,"uv_index":7.0,"wind_gusts":38.2,"aqi":75,"pm10":29.8,"pm2_5":29.6,"no2":19.8,"co":354.0,"o3":74.0,"so2":28.8,"mosquito_risk":7,"arthritis_risk":5,"migraine_risk":7,"frizz_risk":1,"updated_at":"2026-07-03T23:44:24.238990+05:30"},{"city":"Raipur","state":"Chhattisgarh","latitude":21.2514,"longitude":81.6296,"temp":24.8,"humidity":97,"rain":0.0,"pressure":967.1,"uv_index":4.2,"wind_gusts":33.5,"aqi":71,"pm10":19.6,"pm2_5":19.3,"no2":27.0,"co":512.0,"o3":55.0,"so2":38.9,"mosquito_risk":3,"arthritis_risk":5,"migraine_risk":3,"frizz_risk":1,"updated_at":"2026-07-03T23:44:24.238997+05:30"},{"city":"Bhilai","state":"Chhattisgarh","latitude":21.1938,"longitude":81.3509,"temp":24.7,"humidity":97,"rain":0.0,"pressure":967.6,"uv_index":1.35,"wind_gusts":36.7,"aqi":62,"pm10":17.0,"pm2_5":16.7,"no2":20.9,"co":633.0,"o3":62.0,"so2":28.4,"mosquito_risk":3,"arthritis_risk":5,"migraine_risk":3,"frizz_risk":1,"updated_at":"2026-07-03T23:44:24.239004+05:30"},{"city":"Guwahati","state":"Assam","latitude":26.1158,"longitude":91.7086,"temp":26.0,"humidity":97,"rain":0.0,"pressure":996.5,"uv_index":8.45,"wind_gusts":32.0,"aqi":41,"pm10":6.8,"pm2_5":6.7,"no2":9.7,"co":263.0,"o3":44.0,"so2":1.3,"mosquito_risk":7,"arthritis_risk":5,"migraine_risk":7,"frizz_risk":1,"updated_at":"2026-07-03T23:44:24.239011+05:30"},{"city":"Agartala","state":"Tripura","latitude":23.8315,"longitude":91.2868,"temp":27.2,"humidity":92,"rain":0.0,"pressure":1000.0,"uv_index":7.15,"wind_gusts":25.6,"aqi":48,"pm10":17.2,"pm2_5":16.6,"no2":15.3,"co":240.0,"o3":35.0,"so2":3.0,"mosquito_risk":7,"arthritis_risk":5,"migraine_risk":4,"frizz_risk":1,"updated_at":"2026-07-03T23:44:24.239019+05:30"},{"city":"Shillong","state":"Meghalaya","latitude":25.5788,"longitude":91.8933,"temp":19.8,"humidity":95,"rain":0.0,"pressure":853.6,"uv_index":6.75,"wind_gusts":27.7,"aqi":34,"pm10":2.3,"pm2_5":2.3,"no2":4.4,"co":275.0,"o3":71.0,"so2":1.2,"mosquito_risk":3,"arthritis_risk":10,"migraine_risk":7,"frizz_risk":1,"updated_at":"2026-07-03T23:44:24.239026+05:30"},{"city":"Imphal","state":"Manipur","latitude":24.817,"longitude":93.9368,"temp":23.1,"humidity":96,"rain":0.1,"pressure":920.3,"uv_index":9.1,"wind_gusts":27.0,"aqi":41,"pm10":16.1,"pm2_5":15.9,"no2":14.9,"co":239.0,"o3":26.0,"so2":2.3,"mosquito_risk":6,"arthritis_risk":5,"migraine_risk":7,"frizz_risk":1,"updated_at":"2026-07-03T23:44:24.239034+05:30"},{"city":"Aizawl","state":"Mizoram","latitude":23.7271,"longitude":92.7176,"temp":20.9,"humidity":100,"rain":0.0,"pressure":887.9,"uv_index":9.0,"wind_gusts":25.9,"aqi":25,"pm10":1.9,"pm2_5":1.9,"no2":7.7,"co":203.0,"o3":24.0,"so2":0.5,"mosquito_risk":3,"arthritis_risk":5,"migraine_risk":7,"frizz_risk":1,"updated_at":"2026-07-03T23:44:24.239041+05:30"},{"city":"Kohima","state":"Nagaland","latitude":25.6701,"longitude":94.1077,"temp":19.8,"humidity":95,"rain":0.0,"pressure":851.4,"uv_index":7.95,"wind_gusts":21.2,"aqi":22,"pm10":8.1,"pm2_5":8.1,"no2":11.6,"co":203.0,"o3":19.0,"so2":0.8,"mosquito_risk":3,"arthritis_risk":10,"migraine_risk":7,"frizz_risk":1,"updated_at":"2026-07-03T23:44:24.239048+05:30"},{"city":"Gangtok","state":"Sikkim","latitude":27.3314,"longitude":88.6138,"temp":20.2,"humidity":93,"rain":0.1,"pressure":836.1,"uv_index":8.7,"wind_gusts":30.2,"aqi":40,"pm10":7.8,"pm2_5":7.5,"no2":5.4,"co":288.0,"o3":97.0,"so2":1.4,"mosquito_risk":6,"arthritis_risk":5,"migraine_risk":7,"frizz_risk":1,"updated_at":"2026-07-03T23:44:24.239055+05:30"},{"city":"Siliguri","state":"West Bengal","latitude":26.7271,"longitude":88.3953,"temp":28.0,"humidity":88,"rain":0.0,"pressure":987.0,"uv_index":8.45,"wind_gusts":25.6,"aqi":80,"pm10":40.4,"pm2_5":39.5,"no2":21.2,"co":381.0,"o3":76.0,"so2":6.6,"mosquito_risk":7,"arthritis_risk":5,"migraine_risk":7,"frizz_risk":1,"updated_at":"2026-07-03T23:44:27.672900+05:30"},{"city":"Durgapur","state":"West Bengal","latitude":23.5204,"longitude":87.3119,"temp":27.1,"humidity":97,"rain":0.0,"pressure":987.7,"uv_index":6.5,"wind_gusts":36.7,"aqi":87,"pm10":37.7,"pm2_5":36.8,"no2":32.9,"co":623.0,"o3":33.0,"so2":30.2,"mosquito_risk":7,"arthritis_risk":5,"migraine_risk":7,"frizz_risk":1,"updated_at":"2026-07-03T23:44:27.672935+05:30"},{"city":"Asansol","state":"West Bengal","latitude":23.6739,"longitude":86.9524,"temp":26.7,"humidity":95,"rain":0.0,"pressure":986.5,"uv_index":6.7,"wind_gusts":36.7,"aqi":85,"pm10":31.3,"pm2_5":30.7,"no2":38.7,"co":529.0,"o3":33.0,"so2":42.9,"mosquito_risk":7,"arthritis_risk":5,"migraine_risk":7,"frizz_risk":1,"updated_at":"2026-07-03T23:44:27.672946+05:30"},{"city":"Pondicherry","state":"Puducherry","latitude":11.9139,"longitude":79.8145,"temp":26.7,"humidity":86,"rain":0.0,"pressure":1007.8,"uv_index":7.7,"wind_gusts":43.9,"aqi":51,"pm10":13.7,"pm2_5":11.9,"no2":15.9,"co":309.0,"o3":53.0,"so2":6.3,"mosquito_risk":7,"arthritis_risk":5,"migraine_risk":4,"frizz_risk":1,"updated_at":"2026-07-03T23:44:27.672955+05:30"},{"city":"Port Blair","state":"Andaman and Nicobar Islands","latitude":11.6234,"longitude":92.7265,"temp":28.2,"humidity":83,"rain":0.0,"pressure":1005.9,"uv_index":5.9,"wind_gusts":49.0,"aqi":42,"pm10":21.2,"pm2_5":10.8,"no2":0.3,"co":93.0,"o3":57.0,"so2":0.5,"mosquito_risk":7,"arthritis_risk":5,"migraine_risk":0,"frizz_risk":1,"updated_at":"2026-07-03T23:44:27.672963+05:30"},{"city":"Haridwar","state":"Uttarakhand","latitude":29.9457,"longitude":78.1642,"temp":28.5,"humidity":88,"rain":0.0,"pressure":968.5,"uv_index":6.85,"wind_gusts":25.6,"aqi":82,"pm10":63.3,"pm2_5":62.9,"no2":41.7,"co":528.0,"o3":41.0,"so2":12.4,"mosquito_risk":7,"arthritis_risk":5,"migraine_risk":7,"frizz_risk":1,"updated_at":"2026-07-03T23:44:27.672972+05:30"},{"city":"Rishikesh","state":"Uttarakhand","latitude":30.0869,"longitude":78.2676,"temp":27.4,"humidity":89,"rain":0.0,"pressure":961.6,"uv_index":6.95,"wind_gusts":23.0,"aqi":65,"pm10":34.0,"pm2_5":33.6,"no2":21.2,"co":522.0,"o3":73.0,"so2":6.8,"mosquito_risk":7,"arthritis_risk":5,"migraine_risk":7,"frizz_risk":1,"updated_at":"2026-07-03T23:44:27.672980+05:30"},{"city":"Nainital","state":"Uttarakhand","latitude":29.3919,"longitude":79.4542,"temp":16.7,"humidity":99,"rain":0.0,"pressure":803.4,"uv_index":7.65,"wind_gusts":27.7,"aqi":74,"pm10":30.2,"pm2_5":30.0,"no2":26.4,"co":471.0,"o3":44.0,"so2":4.5,"mosquito_risk":3,"arthritis_risk":10,"migraine_risk":7,"frizz_risk":1,"updated_at":"2026-07-03T23:44:27.672988+05:30"},{"city":"Mussoorie","state":"Uttarakhand","latitude":30.4599,"longitude":78.0664,"temp":17.4,"humidity":100,"rain":0.0,"pressure":801.3,"uv_index":6.75,"wind_gusts":32.0,"aqi":62,"pm10":40.0,"pm2_5":39.9,"no2":38.4,"co":438.0,"o3":37.0,"so2":7.3,"mosquito_risk":3,"arthritis_risk":10,"migraine_risk":7,"frizz_risk":1,"updated_at":"2026-07-03T23:44:27.672997+05:30"},{"city":"Dharamshala","state":"Himachal Pradesh","latitude":32.219,"longitude":76.3234,"temp":23.0,"humidity":85,"rain":0.0,"pressure":866.1,"uv_index":8.4,"wind_gusts":34.9,"aqi":45,"pm10":13.6,"pm2_5":13.3,"no2":19.6,"co":515.0,"o3":40.0,"so2":0.1,"mosquito_risk":3,"arthritis_risk":5,"migraine_risk":7,"frizz_risk":1,"updated_at":"2026-07-03T23:44:27.673006+05:30"},{"city":"Dalhousie","state":"Himachal Pradesh","latitude":32.5387,"longitude":75.971,"temp":17.1,"humidity":96,"rain":0.0,"pressure":801.4,"uv_index":8.7,"wind_gusts":34.6,"aqi":91,"pm10":31.4,"pm2_5":30.6,"no2":41.0,"co":595.0,"o3":40.0,"so2":1.8,"mosquito_risk":3,"arthritis_risk":10,"migraine_risk":7,"frizz_risk":1,"updated_at":"2026-07-03T23:44:27.673014+05:30"},{"city":"Patiala","state":"Punjab","latitude":30.3398,"longitude":76.3869,"temp":29.5,"humidity":83,"rain":0.0,"pressure":972.1,"uv_index":7.55,"wind_gusts":26.3,"aqi":86,"pm10":72.2,"pm2_5":68.7,"no2":39.1,"co":698.0,"o3":54.0,"so2":10.3,"mosquito_risk":7,"arthritis_risk":5,"migraine_risk":7,"frizz_risk":1,"updated_at":"2026-07-03T23:44:27.673022+05:30"},{"city":"Bhatinda","state":"Punjab","latitude":30.211,"longitude":74.9455,"temp":31.0,"humidity":73,"rain":0.0,"pressure":977.0,"uv_index":8.25,"wind_gusts":36.7,"aqi":121,"pm10":35.5,"pm2_5":34.5,"no2":24.3,"co":454.0,"o3":70.0,"so2":8.3,"mosquito_risk":3,"arthritis_risk":5,"migraine_risk":7,"frizz_risk":1,"updated_at":"2026-07-03T23:44:27.673030+05:30"},{"city":"Rohtak","state":"Haryana","latitude":28.8955,"longitude":76.6066,"temp":30.5,"humidity":74,"rain":0.0,"pressure":975.4,"uv_index":6.65,"wind_gusts":22.7,"aqi":146,"pm10":131.3,"pm2_5":83.6,"no2":72.6,"co":543.0,"o3":36.0,"so2":29.9,"mosquito_risk":3,"arthritis_risk":5,"migraine_risk":7,"frizz_risk":1,"updated_at":"2026-07-03T23:44:27.673037+05:30"},{"city":"Panipat","state":"Haryana","latitude":29.3909,"longitude":76.9635,"temp":29.9,"humidity":80,"rain":0.0,"pressure":974.3,"uv_index":6.85,"wind_gusts":31.0,"aqi":328,"pm10":84.1,"pm2_5":74.7,"no2":47.2,"co":645.0,"o3":50.0,"so2":17.6,"mosquito_risk":7,"arthritis_risk":5,"migraine_risk":7,"frizz_risk":1,"updated_at":"2026-07-03T23:44:27.673045+05:30"},{"city":"Mathura","state":"Uttar Pradesh","latitude":27.4924,"longitude":77.6737,"temp":29.8,"humidity":84,"rain":0.0,"pressure":980.1,"uv_index":6.9,"wind_gusts":24.1,"aqi":120,"pm10":63.6,"pm2_5":56.0,"no2":67.4,"co":647.0,"o3":27.0,"so2":13.1,"mosquito_risk":7,"arthritis_risk":5,"migraine_risk":7,"frizz_risk":1,"updated_at":"2026-07-03T23:44:27.673052+05:30"},{"city":"Vrindavan","state":"Uttar Pradesh","latitude":27.5823,"longitude":77.7027,"temp":30.2,"humidity":80,"rain":0.0,"pressure":980.5,"uv_index":6.75,"wind_gusts":22.7,"aqi":120,"pm10":63.6,"pm2_5":56.0,"no2":67.4,"co":627.0,"o3":27.0,"so2":13.1,"mosquito_risk":3,"arthritis_risk":5,"migraine_risk":7,"frizz_risk":1,"updated_at":"2026-07-03T23:44:27.673060+05:30"},{"city":"Ayodhya","state":"Uttar Pradesh","latitude":26.7922,"longitude":82.1998,"temp":30.7,"humidity":75,"rain":0.0,"pressure":988.8,"uv_index":7.65,"wind_gusts":32.4,"aqi":86,"pm10":32.4,"pm2_5":32.2,"no2":17.3,"co":458.0,"o3":81.0,"so2":7.4,"mosquito_risk":3,"arthritis_risk":5,"migraine_risk":7,"frizz_risk":1,"updated_at":"2026-07-03T23:44:27.673068+05:30"},{"city":"Ratlam","state":"Madhya Pradesh","latitude":23.3315,"longitude":75.0367,"temp":24.6,"humidity":95,"rain":0.0,"pressure":949.0,"uv_index":4.4,"wind_gusts":33.8,"aqi":57,"pm10":32.0,"pm2_5":20.1,"no2":8.1,"co":197.0,"o3":59.0,"so2":6.7,"mosquito_risk":3,"arthritis_risk":5,"migraine_risk":3,"frizz_risk":1,"updated_at":"2026-07-03T23:44:27.673076+05:30"},{"city":"Sagar","state":"Madhya Pradesh","latitude":23.8388,"longitude":78.7378,"temp":23.9,"humidity":98,"rain":0.5,"pressure":943.6,"uv_index":8.1,"wind_gusts":31.7,"aqi":44,"pm10":13.8,"pm2_5":13.3,"no2":7.6,"co":284.0,"o3":82.0,"so2":1.9,"mosquito_risk":6,"arthritis_risk":5,"migraine_risk":7,"frizz_risk":1,"updated_at":"2026-07-03T23:44:27.673084+05:30"},{"city":"Satna","state":"Madhya Pradesh","latitude":24.6005,"longitude":80.8322,"temp":26.1,"humidity":98,"rain":0.0,"pressure":964.6,"uv_index":8.2,"wind_gusts":34.6,"aqi":61,"pm10":22.4,"pm2_5":22.2,"no2":11.7,"co":293.0,"o3":86.0,"so2":5.8,"mosquito_risk":7,"arthritis_risk":5,"migraine_risk":7,"frizz_risk":1,"updated_at":"2026-07-03T23:44:27.673092+05:30"},{"city":"Akola","state":"Maharashtra","latitude":20.7002,"longitude":77.0082,"temp":25.0,"humidity":96,"rain":0.1,"pressure":969.4,"uv_index":3.5,"wind_gusts":43.9,"aqi":37,"pm10":6.5,"pm2_5":6.1,"no2":9.8,"co":166.0,"o3":60.0,"so2":6.0,"mosquito_risk":10,"arthritis_risk":5,"migraine_risk":3,"frizz_risk":1,"updated_at":"2026-07-03T23:44:27.673100+05:30"},{"city":"Amravati","state":"Maharashtra","latitude":20.9374,"longitude":77.7796,"temp":24.4,"humidity":97,"rain":0.1,"pressure":961.4,"uv_index":4.55,"wind_gusts":40.3,"aqi":36,"pm10":6.6,"pm2_5":6.2,"no2":9.6,"co":169.0,"o3":67.0,"so2":6.2,"mosquito_risk":6,"arthritis_risk":5,"migraine_risk":3,"frizz_risk":1,"updated_at":"2026-07-03T23:44:27.673108+05:30"},{"city":"Latur","state":"Maharashtra","latitude":18.4088,"longitude":76.5604,"temp":23.3,"humidity":92,"rain":0.1,"pressure":935.7,"uv_index":1.0,"wind_gusts":52.6,"aqi":22,"pm10":2.9,"pm2_5":2.7,"no2":6.1,"co":134.0,"o3":40.0,"so2":2.4,"mosquito_risk":6,"arthritis_risk":5,"migraine_risk":3,"frizz_risk":1,"updated_at":"2026-07-03T23:44:27.673116+05:30"},{"city":"Nanded","state":"Maharashtra","latitude":19.1383,"longitude":77.3091,"temp":24.7,"humidity":93,"rain":0.1,"pressure":963.8,"uv_index":1.1,"wind_gusts":50.0,"aqi":27,"pm10":3.4,"pm2_5":3.3,"no2":7.1,"co":166.0,"o3":42.0,"so2":3.0,"mosquito_risk":6,"arthritis_risk":5,"migraine_risk":3,"frizz_risk":1,"updated_at":"2026-07-03T23:44:27.673123+05:30"},{"city":"Gulbarga","state":"Karnataka","latitude":17.3297,"longitude":76.8343,"temp":24.4,"humidity":88,"rain":0.0,"pressure":955.7,"uv_index":6.5,"wind_gusts":53.3,"aqi":22,"pm10":3.3,"pm2_5":2.9,"no2":7.0,"co":135.0,"o3":38.0,"so2":2.4,"mosquito_risk":3,"arthritis_risk":5,"migraine_risk":7,"frizz_risk":1,"updated_at":"2026-07-03T23:44:27.673130+05:30"},{"city":"Bidar","state":"Karnataka","latitude":17.9104,"longitude":77.5199,"temp":23.0,"humidity":96,"rain":0.1,"pressure":931.5,"uv_index":2.85,"wind_gusts":52.9,"aqi":22,"pm10":3.4,"pm2_5":3.2,"no2":6.7,"co":145.0,"o3":39.0,"so2":2.0,"mosquito_risk":6,"arthritis_risk":5,"migraine_risk":3,"frizz_risk":1,"updated_at":"2026-07-03T23:44:27.673137+05:30"},{"city":"Hospet","state":"Karnataka","latitude":15.2689,"longitude":76.3909,"temp":23.9,"humidity":85,"rain":0.0,"pressure":955.1,"uv_index":8.5,"wind_gusts":63.7,"aqi":24,"pm10":5.1,"pm2_5":3.4,"no2":5.1,"co":122.0,"o3":42.0,"so2":1.6,"mosquito_risk":3,"arthritis_risk":5,"migraine_risk":7,"frizz_risk":1,"updated_at":"2026-07-03T23:44:27.673144+05:30"},{"city":"Tirupur","state":"Tamil Nadu","latitude":11.1085,"longitude":77.3411,"temp":23.7,"humidity":90,"rain":0.0,"pressure":976.2,"uv_index":8.4,"wind_gusts":67.0,"aqi":33,"pm10":11.5,"pm2_5":10.2,"no2":17.1,"co":152.0,"o3":29.0,"so2":4.6,"mosquito_risk":3,"arthritis_risk":5,"migraine_risk":7,"frizz_risk":1,"updated_at":"2026-07-03T23:44:27.673151+05:30"},{"city":"Alappuzha","state":"Kerala","latitude":9.4981,"longitude":76.3388,"temp":25.4,"humidity":95,"rain":0.2,"pressure":1012.6,"uv_index":8.3,"wind_gusts":47.5,"aqi":41,"pm10":17.9,"pm2_5":10.4,"no2":6.8,"co":85.0,"o3":40.0,"so2":2.0,"mosquito_risk":10,"arthritis_risk":0,"migraine_risk":4,"frizz_risk":1,"updated_at":"2026-07-03T23:44:27.673179+05:30"},{"city":"Munnar","state":"Kerala","latitude":10.0889,"longitude":77.0595,"temp":17.0,"humidity":100,"rain":0.7,"pressure":858.1,"uv_index":0.7,"wind_gusts":50.4,"aqi":21,"pm10":2.9,"pm2_5":2.7,"no2":8.9,"co":98.0,"o3":26.0,"so2":1.9,"mosquito_risk":6,"arthritis_risk":10,"migraine_risk":3,"frizz_risk":1,"updated_at":"2026-07-03T23:44:27.673189+05:30"},{"city":"Silchar","state":"Assam","latitude":24.8333,"longitude":92.7789,"temp":26.7,"humidity":98,"rain":0.1,"pressure":999.6,"uv_index":8.25,"wind_gusts":27.0,"aqi":61,"pm10":19.2,"pm2_5":18.9,"no2":9.0,"co":179.0,"o3":46.0,"so2":4.7,"mosquito_risk":10,"arthritis_risk":5,"migraine_risk":7,"frizz_risk":1,"updated_at":"2026-07-03T23:44:27.673197+05:30"},{"city":"Dibrugarh","state":"Assam","latitude":27.4728,"longitude":94.912,"temp":29.7,"humidity":85,"rain":0.0,"pressure":989.4,"uv_index":8.85,"wind_gusts":32.8,"aqi":56,"pm10":17.8,"pm2_5":17.3,"no2":13.1,"co":342.0,"o3":50.0,"so2":1.6,"mosquito_risk":7,"arthritis_risk":5,"migraine_risk":7,"frizz_risk":1,"updated_at":"2026-07-03T23:44:27.673204+05:30"}]