[{"city":"Delhi","state":"Delhi","latitude":28.6139,"longitude":77.209,"temp":36.4,"humidity":41,"rain":0.0,"pressure":975.9,"uv_index":7.65,"wind_gusts":34.2,"aqi":294,"pm10":644.5,"pm2_5":127.1,"no2":12.9,"co":306.0,"o3":113.0,"so2":11.3,"mosquito_risk":0,"arthritis_risk":5,"migraine_risk":10,"frizz_risk":1,"updated_at":"2026-07-16T17:50:56.557019+05:30"},{"city":"Mumbai","state":"Maharashtra","latitude":19.076,"longitude":72.8777,"temp":28.5,"humidity":77,"rain":0.0,"pressure":1006.0,"uv_index":7.45,"wind_gusts":34.6,"aqi":70,"pm10":37.8,"pm2_5":20.1,"no2":12.3,"co":228.0,"o3":56.0,"so2":10.5,"mosquito_risk":7,"arthritis_risk":5,"migraine_risk":4,"frizz_risk":1,"updated_at":"2026-07-16T17:50:56.557071+05:30"},{"city":"Bangalore","state":"Karnataka","latitude":12.9716,"longitude":77.5946,"temp":28.5,"humidity":41,"rain":0.0,"pressure":911.2,"uv_index":8.9,"wind_gusts":41.8,"aqi":62,"pm10":32.9,"pm2_5":17.0,"no2":10.2,"co":387.0,"o3":75.0,"so2":2.8,"mosquito_risk":4,"arthritis_risk":5,"migraine_risk":7,"frizz_risk":0,"updated_at":"2026-07-16T17:50:56.557087+05:30"},{"city":"Hyderabad","state":"Telangana","latitude":17.385,"longitude":78.4867,"temp":30.5,"humidity":50,"rain":0.0,"pressure":950.5,"uv_index":8.3,"wind_gusts":47.9,"aqi":61,"pm10":32.2,"pm2_5":16.6,"no2":10.1,"co":286.0,"o3":71.0,"so2":3.4,"mosquito_risk":0,"arthritis_risk":5,"migraine_risk":7,"frizz_risk":1,"updated_at":"2026-07-16T17:50:56.557096+05:30"},{"city":"Chennai","state":"Tamil Nadu","latitude":13.0827,"longitude":80.2707,"temp":34.1,"humidity":47,"rain":0.0,"pressure":1003.8,"uv_index":7.9,"wind_gusts":42.8,"aqi":89,"pm10":41.7,"pm2_5":26.5,"no2":7.5,"co":288.0,"o3":132.0,"so2":6.2,"mosquito_risk":0,"arthritis_risk":5,"migraine_risk":4,"frizz_risk":1,"updated_at":"2026-07-16T17:50:56.557105+05:30"},{"city":"Kolkata","state":"West Bengal","latitude":22.5726,"longitude":88.3639,"temp":29.8,"humidity":76,"rain":0.0,"pressure":997.0,"uv_index":8.05,"wind_gusts":35.3,"aqi":63,"pm10":14.7,"pm2_5":12.5,"no2":6.7,"co":525.0,"o3":103.0,"so2":6.1,"mosquito_risk":7,"arthritis_risk":5,"migraine_risk":7,"frizz_risk":1,"updated_at":"2026-07-16T17:50:56.557113+05:30"},{"city":"Pune","state":"Maharashtra","latitude":18.5204,"longitude":73.8567,"temp":26.2,"humidity":73,"rain":0.0,"pressure":945.9,"uv_index":7.5,"wind_gusts":45.0,"aqi":51,"pm10":18.2,"pm2_5":9.5,"no2":5.4,"co":160.0,"o3":58.0,"so2":4.8,"mosquito_risk":7,"arthritis_risk":5,"migraine_risk":7,"frizz_risk":1,"updated_at":"2026-07-16T17:50:56.557120+05:30"},{"city":"Ahmedabad","state":"Gujarat","latitude":23.0225,"longitude":72.5714,"temp":34.3,"humidity":49,"rain":0.1,"pressure":997.0,"uv_index":7.0,"wind_gusts":40.0,"aqi":83,"pm10":53.7,"pm2_5":20.5,"no2":4.0,"co":172.0,"o3":80.0,"so2":3.9,"mosquito_risk":3,"arthritis_risk":5,"migraine_risk":7,"frizz_risk":1,"updated_at":"2026-07-16T17:50:56.557127+05:30"},{"city":"Jaipur","state":"Rajasthan","latitude":26.9124,"longitude":75.7873,"temp":34.8,"humidity":42,"rain":0.0,"pressure":954.8,"uv_index":8.15,"wind_gusts":40.0,"aqi":185,"pm10":227.2,"pm2_5":54.8,"no2":3.3,"co":155.0,"o3":98.0,"so2":3.2,"mosquito_risk":0,"arthritis_risk":5,"migraine_risk":7,"frizz_risk":1,"updated_at":"2026-07-16T17:50:56.557134+05:30"},{"city":"Lucknow","state":"Uttar Pradesh","latitude":26.8467,"longitude":80.9462,"temp":30.4,"humidity":84,"rain":0.0,"pressure":986.7,"uv_index":6.5,"wind_gusts":28.8,"aqi":163,"pm10":137.8,"pm2_5":65.9,"no2":9.5,"co":307.0,"o3":132.0,"so2":9.9,"mosquito_risk":3,"arthritis_risk":5,"migraine_risk":7,"frizz_risk":1,"updated_at":"2026-07-16T17:50:56.557162+05:30"},{"city":"Kanpur","state":"Uttar Pradesh","latitude":26.4499,"longitude":80.3319,"temp":31.5,"humidity":70,"rain":0.1,"pressure":985.4,"uv_index":7.5,"wind_gusts":33.8,"aqi":166,"pm10":173.7,"pm2_5":70.8,"no2":7.8,"co":212.0,"o3":120.0,"so2":6.9,"mosquito_risk":6,"arthritis_risk":5,"migraine_risk":7,"frizz_risk":1,"updated_at":"2026-07-16T17:50:56.557170+05:30"},{"city":"Chandigarh","state":"Chandigarh","latitude":30.7333,"longitude":76.7794,"temp":32.8,"humidity":62,"rain":0.0,"pressure":961.8,"uv_index":7.7,"wind_gusts":32.0,"aqi":191,"pm10":61.5,"pm2_5":45.5,"no2":6.0,"co":615.0,"o3":183.0,"so2":10.4,"mosquito_risk":3,"arthritis_risk":5,"migraine_risk":7,"frizz_risk":1,"updated_at":"2026-07-16T17:50:56.557180+05:30"},{"city":"Srinagar","state":"Jammu and Kashmir","latitude":34.0837,"longitude":74.7973,"temp":31.8,"humidity":32,"rain":0.0,"pressure":839.2,"uv_index":9.0,"wind_gusts":16.6,"aqi":152,"pm10":22.8,"pm2_5":14.8,"no2":3.6,"co":341.0,"o3":158.0,"so2":2.7,"mosquito_risk":0,"arthritis_risk":5,"migraine_risk":7,"frizz_risk":0,"updated_at":"2026-07-16T17:50:56.557188+05:30"},{"city":"Jammu","state":"Jammu and Kashmir","latitude":32.7266,"longitude":74.857,"temp":33.9,"humidity":55,"rain":0.0,"pressure":965.7,"uv_index":8.55,"wind_gusts":21.2,"aqi":173,"pm10":57.2,"pm2_5":40.9,"no2":5.1,"co":380.0,"o3":167.0,"so2":4.8,"mosquito_risk":0,"arthritis_risk":5,"migraine_risk":7,"frizz_risk":1,"updated_at":"2026-07-16T17:50:56.557194+05:30"},{"city":"Amritsar","state":"Punjab","latitude":31.634,"longitude":74.8723,"temp":33.8,"humidity":61,"rain":0.0,"pressure":973.6,"uv_index":8.2,"wind_gusts":19.8,"aqi":199,"pm10":75.4,"pm2_5":53.7,"no2":7.7,"co":396.0,"o3":179.0,"so2":10.2,"mosquito_risk":3,"arthritis_risk":5,"migraine_risk":7,"frizz_risk":1,"updated_at":"2026-07-16T17:50:56.557200+05:30"},{"city":"Ludhiana","state":"Punjab","latitude":30.901,"longitude":75.8573,"temp":34.8,"humidity":52,"rain":0.0,"pressure":971.5,"uv_index":7.9,"wind_gusts":31.3,"aqi":172,"pm10":65.2,"pm2_5":47.6,"no2":6.3,"co":386.0,"o3":149.0,"so2":4.9,"mosquito_risk":0,"arthritis_risk":5,"migraine_risk":7,"frizz_risk":1,"updated_at":"2026-07-16T17:50:56.557207+05:30"},{"city":"Jalandhar","state":"Punjab","latitude":31.326,"longitude":75.5762,"temp":33.4,"humidity":62,"rain":0.0,"pressure":972.6,"uv_index":8.2,"wind_gusts":24.5,"aqi":180,"pm10":80.3,"pm2_5":54.7,"no2":6.9,"co":461.0,"o3":169.0,"so2":6.8,"mosquito_risk":3,"arthritis_risk":5,"migraine_risk":7,"frizz_risk":1,"updated_at":"2026-07-16T17:50:56.557213+05:30"},{"city":"Dehradun","state":"Uttarakhand","latitude":30.6284,"longitude":78.0322,"temp":21.8,"humidity":90,"rain":0.0,"pressure":827.8,"uv_index":8.0,"wind_gusts":29.2,"aqi":121,"pm10":46.7,"pm2_5":31.7,"no2":2.4,"co":320.0,"o3":164.0,"so2":6.2,"mosquito_risk":3,"arthritis_risk":5,"migraine_risk":7,"frizz_risk":1,"updated_at":"2026-07-16T17:50:56.557218+05:30"},{"city":"Shimla","state":"Himachal Pradesh","latitude":31.1048,"longitude":77.1734,"temp":20.3,"humidity":72,"rain":0.0,"pressure":783.5,"uv_index":8.25,"wind_gusts":40.7,"aqi":132,"pm10":47.1,"pm2_5":30.9,"no2":2.0,"co":274.0,"o3":157.0,"so2":6.6,"mosquito_risk":3,"arthritis_risk":5,"migraine_risk":7,"frizz_risk":0,"updated_at":"2026-07-16T17:50:56.557224+05:30"},{"city":"Manali","state":"Himachal Pradesh","latitude":32.2396,"longitude":77.1887,"temp":23.8,"humidity":78,"rain":0.0,"pressure":818.0,"uv_index":9.55,"wind_gusts":33.1,"aqi":102,"pm10":14.8,"pm2_5":7.3,"no2":4.1,"co":186.0,"o3":137.0,"so2":1.2,"mosquito_risk":3,"arthritis_risk":5,"migraine_risk":7,"frizz_risk":1,"updated_at":"2026-07-16T17:50:56.557231+05:30"},{"city":"Gurgaon","state":"Haryana","latitude":28.4595,"longitude":77.0266,"temp":36.2,"humidity":41,"rain":0.0,"pressure":974.5,"uv_index":7.75,"wind_gusts":34.2,"aqi":306,"pm10":566.2,"pm2_5":115.0,"no2":15.3,"co":389.0,"o3":107.0,"so2":8.5,"mosquito_risk":0,"arthritis_risk":5,"migraine_risk":10,"frizz_risk":1,"updated_at":"2026-07-16T17:50:56.557238+05:30"},{"city":"Noida","state":"Uttar Pradesh","latitude":28.5355,"longitude":77.391,"temp":35.5,"humidity":50,"rain":0.0,"pressure":977.3,"uv_index":7.6,"wind_gusts":27.7,"aqi":306,"pm10":566.2,"pm2_5":115.0,"no2":15.3,"co":432.0,"o3":107.0,"so2":8.5,"mosquito_risk":0,"arthritis_risk":5,"migraine_risk":10,"frizz_risk":1,"updated_at":"2026-07-16T17:50:56.557244+05:30"},{"city":"Ghaziabad","state":"Uttar Pradesh","latitude":28.6692,"longitude":77.4538,"temp":34.7,"humidity":55,"rain":0.0,"pressure":975.5,"uv_index":7.6,"wind_gusts":33.5,"aqi":195,"pm10":493.6,"pm2_5":119.7,"no2":12.3,"co":258.0,"o3":127.0,"so2":14.8,"mosquito_risk":0,"arthritis_risk":5,"migraine_risk":7,"frizz_risk":1,"updated_at":"2026-07-16T17:50:56.557250+05:30"},{"city":"Faridabad","state":"Haryana","latitude":28.4089,"longitude":77.3178,"temp":36.1,"humidity":43,"rain":0.0,"pressure":976.7,"uv_index":7.6,"wind_gusts":33.8,"aqi":306,"pm10":566.2,"pm2_5":115.0,"no2":15.3,"co":244.0,"o3":107.0,"so2":8.5,"mosquito_risk":0,"arthritis_risk":5,"migraine_risk":10,"frizz_risk":1,"updated_at":"2026-07-16T17:50:56.557256+05:30"},{"city":"Meerut","state":"Uttar Pradesh","latitude":28.9845,"longitude":77.7064,"temp":33.8,"humidity":61,"rain":0.0,"pressure":974.3,"uv_index":7.6,"wind_gusts":38.2,"aqi":195,"pm10":493.6,"pm2_5":119.7,"no2":12.3,"co":250.0,"o3":127.0,"so2":14.8,"mosquito_risk":3,"arthritis_risk":5,"migraine_risk":7,"frizz_risk":1,"updated_at":"2026-07-16T17:50:56.557263+05:30"},{"city":"Agra","state":"Uttar Pradesh","latitude":27.1767,"longitude":78.0081,"temp":35.3,"humidity":50,"rain":0.0,"pressure":981.1,"uv_index":7.9,"wind_gusts":36.4,"aqi":151,"pm10":198.4,"pm2_5":58.3,"no2":8.3,"co":174.0,"o3":107.0,"so2":4.1,"mosquito_risk":0,"arthritis_risk":5,"migraine_risk":10,"frizz_risk":1,"updated_at":"2026-07-16T17:50:56.557269+05:30"},{"city":"Varanasi","state":"Uttar Pradesh","latitude":25.3176,"longitude":82.9739,"temp":31.5,"humidity":72,"rain":0.0,"pressure":990.3,"uv_index":7.55,"wind_gusts":28.8,"aqi":187,"pm10":128.5,"pm2_5":68.7,"no2":8.3,"co":420.0,"o3":153.0,"so2":9.9,"mosquito_risk":3,"arthritis_risk":5,"migraine_risk":7,"frizz_risk":1,"updated_at":"2026-07-16T17:50:56.557275+05:30"},{"city":"Prayagraj","state":"Uttar Pradesh","latitude":25.4358,"longitude":81.8463,"temp":31.2,"humidity":78,"rain":0.0,"pressure":989.1,"uv_index":6.75,"wind_gusts":31.7,"aqi":172,"pm10":118.3,"pm2_5":56.1,"no2":7.2,"co":267.0,"o3":134.0,"so2":9.3,"mosquito_risk":3,"arthritis_risk":5,"migraine_risk":7,"frizz_risk":1,"updated_at":"2026-07-16T17:50:56.557281+05:30"},{"city":"Gorakhpur","state":"Uttar Pradesh","latitude":26.7606,"longitude":83.3732,"temp":28.8,"humidity":86,"rain":0.0,"pressure":990.4,"uv_index":7.5,"wind_gusts":25.9,"aqi":153,"pm10":36.4,"pm2_5":31.0,"no2":10.1,"co":384.0,"o3":105.0,"so2":4.2,"mosquito_risk":7,"arthritis_risk":5,"migraine_risk":7,"frizz_risk":1,"updated_at":"2026-07-16T17:50:56.557287+05:30"},{"city":"Bareilly","state":"Uttar Pradesh","latitude":28.367,"longitude":79.4304,"temp":33.2,"humidity":71,"rain":0.0,"pressure":979.5,"uv_index":7.4,"wind_gusts":28.4,"aqi":177,"pm10":175.1,"pm2_5":89.6,"no2":8.6,"co":289.0,"o3":147.0,"so2":11.3,"mosquito_risk":3,"arthritis_risk":5,"migraine_risk":7,"frizz_risk":1,"updated_at":"2026-07-16T17:50:56.557298+05:30"},{"city":"Aligarh","state":"Uttar Pradesh","latitude":27.8974,"longitude":78.088,"temp":34.2,"humidity":59,"rain":0.0,"pressure":978.6,"uv_index":7.55,"wind_gusts":32.4,"aqi":191,"pm10":683.6,"pm2_5":146.7,"no2":9.5,"co":210.0,"o3":113.0,"so2":7.5,"mosquito_risk":0,"arthritis_risk":5,"migraine_risk":7,"frizz_risk":1,"updated_at":"2026-07-16T17:50:56.557304+05:30"},{"city":"Moradabad","state":"Uttar Pradesh","latitude":28.8386,"longitude":78.7733,"temp":33.7,"humidity":64,"rain":0.0,"pressure":976.3,"uv_index":7.8,"wind_gusts":33.1,"aqi":186,"pm10":187.2,"pm2_5":85.9,"no2":9.0,"co":305.0,"o3":128.0,"so2":9.6,"mosquito_risk":3,"arthritis_risk":5,"migraine_risk":7,"frizz_risk":1,"updated_at":"2026-07-16T17:50:56.557310+05:30"},{"city":"Saharanpur","state":"Uttar Pradesh","latitude":29.9637,"longitude":77.546,"temp":32.6,"humidity":70,"rain":0.0,"pressure":968.3,"uv_index":7.35,"wind_gusts":36.7,"aqi":178,"pm10":126.2,"pm2_5":58.4,"no2":7.2,"co":334.0,"o3":143.0,"so2":10.1,"mosquito_risk":3,"arthritis_risk":5,"migraine_risk":7,"frizz_risk":1,"updated_at":"2026-07-16T17:50:56.557315+05:30"},{"city":"Jhansi","state":"Uttar Pradesh","latitude":25.4484,"longitude":78.5685,"temp":32.4,"humidity":64,"rain":0.0,"pressure":972.3,"uv_index":4.05,"wind_gusts":38.5,"aqi":104,"pm10":68.0,"pm2_5":27.4,"no2":3.3,"co":140.0,"o3":93.0,"so2":3.2,"mosquito_risk":3,"arthritis_risk":5,"migraine_risk":3,"frizz_risk":1,"updated_at":"2026-07-16T17:50:59.936818+05:30"},{"city":"Surat","state":"Gujarat","latitude":21.1702,"longitude":72.8311,"temp":29.7,"humidity":75,"rain":0.0,"pressure":1003.0,"uv_index":7.7,"wind_gusts":41.8,"aqi":76,"pm10":30.2,"pm2_5":19.6,"no2":16.7,"co":231.0,"o3":36.0,"so2":43.7,"mosquito_risk":7,"arthritis_risk":5,"migraine_risk":4,"frizz_risk":1,"updated_at":"2026-07-16T17:50:59.936853+05:30"},{"city":"Vadodara","state":"Gujarat","latitude":22.3072,"longitude":73.1812,"temp":32.0,"humidity":60,"rain":0.0,"pressure":999.8,"uv_index":6.5,"wind_gusts":37.8,"aqi":73,"pm10":37.3,"pm2_5":21.0,"no2":6.5,"co":150.0,"o3":90.0,"so2":11.3,"mosquito_risk":0,"arthritis_risk":5,"migraine_risk":7,"frizz_risk":1,"updated_at":"2026-07-16T17:50:59.936864+05:30"},{"city":"Rajkot","state":"Gujarat","latitude":22.3039,"longitude":70.8022,"temp":31.3,"humidity":61,"rain":0.0,"pressure":989.5,"uv_index":7.25,"wind_gusts":34.9,"aqi":71,"pm10":60.8,"pm2_5":22.9,"no2":2.4,"co":115.0,"o3":65.0,"so2":3.3,"mosquito_risk":3,"arthritis_risk":5,"migraine_risk":7,"frizz_risk":1,"updated_at":"2026-07-16T17:50:59.936873+05:30"},{"city":"Thane","state":"Maharashtra","latitude":19.2183,"longitude":72.9781,"temp":28.3,"humidity":78,"rain":0.1,"pressure":1005.4,"uv_index":6.75,"wind_gusts":32.0,"aqi":70,"pm10":37.8,"pm2_5":20.1,"no2":12.3,"co":221.0,"o3":56.0,"so2":10.5,"mosquito_risk":10,"arthritis_risk":5,"migraine_risk":4,"frizz_risk":1,"updated_at":"2026-07-16T17:50:59.936881+05:30"},{"city":"Nagpur","state":"Maharashtra","latitude":21.1458,"longitude":79.0882,"temp":33.0,"humidity":49,"rain":0.0,"pressure":968.5,"uv_index":8.2,"wind_gusts":41.4,"aqi":89,"pm10":59.6,"pm2_5":26.3,"no2":13.2,"co":172.0,"o3":85.0,"so2":19.7,"mosquito_risk":0,"arthritis_risk":5,"migraine_risk":7,"frizz_risk":1,"updated_at":"2026-07-16T17:50:59.936888+05:30"},{"city":"Nashik","state":"Maharashtra","latitude":19.9975,"longitude":73.7898,"temp":26.1,"humidity":77,"rain":0.0,"pressure":942.9,"uv_index":7.85,"wind_gusts":40.3,"aqi":58,"pm10":23.5,"pm2_5":12.7,"no2":3.5,"co":148.0,"o3":80.0,"so2":4.6,"mosquito_risk":7,"arthritis_risk":5,"migraine_risk":7,"frizz_risk":1,"updated_at":"2026-07-16T17:50:59.936896+05:30"},{"city":"Aurangabad","state":"Maharashtra","latitude":19.8762,"longitude":75.3433,"temp":28.7,"humidity":62,"rain":0.0,"pressure":941.2,"uv_index":8.05,"wind_gusts":39.6,"aqi":58,"pm10":31.5,"pm2_5":15.1,"no2":2.9,"co":190.0,"o3":87.0,"so2":4.3,"mosquito_risk":7,"arthritis_risk":5,"migraine_risk":7,"frizz_risk":1,"updated_at":"2026-07-16T17:50:59.936903+05:30"},{"city":"Solapur","state":"Maharashtra","latitude":17.6599,"longitude":75.9064,"temp":29.1,"humidity":60,"rain":0.0,"pressure":954.8,"uv_index":8.45,"wind_gusts":42.5,"aqi":55,"pm10":39.8,"pm2_5":13.7,"no2":2.0,"co":133.0,"o3":80.0,"so2":1.7,"mosquito_risk":4,"arthritis_risk":5,"migraine_risk":7,"frizz_risk":1,"updated_at":"2026-07-16T17:50:59.936911+05:30"},{"city":"Kolhapur","state":"Maharashtra","latitude":16.705,"longitude":74.2433,"temp":24.6,"humidity":82,"rain":0.0,"pressure":946.9,"uv_index":7.4,"wind_gusts":47.2,"aqi":50,"pm10":19.5,"pm2_5":9.9,"no2":4.9,"co":134.0,"o3":55.0,"so2":1.9,"mosquito_risk":3,"arthritis_risk":5,"migraine_risk":7,"frizz_risk":1,"updated_at":"2026-07-16T17:50:59.936918+05:30"},{"city":"Goa","state":"Goa","latitude":15.2993,"longitude":74.124,"temp":27.2,"humidity":81,"rain":0.1,"pressure":997.8,"uv_index":7.15,"wind_gusts":30.6,"aqi":73,"pm10":28.5,"pm2_5":12.5,"no2":2.0,"co":149.0,"o3":55.0,"so2":1.1,"mosquito_risk":10,"arthritis_risk":5,"migraine_risk":7,"frizz_risk":1,"updated_at":"2026-07-16T17:50:59.936925+05:30"},{"city":"Jodhpur","state":"Rajasthan","latitude":26.2389,"longitude":73.0243,"temp":36.0,"humidity":37,"rain":0.0,"pressure":977.2,"uv_index":8.4,"wind_gusts":34.6,"aqi":124,"pm10":285.0,"pm2_5":57.7,"no2":1.6,"co":117.0,"o3":81.0,"so2":1.5,"mosquito_risk":0,"arthritis_risk":5,"migraine_risk":10,"frizz_risk":1,"updated_at":"2026-07-16T17:50:59.936933+05:30"},{"city":"Udaipur","state":"Rajasthan","latitude":24.5854,"longitude":73.7125,"temp":30.8,"humidity":53,"rain":0.0,"pressure":942.4,"uv_index":8.8,"wind_gusts":30.6,"aqi":80,"pm10":74.7,"pm2_5":28.2,"no2":1.4,"co":127.0,"o3":86.0,"so2":2.7,"mosquito_risk":0,"arthritis_risk":5,"migraine_risk":7,"frizz_risk":1,"updated_at":"2026-07-16T17:50:59.936940+05:30"},{"city":"Kota","state":"Rajasthan","latitude":25.2138,"longitude":75.8648,"temp":35.0,"humidity":43,"rain":0.0,"pressure":973.2,"uv_index":8.3,"wind_gusts":31.7,"aqi":88,"pm10":70.5,"pm2_5":28.1,"no2":2.6,"co":145.0,"o3":108.0,"so2":5.5,"mosquito_risk":0,"arthritis_risk":5,"migraine_risk":7,"frizz_risk":1,"updated_at":"2026-07-16T17:50:59.936947+05:30"},{"city":"Bikaner","state":"Rajasthan","latitude":28.0229,"longitude":73.3119,"temp":38.4,"humidity":31,"rain":0.0,"pressure":975.1,"uv_index":8.4,"wind_gusts":37.4,"aqi":135,"pm10":159.3,"pm2_5":49.2,"no2":0.6,"co":111.0,"o3":78.0,"so2":2.0,"mosquito_risk":0,"arthritis_risk":5,"migraine_risk":10,"frizz_risk":1,"updated_at":"2026-07-16T17:50:59.936954+05:30"},{"city":"Ajmer","state":"Rajasthan","latitude":26.4499,"longitude":74.6399,"temp":32.9,"humidity":45,"rain":0.0,"pressure":950.0,"uv_index":8.35,"wind_gusts":43.6,"aqi":88,"pm10":109.4,"pm2_5":35.5,"no2":1.9,"co":137.0,"o3":91.0,"so2":2.5,"mosquito_risk":0,"arthritis_risk":5,"migraine_risk":7,"frizz_risk":1,"updated_at":"2026-07-16T17:50:59.936962+05:30"},{"city":"Gwalior","state":"Madhya Pradesh","latitude":26.2183,"longitude":78.1828,"temp":33.8,"humidity":58,"rain":0.0,"pressure":977.0,"uv_index":8.05,"wind_gusts":37.1,"aqi":116,"pm10":106.6,"pm2_5":38.3,"no2":3.2,"co":155.0,"o3":96.0,"so2":2.2,"mosquito_risk":0,"arthritis_risk":5,"migraine_risk":7,"frizz_risk":1,"updated_at":"2026-07-16T17:50:59.936969+05:30"},{"city":"Indore","state":"Madhya Pradesh","latitude":22.7196,"longitude":75.8577,"temp":31.1,"humidity":52,"rain":0.0,"pressure":944.4,"uv_index":7.75,"wind_gusts":39.2,"aqi":71,"pm10":46.2,"pm2_5":24.0,"no2":3.9,"co":210.0,"o3":92.0,"so2":4.0,"mosquito_risk":0,"arthritis_risk":5,"migraine_risk":7,"frizz_risk":1,"updated_at":"2026-07-16T17:50:59.936976+05:30"},{"city":"Bhopal","state":"Madhya Pradesh","latitude":23.2599,"longitude":77.4126,"temp":29.3,"humidity":71,"rain":0.1,"pressure":949.4,"uv_index":8.2,"wind_gusts":38.5,"aqi":87,"pm10":57.9,"pm2_5":24.7,"no2":3.0,"co":195.0,"o3":98.0,"so2":4.4,"mosquito_risk":10,"arthritis_risk":5,"migraine_risk":7,"frizz_risk":1,"updated_at":"2026-07-16T17:50:59.936984+05:30"},{"city":"Jabalpur","state":"Madhya Pradesh","latitude":23.1815,"longitude":79.9864,"temp":25.8,"humidity":93,"rain":0.3,"pressure":957.1,"uv_index":8.45,"wind_gusts":35.3,"aqi":109,"pm10":54.5,"pm2_5":27.5,"no2":3.9,"co":180.0,"o3":92.0,"so2":3.4,"mosquito_risk":10,"arthritis_risk":5,"migraine_risk":7,"frizz_risk":1,"updated_at":"2026-07-16T17:50:59.936991+05:30"},{"city":"Ujjain","state":"Madhya Pradesh","latitude":23.1765,"longitude":75.7885,"temp":30.8,"humidity":57,"rain":0.0,"pressure":949.6,"uv_index":8.4,"wind_gusts":36.0,"aqi":73,"pm10":52.5,"pm2_5":25.4,"no2":2.1,"co":166.0,"o3":92.0,"so2":3.8,"mosquito_risk":0,"arthritis_risk":5,"migraine_risk":7,"frizz_risk":1,"updated_at":"2026-07-16T17:50:59.936999+05:30"},{"city":"Visakhapatnam","state":"Andhra Pradesh","latitude":17.6868,"longitude":83.2185,"temp":31.8,"humidity":63,"rain":0.0,"pressure":997.3,"uv_index":6.6,"wind_gusts":34.9,"aqi":95,"pm10":39.0,"pm2_5":23.6,"no2":23.7,"co":371.0,"o3":81.0,"so2":45.1,"mosquito_risk":3,"arthritis_risk":5,"migraine_risk":7,"frizz_risk":1,"updated_at":"2026-07-16T17:50:59.937006+05:30"},{"city":"Vijayawada","state":"Andhra Pradesh","latitude":16.5062,"longitude":80.648,"temp":30.9,"humidity":62,"rain":0.0,"pressure":998.8,"uv_index":7.0,"wind_gusts":46.8,"aqi":72,"pm10":39.7,"pm2_5":22.8,"no2":5.6,"co":194.0,"o3":93.0,"so2":6.4,"mosquito_risk":3,"arthritis_risk":5,"migraine_risk":7,"frizz_risk":1,"updated_at":"2026-07-16T17:50:59.937013+05:30"},{"city":"Guntur","state":"Andhra Pradesh","latitude":16.3067,"longitude":80.4365,"temp":32.9,"humidity":51,"rain":0.0,"pressure":999.9,"uv_index":7.1,"wind_gusts":45.7,"aqi":70,"pm10":38.4,"pm2_5":20.8,"no2":4.6,"co":172.0,"o3":91.0,"so2":5.2,"mosquito_risk":0,"arthritis_risk":5,"migraine_risk":7,"frizz_risk":1,"updated_at":"2026-07-16T17:50:59.937020+05:30"},{"city":"Nellore","state":"Andhra Pradesh","latitude":14.4426,"longitude":79.9865,"temp":34.9,"humidity":39,"rain":0.0,"pressure":1002.3,"uv_index":7.95,"wind_gusts":43.2,"aqi":67,"pm10":45.6,"pm2_5":21.3,"no2":6.0,"co":133.0,"o3":95.0,"so2":4.5,"mosquito_risk":0,"arthritis_risk":5,"migraine_risk":4,"frizz_risk":1,"updated_at":"2026-07-16T17:50:59.937028+05:30"},{"city":"Kurnool","state":"Andhra Pradesh","latitude":15.8281,"longitude":78.0373,"temp":33.4,"humidity":40,"rain":0.0,"pressure":974.0,"uv_index":8.15,"wind_gusts":41.0,"aqi":65,"pm10":41.9,"pm2_5":17.3,"no2":2.7,"co":124.0,"o3":92.0,"so2":6.3,"mosquito_risk":0,"arthritis_risk":5,"migraine_risk":7,"frizz_risk":1,"updated_at":"2026-07-16T17:50:59.937037+05:30"},{"city":"Kakinada","state":"Andhra Pradesh","latitude":16.9891,"longitude":82.2475,"temp":31.9,"humidity":62,"rain":0.0,"pressure":1002.4,"uv_index":3.2,"wind_gusts":41.4,"aqi":78,"pm10":45.5,"pm2_5":23.2,"no2":4.1,"co":162.0,"o3":115.0,"so2":6.0,"mosquito_risk":3,"arthritis_risk":5,"migraine_risk":0,"frizz_risk":1,"updated_at":"2026-07-16T17:50:59.937044+05:30"},{"city":"Tirupati","state":"Andhra Pradesh","latitude":13.6288,"longitude":79.4192,"temp":34.8,"humidity":33,"rain":0.0,"pressure":988.1,"uv_index":8.1,"wind_gusts":30.2,"aqi":75,"pm10":40.7,"pm2_5":21.3,"no2":14.0,"co":124.0,"o3":73.0,"so2":2.0,"mosquito_risk":0,"arthritis_risk":5,"migraine_risk":7,"frizz_risk":1,"updated_at":"2026-07-16T17:50:59.937051+05:30"},{"city":"Warangal","state":"Telangana","latitude":17.9689,"longitude":79.5941,"temp":29.3,"humidity":65,"rain":0.0,"pressure":975.4,"uv_index":2.35,"wind_gusts":43.2,"aqi":67,"pm10":33.5,"pm2_5":18.7,"no2":5.4,"co":177.0,"o3":78.0,"so2":4.2,"mosquito_risk":7,"arthritis_risk":5,"migraine_risk":3,"frizz_risk":1,"updated_at":"2026-07-16T17:50:59.937058+05:30"},{"city":"Nizamabad","state":"Telangana","latitude":18.6725,"longitude":78.0941,"temp":29.2,"humidity":64,"rain":0.0,"pressure":961.9,"uv_index":5.65,"wind_gusts":41.8,"aqi":62,"pm10":44.2,"pm2_5":18.1,"no2":2.0,"co":160.0,"o3":92.0,"so2":3.4,"mosquito_risk":7,"arthritis_risk":5,"migraine_risk":3,"frizz_risk":1,"updated_at":"2026-07-16T17:50:59.937065+05:30"},{"city":"Mysore","state":"Karnataka","latitude":12.2958,"longitude":76.6396,"temp":25.1,"humidity":73,"rain":0.0,"pressure":928.2,"uv_index":8.8,"wind_gusts":42.8,"aqi":60,"pm10":24.4,"pm2_5":12.7,"no2":5.1,"co":139.0,"o3":76.0,"so2":1.8,"mosquito_risk":7,"arthritis_risk":5,"migraine_risk":7,"frizz_risk":1,"updated_at":"2026-07-16T17:50:59.937072+05:30"},{"city":"Mangalore","state":"Karnataka","latitude":12.9141,"longitude":74.856,"temp":26.9,"humidity":82,"rain":0.2,"pressure":1007.5,"uv_index":7.95,"wind_gusts":35.3,"aqi":72,"pm10":28.2,"pm2_5":13.0,"no2":2.1,"co":125.0,"o3":55.0,"so2":1.6,"mosquito_risk":10,"arthritis_risk":5,"migraine_risk":4,"frizz_risk":1,"updated_at":"2026-07-16T17:50:59.937079+05:30"},{"city":"Hubli-Dharwad","state":"Karnataka","latitude":15.3647,"longitude":75.124,"temp":25.7,"humidity":74,"rain":0.0,"pressure":939.9,"uv_index":7.5,"wind_gusts":46.1,"aqi":55,"pm10":23.9,"pm2_5":10.9,"no2":3.0,"co":133.0,"o3":59.0,"so2":1.0,"mosquito_risk":7,"arthritis_risk":5,"migraine_risk":7,"frizz_risk":1,"updated_at":"2026-07-16T17:50:59.937087+05:30"},{"city":"Belgaum","state":"Karnataka","latitude":15.8497,"longitude":74.4977,"temp":24.2,"humidity":75,"rain":0.0,"pressure":924.9,"uv_index":7.9,"wind_gusts":49.3,"aqi":51,"pm10":14.5,"pm2_5":6.7,"no2":3.7,"co":110.0,"o3":54.0,"so2":1.6,"mosquito_risk":3,"arthritis_risk":5,"migraine_risk":7,"frizz_risk":1,"updated_at":"2026-07-16T17:51:03.310022+05:30"},{"city":"Coimbatore","state":"Tamil Nadu","latitude":11.0168,"longitude":76.9558,"temp":27.8,"humidity":69,"rain":0.0,"pressure":960.6,"uv_index":8.5,"wind_gusts":52.6,"aqi":59,"pm10":25.5,"pm2_5":12.9,"no2":3.2,"co":144.0,"o3":71.0,"so2":2.3,"mosquito_risk":7,"arthritis_risk":5,"migraine_risk":7,"frizz_risk":1,"updated_at":"2026-07-16T17:51:03.310058+05:30"},{"city":"Madurai","state":"Tamil Nadu","latitude":9.9252,"longitude":78.1198,"temp":36.0,"humidity":33,"rain":0.0,"pressure":990.4,"uv_index":8.2,"wind_gusts":45.7,"aqi":86,"pm10":27.4,"pm2_5":15.3,"no2":4.1,"co":146.0,"o3":108.0,"so2":2.2,"mosquito_risk":0,"arthritis_risk":5,"migraine_risk":10,"frizz_risk":1,"updated_at":"2026-07-16T17:51:03.310070+05:30"},{"city":"Trichy","state":"Tamil Nadu","latitude":10.7905,"longitude":78.7047,"temp":35.4,"humidity":36,"rain":0.0,"pressure":996.8,"uv_index":8.1,"wind_gusts":45.7,"aqi":68,"pm10":23.1,"pm2_5":13.4,"no2":3.4,"co":131.0,"o3":99.0,"so2":2.2,"mosquito_risk":0,"arthritis_risk":5,"migraine_risk":10,"frizz_risk":1,"updated_at":"2026-07-16T17:51:03.310081+05:30"},{"city":"Salem","state":"Tamil Nadu","latitude":11.6643,"longitude":78.146,"temp":32.6,"humidity":45,"rain":0.0,"pressure":974.8,"uv_index":8.1,"wind_gusts":27.0,"aqi":76,"pm10":27.6,"pm2_5":15.8,"no2":5.9,"co":184.0,"o3":103.0,"so2":5.5,"mosquito_risk":0,"arthritis_risk":5,"migraine_risk":7,"frizz_risk":1,"updated_at":"2026-07-16T17:51:03.310091+05:30"},{"city":"Tirunelveli","state":"Tamil Nadu","latitude":8.7139,"longitude":77.7567,"temp":34.6,"humidity":43,"rain":0.0,"pressure":1000.7,"uv_index":7.95,"wind_gusts":41.0,"aqi":61,"pm10":21.1,"pm2_5":11.5,"no2":2.6,"co":136.0,"o3":77.0,"so2":1.7,"mosquito_risk":0,"arthritis_risk":5,"migraine_risk":4,"frizz_risk":1,"updated_at":"2026-07-16T17:51:03.310100+05:30"},{"city":"Vellore","state":"Tamil Nadu","latitude":12.9165,"longitude":79.1325,"temp":35.8,"humidity":26,"rain":0.0,"pressure":981.3,"uv_index":8.3,"wind_gusts":42.1,"aqi":74,"pm10":55.9,"pm2_5":28.9,"no2":10.4,"co":173.0,"o3":87.0,"so2":3.1,"mosquito_risk":0,"arthritis_risk":5,"migraine_risk":10,"frizz_risk":0,"updated_at":"2026-07-16T17:51:03.310109+05:30"},{"city":"Erode","state":"Tamil Nadu","latitude":11.341,"longitude":77.7172,"temp":33.6,"humidity":42,"rain":0.1,"pressure":986.7,"uv_index":8.35,"wind_gusts":41.8,"aqi":67,"pm10":21.1,"pm2_5":11.9,"no2":5.1,"co":162.0,"o3":86.0,"so2":2.2,"mosquito_risk":3,"arthritis_risk":5,"migraine_risk":7,"frizz_risk":1,"updated_at":"2026-07-16T17:51:03.310118+05:30"},{"city":"Kochi","state":"Kerala","latitude":9.9312,"longitude":76.2673,"temp":28.0,"humidity":81,"rain":0.0,"pressure":1009.2,"uv_index":8.45,"wind_gusts":28.4,"aqi":78,"pm10":30.7,"pm2_5":14.6,"no2":5.2,"co":128.0,"o3":60.0,"so2":2.8,"mosquito_risk":7,"arthritis_risk":0,"migraine_risk":4,"frizz_risk":1,"updated_at":"2026-07-16T17:51:03.310127+05:30"},{"city":"Thiruvananthapuram","state":"Kerala","latitude":8.5241,"longitude":76.9366,"temp":27.3,"humidity":81,"rain":0.0,"pressure":1008.5,"uv_index":7.6,"wind_gusts":39.2,"aqi":67,"pm10":36.4,"pm2_5":16.3,"no2":4.4,"co":112.0,"o3":61.0,"so2":1.2,"mosquito_risk":7,"arthritis_risk":0,"migraine_risk":4,"frizz_risk":1,"updated_at":"2026-07-16T17:51:03.310135+05:30"},{"city":"Kozhikode","state":"Kerala","latitude":11.2588,"longitude":75.7804,"temp":27.5,"humidity":81,"rain":0.0,"pressure":1008.5,"uv_index":8.2,"wind_gusts":32.4,"aqi":65,"pm10":29.9,"pm2_5":12.6,"no2":1.0,"co":129.0,"o3":62.0,"so2":1.2,"mosquito_risk":7,"arthritis_risk":0,"migraine_risk":4,"frizz_risk":1,"updated_at":"2026-07-16T17:51:03.310144+05:30"},{"city":"Thrissur","state":"Kerala","latitude":10.5276,"longitude":76.2144,"temp":27.7,"humidity":79,"rain":0.0,"pressure":1007.6,"uv_index":8.3,"wind_gusts":35.3,"aqi":73,"pm10":29.1,"pm2_5":13.8,"no2":3.4,"co":120.0,"o3":58.0,"so2":1.9,"mosquito_risk":7,"arthritis_risk":5,"migraine_risk":4,"frizz_risk":1,"updated_at":"2026-07-16T17:51:03.310154+05:30"},{"city":"Kannur","state":"Kerala","latitude":11.8745,"longitude":75.3704,"temp":27.3,"humidity":82,"rain":0.1,"pressure":1007.9,"uv_index":7.95,"wind_gusts":32.8,"aqi":69,"pm10":29.1,"pm2_5":13.3,"no2":4.0,"co":118.0,"o3":50.0,"so2":1.3,"mosquito_risk":10,"arthritis_risk":5,"migraine_risk":4,"frizz_risk":1,"updated_at":"2026-07-16T17:51:03.310162+05:30"},{"city":"Patna","state":"Bihar","latitude":25.5941,"longitude":85.1376,"temp":32.4,"humidity":71,"rain":0.0,"pressure":992.7,"uv_index":6.45,"wind_gusts":32.4,"aqi":130,"pm10":27.8,"pm2_5":27.2,"no2":8.6,"co":428.0,"o3":140.0,"so2":8.8,"mosquito_risk":3,"arthritis_risk":5,"migraine_risk":7,"frizz_risk":1,"updated_at":"2026-07-16T17:51:03.310171+05:30"},{"city":"Gaya","state":"Bihar","latitude":24.7914,"longitude":85.0002,"temp":31.1,"humidity":83,"rain":0.2,"pressure":986.0,"uv_index":8.45,"wind_gusts":25.2,"aqi":126,"pm10":21.8,"pm2_5":21.1,"no2":6.0,"co":359.0,"o3":118.0,"so2":5.5,"mosquito_risk":6,"arthritis_risk":5,"migraine_risk":7,"frizz_risk":1,"updated_at":"2026-07-16T17:51:03.310180+05:30"},{"city":"Muzaffarpur","state":"Bihar","latitude":26.1209,"longitude":85.3647,"temp":32.4,"humidity":71,"rain":0.0,"pressure":992.9,"uv_index":6.55,"wind_gusts":31.7,"aqi":120,"pm10":25.1,"pm2_5":25.0,"no2":8.9,"co":322.0,"o3":132.0,"so2":7.9,"mosquito_risk":3,"arthritis_risk":5,"migraine_risk":7,"frizz_risk":1,"updated_at":"2026-07-16T17:51:03.310189+05:30"},{"city":"Bhagalpur","state":"Bihar","latitude":25.2425,"longitude":87.0117,"temp":32.0,"humidity":71,"rain":0.0,"pressure":993.1,"uv_index":8.7,"wind_gusts":31.3,"aqi":94,"pm10":20.9,"pm2_5":18.4,"no2":9.9,"co":278.0,"o3":98.0,"so2":7.3,"mosquito_risk":3,"arthritis_risk":5,"migraine_risk":7,"frizz_risk":1,"updated_at":"2026-07-16T17:51:03.310197+05:30"},{"city":"Ranchi","state":"Jharkhand","latitude":23.3441,"longitude":85.3096,"temp":26.2,"humidity":86,"rain":0.1,"pressure":931.0,"uv_index":9.05,"wind_gusts":35.6,"aqi":81,"pm10":13.1,"pm2_5":12.7,"no2":6.0,"co":253.0,"o3":100.0,"so2":5.0,"mosquito_risk":10,"arthritis_risk":5,"migraine_risk":7,"frizz_risk":1,"updated_at":"2026-07-16T17:51:03.310206+05:30"},{"city":"Jamshedpur","state":"Jharkhand","latitude":22.8046,"longitude":86.2029,"temp":27.6,"humidity":90,"rain":0.1,"pressure":982.8,"uv_index":6.15,"wind_gusts":36.0,"aqi":82,"pm10":24.9,"pm2_5":23.7,"no2":14.2,"co":394.0,"o3":107.0,"so2":23.8,"mosquito_risk":10,"arthritis_risk":5,"migraine_risk":7,"frizz_risk":1,"updated_at":"2026-07-16T17:51:03.310214+05:30"},{"city":"Dhanbad","state":"Jharkhand","latitude":23.7957,"longitude":86.4304,"temp":30.6,"humidity":73,"rain":0.0,"pressure":971.8,"uv_index":8.05,"wind_gusts":33.8,"aqi":100,"pm10":28.6,"pm2_5":26.4,"no2":23.4,"co":268.0,"o3":111.0,"so2":60.7,"mosquito_risk":3,"arthritis_risk":5,"migraine_risk":7,"frizz_risk":1,"updated_at":"2026-07-16T17:51:03.310223+05:30"},{"city":"Bokaro","state":"Jharkhand","latitude":23.6693,"longitude":86.1511,"temp":29.9,"humidity":81,"rain":0.0,"pressure":975.7,"uv_index":8.8,"wind_gusts":33.5,"aqi":100,"pm10":27.4,"pm2_5":25.5,"no2":22.5,"co":252.0,"o3":91.0,"so2":59.6,"mosquito_risk":7,"arthritis_risk":5,"migraine_risk":7,"frizz_risk":1,"updated_at":"2026-07-16T17:51:03.310231+05:30"},{"city":"Bhubaneswar","state":"Odisha","latitude":20.2961,"longitude":85.8245,"temp":27.7,"humidity":93,"rain":0.1,"pressure":994.3,"uv_index":6.95,"wind_gusts":50.4,"aqi":84,"pm10":24.2,"pm2_5":20.6,"no2":13.8,"co":429.0,"o3":85.0,"so2":12.4,"mosquito_risk":10,"arthritis_risk":5,"migraine_risk":7,"frizz_risk":1,"updated_at":"2026-07-16T17:51:03.310240+05:30"},{"city":"Cuttack","state":"Odisha","latitude":20.4625,"longitude":85.8828,"temp":28.4,"humidity":83,"rain":0.0,"pressure":996.1,"uv_index":6.95,"wind_gusts":36.4,"aqi":84,"pm10":24.2,"pm2_5":20.6,"no2":13.8,"co":377.0,"o3":85.0,"so2":12.4,"mosquito_risk":7,"arthritis_risk":5,"migraine_risk":7,"frizz_risk":1,"updated_at":"2026-07-16T17:51:03.310248+05:30"},{"city":"Rourkela","state":"Odisha","latitude":22.2604,"longitude":84.8536,"temp":26.6,"humidity":93,"rain":0.2,"pressure":977.8,"uv_index":7.65,"wind_gusts":32.0,"aqi":83,"pm10":14.8,"pm2_5":14.3,"no2":7.7,"co":468.0,"o3":103.0,"so2":6.3,"mosquito_risk":10,"arthritis_risk":5,"migraine_risk":7,"frizz_risk":1,"updated_at":"2026-07-16T17:51:03.310256+05:30"},{"city":"Raipur","state":"Chhattisgarh","latitude":21.2514,"longitude":81.6296,"temp":27.1,"humidity":91,"rain":0.2,"pressure":969.1,"uv_index":6.7,"wind_gusts":35.6,"aqi":152,"pm10":52.3,"pm2_5":37.8,"no2":29.5,"co":191.0,"o3":79.0,"so2":55.8,"mosquito_risk":10,"arthritis_risk":5,"migraine_risk":7,"frizz_risk":1,"updated_at":"2026-07-16T17:51:03.310265+05:30"},{"city":"Bhilai","state":"Chhattisgarh","latitude":21.1938,"longitude":81.3509,"temp":27.4,"humidity":89,"rain":0.1,"pressure":969.7,"uv_index":4.2,"wind_gusts":37.4,"aqi":135,"pm10":52.3,"pm2_5":34.0,"no2":21.5,"co":890.0,"o3":88.0,"so2":41.4,"mosquito_risk":10,"arthritis_risk":5,"migraine_risk":3,"frizz_risk":1,"updated_at":"2026-07-16T17:51:03.310273+05:30"},{"city":"Guwahati","state":"Assam","latitude":26.1158,"longitude":91.7086,"temp":29.0,"humidity":85,"rain":0.0,"pressure":995.1,"uv_index":6.75,"wind_gusts":22.7,"aqi":58,"pm10":11.7,"pm2_5":10.4,"no2":6.9,"co":333.0,"o3":62.0,"so2":1.3,"mosquito_risk":7,"arthritis_risk":5,"migraine_risk":7,"frizz_risk":1,"updated_at":"2026-07-16T17:51:03.310282+05:30"},{"city":"Agartala","state":"Tripura","latitude":23.8315,"longitude":91.2868,"temp":28.9,"humidity":81,"rain":0.0,"pressure":1000.2,"uv_index":8.35,"wind_gusts":41.8,"aqi":62,"pm10":15.4,"pm2_5":12.0,"no2":5.8,"co":178.0,"o3":92.0,"so2":2.0,"mosquito_risk":7,"arthritis_risk":5,"migraine_risk":4,"frizz_risk":1,"updated_at":"2026-07-16T17:51:03.310290+05:30"},{"city":"Shillong","state":"Meghalaya","latitude":25.5788,"longitude":91.8933,"temp":22.8,"humidity":75,"rain":0.0,"pressure":854.5,"uv_index":8.5,"wind_gusts":33.5,"aqi":43,"pm10":9.3,"pm2_5":6.1,"no2":4.5,"co":173.0,"o3":81.0,"so2":1.7,"mosquito_risk":3,"arthritis_risk":5,"migraine_risk":7,"frizz_risk":1,"updated_at":"2026-07-16T17:51:03.310299+05:30"},{"city":"Imphal","state":"Manipur","latitude":24.817,"longitude":93.9368,"temp":26.2,"humidity":88,"rain":0.0,"pressure":918.6,"uv_index":8.35,"wind_gusts":24.5,"aqi":58,"pm10":16.1,"pm2_5":10.7,"no2":5.2,"co":238.0,"o3":72.0,"so2":1.8,"mosquito_risk":7,"arthritis_risk":5,"migraine_risk":7,"frizz_risk":1,"updated_at":"2026-07-16T17:51:03.310307+05:30"},{"city":"Aizawl","state":"Mizoram","latitude":23.7271,"longitude":92.7176,"temp":22.5,"humidity":84,"rain":0.0,"pressure":889.0,"uv_index":8.1,"wind_gusts":42.1,"aqi":57,"pm10":10.0,"pm2_5":6.3,"no2":5.0,"co":150.0,"o3":55.0,"so2":0.8,"mosquito_risk":3,"arthritis_risk":5,"migraine_risk":7,"frizz_risk":1,"updated_at":"2026-07-16T17:51:03.310315+05:30"},{"city":"Kohima","state":"Nagaland","latitude":25.6701,"longitude":94.1077,"temp":21.7,"humidity":96,"rain":0.0,"pressure":852.2,"uv_index":8.5,"wind_gusts":22.0,"aqi":45,"pm10":10.3,"pm2_5":7.5,"no2":5.1,"co":166.0,"o3":55.0,"so2":0.9,"mosquito_risk":3,"arthritis_risk":5,"migraine_risk":7,"frizz_risk":1,"updated_at":"2026-07-16T17:51:03.310324+05:30"},{"city":"Gangtok","state":"Sikkim","latitude":27.3314,"longitude":88.6138,"temp":19.9,"humidity":100,"rain":0.1,"pressure":835.2,"uv_index":6.65,"wind_gusts":34.2,"aqi":44,"pm10":4.9,"pm2_5":4.4,"no2":5.1,"co":263.0,"o3":94.0,"so2":1.5,"mosquito_risk":6,"arthritis_risk":10,"migraine_risk":7,"frizz_risk":1,"updated_at":"2026-07-16T17:51:03.310333+05:30"},{"city":"Siliguri","state":"West Bengal","latitude":26.7271,"longitude":88.3953,"temp":29.5,"humidity":80,"rain":0.0,"pressure":986.4,"uv_index":7.15,"wind_gusts":24.1,"aqi":68,"pm10":17.9,"pm2_5":15.3,"no2":6.9,"co":559.0,"o3":112.0,"so2":2.7,"mosquito_risk":7,"arthritis_risk":5,"migraine_risk":7,"frizz_risk":1,"updated_at":"2026-07-16T17:51:06.666708+05:30"},{"city":"Durgapur","state":"West Bengal","latitude":23.5204,"longitude":87.3119,"temp":30.0,"humidity":79,"rain":0.0,"pressure":986.1,"uv_index":7.05,"wind_gusts":36.4,"aqi":83,"pm10":21.9,"pm2_5":21.1,"no2":20.6,"co":326.0,"o3":99.0,"so2":33.1,"mosquito_risk":7,"arthritis_risk":5,"migraine_risk":7,"frizz_risk":1,"updated_at":"2026-07-16T17:51:06.666744+05:30"},{"city":"Asansol","state":"West Bengal","latitude":23.6739,"longitude":86.9524,"temp":30.5,"humidity":73,"rain":0.0,"pressure":984.9,"uv_index":8.05,"wind_gusts":32.8,"aqi":89,"pm10":21.8,"pm2_5":20.1,"no2":19.1,"co":325.0,"o3":112.0,"so2":30.9,"mosquito_risk":3,"arthritis_risk":5,"migraine_risk":7,"frizz_risk":1,"updated_at":"2026-07-16T17:51:06.666757+05:30"},{"city":"Pondicherry","state":"Puducherry","latitude":11.9139,"longitude":79.8145,"temp":31.1,"humidity":71,"rain":0.0,"pressure":1005.1,"uv_index":8.2,"wind_gusts":45.7,"aqi":91,"pm10":50.4,"pm2_5":35.9,"no2":21.9,"co":224.0,"o3":130.0,"so2":7.7,"mosquito_risk":3,"arthritis_risk":5,"migraine_risk":4,"frizz_risk":1,"updated_at":"2026-07-16T17:51:06.666768+05:30"},{"city":"Port Blair","state":"Andaman and Nicobar Islands","latitude":11.6234,"longitude":92.7265,"temp":28.2,"humidity":83,"rain":0.0,"pressure":1006.8,"uv_index":8.4,"wind_gusts":50.0,"aqi":52,"pm10":17.4,"pm2_5":8.4,"no2":0.5,"co":100.0,"o3":45.0,"so2":0.5,"mosquito_risk":7,"arthritis_risk":5,"migraine_risk":4,"frizz_risk":1,"updated_at":"2026-07-16T17:51:06.666778+05:30"},{"city":"Haridwar","state":"Uttarakhand","latitude":29.9457,"longitude":78.1642,"temp":33.0,"humidity":67,"rain":0.0,"pressure":966.8,"uv_index":7.5,"wind_gusts":32.0,"aqi":170,"pm10":81.3,"pm2_5":55.8,"no2":4.6,"co":341.0,"o3":164.0,"so2":10.6,"mosquito_risk":3,"arthritis_risk":5,"migraine_risk":7,"frizz_risk":1,"updated_at":"2026-07-16T17:51:06.666805+05:30"},{"city":"Rishikesh","state":"Uttarakhand","latitude":30.0869,"longitude":78.2676,"temp":31.7,"humidity":70,"rain":0.0,"pressure":959.8,"uv_index":7.6,"wind_gusts":27.0,"aqi":150,"pm10":82.0,"pm2_5":52.7,"no2":2.4,"co":348.0,"o3":178.0,"so2":10.2,"mosquito_risk":3,"arthritis_risk":5,"migraine_risk":7,"frizz_risk":1,"updated_at":"2026-07-16T17:51:06.666815+05:30"},{"city":"Nainital","state":"Uttarakhand","latitude":29.3919,"longitude":79.4542,"temp":19.6,"humidity":92,"rain":0.0,"pressure":803.5,"uv_index":6.45,"wind_gusts":26.6,"aqi":152,"pm10":78.5,"pm2_5":47.8,"no2":4.4,"co":321.0,"o3":147.0,"so2":8.9,"mosquito_risk":3,"arthritis_risk":10,"migraine_risk":7,"frizz_risk":1,"updated_at":"2026-07-16T17:51:06.666824+05:30"},{"city":"Mussoorie","state":"Uttarakhand","latitude":30.4599,"longitude":78.0664,"temp":20.5,"humidity":88,"rain":0.0,"pressure":801.3,"uv_index":7.3,"wind_gusts":42.1,"aqi":165,"pm10":68.9,"pm2_5":50.8,"no2":4.0,"co":315.0,"o3":178.0,"so2":9.3,"mosquito_risk":3,"arthritis_risk":5,"migraine_risk":7,"frizz_risk":1,"updated_at":"2026-07-16T17:51:06.666832+05:30"},{"city":"Dharamshala","state":"Himachal Pradesh","latitude":32.219,"longitude":76.3234,"temp":24.7,"humidity":78,"rain":0.0,"pressure":866.1,"uv_index":8.45,"wind_gusts":31.0,"aqi":110,"pm10":33.1,"pm2_5":22.9,"no2":1.6,"co":324.0,"o3":147.0,"so2":2.5,"mosquito_risk":3,"arthritis_risk":5,"migraine_risk":7,"frizz_risk":1,"updated_at":"2026-07-16T17:51:06.666839+05:30"},{"city":"Dalhousie","state":"Himachal Pradesh","latitude":32.5387,"longitude":75.971,"temp":21.4,"humidity":80,"rain":0.0,"pressure":803.4,"uv_index":8.0,"wind_gusts":28.8,"aqi":159,"pm10":43.7,"pm2_5":31.0,"no2":3.2,"co":315.0,"o3":170.0,"so2":3.2,"mosquito_risk":3,"arthritis_risk":5,"migraine_risk":7,"frizz_risk":1,"updated_at":"2026-07-16T17:51:06.666847+05:30"},{"city":"Patiala","state":"Punjab","latitude":30.3398,"longitude":76.3869,"temp":33.6,"humidity":62,"rain":0.0,"pressure":971.0,"uv_index":7.6,"wind_gusts":33.8,"aqi":180,"pm10":523.4,"pm2_5":109.4,"no2":6.6,"co":312.0,"o3":139.0,"so2":7.4,"mosquito_risk":3,"arthritis_risk":5,"migraine_risk":7,"frizz_risk":1,"updated_at":"2026-07-16T17:51:06.666855+05:30"},{"city":"Bhatinda","state":"Punjab","latitude":30.211,"longitude":74.9455,"temp":37.3,"humidity":37,"rain":0.0,"pressure":976.4,"uv_index":7.4,"wind_gusts":28.8,"aqi":177,"pm10":155.1,"pm2_5":58.4,"no2":5.9,"co":189.0,"o3":112.0,"so2":5.6,"mosquito_risk":0,"arthritis_risk":5,"migraine_risk":10,"frizz_risk":1,"updated_at":"2026-07-16T17:51:06.666863+05:30"},{"city":"Rohtak","state":"Haryana","latitude":28.8955,"longitude":76.6066,"temp":35.0,"humidity":53,"rain":0.0,"pressure":974.5,"uv_index":7.65,"wind_gusts":31.3,"aqi":522,"pm10":1076.6,"pm2_5":167.2,"no2":10.6,"co":289.0,"o3":104.0,"so2":5.4,"mosquito_risk":0,"arthritis_risk":5,"migraine_risk":7,"frizz_risk":1,"updated_at":"2026-07-16T17:51:06.666870+05:30"},{"city":"Panipat","state":"Haryana","latitude":29.3909,"longitude":76.9635,"temp":33.8,"humidity":59,"rain":0.0,"pressure":973.2,"uv_index":6.85,"wind_gusts":35.3,"aqi":1029,"pm10":3062.2,"pm2_5":386.5,"no2":8.9,"co":245.0,"o3":107.0,"so2":9.2,"mosquito_risk":0,"arthritis_risk":5,"migraine_risk":7,"frizz_risk":1,"updated_at":"2026-07-16T17:51:06.666877+05:30"},{"city":"Mathura","state":"Uttar Pradesh","latitude":27.4924,"longitude":77.6737,"temp":34.7,"humidity":56,"rain":0.0,"pressure":980.0,"uv_index":7.9,"wind_gusts":33.1,"aqi":472,"pm10":670.6,"pm2_5":112.5,"no2":11.9,"co":226.0,"o3":94.0,"so2":3.3,"mosquito_risk":0,"arthritis_risk":5,"migraine_risk":7,"frizz_risk":1,"updated_at":"2026-07-16T17:51:06.666884+05:30"},{"city":"Vrindavan","state":"Uttar Pradesh","latitude":27.5823,"longitude":77.7027,"temp":34.8,"humidity":55,"rain":0.0,"pressure":980.3,"uv_index":7.9,"wind_gusts":32.0,"aqi":472,"pm10":670.6,"pm2_5":112.5,"no2":11.9,"co":214.0,"o3":94.0,"so2":3.3,"mosquito_risk":0,"arthritis_risk":5,"migraine_risk":7,"frizz_risk":1,"updated_at":"2026-07-16T17:51:06.666891+05:30"},{"city":"Ayodhya","state":"Uttar Pradesh","latitude":26.7922,"longitude":82.1998,"temp":29.7,"humidity":84,"rain":0.0,"pressure":988.7,"uv_index":7.2,"wind_gusts":22.3,"aqi":180,"pm10":96.4,"pm2_5":58.6,"no2":9.3,"co":367.0,"o3":127.0,"so2":5.7,"mosquito_risk":7,"arthritis_risk":5,"migraine_risk":7,"frizz_risk":1,"updated_at":"2026-07-16T17:51:06.666898+05:30"},{"city":"Ratlam","state":"Madhya Pradesh","latitude":23.3315,"longitude":75.0367,"temp":30.7,"humidity":57,"rain":0.0,"pressure":950.7,"uv_index":7.8,"wind_gusts":32.8,"aqi":72,"pm10":54.1,"pm2_5":25.2,"no2":1.6,"co":132.0,"o3":94.0,"so2":3.6,"mosquito_risk":0,"arthritis_risk":5,"migraine_risk":7,"frizz_risk":1,"updated_at":"2026-07-16T17:51:06.666905+05:30"},{"city":"Sagar","state":"Madhya Pradesh","latitude":23.8388,"longitude":78.7378,"temp":29.0,"humidity":79,"rain":0.1,"pressure":945.8,"uv_index":8.3,"wind_gusts":38.9,"aqi":90,"pm10":42.5,"pm2_5":22.8,"no2":2.9,"co":151.0,"o3":88.0,"so2":2.4,"mosquito_risk":10,"arthritis_risk":5,"migraine_risk":7,"frizz_risk":1,"updated_at":"2026-07-16T17:51:06.666912+05:30"},{"city":"Satna","state":"Madhya Pradesh","latitude":24.6005,"longitude":80.8322,"temp":31.2,"humidity":69,"rain":0.0,"pressure":965.5,"uv_index":8.2,"wind_gusts":36.7,"aqi":140,"pm10":115.5,"pm2_5":49.7,"no2":3.4,"co":170.0,"o3":109.0,"so2":2.7,"mosquito_risk":3,"arthritis_risk":5,"migraine_risk":7,"frizz_risk":1,"updated_at":"2026-07-16T17:51:06.666920+05:30"},{"city":"Akola","state":"Maharashtra","latitude":20.7002,"longitude":77.0082,"temp":32.2,"humidity":53,"rain":0.0,"pressure":971.1,"uv_index":8.7,"wind_gusts":43.6,"aqi":66,"pm10":43.1,"pm2_5":18.3,"no2":2.5,"co":131.0,"o3":92.0,"so2":5.5,"mosquito_risk":0,"arthritis_risk":5,"migraine_risk":7,"frizz_risk":1,"updated_at":"2026-07-16T17:51:06.666927+05:30"},{"city":"Amravati","state":"Maharashtra","latitude":20.9374,"longitude":77.7796,"temp":32.9,"humidity":49,"rain":0.0,"pressure":963.1,"uv_index":8.75,"wind_gusts":42.5,"aqi":69,"pm10":42.1,"pm2_5":18.4,"no2":3.3,"co":131.0,"o3":92.0,"so2":6.2,"mosquito_risk":0,"arthritis_risk":5,"migraine_risk":7,"frizz_risk":1,"updated_at":"2026-07-16T17:51:06.666936+05:30"},{"city":"Latur","state":"Maharashtra","latitude":18.4088,"longitude":76.5604,"temp":30.6,"humidity":52,"rain":0.0,"pressure":936.9,"uv_index":2.45,"wind_gusts":37.4,"aqi":54,"pm10":44.8,"pm2_5":16.0,"no2":2.1,"co":126.0,"o3":73.0,"so2":1.7,"mosquito_risk":0,"arthritis_risk":5,"migraine_risk":3,"frizz_risk":1,"updated_at":"2026-07-16T17:51:06.666944+05:30"},{"city":"Nanded","state":"Maharashtra","latitude":19.1383,"longitude":77.3091,"temp":28.8,"humidity":67,"rain":0.0,"pressure":965.4,"uv_index":8.5,"wind_gusts":36.4,"aqi":62,"pm10":39.2,"pm2_5":16.2,"no2":2.2,"co":138.0,"o3":86.0,"so2":2.6,"mosquito_risk":7,"arthritis_risk":5,"migraine_risk":7,"frizz_risk":1,"updated_at":"2026-07-16T17:51:06.666951+05:30"},{"city":"Gulbarga","state":"Karnataka","latitude":17.3297,"longitude":76.8343,"temp":31.1,"humidity":49,"rain":0.0,"pressure":956.0,"uv_index":7.85,"wind_gusts":47.9,"aqi":55,"pm10":42.6,"pm2_5":14.2,"no2":2.6,"co":131.0,"o3":85.0,"so2":2.0,"mosquito_risk":0,"arthritis_risk":5,"migraine_risk":7,"frizz_risk":1,"updated_at":"2026-07-16T17:51:06.666957+05:30"},{"city":"Bidar","state":"Karnataka","latitude":17.9104,"longitude":77.5199,"temp":28.2,"humidity":62,"rain":0.0,"pressure":933.0,"uv_index":6.6,"wind_gusts":38.5,"aqi":57,"pm10":43.2,"pm2_5":18.3,"no2":4.5,"co":148.0,"o3":80.0,"so2":2.9,"mosquito_risk":7,"arthritis_risk":5,"migraine_risk":7,"frizz_risk":1,"updated_at":"2026-07-16T17:51:06.666964+05:30"},{"city":"Hospet","state":"Karnataka","latitude":15.2689,"longitude":76.3909,"temp":25.4,"humidity":85,"rain":0.1,"pressure":954.2,"uv_index":8.3,"wind_gusts":46.4,"aqi":55,"pm10":32.6,"pm2_5":15.4,"no2":5.1,"co":142.0,"o3":61.0,"so2":1.8,"mosquito_risk":10,"arthritis_risk":5,"migraine_risk":7,"frizz_risk":1,"updated_at":"2026-07-16T17:51:06.666971+05:30"},{"city":"Tirupur","state":"Tamil Nadu","latitude":11.1085,"longitude":77.3411,"temp":29.5,"humidity":61,"rain":0.0,"pressure":973.4,"uv_index":8.2,"wind_gusts":57.6,"aqi":69,"pm10":24.4,"pm2_5":13.7,"no2":5.1,"co":142.0,"o3":85.0,"so2":2.8,"mosquito_risk":7,"arthritis_risk":5,"migraine_risk":7,"frizz_risk":1,"updated_at":"2026-07-16T17:51:06.666978+05:30"},{"city":"Alappuzha","state":"Kerala","latitude":9.4981,"longitude":76.3388,"temp":28.1,"humidity":80,"rain":0.0,"pressure":1009.2,"uv_index":7.9,"wind_gusts":32.8,"aqi":72,"pm10":33.9,"pm2_5":15.5,"no2":5.2,"co":94.0,"o3":62.0,"so2":2.6,"mosquito_risk":7,"arthritis_risk":0,"migraine_risk":4,"frizz_risk":1,"updated_at":"2026-07-16T17:51:06.666985+05:30"},{"city":"Munnar","state":"Kerala","latitude":10.0889,"longitude":77.0595,"temp":18.1,"humidity":97,"rain":0.1,"pressure":857.0,"uv_index":8.65,"wind_gusts":31.7,"aqi":57,"pm10":17.8,"pm2_5":9.4,"no2":3.1,"co":118.0,"o3":68.0,"so2":1.7,"mosquito_risk":6,"arthritis_risk":10,"migraine_risk":7,"frizz_risk":1,"updated_at":"2026-07-16T17:51:06.666993+05:30"},{"city":"Silchar","state":"Assam","latitude":24.8333,"longitude":92.7789,"temp":30.4,"humidity":83,"rain":0.0,"pressure":998.7,"uv_index":8.15,"wind_gusts":27.4,"aqi":60,"pm10":25.6,"pm2_5":16.0,"no2":3.9,"co":202.0,"o3":103.0,"so2":4.2,"mosquito_risk":3,"arthritis_risk":5,"migraine_risk":7,"frizz_risk":1,"updated_at":"2026-07-16T17:51:06.666999+05:30"},{"city":"Dibrugarh","state":"Assam","latitude":27.4728,"longitude":94.912,"temp":29.7,"humidity":82,"rain":0.0,"pressure":989.1,"uv_index":8.3,"wind_gusts":28.1,"aqi":48,"pm10":10.5,"pm2_5":10.0,"no2":6.8,"co":219.0,"o3":93.0,"so2":1.9,"mosquito_risk":7,"arthritis_risk":5,"migraine_risk":7,"frizz_risk":1,"updated_at":"2026-07-16T17:51:06.667007+05:30"}]