[{"city":"Delhi","state":"Delhi","latitude":28.6139,"longitude":77.209,"temp":36.5,"humidity":42,"rain":0.0,"pressure":978.2,"uv_index":6.85,"wind_gusts":27.7,"aqi":493,"pm10":322.2,"pm2_5":80.1,"no2":9.7,"co":264.0,"o3":147.0,"so2":17.8,"mosquito_risk":0,"arthritis_risk":5,"migraine_risk":10,"frizz_risk":1,"updated_at":"2026-07-19T12:01:38.305793+05:30"},{"city":"Mumbai","state":"Maharashtra","latitude":19.076,"longitude":72.8777,"temp":25.9,"humidity":92,"rain":0.4,"pressure":1007.7,"uv_index":6.2,"wind_gusts":43.2,"aqi":62,"pm10":30.7,"pm2_5":15.7,"no2":6.9,"co":179.0,"o3":63.0,"so2":9.4,"mosquito_risk":10,"arthritis_risk":5,"migraine_risk":4,"frizz_risk":1,"updated_at":"2026-07-19T12:01:38.305873+05:30"},{"city":"Bangalore","state":"Karnataka","latitude":12.9716,"longitude":77.5946,"temp":26.7,"humidity":58,"rain":0.0,"pressure":912.6,"uv_index":7.25,"wind_gusts":42.8,"aqi":52,"pm10":23.2,"pm2_5":10.8,"no2":3.5,"co":179.0,"o3":57.0,"so2":3.2,"mosquito_risk":4,"arthritis_risk":5,"migraine_risk":7,"frizz_risk":1,"updated_at":"2026-07-19T12:01:38.305891+05:30"},{"city":"Hyderabad","state":"Telangana","latitude":17.385,"longitude":78.4867,"temp":30.5,"humidity":54,"rain":0.0,"pressure":952.1,"uv_index":7.75,"wind_gusts":40.3,"aqi":41,"pm10":10.0,"pm2_5":6.0,"no2":1.8,"co":167.0,"o3":70.0,"so2":2.7,"mosquito_risk":0,"arthritis_risk":5,"migraine_risk":7,"frizz_risk":1,"updated_at":"2026-07-19T12:01:38.305903+05:30"},{"city":"Chennai","state":"Tamil Nadu","latitude":13.0827,"longitude":80.2707,"temp":33.0,"humidity":54,"rain":0.0,"pressure":1006.3,"uv_index":7.8,"wind_gusts":42.8,"aqi":74,"pm10":31.4,"pm2_5":20.8,"no2":13.1,"co":201.0,"o3":68.0,"so2":14.0,"mosquito_risk":0,"arthritis_risk":5,"migraine_risk":4,"frizz_risk":1,"updated_at":"2026-07-19T12:01:38.305914+05:30"},{"city":"Kolkata","state":"West Bengal","latitude":22.5726,"longitude":88.3639,"temp":29.8,"humidity":78,"rain":0.1,"pressure":1001.9,"uv_index":7.25,"wind_gusts":33.8,"aqi":59,"pm10":16.2,"pm2_5":10.9,"no2":1.7,"co":234.0,"o3":104.0,"so2":4.7,"mosquito_risk":10,"arthritis_risk":5,"migraine_risk":4,"frizz_risk":1,"updated_at":"2026-07-19T12:01:38.305924+05:30"},{"city":"Pune","state":"Maharashtra","latitude":18.5204,"longitude":73.8567,"temp":26.2,"humidity":77,"rain":0.1,"pressure":947.1,"uv_index":3.45,"wind_gusts":45.7,"aqi":26,"pm10":7.7,"pm2_5":4.3,"no2":2.5,"co":123.0,"o3":61.0,"so2":5.3,"mosquito_risk":10,"arthritis_risk":5,"migraine_risk":3,"frizz_risk":1,"updated_at":"2026-07-19T12:01:38.305933+05:30"},{"city":"Ahmedabad","state":"Gujarat","latitude":23.0225,"longitude":72.5714,"temp":32.8,"humidity":55,"rain":0.0,"pressure":998.4,"uv_index":6.65,"wind_gusts":36.4,"aqi":63,"pm10":40.0,"pm2_5":17.5,"no2":2.1,"co":118.0,"o3":79.0,"so2":5.0,"mosquito_risk":0,"arthritis_risk":5,"migraine_risk":7,"frizz_risk":1,"updated_at":"2026-07-19T12:01:38.305941+05:30"},{"city":"Jaipur","state":"Rajasthan","latitude":26.9124,"longitude":75.7873,"temp":35.4,"humidity":43,"rain":0.0,"pressure":956.6,"uv_index":8.05,"wind_gusts":36.0,"aqi":152,"pm10":377.2,"pm2_5":62.6,"no2":1.8,"co":140.0,"o3":95.0,"so2":3.5,"mosquito_risk":0,"arthritis_risk":5,"migraine_risk":10,"frizz_risk":1,"updated_at":"2026-07-19T12:01:38.305949+05:30"},{"city":"Lucknow","state":"Uttar Pradesh","latitude":26.8467,"longitude":80.9462,"temp":28.4,"humidity":92,"rain":0.1,"pressure":989.9,"uv_index":6.45,"wind_gusts":18.4,"aqi":154,"pm10":58.4,"pm2_5":29.6,"no2":4.3,"co":321.0,"o3":138.0,"so2":7.8,"mosquito_risk":10,"arthritis_risk":5,"migraine_risk":7,"frizz_risk":1,"updated_at":"2026-07-19T12:01:38.305964+05:30"},{"city":"Kanpur","state":"Uttar Pradesh","latitude":26.4499,"longitude":80.3319,"temp":31.6,"humidity":71,"rain":0.1,"pressure":987.9,"uv_index":6.5,"wind_gusts":16.6,"aqi":158,"pm10":130.9,"pm2_5":52.9,"no2":3.7,"co":199.0,"o3":147.0,"so2":9.3,"mosquito_risk":6,"arthritis_risk":5,"migraine_risk":7,"frizz_risk":1,"updated_at":"2026-07-19T12:01:38.305973+05:30"},{"city":"Chandigarh","state":"Chandigarh","latitude":30.7333,"longitude":76.7794,"temp":32.7,"humidity":68,"rain":0.0,"pressure":964.1,"uv_index":5.65,"wind_gusts":20.9,"aqi":164,"pm10":264.5,"pm2_5":85.0,"no2":2.9,"co":323.0,"o3":147.0,"so2":10.0,"mosquito_risk":3,"arthritis_risk":5,"migraine_risk":3,"frizz_risk":1,"updated_at":"2026-07-19T12:01:38.305981+05:30"},{"city":"Srinagar","state":"Jammu and Kashmir","latitude":34.0837,"longitude":74.7973,"temp":30.7,"humidity":53,"rain":0.0,"pressure":840.1,"uv_index":9.0,"wind_gusts":32.8,"aqi":87,"pm10":22.1,"pm2_5":15.2,"no2":1.3,"co":356.0,"o3":147.0,"so2":3.8,"mosquito_risk":0,"arthritis_risk":5,"migraine_risk":7,"frizz_risk":1,"updated_at":"2026-07-19T12:01:38.305990+05:30"},{"city":"Jammu","state":"Jammu and Kashmir","latitude":32.7266,"longitude":74.857,"temp":31.6,"humidity":71,"rain":0.0,"pressure":967.3,"uv_index":7.85,"wind_gusts":28.4,"aqi":155,"pm10":152.3,"pm2_5":69.6,"no2":2.2,"co":248.0,"o3":145.0,"so2":7.5,"mosquito_risk":3,"arthritis_risk":5,"migraine_risk":7,"frizz_risk":1,"updated_at":"2026-07-19T12:01:38.305997+05:30"},{"city":"Amritsar","state":"Punjab","latitude":31.634,"longitude":74.8723,"temp":32.6,"humidity":71,"rain":0.0,"pressure":974.8,"uv_index":7.8,"wind_gusts":34.2,"aqi":167,"pm10":305.5,"pm2_5":111.3,"no2":3.6,"co":459.0,"o3":173.0,"so2":10.3,"mosquito_risk":3,"arthritis_risk":5,"migraine_risk":7,"frizz_risk":1,"updated_at":"2026-07-19T12:01:38.306006+05:30"},{"city":"Ludhiana","state":"Punjab","latitude":30.901,"longitude":75.8573,"temp":34.8,"humidity":59,"rain":0.0,"pressure":973.1,"uv_index":7.1,"wind_gusts":28.1,"aqi":177,"pm10":354.8,"pm2_5":110.1,"no2":5.1,"co":407.0,"o3":156.0,"so2":9.1,"mosquito_risk":0,"arthritis_risk":5,"migraine_risk":7,"frizz_risk":1,"updated_at":"2026-07-19T12:01:38.306014+05:30"},{"city":"Jalandhar","state":"Punjab","latitude":31.326,"longitude":75.5762,"temp":32.5,"humidity":72,"rain":0.0,"pressure":974.3,"uv_index":2.8,"wind_gusts":27.4,"aqi":173,"pm10":344.6,"pm2_5":111.3,"no2":4.5,"co":377.0,"o3":154.0,"so2":10.2,"mosquito_risk":3,"arthritis_risk":5,"migraine_risk":3,"frizz_risk":1,"updated_at":"2026-07-19T12:01:38.306021+05:30"},{"city":"Dehradun","state":"Uttarakhand","latitude":30.6284,"longitude":78.0322,"temp":20.7,"humidity":96,"rain":0.3,"pressure":829.3,"uv_index":5.2,"wind_gusts":25.2,"aqi":71,"pm10":72.2,"pm2_5":24.9,"no2":1.7,"co":213.0,"o3":118.0,"so2":4.6,"mosquito_risk":6,"arthritis_risk":5,"migraine_risk":3,"frizz_risk":1,"updated_at":"2026-07-19T12:01:38.306029+05:30"},{"city":"Shimla","state":"Himachal Pradesh","latitude":31.1048,"longitude":77.1734,"temp":22.3,"humidity":57,"rain":0.0,"pressure":785.7,"uv_index":5.75,"wind_gusts":39.6,"aqi":93,"pm10":62.4,"pm2_5":24.9,"no2":1.6,"co":151.0,"o3":111.0,"so2":4.3,"mosquito_risk":0,"arthritis_risk":5,"migraine_risk":3,"frizz_risk":0,"updated_at":"2026-07-19T12:01:38.306037+05:30"},{"city":"Manali","state":"Himachal Pradesh","latitude":32.2396,"longitude":77.1887,"temp":23.8,"humidity":88,"rain":0.1,"pressure":818.7,"uv_index":5.05,"wind_gusts":33.1,"aqi":51,"pm10":8.1,"pm2_5":5.2,"no2":1.1,"co":214.0,"o3":120.0,"so2":0.6,"mosquito_risk":6,"arthritis_risk":5,"migraine_risk":3,"frizz_risk":1,"updated_at":"2026-07-19T12:01:38.306051+05:30"},{"city":"Gurgaon","state":"Haryana","latitude":28.4595,"longitude":77.0266,"temp":36.2,"humidity":42,"rain":0.0,"pressure":976.9,"uv_index":7.0,"wind_gusts":26.6,"aqi":424,"pm10":383.7,"pm2_5":80.6,"no2":12.4,"co":199.0,"o3":112.0,"so2":13.5,"mosquito_risk":0,"arthritis_risk":5,"migraine_risk":10,"frizz_risk":1,"updated_at":"2026-07-19T12:01:38.306059+05:30"},{"city":"Noida","state":"Uttar Pradesh","latitude":28.5355,"longitude":77.391,"temp":34.8,"humidity":52,"rain":0.0,"pressure":979.7,"uv_index":5.3,"wind_gusts":21.6,"aqi":424,"pm10":383.7,"pm2_5":80.6,"no2":12.4,"co":356.0,"o3":112.0,"so2":13.5,"mosquito_risk":0,"arthritis_risk":5,"migraine_risk":3,"frizz_risk":1,"updated_at":"2026-07-19T12:01:38.306066+05:30"},{"city":"Ghaziabad","state":"Uttar Pradesh","latitude":28.6692,"longitude":77.4538,"temp":35.2,"humidity":48,"rain":0.0,"pressure":978.0,"uv_index":6.6,"wind_gusts":27.4,"aqi":387,"pm10":314.8,"pm2_5":106.6,"no2":10.8,"co":390.0,"o3":163.0,"so2":22.7,"mosquito_risk":0,"arthritis_risk":5,"migraine_risk":10,"frizz_risk":1,"updated_at":"2026-07-19T12:01:38.306073+05:30"},{"city":"Faridabad","state":"Haryana","latitude":28.4089,"longitude":77.3178,"temp":35.0,"humidity":49,"rain":0.0,"pressure":979.0,"uv_index":6.05,"wind_gusts":22.0,"aqi":424,"pm10":383.7,"pm2_5":80.6,"no2":12.4,"co":263.0,"o3":112.0,"so2":13.5,"mosquito_risk":0,"arthritis_risk":5,"migraine_risk":7,"frizz_risk":1,"updated_at":"2026-07-19T12:01:38.306080+05:30"},{"city":"Meerut","state":"Uttar Pradesh","latitude":28.9845,"longitude":77.7064,"temp":33.5,"humidity":63,"rain":0.0,"pressure":976.9,"uv_index":6.8,"wind_gusts":25.2,"aqi":387,"pm10":314.8,"pm2_5":106.6,"no2":10.8,"co":365.0,"o3":163.0,"so2":22.7,"mosquito_risk":3,"arthritis_risk":5,"migraine_risk":7,"frizz_risk":1,"updated_at":"2026-07-19T12:01:38.306087+05:30"},{"city":"Agra","state":"Uttar Pradesh","latitude":27.1767,"longitude":78.0081,"temp":34.0,"humidity":57,"rain":0.0,"pressure":983.6,"uv_index":4.2,"wind_gusts":28.1,"aqi":201,"pm10":88.5,"pm2_5":44.4,"no2":12.5,"co":192.0,"o3":87.0,"so2":8.0,"mosquito_risk":0,"arthritis_risk":5,"migraine_risk":3,"frizz_risk":1,"updated_at":"2026-07-19T12:01:38.306094+05:30"},{"city":"Varanasi","state":"Uttar Pradesh","latitude":25.3176,"longitude":82.9739,"temp":29.8,"humidity":83,"rain":0.0,"pressure":993.4,"uv_index":7.2,"wind_gusts":31.0,"aqi":127,"pm10":15.3,"pm2_5":13.9,"no2":4.7,"co":346.0,"o3":128.0,"so2":8.2,"mosquito_risk":7,"arthritis_risk":5,"migraine_risk":7,"frizz_risk":1,"updated_at":"2026-07-19T12:01:38.306102+05:30"},{"city":"Prayagraj","state":"Uttar Pradesh","latitude":25.4358,"longitude":81.8463,"temp":30.0,"humidity":84,"rain":0.0,"pressure":992.0,"uv_index":7.4,"wind_gusts":26.6,"aqi":144,"pm10":31.5,"pm2_5":21.9,"no2":4.1,"co":232.0,"o3":142.0,"so2":7.8,"mosquito_risk":7,"arthritis_risk":5,"migraine_risk":7,"frizz_risk":1,"updated_at":"2026-07-19T12:01:38.306110+05:30"},{"city":"Gorakhpur","state":"Uttar Pradesh","latitude":26.7606,"longitude":83.3732,"temp":27.4,"humidity":95,"rain":0.3,"pressure":993.3,"uv_index":7.35,"wind_gusts":22.3,"aqi":74,"pm10":8.0,"pm2_5":7.9,"no2":5.4,"co":398.0,"o3":107.0,"so2":8.0,"mosquito_risk":10,"arthritis_risk":5,"migraine_risk":7,"frizz_risk":1,"updated_at":"2026-07-19T12:01:38.306117+05:30"},{"city":"Bareilly","state":"Uttar Pradesh","latitude":28.367,"longitude":79.4304,"temp":27.4,"humidity":95,"rain":0.7,"pressure":983.1,"uv_index":5.6,"wind_gusts":23.4,"aqi":163,"pm10":84.5,"pm2_5":47.8,"no2":13.3,"co":281.0,"o3":85.0,"so2":9.3,"mosquito_risk":10,"arthritis_risk":5,"migraine_risk":3,"frizz_risk":1,"updated_at":"2026-07-19T12:01:38.306127+05:30"},{"city":"Aligarh","state":"Uttar Pradesh","latitude":27.8974,"longitude":78.088,"temp":33.8,"humidity":57,"rain":0.0,"pressure":981.3,"uv_index":5.45,"wind_gusts":28.4,"aqi":292,"pm10":167.6,"pm2_5":82.0,"no2":11.6,"co":470.0,"o3":110.0,"so2":14.1,"mosquito_risk":0,"arthritis_risk":5,"migraine_risk":3,"frizz_risk":1,"updated_at":"2026-07-19T12:01:38.306136+05:30"},{"city":"Moradabad","state":"Uttar Pradesh","latitude":28.8386,"longitude":78.7733,"temp":28.6,"humidity":85,"rain":0.1,"pressure":979.8,"uv_index":5.35,"wind_gusts":30.2,"aqi":169,"pm10":110.4,"pm2_5":52.6,"no2":7.8,"co":340.0,"o3":118.0,"so2":10.8,"mosquito_risk":10,"arthritis_risk":5,"migraine_risk":3,"frizz_risk":1,"updated_at":"2026-07-19T12:01:38.306143+05:30"},{"city":"Saharanpur","state":"Uttar Pradesh","latitude":29.9637,"longitude":77.546,"temp":31.6,"humidity":74,"rain":0.0,"pressure":971.1,"uv_index":6.9,"wind_gusts":29.5,"aqi":181,"pm10":163.0,"pm2_5":73.3,"no2":3.7,"co":308.0,"o3":159.0,"so2":13.1,"mosquito_risk":3,"arthritis_risk":5,"migraine_risk":7,"frizz_risk":1,"updated_at":"2026-07-19T12:01:38.306150+05:30"},{"city":"Jhansi","state":"Uttar Pradesh","latitude":25.4484,"longitude":78.5685,"temp":34.1,"humidity":57,"rain":0.0,"pressure":974.2,"uv_index":6.9,"wind_gusts":32.8,"aqi":87,"pm10":44.4,"pm2_5":24.6,"no2":2.0,"co":165.0,"o3":112.0,"so2":6.8,"mosquito_risk":0,"arthritis_risk":5,"migraine_risk":7,"frizz_risk":1,"updated_at":"2026-07-19T12:01:41.599112+05:30"},{"city":"Surat","state":"Gujarat","latitude":21.1702,"longitude":72.8311,"temp":30.3,"humidity":72,"rain":0.0,"pressure":1004.0,"uv_index":7.65,"wind_gusts":44.3,"aqi":71,"pm10":34.7,"pm2_5":21.9,"no2":19.9,"co":321.0,"o3":35.0,"so2":47.3,"mosquito_risk":3,"arthritis_risk":5,"migraine_risk":4,"frizz_risk":1,"updated_at":"2026-07-19T12:01:41.599151+05:30"},{"city":"Vadodara","state":"Gujarat","latitude":22.3072,"longitude":73.1812,"temp":31.7,"humidity":62,"rain":0.1,"pressure":1001.1,"uv_index":6.1,"wind_gusts":39.2,"aqi":63,"pm10":44.0,"pm2_5":19.2,"no2":2.0,"co":124.0,"o3":77.0,"so2":4.0,"mosquito_risk":6,"arthritis_risk":5,"migraine_risk":4,"frizz_risk":1,"updated_at":"2026-07-19T12:01:41.599162+05:30"},{"city":"Rajkot","state":"Gujarat","latitude":22.3039,"longitude":70.8022,"temp":32.7,"humidity":54,"rain":0.0,"pressure":990.2,"uv_index":6.15,"wind_gusts":44.6,"aqi":60,"pm10":38.2,"pm2_5":15.1,"no2":1.3,"co":100.0,"o3":66.0,"so2":3.9,"mosquito_risk":0,"arthritis_risk":5,"migraine_risk":7,"frizz_risk":1,"updated_at":"2026-07-19T12:01:41.599170+05:30"},{"city":"Thane","state":"Maharashtra","latitude":19.2183,"longitude":72.9781,"temp":26.3,"humidity":93,"rain":0.2,"pressure":1006.9,"uv_index":5.85,"wind_gusts":36.4,"aqi":62,"pm10":30.7,"pm2_5":15.7,"no2":6.9,"co":201.0,"o3":63.0,"so2":9.4,"mosquito_risk":10,"arthritis_risk":5,"migraine_risk":0,"frizz_risk":1,"updated_at":"2026-07-19T12:01:41.599179+05:30"},{"city":"Nagpur","state":"Maharashtra","latitude":21.1458,"longitude":79.0882,"temp":31.9,"humidity":63,"rain":0.0,"pressure":970.7,"uv_index":4.15,"wind_gusts":32.8,"aqi":60,"pm10":16.9,"pm2_5":11.4,"no2":7.1,"co":160.0,"o3":92.0,"so2":24.5,"mosquito_risk":3,"arthritis_risk":5,"migraine_risk":3,"frizz_risk":1,"updated_at":"2026-07-19T12:01:41.599186+05:30"},{"city":"Nashik","state":"Maharashtra","latitude":19.9975,"longitude":73.7898,"temp":25.9,"humidity":80,"rain":0.0,"pressure":943.6,"uv_index":5.1,"wind_gusts":43.2,"aqi":26,"pm10":11.4,"pm2_5":5.6,"no2":4.0,"co":120.0,"o3":48.0,"so2":5.2,"mosquito_risk":7,"arthritis_risk":5,"migraine_risk":3,"frizz_risk":1,"updated_at":"2026-07-19T12:01:41.599194+05:30"},{"city":"Aurangabad","state":"Maharashtra","latitude":19.8762,"longitude":75.3433,"temp":26.2,"humidity":78,"rain":0.0,"pressure":942.8,"uv_index":6.7,"wind_gusts":40.7,"aqi":38,"pm10":9.1,"pm2_5":5.4,"no2":2.0,"co":115.0,"o3":67.0,"so2":6.9,"mosquito_risk":7,"arthritis_risk":5,"migraine_risk":7,"frizz_risk":1,"updated_at":"2026-07-19T12:01:41.599201+05:30"},{"city":"Solapur","state":"Maharashtra","latitude":17.6599,"longitude":75.9064,"temp":29.7,"humidity":61,"rain":0.0,"pressure":956.6,"uv_index":6.0,"wind_gusts":47.5,"aqi":33,"pm10":3.0,"pm2_5":2.3,"no2":1.4,"co":109.0,"o3":61.0,"so2":1.9,"mosquito_risk":7,"arthritis_risk":5,"migraine_risk":3,"frizz_risk":1,"updated_at":"2026-07-19T12:01:41.599209+05:30"},{"city":"Kolhapur","state":"Maharashtra","latitude":16.705,"longitude":74.2433,"temp":26.5,"humidity":71,"rain":0.0,"pressure":948.0,"uv_index":5.9,"wind_gusts":47.9,"aqi":28,"pm10":10.9,"pm2_5":5.6,"no2":1.4,"co":112.0,"o3":54.0,"so2":1.8,"mosquito_risk":7,"arthritis_risk":5,"migraine_risk":3,"frizz_risk":1,"updated_at":"2026-07-19T12:01:41.599217+05:30"},{"city":"Goa","state":"Goa","latitude":15.2993,"longitude":74.124,"temp":27.7,"humidity":83,"rain":0.0,"pressure":999.2,"uv_index":2.55,"wind_gusts":31.3,"aqi":64,"pm10":25.7,"pm2_5":12.3,"no2":1.0,"co":129.0,"o3":51.0,"so2":1.3,"mosquito_risk":7,"arthritis_risk":5,"migraine_risk":3,"frizz_risk":1,"updated_at":"2026-07-19T12:01:41.599224+05:30"},{"city":"Jodhpur","state":"Rajasthan","latitude":26.2389,"longitude":73.0243,"temp":34.8,"humidity":45,"rain":0.0,"pressure":978.7,"uv_index":7.8,"wind_gusts":43.2,"aqi":113,"pm10":143.9,"pm2_5":35.9,"no2":0.8,"co":104.0,"o3":73.0,"so2":2.1,"mosquito_risk":0,"arthritis_risk":5,"migraine_risk":7,"frizz_risk":1,"updated_at":"2026-07-19T12:01:41.599231+05:30"},{"city":"Udaipur","state":"Rajasthan","latitude":24.5854,"longitude":73.7125,"temp":30.4,"humidity":56,"rain":0.0,"pressure":943.3,"uv_index":6.25,"wind_gusts":32.4,"aqi":64,"pm10":35.9,"pm2_5":15.3,"no2":1.1,"co":102.0,"o3":67.0,"so2":2.7,"mosquito_risk":0,"arthritis_risk":5,"migraine_risk":7,"frizz_risk":1,"updated_at":"2026-07-19T12:01:41.599239+05:30"},{"city":"Kota","state":"Rajasthan","latitude":25.2138,"longitude":75.8648,"temp":32.8,"humidity":56,"rain":0.0,"pressure":975.4,"uv_index":7.8,"wind_gusts":28.1,"aqi":80,"pm10":41.8,"pm2_5":23.0,"no2":2.2,"co":141.0,"o3":101.0,"so2":8.9,"mosquito_risk":0,"arthritis_risk":5,"migraine_risk":7,"frizz_risk":1,"updated_at":"2026-07-19T12:01:41.599245+05:30"},{"city":"Bikaner","state":"Rajasthan","latitude":28.0229,"longitude":73.3119,"temp":36.9,"humidity":38,"rain":0.0,"pressure":976.7,"uv_index":8.25,"wind_gusts":41.0,"aqi":125,"pm10":183.9,"pm2_5":53.9,"no2":0.5,"co":101.0,"o3":73.0,"so2":3.0,"mosquito_risk":0,"arthritis_risk":5,"migraine_risk":10,"frizz_risk":1,"updated_at":"2026-07-19T12:01:41.599252+05:30"},{"city":"Ajmer","state":"Rajasthan","latitude":26.4499,"longitude":74.6399,"temp":32.6,"humidity":52,"rain":0.0,"pressure":951.6,"uv_index":7.8,"wind_gusts":40.0,"aqi":77,"pm10":70.1,"pm2_5":26.5,"no2":1.0,"co":114.0,"o3":84.0,"so2":2.9,"mosquito_risk":0,"arthritis_risk":5,"migraine_risk":7,"frizz_risk":1,"updated_at":"2026-07-19T12:01:41.599259+05:30"},{"city":"Gwalior","state":"Madhya Pradesh","latitude":26.2183,"longitude":78.1828,"temp":35.7,"humidity":48,"rain":0.0,"pressure":979.2,"uv_index":6.75,"wind_gusts":33.8,"aqi":108,"pm10":40.0,"pm2_5":23.7,"no2":1.6,"co":152.0,"o3":113.0,"so2":3.4,"mosquito_risk":0,"arthritis_risk":5,"migraine_risk":10,"frizz_risk":1,"updated_at":"2026-07-19T12:01:41.599267+05:30"},{"city":"Indore","state":"Madhya Pradesh","latitude":22.7196,"longitude":75.8577,"temp":31.9,"humidity":56,"rain":0.0,"pressure":945.9,"uv_index":8.5,"wind_gusts":32.4,"aqi":68,"pm10":22.2,"pm2_5":12.5,"no2":2.1,"co":165.0,"o3":85.0,"so2":5.3,"mosquito_risk":0,"arthritis_risk":5,"migraine_risk":7,"frizz_risk":1,"updated_at":"2026-07-19T12:01:41.599273+05:30"},{"city":"Bhopal","state":"Madhya Pradesh","latitude":23.2599,"longitude":77.4126,"temp":32.2,"humidity":56,"rain":0.0,"pressure":951.1,"uv_index":7.9,"wind_gusts":30.2,"aqi":79,"pm10":24.4,"pm2_5":15.3,"no2":2.3,"co":178.0,"o3":94.0,"so2":5.9,"mosquito_risk":0,"arthritis_risk":5,"migraine_risk":7,"frizz_risk":1,"updated_at":"2026-07-19T12:01:41.599280+05:30"},{"city":"Jabalpur","state":"Madhya Pradesh","latitude":23.1815,"longitude":79.9864,"temp":30.4,"humidity":72,"rain":0.0,"pressure":958.6,"uv_index":8.1,"wind_gusts":27.0,"aqi":84,"pm10":36.9,"pm2_5":21.2,"no2":1.8,"co":204.0,"o3":99.0,"so2":3.7,"mosquito_risk":3,"arthritis_risk":5,"migraine_risk":7,"frizz_risk":1,"updated_at":"2026-07-19T12:01:41.599287+05:30"},{"city":"Ujjain","state":"Madhya Pradesh","latitude":23.1765,"longitude":75.7885,"temp":30.9,"humidity":64,"rain":0.0,"pressure":951.3,"uv_index":7.6,"wind_gusts":39.2,"aqi":69,"pm10":24.9,"pm2_5":14.8,"no2":1.4,"co":150.0,"o3":90.0,"so2":6.4,"mosquito_risk":3,"arthritis_risk":5,"migraine_risk":7,"frizz_risk":1,"updated_at":"2026-07-19T12:01:41.599294+05:30"},{"city":"Visakhapatnam","state":"Andhra Pradesh","latitude":17.6868,"longitude":83.2185,"temp":32.2,"humidity":67,"rain":0.1,"pressure":999.5,"uv_index":8.4,"wind_gusts":33.5,"aqi":93,"pm10":44.2,"pm2_5":32.5,"no2":9.9,"co":305.0,"o3":155.0,"so2":41.6,"mosquito_risk":6,"arthritis_risk":5,"migraine_risk":7,"frizz_risk":1,"updated_at":"2026-07-19T12:01:41.599302+05:30"},{"city":"Vijayawada","state":"Andhra Pradesh","latitude":16.5062,"longitude":80.648,"temp":33.7,"humidity":55,"rain":0.0,"pressure":1000.1,"uv_index":8.35,"wind_gusts":38.9,"aqi":64,"pm10":10.2,"pm2_5":7.6,"no2":1.6,"co":141.0,"o3":96.0,"so2":5.2,"mosquito_risk":0,"arthritis_risk":5,"migraine_risk":4,"frizz_risk":1,"updated_at":"2026-07-19T12:01:41.599309+05:30"},{"city":"Guntur","state":"Andhra Pradesh","latitude":16.3067,"longitude":80.4365,"temp":34.6,"humidity":47,"rain":0.0,"pressure":1001.4,"uv_index":7.8,"wind_gusts":42.8,"aqi":60,"pm10":9.1,"pm2_5":6.3,"no2":1.3,"co":132.0,"o3":89.0,"so2":3.9,"mosquito_risk":0,"arthritis_risk":5,"migraine_risk":4,"frizz_risk":1,"updated_at":"2026-07-19T12:01:41.599315+05:30"},{"city":"Nellore","state":"Andhra Pradesh","latitude":14.4426,"longitude":79.9865,"temp":33.3,"humidity":52,"rain":0.0,"pressure":1004.5,"uv_index":7.55,"wind_gusts":33.5,"aqi":55,"pm10":15.3,"pm2_5":8.9,"no2":2.6,"co":111.0,"o3":73.0,"so2":5.7,"mosquito_risk":0,"arthritis_risk":5,"migraine_risk":4,"frizz_risk":1,"updated_at":"2026-07-19T12:01:41.599323+05:30"},{"city":"Kurnool","state":"Andhra Pradesh","latitude":15.8281,"longitude":78.0373,"temp":32.5,"humidity":54,"rain":0.0,"pressure":976.2,"uv_index":8.25,"wind_gusts":59.4,"aqi":48,"pm10":10.7,"pm2_5":6.0,"no2":1.5,"co":114.0,"o3":76.0,"so2":5.3,"mosquito_risk":0,"arthritis_risk":5,"migraine_risk":7,"frizz_risk":1,"updated_at":"2026-07-19T12:01:41.599331+05:30"},{"city":"Kakinada","state":"Andhra Pradesh","latitude":16.9891,"longitude":82.2475,"temp":34.1,"humidity":54,"rain":0.0,"pressure":1004.0,"uv_index":8.9,"wind_gusts":48.2,"aqi":64,"pm10":19.4,"pm2_5":13.5,"no2":1.8,"co":148.0,"o3":122.0,"so2":5.2,"mosquito_risk":0,"arthritis_risk":5,"migraine_risk":4,"frizz_risk":1,"updated_at":"2026-07-19T12:01:41.599339+05:30"},{"city":"Tirupati","state":"Andhra Pradesh","latitude":13.6288,"longitude":79.4192,"temp":32.9,"humidity":50,"rain":0.0,"pressure":990.1,"uv_index":8.15,"wind_gusts":30.2,"aqi":61,"pm10":19.0,"pm2_5":8.9,"no2":1.4,"co":106.0,"o3":64.0,"so2":1.4,"mosquito_risk":0,"arthritis_risk":5,"migraine_risk":7,"frizz_risk":1,"updated_at":"2026-07-19T12:01:41.599347+05:30"},{"city":"Warangal","state":"Telangana","latitude":17.9689,"longitude":79.5941,"temp":31.4,"humidity":60,"rain":0.0,"pressure":976.7,"uv_index":8.15,"wind_gusts":39.2,"aqi":57,"pm10":9.1,"pm2_5":5.8,"no2":1.4,"co":132.0,"o3":76.0,"so2":2.3,"mosquito_risk":0,"arthritis_risk":5,"migraine_risk":7,"frizz_risk":1,"updated_at":"2026-07-19T12:01:41.599353+05:30"},{"city":"Nizamabad","state":"Telangana","latitude":18.6725,"longitude":78.0941,"temp":30.6,"humidity":61,"rain":0.0,"pressure":963.5,"uv_index":2.9,"wind_gusts":38.5,"aqi":59,"pm10":15.5,"pm2_5":8.2,"no2":1.4,"co":126.0,"o3":75.0,"so2":4.4,"mosquito_risk":3,"arthritis_risk":5,"migraine_risk":3,"frizz_risk":1,"updated_at":"2026-07-19T12:01:41.599360+05:30"},{"city":"Mysore","state":"Karnataka","latitude":12.2958,"longitude":76.6396,"temp":28.0,"humidity":59,"rain":0.1,"pressure":929.6,"uv_index":6.8,"wind_gusts":44.6,"aqi":41,"pm10":13.6,"pm2_5":6.4,"no2":1.5,"co":110.0,"o3":63.0,"so2":1.8,"mosquito_risk":7,"arthritis_risk":5,"migraine_risk":7,"frizz_risk":1,"updated_at":"2026-07-19T12:01:41.599367+05:30"},{"city":"Mangalore","state":"Karnataka","latitude":12.9141,"longitude":74.856,"temp":27.2,"humidity":79,"rain":0.0,"pressure":1009.2,"uv_index":8.65,"wind_gusts":34.9,"aqi":56,"pm10":15.8,"pm2_5":7.8,"no2":1.6,"co":104.0,"o3":51.0,"so2":2.1,"mosquito_risk":7,"arthritis_risk":0,"migraine_risk":4,"frizz_risk":1,"updated_at":"2026-07-19T12:01:41.599373+05:30"},{"city":"Hubli-Dharwad","state":"Karnataka","latitude":15.3647,"longitude":75.124,"temp":28.5,"humidity":65,"rain":0.0,"pressure":941.6,"uv_index":6.1,"wind_gusts":52.6,"aqi":22,"pm10":12.1,"pm2_5":6.2,"no2":1.3,"co":104.0,"o3":50.0,"so2":1.2,"mosquito_risk":7,"arthritis_risk":5,"migraine_risk":7,"frizz_risk":1,"updated_at":"2026-07-19T12:01:41.599380+05:30"},{"city":"Belgaum","state":"Karnataka","latitude":15.8497,"longitude":74.4977,"temp":25.8,"humidity":71,"rain":0.0,"pressure":926.2,"uv_index":5.9,"wind_gusts":50.0,"aqi":19,"pm10":7.3,"pm2_5":3.8,"no2":1.2,"co":98.0,"o3":50.0,"so2":1.5,"mosquito_risk":7,"arthritis_risk":5,"migraine_risk":3,"frizz_risk":1,"updated_at":"2026-07-19T12:01:44.884810+05:30"},{"city":"Coimbatore","state":"Tamil Nadu","latitude":11.0168,"longitude":76.9558,"temp":30.0,"humidity":57,"rain":0.1,"pressure":962.2,"uv_index":8.1,"wind_gusts":47.2,"aqi":49,"pm10":18.5,"pm2_5":8.9,"no2":1.4,"co":126.0,"o3":68.0,"so2":2.4,"mosquito_risk":7,"arthritis_risk":5,"migraine_risk":7,"frizz_risk":1,"updated_at":"2026-07-19T12:01:44.884866+05:30"},{"city":"Madurai","state":"Tamil Nadu","latitude":9.9252,"longitude":78.1198,"temp":36.0,"humidity":38,"rain":0.0,"pressure":992.9,"uv_index":7.8,"wind_gusts":41.8,"aqi":70,"pm10":24.4,"pm2_5":13.0,"no2":2.0,"co":149.0,"o3":96.0,"so2":3.1,"mosquito_risk":0,"arthritis_risk":5,"migraine_risk":10,"frizz_risk":1,"updated_at":"2026-07-19T12:01:44.884878+05:30"},{"city":"Trichy","state":"Tamil Nadu","latitude":10.7905,"longitude":78.7047,"temp":35.1,"humidity":41,"rain":0.0,"pressure":999.4,"uv_index":8.45,"wind_gusts":42.8,"aqi":53,"pm10":18.3,"pm2_5":8.8,"no2":1.5,"co":111.0,"o3":67.0,"so2":2.4,"mosquito_risk":0,"arthritis_risk":5,"migraine_risk":10,"frizz_risk":1,"updated_at":"2026-07-19T12:01:44.884887+05:30"},{"city":"Salem","state":"Tamil Nadu","latitude":11.6643,"longitude":78.146,"temp":31.8,"humidity":54,"rain":0.0,"pressure":977.7,"uv_index":6.35,"wind_gusts":42.1,"aqi":65,"pm10":27.4,"pm2_5":14.5,"no2":2.8,"co":163.0,"o3":91.0,"so2":7.4,"mosquito_risk":0,"arthritis_risk":5,"migraine_risk":7,"frizz_risk":1,"updated_at":"2026-07-19T12:01:44.884895+05:30"},{"city":"Tirunelveli","state":"Tamil Nadu","latitude":8.7139,"longitude":77.7567,"temp":37.7,"humidity":33,"rain":0.0,"pressure":1002.9,"uv_index":8.6,"wind_gusts":46.8,"aqi":46,"pm10":13.3,"pm2_5":7.3,"no2":1.0,"co":103.0,"o3":70.0,"so2":1.4,"mosquito_risk":0,"arthritis_risk":5,"migraine_risk":7,"frizz_risk":1,"updated_at":"2026-07-19T12:01:44.884903+05:30"},{"city":"Vellore","state":"Tamil Nadu","latitude":12.9165,"longitude":79.1325,"temp":34.2,"humidity":44,"rain":0.0,"pressure":983.7,"uv_index":7.4,"wind_gusts":37.4,"aqi":66,"pm10":21.8,"pm2_5":11.1,"no2":2.1,"co":126.0,"o3":77.0,"so2":3.1,"mosquito_risk":0,"arthritis_risk":5,"migraine_risk":7,"frizz_risk":1,"updated_at":"2026-07-19T12:01:44.884911+05:30"},{"city":"Erode","state":"Tamil Nadu","latitude":11.341,"longitude":77.7172,"temp":34.8,"humidity":40,"rain":0.0,"pressure":989.0,"uv_index":7.45,"wind_gusts":50.4,"aqi":55,"pm10":23.2,"pm2_5":11.9,"no2":2.0,"co":145.0,"o3":80.0,"so2":2.7,"mosquito_risk":0,"arthritis_risk":5,"migraine_risk":7,"frizz_risk":1,"updated_at":"2026-07-19T12:01:44.884919+05:30"},{"city":"Kochi","state":"Kerala","latitude":9.9312,"longitude":76.2673,"temp":28.1,"humidity":80,"rain":0.0,"pressure":1011.0,"uv_index":8.45,"wind_gusts":38.5,"aqi":57,"pm10":11.0,"pm2_5":7.0,"no2":2.9,"co":105.0,"o3":55.0,"so2":3.3,"mosquito_risk":7,"arthritis_risk":0,"migraine_risk":4,"frizz_risk":1,"updated_at":"2026-07-19T12:01:44.884927+05:30"},{"city":"Thiruvananthapuram","state":"Kerala","latitude":8.5241,"longitude":76.9366,"temp":28.1,"humidity":77,"rain":0.1,"pressure":1010.2,"uv_index":7.55,"wind_gusts":41.8,"aqi":52,"pm10":17.4,"pm2_5":11.0,"no2":2.3,"co":109.0,"o3":73.0,"so2":2.3,"mosquito_risk":10,"arthritis_risk":0,"migraine_risk":4,"frizz_risk":1,"updated_at":"2026-07-19T12:01:44.884934+05:30"},{"city":"Kozhikode","state":"Kerala","latitude":11.2588,"longitude":75.7804,"temp":28.4,"humidity":78,"rain":0.0,"pressure":1009.9,"uv_index":8.35,"wind_gusts":38.9,"aqi":49,"pm10":10.9,"pm2_5":5.5,"no2":0.6,"co":116.0,"o3":55.0,"so2":1.2,"mosquito_risk":7,"arthritis_risk":0,"migraine_risk":4,"frizz_risk":1,"updated_at":"2026-07-19T12:01:44.884941+05:30"},{"city":"Thrissur","state":"Kerala","latitude":10.5276,"longitude":76.2144,"temp":28.8,"humidity":76,"rain":0.1,"pressure":1009.1,"uv_index":8.2,"wind_gusts":37.1,"aqi":54,"pm10":8.2,"pm2_5":5.4,"no2":1.5,"co":104.0,"o3":53.0,"so2":1.9,"mosquito_risk":10,"arthritis_risk":0,"migraine_risk":4,"frizz_risk":1,"updated_at":"2026-07-19T12:01:44.884948+05:30"},{"city":"Kannur","state":"Kerala","latitude":11.8745,"longitude":75.3704,"temp":27.8,"humidity":79,"rain":0.1,"pressure":1009.6,"uv_index":8.0,"wind_gusts":35.3,"aqi":53,"pm10":14.6,"pm2_5":6.9,"no2":1.1,"co":103.0,"o3":53.0,"so2":1.4,"mosquito_risk":10,"arthritis_risk":0,"migraine_risk":4,"frizz_risk":1,"updated_at":"2026-07-19T12:01:44.884956+05:30"},{"city":"Patna","state":"Bihar","latitude":25.5941,"longitude":85.1376,"temp":29.1,"humidity":89,"rain":0.1,"pressure":996.2,"uv_index":7.35,"wind_gusts":24.1,"aqi":94,"pm10":34.5,"pm2_5":33.5,"no2":4.2,"co":373.0,"o3":156.0,"so2":23.1,"mosquito_risk":10,"arthritis_risk":5,"migraine_risk":7,"frizz_risk":1,"updated_at":"2026-07-19T12:01:44.884963+05:30"},{"city":"Gaya","state":"Bihar","latitude":24.7914,"longitude":85.0002,"temp":31.8,"humidity":74,"rain":0.0,"pressure":989.3,"uv_index":8.3,"wind_gusts":18.7,"aqi":98,"pm10":26.3,"pm2_5":24.9,"no2":2.9,"co":303.0,"o3":154.0,"so2":14.3,"mosquito_risk":3,"arthritis_risk":5,"migraine_risk":7,"frizz_risk":1,"updated_at":"2026-07-19T12:01:44.884970+05:30"},{"city":"Muzaffarpur","state":"Bihar","latitude":26.1209,"longitude":85.3647,"temp":27.3,"humidity":94,"rain":0.2,"pressure":996.8,"uv_index":7.0,"wind_gusts":31.0,"aqi":82,"pm10":27.2,"pm2_5":26.5,"no2":4.2,"co":340.0,"o3":152.0,"so2":20.8,"mosquito_risk":10,"arthritis_risk":5,"migraine_risk":7,"frizz_risk":1,"updated_at":"2026-07-19T12:01:44.884978+05:30"},{"city":"Bhagalpur","state":"Bihar","latitude":25.2425,"longitude":87.0117,"temp":30.9,"humidity":80,"rain":0.0,"pressure":997.4,"uv_index":7.55,"wind_gusts":24.1,"aqi":76,"pm10":27.9,"pm2_5":25.4,"no2":5.3,"co":246.0,"o3":136.0,"so2":17.1,"mosquito_risk":3,"arthritis_risk":5,"migraine_risk":7,"frizz_risk":1,"updated_at":"2026-07-19T12:01:44.884984+05:30"},{"city":"Ranchi","state":"Jharkhand","latitude":23.3441,"longitude":85.3096,"temp":27.3,"humidity":79,"rain":0.1,"pressure":934.2,"uv_index":8.45,"wind_gusts":26.3,"aqi":78,"pm10":17.3,"pm2_5":15.3,"no2":1.7,"co":242.0,"o3":124.0,"so2":8.0,"mosquito_risk":10,"arthritis_risk":5,"migraine_risk":7,"frizz_risk":1,"updated_at":"2026-07-19T12:01:44.884991+05:30"},{"city":"Jamshedpur","state":"Jharkhand","latitude":22.8046,"longitude":86.2029,"temp":31.2,"humidity":73,"rain":0.0,"pressure":986.3,"uv_index":8.2,"wind_gusts":29.5,"aqi":113,"pm10":26.4,"pm2_5":24.3,"no2":3.9,"co":311.0,"o3":149.0,"so2":21.1,"mosquito_risk":3,"arthritis_risk":5,"migraine_risk":7,"frizz_risk":1,"updated_at":"2026-07-19T12:01:44.884998+05:30"},{"city":"Dhanbad","state":"Jharkhand","latitude":23.7957,"longitude":86.4304,"temp":30.6,"humidity":77,"rain":0.0,"pressure":975.5,"uv_index":8.4,"wind_gusts":32.0,"aqi":153,"pm10":41.7,"pm2_5":39.8,"no2":21.7,"co":1103.0,"o3":127.0,"so2":65.6,"mosquito_risk":3,"arthritis_risk":5,"migraine_risk":7,"frizz_risk":1,"updated_at":"2026-07-19T12:01:44.885006+05:30"},{"city":"Bokaro","state":"Jharkhand","latitude":23.6693,"longitude":86.1511,"temp":31.7,"humidity":71,"rain":0.0,"pressure":979.1,"uv_index":8.3,"wind_gusts":35.6,"aqi":155,"pm10":36.2,"pm2_5":35.2,"no2":18.2,"co":252.0,"o3":144.0,"so2":61.8,"mosquito_risk":3,"arthritis_risk":5,"migraine_risk":7,"frizz_risk":1,"updated_at":"2026-07-19T12:01:44.885013+05:30"},{"city":"Bhubaneswar","state":"Odisha","latitude":20.2961,"longitude":85.8245,"temp":31.7,"humidity":73,"rain":0.0,"pressure":998.4,"uv_index":8.3,"wind_gusts":35.6,"aqi":77,"pm10":18.3,"pm2_5":12.4,"no2":1.7,"co":219.0,"o3":119.0,"so2":3.9,"mosquito_risk":3,"arthritis_risk":5,"migraine_risk":7,"frizz_risk":1,"updated_at":"2026-07-19T12:01:44.885020+05:30"},{"city":"Cuttack","state":"Odisha","latitude":20.4625,"longitude":85.8828,"temp":31.5,"humidity":74,"rain":0.0,"pressure":1000.1,"uv_index":8.65,"wind_gusts":33.1,"aqi":77,"pm10":18.3,"pm2_5":12.4,"no2":1.7,"co":210.0,"o3":119.0,"so2":3.9,"mosquito_risk":3,"arthritis_risk":5,"migraine_risk":4,"frizz_risk":1,"updated_at":"2026-07-19T12:01:44.885027+05:30"},{"city":"Rourkela","state":"Odisha","latitude":22.2604,"longitude":84.8536,"temp":29.8,"humidity":80,"rain":0.0,"pressure":981.0,"uv_index":7.2,"wind_gusts":30.6,"aqi":83,"pm10":33.3,"pm2_5":23.5,"no2":4.2,"co":230.0,"o3":125.0,"so2":21.5,"mosquito_risk":7,"arthritis_risk":5,"migraine_risk":7,"frizz_risk":1,"updated_at":"2026-07-19T12:01:44.885034+05:30"},{"city":"Raipur","state":"Chhattisgarh","latitude":21.2514,"longitude":81.6296,"temp":30.7,"humidity":69,"rain":0.0,"pressure":971.2,"uv_index":7.65,"wind_gusts":29.5,"aqi":86,"pm10":29.7,"pm2_5":19.2,"no2":13.5,"co":159.0,"o3":88.0,"so2":30.9,"mosquito_risk":3,"arthritis_risk":5,"migraine_risk":7,"frizz_risk":1,"updated_at":"2026-07-19T12:01:44.885041+05:30"},{"city":"Bhilai","state":"Chhattisgarh","latitude":21.1938,"longitude":81.3509,"temp":29.4,"humidity":74,"rain":0.1,"pressure":971.7,"uv_index":4.9,"wind_gusts":29.2,"aqi":81,"pm10":29.0,"pm2_5":18.7,"no2":12.0,"co":532.0,"o3":88.0,"so2":28.3,"mosquito_risk":10,"arthritis_risk":5,"migraine_risk":3,"frizz_risk":1,"updated_at":"2026-07-19T12:01:44.885047+05:30"},{"city":"Guwahati","state":"Assam","latitude":26.1158,"longitude":91.7086,"temp":27.7,"humidity":90,"rain":0.1,"pressure":998.7,"uv_index":2.3,"wind_gusts":22.3,"aqi":60,"pm10":12.9,"pm2_5":11.9,"no2":2.4,"co":202.0,"o3":88.0,"so2":2.5,"mosquito_risk":10,"arthritis_risk":5,"migraine_risk":3,"frizz_risk":1,"updated_at":"2026-07-19T12:01:44.885054+05:30"},{"city":"Agartala","state":"Tripura","latitude":23.8315,"longitude":91.2868,"temp":29.9,"humidity":76,"rain":0.0,"pressure":1003.9,"uv_index":7.35,"wind_gusts":41.8,"aqi":60,"pm10":13.0,"pm2_5":9.9,"no2":3.4,"co":134.0,"o3":76.0,"so2":1.5,"mosquito_risk":7,"arthritis_risk":5,"migraine_risk":4,"frizz_risk":1,"updated_at":"2026-07-19T12:01:44.885061+05:30"},{"city":"Shillong","state":"Meghalaya","latitude":25.5788,"longitude":91.8933,"temp":21.7,"humidity":90,"rain":0.2,"pressure":856.4,"uv_index":1.95,"wind_gusts":31.3,"aqi":24,"pm10":3.3,"pm2_5":3.2,"no2":3.5,"co":137.0,"o3":65.0,"so2":1.7,"mosquito_risk":6,"arthritis_risk":5,"migraine_risk":3,"frizz_risk":1,"updated_at":"2026-07-19T12:01:44.885067+05:30"},{"city":"Imphal","state":"Manipur","latitude":24.817,"longitude":93.9368,"temp":26.0,"humidity":76,"rain":0.0,"pressure":921.8,"uv_index":0.9,"wind_gusts":29.9,"aqi":57,"pm10":4.8,"pm2_5":3.5,"no2":1.9,"co":130.0,"o3":58.0,"so2":1.0,"mosquito_risk":7,"arthritis_risk":5,"migraine_risk":3,"frizz_risk":1,"updated_at":"2026-07-19T12:01:44.885074+05:30"},{"city":"Aizawl","state":"Mizoram","latitude":23.7271,"longitude":92.7176,"temp":23.3,"humidity":71,"rain":0.0,"pressure":892.3,"uv_index":4.6,"wind_gusts":37.8,"aqi":37,"pm10":13.2,"pm2_5":7.5,"no2":0.7,"co":113.0,"o3":60.0,"so2":0.6,"mosquito_risk":3,"arthritis_risk":5,"migraine_risk":3,"frizz_risk":1,"updated_at":"2026-07-19T12:01:44.885082+05:30"},{"city":"Kohima","state":"Nagaland","latitude":25.6701,"longitude":94.1077,"temp":21.0,"humidity":95,"rain":0.1,"pressure":854.4,"uv_index":1.9,"wind_gusts":18.0,"aqi":38,"pm10":2.7,"pm2_5":2.3,"no2":2.0,"co":157.0,"o3":58.0,"so2":0.7,"mosquito_risk":6,"arthritis_risk":5,"migraine_risk":3,"frizz_risk":1,"updated_at":"2026-07-19T12:01:44.885089+05:30"},{"city":"Gangtok","state":"Sikkim","latitude":27.3314,"longitude":88.6138,"temp":20.1,"humidity":98,"rain":0.5,"pressure":837.8,"uv_index":3.65,"wind_gusts":27.7,"aqi":41,"pm10":1.1,"pm2_5":1.1,"no2":2.8,"co":242.0,"o3":84.0,"so2":0.4,"mosquito_risk":6,"arthritis_risk":5,"migraine_risk":3,"frizz_risk":1,"updated_at":"2026-07-19T12:01:44.885095+05:30"},{"city":"Siliguri","state":"West Bengal","latitude":26.7271,"longitude":88.3953,"temp":26.1,"humidity":97,"rain":0.5,"pressure":990.8,"uv_index":1.7,"wind_gusts":23.4,"aqi":55,"pm10":8.5,"pm2_5":8.2,"no2":6.6,"co":333.0,"o3":63.0,"so2":1.2,"mosquito_risk":10,"arthritis_risk":5,"migraine_risk":3,"frizz_risk":1,"updated_at":"2026-07-19T12:01:48.467933+05:30"},{"city":"Durgapur","state":"West Bengal","latitude":23.5204,"longitude":87.3119,"temp":32.0,"humidity":71,"rain":0.0,"pressure":990.6,"uv_index":7.3,"wind_gusts":31.0,"aqi":106,"pm10":36.2,"pm2_5":33.8,"no2":12.4,"co":611.0,"o3":136.0,"so2":38.5,"mosquito_risk":3,"arthritis_risk":5,"migraine_risk":7,"frizz_risk":1,"updated_at":"2026-07-19T12:01:48.467972+05:30"},{"city":"Asansol","state":"West Bengal","latitude":23.6739,"longitude":86.9524,"temp":30.1,"humidity":78,"rain":0.1,"pressure":989.2,"uv_index":6.9,"wind_gusts":28.4,"aqi":116,"pm10":38.5,"pm2_5":36.1,"no2":12.1,"co":349.0,"o3":134.0,"so2":38.3,"mosquito_risk":6,"arthritis_risk":5,"migraine_risk":7,"frizz_risk":1,"updated_at":"2026-07-19T12:01:48.467985+05:30"},{"city":"Pondicherry","state":"Puducherry","latitude":11.9139,"longitude":79.8145,"temp":33.9,"humidity":49,"rain":0.0,"pressure":1007.6,"uv_index":7.7,"wind_gusts":52.6,"aqi":75,"pm10":34.1,"pm2_5":22.1,"no2":9.9,"co":185.0,"o3":77.0,"so2":17.5,"mosquito_risk":0,"arthritis_risk":5,"migraine_risk":4,"frizz_risk":1,"updated_at":"2026-07-19T12:01:48.467994+05:30"},{"city":"Port Blair","state":"Andaman and Nicobar Islands","latitude":11.6234,"longitude":92.7265,"temp":31.2,"humidity":62,"rain":0.0,"pressure":1007.6,"uv_index":8.75,"wind_gusts":41.4,"aqi":52,"pm10":24.9,"pm2_5":12.8,"no2":0.1,"co":95.0,"o3":53.0,"so2":0.5,"mosquito_risk":3,"arthritis_risk":5,"migraine_risk":4,"frizz_risk":1,"updated_at":"2026-07-19T12:01:48.468003+05:30"},{"city":"Haridwar","state":"Uttarakhand","latitude":29.9457,"longitude":78.1642,"temp":29.8,"humidity":82,"rain":0.1,"pressure":970.0,"uv_index":7.1,"wind_gusts":28.8,"aqi":165,"pm10":176.5,"pm2_5":66.6,"no2":3.2,"co":252.0,"o3":139.0,"so2":16.6,"mosquito_risk":10,"arthritis_risk":5,"migraine_risk":7,"frizz_risk":1,"updated_at":"2026-07-19T12:01:48.468012+05:30"},{"city":"Rishikesh","state":"Uttarakhand","latitude":30.0869,"longitude":78.2676,"temp":28.6,"humidity":88,"rain":0.0,"pressure":963.0,"uv_index":6.55,"wind_gusts":24.8,"aqi":157,"pm10":252.4,"pm2_5":74.3,"no2":2.4,"co":249.0,"o3":132.0,"so2":16.1,"mosquito_risk":7,"arthritis_risk":5,"migraine_risk":7,"frizz_risk":1,"updated_at":"2026-07-19T12:01:48.468020+05:30"},{"city":"Nainital","state":"Uttarakhand","latitude":29.3919,"longitude":79.4542,"temp":18.8,"humidity":94,"rain":0.3,"pressure":804.6,"uv_index":3.65,"wind_gusts":25.6,"aqi":106,"pm10":68.5,"pm2_5":22.9,"no2":7.0,"co":218.0,"o3":92.0,"so2":7.3,"mosquito_risk":6,"arthritis_risk":10,"migraine_risk":3,"frizz_risk":1,"updated_at":"2026-07-19T12:01:48.468029+05:30"},{"city":"Mussoorie","state":"Uttarakhand","latitude":30.4599,"longitude":78.0664,"temp":19.8,"humidity":93,"rain":0.2,"pressure":802.2,"uv_index":4.65,"wind_gusts":30.2,"aqi":144,"pm10":246.8,"pm2_5":74.0,"no2":3.0,"co":215.0,"o3":126.0,"so2":11.8,"mosquito_risk":6,"arthritis_risk":10,"migraine_risk":3,"frizz_risk":1,"updated_at":"2026-07-19T12:01:48.468037+05:30"},{"city":"Dharamshala","state":"Himachal Pradesh","latitude":32.219,"longitude":76.3234,"temp":23.0,"humidity":92,"rain":0.0,"pressure":866.6,"uv_index":8.25,"wind_gusts":23.4,"aqi":53,"pm10":37.7,"pm2_5":15.7,"no2":0.9,"co":244.0,"o3":121.0,"so2":2.4,"mosquito_risk":3,"arthritis_risk":5,"migraine_risk":7,"frizz_risk":1,"updated_at":"2026-07-19T12:01:48.468045+05:30"},{"city":"Dalhousie","state":"Himachal Pradesh","latitude":32.5387,"longitude":75.971,"temp":20.7,"humidity":90,"rain":0.0,"pressure":803.9,"uv_index":6.7,"wind_gusts":24.1,"aqi":93,"pm10":94.3,"pm2_5":36.7,"no2":2.0,"co":245.0,"o3":128.0,"so2":4.0,"mosquito_risk":3,"arthritis_risk":5,"migraine_risk":7,"frizz_risk":1,"updated_at":"2026-07-19T12:01:48.468053+05:30"},{"city":"Patiala","state":"Punjab","latitude":30.3398,"longitude":76.3869,"temp":33.2,"humidity":70,"rain":0.0,"pressure":973.1,"uv_index":6.45,"wind_gusts":24.5,"aqi":287,"pm10":354.8,"pm2_5":113.6,"no2":5.0,"co":381.0,"o3":159.0,"so2":9.3,"mosquito_risk":3,"arthritis_risk":5,"migraine_risk":7,"frizz_risk":1,"updated_at":"2026-07-19T12:01:48.468061+05:30"},{"city":"Bhatinda","state":"Punjab","latitude":30.211,"longitude":74.9455,"temp":38.2,"humidity":38,"rain":0.0,"pressure":978.0,"uv_index":7.1,"wind_gusts":27.4,"aqi":181,"pm10":377.2,"pm2_5":103.6,"no2":2.9,"co":142.0,"o3":124.0,"so2":6.9,"mosquito_risk":0,"arthritis_risk":5,"migraine_risk":10,"frizz_risk":1,"updated_at":"2026-07-19T12:01:48.468069+05:30"},{"city":"Rohtak","state":"Haryana","latitude":28.8955,"longitude":76.6066,"temp":35.8,"humidity":47,"rain":0.0,"pressure":976.8,"uv_index":6.5,"wind_gusts":24.5,"aqi":722,"pm10":860.5,"pm2_5":121.1,"no2":2.6,"co":163.0,"o3":112.0,"so2":4.0,"mosquito_risk":0,"arthritis_risk":5,"migraine_risk":10,"frizz_risk":1,"updated_at":"2026-07-19T12:01:48.468077+05:30"},{"city":"Panipat","state":"Haryana","latitude":29.3909,"longitude":76.9635,"temp":34.8,"humidity":52,"rain":0.0,"pressure":975.4,"uv_index":6.8,"wind_gusts":26.6,"aqi":1075,"pm10":769.3,"pm2_5":123.9,"no2":4.9,"co":189.0,"o3":113.0,"so2":13.5,"mosquito_risk":0,"arthritis_risk":5,"migraine_risk":7,"frizz_risk":1,"updated_at":"2026-07-19T12:01:48.468083+05:30"},{"city":"Mathura","state":"Uttar Pradesh","latitude":27.4924,"longitude":77.6737,"temp":34.9,"humidity":52,"rain":0.0,"pressure":982.5,"uv_index":6.05,"wind_gusts":29.5,"aqi":412,"pm10":136.4,"pm2_5":52.7,"no2":19.5,"co":190.0,"o3":65.0,"so2":6.3,"mosquito_risk":0,"arthritis_risk":5,"migraine_risk":7,"frizz_risk":1,"updated_at":"2026-07-19T12:01:48.468091+05:30"},{"city":"Vrindavan","state":"Uttar Pradesh","latitude":27.5823,"longitude":77.7027,"temp":34.6,"humidity":53,"rain":0.0,"pressure":983.0,"uv_index":6.45,"wind_gusts":29.5,"aqi":412,"pm10":136.4,"pm2_5":52.7,"no2":19.5,"co":202.0,"o3":65.0,"so2":6.3,"mosquito_risk":0,"arthritis_risk":5,"migraine_risk":7,"frizz_risk":1,"updated_at":"2026-07-19T12:01:48.468098+05:30"},{"city":"Ayodhya","state":"Uttar Pradesh","latitude":26.7922,"longitude":82.1998,"temp":28.3,"humidity":90,"rain":0.3,"pressure":991.6,"uv_index":7.4,"wind_gusts":16.9,"aqi":81,"pm10":14.8,"pm2_5":14.8,"no2":7.3,"co":362.0,"o3":97.0,"so2":5.6,"mosquito_risk":10,"arthritis_risk":5,"migraine_risk":7,"frizz_risk":1,"updated_at":"2026-07-19T12:01:48.468105+05:30"},{"city":"Ratlam","state":"Madhya Pradesh","latitude":23.3315,"longitude":75.0367,"temp":30.2,"humidity":67,"rain":0.0,"pressure":952.0,"uv_index":7.3,"wind_gusts":33.1,"aqi":66,"pm10":25.8,"pm2_5":14.9,"no2":1.4,"co":121.0,"o3":88.0,"so2":6.0,"mosquito_risk":3,"arthritis_risk":5,"migraine_risk":7,"frizz_risk":1,"updated_at":"2026-07-19T12:01:48.468113+05:30"},{"city":"Sagar","state":"Madhya Pradesh","latitude":23.8388,"longitude":78.7378,"temp":30.4,"humidity":69,"rain":0.0,"pressure":947.6,"uv_index":7.95,"wind_gusts":32.8,"aqi":82,"pm10":40.7,"pm2_5":23.9,"no2":2.1,"co":180.0,"o3":102.0,"so2":4.8,"mosquito_risk":3,"arthritis_risk":5,"migraine_risk":7,"frizz_risk":1,"updated_at":"2026-07-19T12:01:48.468119+05:30"},{"city":"Satna","state":"Madhya Pradesh","latitude":24.6005,"longitude":80.8322,"temp":31.1,"humidity":70,"rain":0.0,"pressure":968.0,"uv_index":6.85,"wind_gusts":28.1,"aqi":100,"pm10":71.0,"pm2_5":32.7,"no2":2.0,"co":146.0,"o3":106.0,"so2":5.1,"mosquito_risk":3,"arthritis_risk":5,"migraine_risk":7,"frizz_risk":1,"updated_at":"2026-07-19T12:01:48.468126+05:30"},{"city":"Akola","state":"Maharashtra","latitude":20.7002,"longitude":77.0082,"temp":31.6,"humidity":58,"rain":0.1,"pressure":973.3,"uv_index":6.55,"wind_gusts":40.0,"aqi":56,"pm10":17.6,"pm2_5":9.2,"no2":2.3,"co":114.0,"o3":69.0,"so2":7.1,"mosquito_risk":3,"arthritis_risk":5,"migraine_risk":7,"frizz_risk":1,"updated_at":"2026-07-19T12:01:48.468134+05:30"},{"city":"Amravati","state":"Maharashtra","latitude":20.9374,"longitude":77.7796,"temp":30.7,"humidity":63,"rain":0.0,"pressure":965.3,"uv_index":7.25,"wind_gusts":37.8,"aqi":57,"pm10":14.8,"pm2_5":8.3,"no2":3.1,"co":121.0,"o3":65.0,"so2":8.4,"mosquito_risk":3,"arthritis_risk":5,"migraine_risk":7,"frizz_risk":1,"updated_at":"2026-07-19T12:01:48.468142+05:30"},{"city":"Latur","state":"Maharashtra","latitude":18.4088,"longitude":76.5604,"temp":29.8,"humidity":59,"rain":0.0,"pressure":938.9,"uv_index":7.9,"wind_gusts":41.0,"aqi":40,"pm10":9.3,"pm2_5":4.7,"no2":1.1,"co":111.0,"o3":62.0,"so2":2.1,"mosquito_risk":4,"arthritis_risk":5,"migraine_risk":7,"frizz_risk":1,"updated_at":"2026-07-19T12:01:48.468150+05:30"},{"city":"Nanded","state":"Maharashtra","latitude":19.1383,"longitude":77.3091,"temp":31.3,"humidity":59,"rain":0.0,"pressure":967.2,"uv_index":7.85,"wind_gusts":38.9,"aqi":55,"pm10":17.3,"pm2_5":8.6,"no2":1.3,"co":124.0,"o3":73.0,"so2":3.5,"mosquito_risk":0,"arthritis_risk":5,"migraine_risk":7,"frizz_risk":1,"updated_at":"2026-07-19T12:01:48.468157+05:30"},{"city":"Gulbarga","state":"Karnataka","latitude":17.3297,"longitude":76.8343,"temp":29.6,"humidity":63,"rain":0.0,"pressure":958.2,"uv_index":8.15,"wind_gusts":57.2,"aqi":33,"pm10":5.0,"pm2_5":3.1,"no2":1.2,"co":112.0,"o3":69.0,"so2":2.2,"mosquito_risk":7,"arthritis_risk":5,"migraine_risk":7,"frizz_risk":1,"updated_at":"2026-07-19T12:01:48.468163+05:30"},{"city":"Bidar","state":"Karnataka","latitude":17.9104,"longitude":77.5199,"temp":29.6,"humidity":59,"rain":0.0,"pressure":934.8,"uv_index":3.8,"wind_gusts":38.5,"aqi":46,"pm10":12.5,"pm2_5":6.9,"no2":1.6,"co":121.0,"o3":68.0,"so2":2.5,"mosquito_risk":4,"arthritis_risk":5,"migraine_risk":3,"frizz_risk":1,"updated_at":"2026-07-19T12:01:48.468170+05:30"},{"city":"Hospet","state":"Karnataka","latitude":15.2689,"longitude":76.3909,"temp":30.4,"humidity":54,"rain":0.0,"pressure":956.2,"uv_index":7.25,"wind_gusts":54.4,"aqi":31,"pm10":17.0,"pm2_5":7.5,"no2":2.1,"co":107.0,"o3":52.0,"so2":2.2,"mosquito_risk":0,"arthritis_risk":5,"migraine_risk":7,"frizz_risk":1,"updated_at":"2026-07-19T12:01:48.468177+05:30"},{"city":"Tirupur","state":"Tamil Nadu","latitude":11.1085,"longitude":77.3411,"temp":33.2,"humidity":42,"rain":0.0,"pressure":975.7,"uv_index":8.1,"wind_gusts":50.0,"aqi":58,"pm10":23.4,"pm2_5":12.4,"no2":2.1,"co":128.0,"o3":82.0,"so2":3.4,"mosquito_risk":0,"arthritis_risk":5,"migraine_risk":7,"frizz_risk":1,"updated_at":"2026-07-19T12:01:48.468184+05:30"},{"city":"Alappuzha","state":"Kerala","latitude":9.4981,"longitude":76.3388,"temp":28.5,"humidity":78,"rain":0.0,"pressure":1010.9,"uv_index":8.15,"wind_gusts":42.8,"aqi":53,"pm10":16.5,"pm2_5":9.7,"no2":2.1,"co":88.0,"o3":69.0,"so2":3.5,"mosquito_risk":7,"arthritis_risk":0,"migraine_risk":4,"frizz_risk":1,"updated_at":"2026-07-19T12:01:48.468191+05:30"},{"city":"Munnar","state":"Kerala","latitude":10.0889,"longitude":77.0595,"temp":21.5,"humidity":72,"rain":0.1,"pressure":859.2,"uv_index":7.25,"wind_gusts":35.6,"aqi":33,"pm10":12.0,"pm2_5":5.3,"no2":0.7,"co":92.0,"o3":57.0,"so2":1.1,"mosquito_risk":6,"arthritis_risk":5,"migraine_risk":7,"frizz_risk":1,"updated_at":"2026-07-19T12:01:48.468198+05:30"},{"city":"Silchar","state":"Assam","latitude":24.8333,"longitude":92.7789,"temp":27.3,"humidity":90,"rain":0.3,"pressure":1003.2,"uv_index":2.3,"wind_gusts":29.9,"aqi":62,"pm10":16.5,"pm2_5":12.5,"no2":3.9,"co":169.0,"o3":68.0,"so2":3.3,"mosquito_risk":10,"arthritis_risk":5,"migraine_risk":0,"frizz_risk":1,"updated_at":"2026-07-19T12:01:48.468205+05:30"},{"city":"Dibrugarh","state":"Assam","latitude":27.4728,"longitude":94.912,"temp":28.6,"humidity":84,"rain":0.1,"pressure":991.6,"uv_index":1.6,"wind_gusts":34.2,"aqi":57,"pm10":12.4,"pm2_5":11.4,"no2":3.6,"co":170.0,"o3":76.0,"so2":1.5,"mosquito_risk":10,"arthritis_risk":5,"migraine_risk":3,"frizz_risk":1,"updated_at":"2026-07-19T12:01:48.468212+05:30"}]