[{"city":"Delhi","state":"Delhi","latitude":28.6139,"longitude":77.209,"temp":36.7,"humidity":50,"rain":0.0,"pressure":971.7,"uv_index":6.95,"wind_gusts":26.3,"aqi":185,"pm10":56.0,"pm2_5":36.4,"no2":7.2,"co":406.0,"o3":226.0,"so2":22.3,"mosquito_risk":0,"arthritis_risk":5,"migraine_risk":10,"frizz_risk":1,"updated_at":"2026-07-05T16:35:24.902636+05:30"},{"city":"Mumbai","state":"Maharashtra","latitude":19.076,"longitude":72.8777,"temp":26.7,"humidity":89,"rain":0.5,"pressure":998.4,"uv_index":1.05,"wind_gusts":69.8,"aqi":27,"pm10":16.6,"pm2_5":8.6,"no2":5.0,"co":139.0,"o3":55.0,"so2":3.0,"mosquito_risk":10,"arthritis_risk":5,"migraine_risk":3,"frizz_risk":1,"updated_at":"2026-07-05T16:35:24.902685+05:30"},{"city":"Bangalore","state":"Karnataka","latitude":12.9716,"longitude":77.5946,"temp":28.0,"humidity":44,"rain":0.0,"pressure":908.8,"uv_index":7.8,"wind_gusts":78.1,"aqi":28,"pm10":18.5,"pm2_5":10.0,"no2":3.9,"co":200.0,"o3":68.0,"so2":2.2,"mosquito_risk":4,"arthritis_risk":5,"migraine_risk":7,"frizz_risk":0,"updated_at":"2026-07-05T16:35:24.902703+05:30"},{"city":"Hyderabad","state":"Telangana","latitude":17.385,"longitude":78.4867,"temp":27.2,"humidity":71,"rain":0.0,"pressure":946.3,"uv_index":3.55,"wind_gusts":62.3,"aqi":27,"pm10":8.1,"pm2_5":5.4,"no2":4.2,"co":179.0,"o3":60.0,"so2":2.3,"mosquito_risk":7,"arthritis_risk":5,"migraine_risk":3,"frizz_risk":1,"updated_at":"2026-07-05T16:35:24.902713+05:30"},{"city":"Chennai","state":"Tamil Nadu","latitude":13.0827,"longitude":80.2707,"temp":36.2,"humidity":42,"rain":0.0,"pressure":1000.3,"uv_index":8.85,"wind_gusts":56.9,"aqi":51,"pm10":26.3,"pm2_5":16.7,"no2":3.9,"co":181.0,"o3":98.0,"so2":5.0,"mosquito_risk":0,"arthritis_risk":5,"migraine_risk":7,"frizz_risk":1,"updated_at":"2026-07-05T16:35:24.902723+05:30"},{"city":"Kolkata","state":"West Bengal","latitude":22.5726,"longitude":88.3639,"temp":28.1,"humidity":89,"rain":0.2,"pressure":991.4,"uv_index":2.9,"wind_gusts":40.0,"aqi":44,"pm10":14.3,"pm2_5":12.8,"no2":8.0,"co":350.0,"o3":78.0,"so2":5.8,"mosquito_risk":10,"arthritis_risk":5,"migraine_risk":3,"frizz_risk":1,"updated_at":"2026-07-05T16:35:24.902733+05:30"},{"city":"Pune","state":"Maharashtra","latitude":18.5204,"longitude":73.8567,"temp":23.8,"humidity":92,"rain":0.2,"pressure":938.5,"uv_index":0.35,"wind_gusts":63.4,"aqi":22,"pm10":1.8,"pm2_5":1.7,"no2":6.0,"co":137.0,"o3":43.0,"so2":3.0,"mosquito_risk":6,"arthritis_risk":5,"migraine_risk":3,"frizz_risk":1,"updated_at":"2026-07-05T16:35:24.902740+05:30"},{"city":"Ahmedabad","state":"Gujarat","latitude":23.0225,"longitude":72.5714,"temp":32.1,"humidity":72,"rain":0.0,"pressure":989.6,"uv_index":5.65,"wind_gusts":23.8,"aqi":74,"pm10":80.8,"pm2_5":33.2,"no2":2.0,"co":228.0,"o3":126.0,"so2":6.5,"mosquito_risk":3,"arthritis_risk":5,"migraine_risk":3,"frizz_risk":1,"updated_at":"2026-07-05T16:35:24.902747+05:30"},{"city":"Jaipur","state":"Rajasthan","latitude":26.9124,"longitude":75.7873,"temp":34.8,"humidity":52,"rain":0.0,"pressure":949.2,"uv_index":8.05,"wind_gusts":20.5,"aqi":109,"pm10":37.7,"pm2_5":13.9,"no2":0.7,"co":246.0,"o3":157.0,"so2":3.6,"mosquito_risk":0,"arthritis_risk":5,"migraine_risk":7,"frizz_risk":1,"updated_at":"2026-07-05T16:35:24.902754+05:30"},{"city":"Lucknow","state":"Uttar Pradesh","latitude":26.8467,"longitude":80.9462,"temp":35.5,"humidity":54,"rain":0.0,"pressure":981.9,"uv_index":8.2,"wind_gusts":25.2,"aqi":136,"pm10":22.5,"pm2_5":22.2,"no2":2.5,"co":277.0,"o3":160.0,"so2":4.2,"mosquito_risk":0,"arthritis_risk":5,"migraine_risk":10,"frizz_risk":1,"updated_at":"2026-07-05T16:35:24.902770+05:30"},{"city":"Kanpur","state":"Uttar Pradesh","latitude":26.4499,"longitude":80.3319,"temp":36.6,"humidity":51,"rain":0.0,"pressure":979.8,"uv_index":7.65,"wind_gusts":22.0,"aqi":131,"pm10":18.7,"pm2_5":18.4,"no2":2.5,"co":243.0,"o3":160.0,"so2":4.8,"mosquito_risk":0,"arthritis_risk":5,"migraine_risk":10,"frizz_risk":1,"updated_at":"2026-07-05T16:35:24.902777+05:30"},{"city":"Chandigarh","state":"Chandigarh","latitude":30.7333,"longitude":76.7794,"temp":34.2,"humidity":57,"rain":0.0,"pressure":958.8,"uv_index":7.1,"wind_gusts":26.3,"aqi":181,"pm10":65.2,"pm2_5":57.4,"no2":1.7,"co":443.0,"o3":201.0,"so2":15.5,"mosquito_risk":0,"arthritis_risk":5,"migraine_risk":7,"frizz_risk":1,"updated_at":"2026-07-05T16:35:24.902783+05:30"},{"city":"Srinagar","state":"Jammu and Kashmir","latitude":34.0837,"longitude":74.7973,"temp":32.2,"humidity":32,"rain":0.0,"pressure":837.6,"uv_index":9.05,"wind_gusts":25.2,"aqi":135,"pm10":21.9,"pm2_5":15.1,"no2":3.2,"co":222.0,"o3":141.0,"so2":2.5,"mosquito_risk":0,"arthritis_risk":5,"migraine_risk":7,"frizz_risk":0,"updated_at":"2026-07-05T16:35:24.902790+05:30"},{"city":"Jammu","state":"Jammu and Kashmir","latitude":32.7266,"longitude":74.857,"temp":36.4,"humidity":46,"rain":0.0,"pressure":962.4,"uv_index":8.35,"wind_gusts":36.0,"aqi":168,"pm10":86.1,"pm2_5":63.6,"no2":1.2,"co":345.0,"o3":189.0,"so2":8.3,"mosquito_risk":0,"arthritis_risk":5,"migraine_risk":10,"frizz_risk":1,"updated_at":"2026-07-05T16:35:24.902797+05:30"},{"city":"Amritsar","state":"Punjab","latitude":31.634,"longitude":74.8723,"temp":36.9,"humidity":47,"rain":0.0,"pressure":970.0,"uv_index":8.45,"wind_gusts":54.7,"aqi":159,"pm10":96.4,"pm2_5":72.2,"no2":1.7,"co":366.0,"o3":196.0,"so2":11.6,"mosquito_risk":0,"arthritis_risk":5,"migraine_risk":10,"frizz_risk":1,"updated_at":"2026-07-05T16:35:24.902803+05:30"},{"city":"Ludhiana","state":"Punjab","latitude":30.901,"longitude":75.8573,"temp":34.9,"humidity":60,"rain":0.0,"pressure":968.0,"uv_index":7.9,"wind_gusts":31.7,"aqi":175,"pm10":99.0,"pm2_5":72.2,"no2":1.9,"co":445.0,"o3":196.0,"so2":9.0,"mosquito_risk":0,"arthritis_risk":5,"migraine_risk":7,"frizz_risk":1,"updated_at":"2026-07-05T16:35:24.902809+05:30"},{"city":"Jalandhar","state":"Punjab","latitude":31.326,"longitude":75.5762,"temp":35.2,"humidity":55,"rain":0.0,"pressure":969.0,"uv_index":7.45,"wind_gusts":24.5,"aqi":174,"pm10":91.7,"pm2_5":73.6,"no2":1.4,"co":365.0,"o3":195.0,"so2":7.6,"mosquito_risk":0,"arthritis_risk":5,"migraine_risk":10,"frizz_risk":1,"updated_at":"2026-07-05T16:35:24.902815+05:30"},{"city":"Dehradun","state":"Uttarakhand","latitude":30.6284,"longitude":78.0322,"temp":24.1,"humidity":77,"rain":0.0,"pressure":826.6,"uv_index":6.8,"wind_gusts":29.9,"aqi":98,"pm10":23.5,"pm2_5":23.2,"no2":1.3,"co":280.0,"o3":140.0,"so2":3.3,"mosquito_risk":3,"arthritis_risk":5,"migraine_risk":7,"frizz_risk":1,"updated_at":"2026-07-05T16:35:24.902822+05:30"},{"city":"Shimla","state":"Himachal Pradesh","latitude":31.1048,"longitude":77.1734,"temp":19.0,"humidity":92,"rain":0.1,"pressure":780.6,"uv_index":6.9,"wind_gusts":33.1,"aqi":116,"pm10":36.8,"pm2_5":34.7,"no2":4.1,"co":305.0,"o3":154.0,"so2":9.6,"mosquito_risk":6,"arthritis_risk":10,"migraine_risk":7,"frizz_risk":1,"updated_at":"2026-07-05T16:35:24.902828+05:30"},{"city":"Manali","state":"Himachal Pradesh","latitude":32.2396,"longitude":77.1887,"temp":23.9,"humidity":86,"rain":0.1,"pressure":815.5,"uv_index":9.6,"wind_gusts":33.8,"aqi":82,"pm10":12.3,"pm2_5":12.2,"no2":11.6,"co":194.0,"o3":144.0,"so2":0.9,"mosquito_risk":6,"arthritis_risk":5,"migraine_risk":7,"frizz_risk":1,"updated_at":"2026-07-05T16:35:24.902837+05:30"},{"city":"Gurgaon","state":"Haryana","latitude":28.4595,"longitude":77.0266,"temp":36.7,"humidity":48,"rain":0.0,"pressure":970.2,"uv_index":5.65,"wind_gusts":28.1,"aqi":154,"pm10":124.8,"pm2_5":37.5,"no2":4.3,"co":355.0,"o3":179.0,"so2":13.5,"mosquito_risk":0,"arthritis_risk":5,"migraine_risk":6,"frizz_risk":1,"updated_at":"2026-07-05T16:35:24.902845+05:30"},{"city":"Noida","state":"Uttar Pradesh","latitude":28.5355,"longitude":77.391,"temp":36.5,"humidity":53,"rain":0.0,"pressure":973.0,"uv_index":6.2,"wind_gusts":23.8,"aqi":154,"pm10":124.8,"pm2_5":37.5,"no2":4.3,"co":337.0,"o3":179.0,"so2":13.5,"mosquito_risk":0,"arthritis_risk":5,"migraine_risk":10,"frizz_risk":1,"updated_at":"2026-07-05T16:35:24.902851+05:30"},{"city":"Ghaziabad","state":"Uttar Pradesh","latitude":28.6692,"longitude":77.4538,"temp":35.9,"humidity":56,"rain":0.0,"pressure":971.6,"uv_index":6.7,"wind_gusts":23.8,"aqi":141,"pm10":29.3,"pm2_5":26.0,"no2":3.3,"co":308.0,"o3":173.0,"so2":11.9,"mosquito_risk":0,"arthritis_risk":5,"migraine_risk":10,"frizz_risk":1,"updated_at":"2026-07-05T16:35:24.902858+05:30"},{"city":"Faridabad","state":"Haryana","latitude":28.4089,"longitude":77.3178,"temp":37.4,"humidity":46,"rain":0.0,"pressure":972.3,"uv_index":5.9,"wind_gusts":25.9,"aqi":154,"pm10":124.8,"pm2_5":37.5,"no2":4.3,"co":330.0,"o3":179.0,"so2":13.5,"mosquito_risk":0,"arthritis_risk":5,"migraine_risk":6,"frizz_risk":1,"updated_at":"2026-07-05T16:35:24.902865+05:30"},{"city":"Meerut","state":"Uttar Pradesh","latitude":28.9845,"longitude":77.7064,"temp":34.6,"humidity":61,"rain":0.0,"pressure":970.8,"uv_index":7.6,"wind_gusts":26.3,"aqi":141,"pm10":29.3,"pm2_5":26.0,"no2":3.3,"co":318.0,"o3":173.0,"so2":11.9,"mosquito_risk":3,"arthritis_risk":5,"migraine_risk":7,"frizz_risk":1,"updated_at":"2026-07-05T16:35:24.902871+05:30"},{"city":"Agra","state":"Uttar Pradesh","latitude":27.1767,"longitude":78.0081,"temp":36.3,"humidity":51,"rain":0.0,"pressure":976.0,"uv_index":7.95,"wind_gusts":32.0,"aqi":112,"pm10":93.4,"pm2_5":32.1,"no2":2.1,"co":286.0,"o3":167.0,"so2":6.1,"mosquito_risk":0,"arthritis_risk":5,"migraine_risk":10,"frizz_risk":1,"updated_at":"2026-07-05T16:35:24.902877+05:30"},{"city":"Varanasi","state":"Uttar Pradesh","latitude":25.3176,"longitude":82.9739,"temp":34.4,"humidity":56,"rain":0.0,"pressure":985.2,"uv_index":7.75,"wind_gusts":41.8,"aqi":98,"pm10":25.4,"pm2_5":24.9,"no2":7.0,"co":248.0,"o3":105.0,"so2":5.0,"mosquito_risk":0,"arthritis_risk":5,"migraine_risk":7,"frizz_risk":1,"updated_at":"2026-07-05T16:35:24.902886+05:30"},{"city":"Prayagraj","state":"Uttar Pradesh","latitude":25.4358,"longitude":81.8463,"temp":34.6,"humidity":59,"rain":0.1,"pressure":983.5,"uv_index":8.6,"wind_gusts":31.7,"aqi":127,"pm10":21.5,"pm2_5":21.0,"no2":3.2,"co":246.0,"o3":143.0,"so2":3.9,"mosquito_risk":3,"arthritis_risk":5,"migraine_risk":7,"frizz_risk":1,"updated_at":"2026-07-05T16:35:24.902892+05:30"},{"city":"Gorakhpur","state":"Uttar Pradesh","latitude":26.7606,"longitude":83.3732,"temp":32.3,"humidity":73,"rain":0.0,"pressure":986.2,"uv_index":8.55,"wind_gusts":42.5,"aqi":120,"pm10":20.5,"pm2_5":20.3,"no2":3.6,"co":244.0,"o3":137.0,"so2":3.5,"mosquito_risk":3,"arthritis_risk":5,"migraine_risk":7,"frizz_risk":1,"updated_at":"2026-07-05T16:35:24.902899+05:30"},{"city":"Bareilly","state":"Uttar Pradesh","latitude":28.367,"longitude":79.4304,"temp":35.4,"humidity":55,"rain":0.0,"pressure":976.0,"uv_index":6.15,"wind_gusts":22.3,"aqi":100,"pm10":24.1,"pm2_5":22.8,"no2":2.7,"co":281.0,"o3":155.0,"so2":10.3,"mosquito_risk":0,"arthritis_risk":5,"migraine_risk":10,"frizz_risk":1,"updated_at":"2026-07-05T16:35:24.902910+05:30"},{"city":"Aligarh","state":"Uttar Pradesh","latitude":27.8974,"longitude":78.088,"temp":35.5,"humidity":54,"rain":0.0,"pressure":974.4,"uv_index":6.8,"wind_gusts":25.9,"aqi":134,"pm10":67.3,"pm2_5":27.9,"no2":3.0,"co":284.0,"o3":168.0,"so2":11.5,"mosquito_risk":0,"arthritis_risk":5,"migraine_risk":10,"frizz_risk":1,"updated_at":"2026-07-05T16:35:24.902916+05:30"},{"city":"Moradabad","state":"Uttar Pradesh","latitude":28.8386,"longitude":78.7733,"temp":35.6,"humidity":56,"rain":0.0,"pressure":973.0,"uv_index":7.0,"wind_gusts":29.2,"aqi":114,"pm10":24.3,"pm2_5":24.0,"no2":3.1,"co":273.0,"o3":168.0,"so2":11.7,"mosquito_risk":0,"arthritis_risk":5,"migraine_risk":10,"frizz_risk":1,"updated_at":"2026-07-05T16:35:24.902922+05:30"},{"city":"Saharanpur","state":"Uttar Pradesh","latitude":29.9637,"longitude":77.546,"temp":34.3,"humidity":60,"rain":0.0,"pressure":965.4,"uv_index":6.8,"wind_gusts":24.5,"aqi":155,"pm10":45.1,"pm2_5":43.4,"no2":3.1,"co":343.0,"o3":175.0,"so2":11.9,"mosquito_risk":0,"arthritis_risk":5,"migraine_risk":7,"frizz_risk":1,"updated_at":"2026-07-05T16:35:24.902929+05:30"},{"city":"Jhansi","state":"Uttar Pradesh","latitude":25.4484,"longitude":78.5685,"temp":36.4,"humidity":48,"rain":0.0,"pressure":966.1,"uv_index":7.35,"wind_gusts":27.4,"aqi":98,"pm10":21.4,"pm2_5":20.5,"no2":2.8,"co":201.0,"o3":143.0,"so2":7.5,"mosquito_risk":0,"arthritis_risk":5,"migraine_risk":10,"frizz_risk":1,"updated_at":"2026-07-05T16:35:28.175671+05:30"},{"city":"Surat","state":"Gujarat","latitude":21.1702,"longitude":72.8311,"temp":30.1,"humidity":78,"rain":0.0,"pressure":994.2,"uv_index":5.3,"wind_gusts":26.6,"aqi":76,"pm10":44.4,"pm2_5":34.0,"no2":28.0,"co":146.0,"o3":77.0,"so2":65.7,"mosquito_risk":3,"arthritis_risk":5,"migraine_risk":3,"frizz_risk":1,"updated_at":"2026-07-05T16:35:28.175708+05:30"},{"city":"Vadodara","state":"Gujarat","latitude":22.3072,"longitude":73.1812,"temp":32.7,"humidity":67,"rain":0.0,"pressure":991.5,"uv_index":6.4,"wind_gusts":22.7,"aqi":61,"pm10":50.5,"pm2_5":25.5,"no2":1.8,"co":231.0,"o3":131.0,"so2":5.1,"mosquito_risk":3,"arthritis_risk":5,"migraine_risk":7,"frizz_risk":1,"updated_at":"2026-07-05T16:35:28.175719+05:30"},{"city":"Rajkot","state":"Gujarat","latitude":22.3039,"longitude":70.8022,"temp":29.5,"humidity":74,"rain":0.0,"pressure":983.2,"uv_index":2.25,"wind_gusts":39.2,"aqi":71,"pm10":81.5,"pm2_5":28.8,"no2":2.5,"co":108.0,"o3":80.0,"so2":3.4,"mosquito_risk":7,"arthritis_risk":5,"migraine_risk":3,"frizz_risk":1,"updated_at":"2026-07-05T16:35:28.175728+05:30"},{"city":"Thane","state":"Maharashtra","latitude":19.2183,"longitude":72.9781,"temp":26.2,"humidity":95,"rain":0.5,"pressure":997.4,"uv_index":1.3,"wind_gusts":52.9,"aqi":27,"pm10":16.6,"pm2_5":8.6,"no2":5.0,"co":147.0,"o3":55.0,"so2":3.0,"mosquito_risk":10,"arthritis_risk":5,"migraine_risk":3,"frizz_risk":1,"updated_at":"2026-07-05T16:35:28.175737+05:30"},{"city":"Nagpur","state":"Maharashtra","latitude":21.1458,"longitude":79.0882,"temp":27.0,"humidity":91,"rain":0.3,"pressure":962.9,"uv_index":5.9,"wind_gusts":36.7,"aqi":48,"pm10":11.1,"pm2_5":10.5,"no2":9.4,"co":208.0,"o3":114.0,"so2":22.8,"mosquito_risk":10,"arthritis_risk":5,"migraine_risk":3,"frizz_risk":1,"updated_at":"2026-07-05T16:35:28.175745+05:30"},{"city":"Nashik","state":"Maharashtra","latitude":19.9975,"longitude":73.7898,"temp":24.7,"humidity":88,"rain":0.1,"pressure":934.6,"uv_index":5.95,"wind_gusts":45.4,"aqi":24,"pm10":1.6,"pm2_5":1.5,"no2":5.4,"co":128.0,"o3":51.0,"so2":2.9,"mosquito_risk":6,"arthritis_risk":5,"migraine_risk":3,"frizz_risk":1,"updated_at":"2026-07-05T16:35:28.175752+05:30"},{"city":"Aurangabad","state":"Maharashtra","latitude":19.8762,"longitude":75.3433,"temp":25.4,"humidity":91,"rain":0.3,"pressure":933.7,"uv_index":6.5,"wind_gusts":47.2,"aqi":30,"pm10":2.8,"pm2_5":2.7,"no2":4.0,"co":129.0,"o3":68.0,"so2":5.6,"mosquito_risk":10,"arthritis_risk":5,"migraine_risk":7,"frizz_risk":1,"updated_at":"2026-07-05T16:35:28.175760+05:30"},{"city":"Solapur","state":"Maharashtra","latitude":17.6599,"longitude":75.9064,"temp":26.5,"humidity":76,"rain":0.0,"pressure":950.2,"uv_index":2.85,"wind_gusts":78.5,"aqi":26,"pm10":2.0,"pm2_5":1.9,"no2":2.8,"co":100.0,"o3":53.0,"so2":1.2,"mosquito_risk":7,"arthritis_risk":5,"migraine_risk":3,"frizz_risk":1,"updated_at":"2026-07-05T16:35:28.175767+05:30"},{"city":"Kolhapur","state":"Maharashtra","latitude":16.705,"longitude":74.2433,"temp":22.6,"humidity":95,"rain":0.4,"pressure":941.8,"uv_index":3.0,"wind_gusts":67.3,"aqi":22,"pm10":3.0,"pm2_5":2.2,"no2":2.8,"co":119.0,"o3":49.0,"so2":0.9,"mosquito_risk":6,"arthritis_risk":5,"migraine_risk":3,"frizz_risk":1,"updated_at":"2026-07-05T16:35:28.175776+05:30"},{"city":"Goa","state":"Goa","latitude":15.2993,"longitude":74.124,"temp":24.9,"humidity":97,"rain":0.2,"pressure":994.9,"uv_index":7.15,"wind_gusts":36.7,"aqi":46,"pm10":25.9,"pm2_5":11.4,"no2":1.2,"co":131.0,"o3":57.0,"so2":0.6,"mosquito_risk":6,"arthritis_risk":5,"migraine_risk":7,"frizz_risk":1,"updated_at":"2026-07-05T16:35:28.175783+05:30"},{"city":"Jodhpur","state":"Rajasthan","latitude":26.2389,"longitude":73.0243,"temp":36.4,"humidity":48,"rain":0.0,"pressure":971.2,"uv_index":8.4,"wind_gusts":19.8,"aqi":124,"pm10":112.7,"pm2_5":37.7,"no2":0.3,"co":199.0,"o3":112.0,"so2":2.6,"mosquito_risk":0,"arthritis_risk":5,"migraine_risk":10,"frizz_risk":1,"updated_at":"2026-07-05T16:35:28.175790+05:30"},{"city":"Udaipur","state":"Rajasthan","latitude":24.5854,"longitude":73.7125,"temp":26.8,"humidity":88,"rain":0.0,"pressure":936.6,"uv_index":8.65,"wind_gusts":27.0,"aqi":75,"pm10":34.7,"pm2_5":18.4,"no2":2.3,"co":158.0,"o3":103.0,"so2":3.2,"mosquito_risk":7,"arthritis_risk":5,"migraine_risk":7,"frizz_risk":1,"updated_at":"2026-07-05T16:35:28.175797+05:30"},{"city":"Kota","state":"Rajasthan","latitude":25.2138,"longitude":75.8648,"temp":34.4,"humidity":60,"rain":0.0,"pressure":967.4,"uv_index":7.8,"wind_gusts":21.6,"aqi":87,"pm10":30.0,"pm2_5":23.4,"no2":1.9,"co":233.0,"o3":157.0,"so2":11.9,"mosquito_risk":0,"arthritis_risk":5,"migraine_risk":7,"frizz_risk":1,"updated_at":"2026-07-05T16:35:28.175804+05:30"},{"city":"Bikaner","state":"Rajasthan","latitude":28.0229,"longitude":73.3119,"temp":41.4,"humidity":30,"rain":0.0,"pressure":969.5,"uv_index":8.1,"wind_gusts":28.1,"aqi":131,"pm10":112.2,"pm2_5":44.5,"no2":0.4,"co":210.0,"o3":136.0,"so2":7.0,"mosquito_risk":0,"arthritis_risk":5,"migraine_risk":10,"frizz_risk":1,"updated_at":"2026-07-05T16:35:28.175812+05:30"},{"city":"Ajmer","state":"Rajasthan","latitude":26.4499,"longitude":74.6399,"temp":34.1,"humidity":56,"rain":0.1,"pressure":944.2,"uv_index":8.35,"wind_gusts":21.2,"aqi":95,"pm10":53.3,"pm2_5":22.6,"no2":0.2,"co":190.0,"o3":126.0,"so2":2.4,"mosquito_risk":3,"arthritis_risk":5,"migraine_risk":7,"frizz_risk":1,"updated_at":"2026-07-05T16:35:28.175819+05:30"},{"city":"Gwalior","state":"Madhya Pradesh","latitude":26.2183,"longitude":78.1828,"temp":35.4,"humidity":56,"rain":0.0,"pressure":971.4,"uv_index":7.3,"wind_gusts":30.2,"aqi":105,"pm10":25.1,"pm2_5":22.6,"no2":1.9,"co":218.0,"o3":153.0,"so2":4.0,"mosquito_risk":0,"arthritis_risk":5,"migraine_risk":10,"frizz_risk":1,"updated_at":"2026-07-05T16:35:28.175826+05:30"},{"city":"Indore","state":"Madhya Pradesh","latitude":22.7196,"longitude":75.8577,"temp":28.7,"humidity":78,"rain":0.0,"pressure":937.4,"uv_index":8.15,"wind_gusts":28.8,"aqi":61,"pm10":18.7,"pm2_5":17.1,"no2":1.5,"co":279.0,"o3":119.0,"so2":2.3,"mosquito_risk":7,"arthritis_risk":5,"migraine_risk":7,"frizz_risk":1,"updated_at":"2026-07-05T16:35:28.175833+05:30"},{"city":"Bhopal","state":"Madhya Pradesh","latitude":23.2599,"longitude":77.4126,"temp":31.8,"humidity":65,"rain":0.0,"pressure":942.8,"uv_index":8.5,"wind_gusts":27.4,"aqi":73,"pm10":21.4,"pm2_5":20.6,"no2":1.3,"co":318.0,"o3":123.0,"so2":3.3,"mosquito_risk":3,"arthritis_risk":5,"migraine_risk":7,"frizz_risk":1,"updated_at":"2026-07-05T16:35:28.175840+05:30"},{"city":"Jabalpur","state":"Madhya Pradesh","latitude":23.1815,"longitude":79.9864,"temp":29.1,"humidity":85,"rain":0.1,"pressure":950.9,"uv_index":7.6,"wind_gusts":39.6,"aqi":75,"pm10":16.2,"pm2_5":15.8,"no2":3.3,"co":192.0,"o3":105.0,"so2":2.8,"mosquito_risk":10,"arthritis_risk":5,"migraine_risk":7,"frizz_risk":1,"updated_at":"2026-07-05T16:35:28.175847+05:30"},{"city":"Ujjain","state":"Madhya Pradesh","latitude":23.1765,"longitude":75.7885,"temp":28.3,"humidity":84,"rain":0.1,"pressure":943.2,"uv_index":8.45,"wind_gusts":28.1,"aqi":57,"pm10":22.4,"pm2_5":19.7,"no2":1.2,"co":234.0,"o3":118.0,"so2":2.1,"mosquito_risk":10,"arthritis_risk":5,"migraine_risk":7,"frizz_risk":1,"updated_at":"2026-07-05T16:35:28.175854+05:30"},{"city":"Visakhapatnam","state":"Andhra Pradesh","latitude":17.6868,"longitude":83.2185,"temp":31.3,"humidity":64,"rain":0.0,"pressure":991.9,"uv_index":3.6,"wind_gusts":72.0,"aqi":31,"pm10":8.7,"pm2_5":7.4,"no2":9.5,"co":205.0,"o3":57.0,"so2":18.7,"mosquito_risk":3,"arthritis_risk":5,"migraine_risk":3,"frizz_risk":1,"updated_at":"2026-07-05T16:35:28.175861+05:30"},{"city":"Vijayawada","state":"Andhra Pradesh","latitude":16.5062,"longitude":80.648,"temp":32.5,"humidity":59,"rain":0.0,"pressure":994.1,"uv_index":3.8,"wind_gusts":46.1,"aqi":29,"pm10":13.5,"pm2_5":9.3,"no2":6.2,"co":125.0,"o3":56.0,"so2":4.4,"mosquito_risk":0,"arthritis_risk":5,"migraine_risk":3,"frizz_risk":1,"updated_at":"2026-07-05T16:35:28.175868+05:30"},{"city":"Guntur","state":"Andhra Pradesh","latitude":16.3067,"longitude":80.4365,"temp":34.5,"humidity":46,"rain":0.0,"pressure":995.4,"uv_index":7.35,"wind_gusts":49.3,"aqi":26,"pm10":13.4,"pm2_5":9.1,"no2":6.4,"co":121.0,"o3":57.0,"so2":4.4,"mosquito_risk":0,"arthritis_risk":5,"migraine_risk":7,"frizz_risk":1,"updated_at":"2026-07-05T16:35:28.175875+05:30"},{"city":"Nellore","state":"Andhra Pradesh","latitude":14.4426,"longitude":79.9865,"temp":36.8,"humidity":34,"rain":0.0,"pressure":998.3,"uv_index":3.15,"wind_gusts":56.2,"aqi":30,"pm10":19.3,"pm2_5":10.3,"no2":2.2,"co":122.0,"o3":77.0,"so2":2.1,"mosquito_risk":0,"arthritis_risk":5,"migraine_risk":6,"frizz_risk":1,"updated_at":"2026-07-05T16:35:28.175883+05:30"},{"city":"Kurnool","state":"Andhra Pradesh","latitude":15.8281,"longitude":78.0373,"temp":31.6,"humidity":48,"rain":0.0,"pressure":970.9,"uv_index":6.55,"wind_gusts":72.4,"aqi":29,"pm10":15.5,"pm2_5":7.7,"no2":1.3,"co":107.0,"o3":66.0,"so2":1.5,"mosquito_risk":0,"arthritis_risk":5,"migraine_risk":7,"frizz_risk":1,"updated_at":"2026-07-05T16:35:28.175891+05:30"},{"city":"Kakinada","state":"Andhra Pradesh","latitude":16.9891,"longitude":82.2475,"temp":30.6,"humidity":67,"rain":0.0,"pressure":997.9,"uv_index":3.0,"wind_gusts":82.8,"aqi":30,"pm10":10.5,"pm2_5":7.4,"no2":3.6,"co":150.0,"o3":69.0,"so2":4.2,"mosquito_risk":3,"arthritis_risk":5,"migraine_risk":3,"frizz_risk":1,"updated_at":"2026-07-05T16:35:28.175898+05:30"},{"city":"Tirupati","state":"Andhra Pradesh","latitude":13.6288,"longitude":79.4192,"temp":35.3,"humidity":36,"rain":0.0,"pressure":984.8,"uv_index":7.65,"wind_gusts":63.7,"aqi":36,"pm10":20.0,"pm2_5":10.1,"no2":1.7,"co":125.0,"o3":78.0,"so2":1.2,"mosquito_risk":0,"arthritis_risk":5,"migraine_risk":10,"frizz_risk":1,"updated_at":"2026-07-05T16:35:28.175905+05:30"},{"city":"Warangal","state":"Telangana","latitude":17.9689,"longitude":79.5941,"temp":27.7,"humidity":81,"rain":0.2,"pressure":970.8,"uv_index":1.1,"wind_gusts":57.2,"aqi":26,"pm10":8.4,"pm2_5":5.7,"no2":3.3,"co":128.0,"o3":64.0,"so2":2.6,"mosquito_risk":10,"arthritis_risk":5,"migraine_risk":3,"frizz_risk":1,"updated_at":"2026-07-05T16:35:28.175911+05:30"},{"city":"Nizamabad","state":"Telangana","latitude":18.6725,"longitude":78.0941,"temp":25.9,"humidity":87,"rain":0.2,"pressure":956.6,"uv_index":1.3,"wind_gusts":50.8,"aqi":27,"pm10":2.6,"pm2_5":2.6,"no2":2.4,"co":117.0,"o3":59.0,"so2":1.6,"mosquito_risk":10,"arthritis_risk":5,"migraine_risk":3,"frizz_risk":1,"updated_at":"2026-07-05T16:35:28.175917+05:30"},{"city":"Mysore","state":"Karnataka","latitude":12.2958,"longitude":76.6396,"temp":26.4,"humidity":63,"rain":0.0,"pressure":926.2,"uv_index":8.3,"wind_gusts":67.0,"aqi":27,"pm10":18.3,"pm2_5":9.5,"no2":1.8,"co":107.0,"o3":62.0,"so2":1.3,"mosquito_risk":7,"arthritis_risk":5,"migraine_risk":7,"frizz_risk":1,"updated_at":"2026-07-05T16:35:28.175924+05:30"},{"city":"Mangalore","state":"Karnataka","latitude":12.9141,"longitude":74.856,"temp":28.6,"humidity":77,"rain":0.0,"pressure":1005.2,"uv_index":5.15,"wind_gusts":60.5,"aqi":52,"pm10":25.7,"pm2_5":14.2,"no2":1.0,"co":98.0,"o3":54.0,"so2":0.9,"mosquito_risk":7,"arthritis_risk":5,"migraine_risk":0,"frizz_risk":1,"updated_at":"2026-07-05T16:35:28.175931+05:30"},{"city":"Hubli-Dharwad","state":"Karnataka","latitude":15.3647,"longitude":75.124,"temp":22.7,"humidity":92,"rain":0.1,"pressure":936.7,"uv_index":3.4,"wind_gusts":71.6,"aqi":24,"pm10":4.3,"pm2_5":2.7,"no2":2.4,"co":108.0,"o3":52.0,"so2":0.7,"mosquito_risk":6,"arthritis_risk":5,"migraine_risk":3,"frizz_risk":1,"updated_at":"2026-07-05T16:35:28.175937+05:30"},{"city":"Belgaum","state":"Karnataka","latitude":15.8497,"longitude":74.4977,"temp":21.5,"humidity":96,"rain":0.1,"pressure":920.6,"uv_index":3.45,"wind_gusts":63.4,"aqi":23,"pm10":2.3,"pm2_5":1.7,"no2":3.0,"co":107.0,"o3":48.0,"so2":0.7,"mosquito_risk":6,"arthritis_risk":5,"migraine_risk":3,"frizz_risk":1,"updated_at":"2026-07-05T16:35:31.456258+05:30"},{"city":"Coimbatore","state":"Tamil Nadu","latitude":11.0168,"longitude":76.9558,"temp":27.7,"humidity":67,"rain":0.0,"pressure":959.7,"uv_index":8.3,"wind_gusts":62.6,"aqi":26,"pm10":17.3,"pm2_5":8.0,"no2":1.7,"co":132.0,"o3":60.0,"so2":1.5,"mosquito_risk":7,"arthritis_risk":5,"migraine_risk":7,"frizz_risk":1,"updated_at":"2026-07-05T16:35:31.456296+05:30"},{"city":"Madurai","state":"Tamil Nadu","latitude":9.9252,"longitude":78.1198,"temp":34.8,"humidity":38,"rain":0.0,"pressure":989.1,"uv_index":8.15,"wind_gusts":70.2,"aqi":45,"pm10":24.6,"pm2_5":10.6,"no2":1.4,"co":115.0,"o3":81.0,"so2":1.5,"mosquito_risk":0,"arthritis_risk":5,"migraine_risk":7,"frizz_risk":1,"updated_at":"2026-07-05T16:35:31.456308+05:30"},{"city":"Trichy","state":"Tamil Nadu","latitude":10.7905,"longitude":78.7047,"temp":35.3,"humidity":38,"rain":0.0,"pressure":995.4,"uv_index":8.75,"wind_gusts":74.5,"aqi":34,"pm10":21.7,"pm2_5":10.2,"no2":1.5,"co":105.0,"o3":70.0,"so2":1.4,"mosquito_risk":0,"arthritis_risk":5,"migraine_risk":10,"frizz_risk":1,"updated_at":"2026-07-05T16:35:31.456317+05:30"},{"city":"Salem","state":"Tamil Nadu","latitude":11.6643,"longitude":78.146,"temp":30.9,"humidity":62,"rain":0.3,"pressure":973.6,"uv_index":6.65,"wind_gusts":44.3,"aqi":43,"pm10":14.8,"pm2_5":7.9,"no2":2.1,"co":134.0,"o3":81.0,"so2":3.7,"mosquito_risk":6,"arthritis_risk":5,"migraine_risk":7,"frizz_risk":1,"updated_at":"2026-07-05T16:35:31.456325+05:30"},{"city":"Tirunelveli","state":"Tamil Nadu","latitude":8.7139,"longitude":77.7567,"temp":33.3,"humidity":47,"rain":0.0,"pressure":1000.8,"uv_index":8.45,"wind_gusts":54.0,"aqi":33,"pm10":25.0,"pm2_5":11.8,"no2":1.2,"co":102.0,"o3":64.0,"so2":1.1,"mosquito_risk":0,"arthritis_risk":5,"migraine_risk":4,"frizz_risk":1,"updated_at":"2026-07-05T16:35:31.456352+05:30"},{"city":"Vellore","state":"Tamil Nadu","latitude":12.9165,"longitude":79.1325,"temp":35.6,"humidity":34,"rain":0.0,"pressure":978.8,"uv_index":8.3,"wind_gusts":60.8,"aqi":33,"pm10":18.0,"pm2_5":9.6,"no2":2.0,"co":109.0,"o3":81.0,"so2":1.6,"mosquito_risk":0,"arthritis_risk":5,"migraine_risk":10,"frizz_risk":1,"updated_at":"2026-07-05T16:35:31.456360+05:30"},{"city":"Erode","state":"Tamil Nadu","latitude":11.341,"longitude":77.7172,"temp":32.5,"humidity":45,"rain":0.0,"pressure":985.3,"uv_index":8.6,"wind_gusts":62.3,"aqi":33,"pm10":13.4,"pm2_5":7.1,"no2":2.0,"co":120.0,"o3":68.0,"so2":1.6,"mosquito_risk":0,"arthritis_risk":5,"migraine_risk":7,"frizz_risk":1,"updated_at":"2026-07-05T16:35:31.456368+05:30"},{"city":"Kochi","state":"Kerala","latitude":9.9312,"longitude":76.2673,"temp":28.7,"humidity":79,"rain":0.0,"pressure":1008.2,"uv_index":5.55,"wind_gusts":43.6,"aqi":54,"pm10":26.7,"pm2_5":13.2,"no2":2.4,"co":101.0,"o3":56.0,"so2":2.0,"mosquito_risk":7,"arthritis_risk":0,"migraine_risk":0,"frizz_risk":1,"updated_at":"2026-07-05T16:35:31.456376+05:30"},{"city":"Thiruvananthapuram","state":"Kerala","latitude":8.5241,"longitude":76.9366,"temp":28.1,"humidity":78,"rain":0.0,"pressure":1007.7,"uv_index":8.1,"wind_gusts":50.4,"aqi":47,"pm10":33.3,"pm2_5":14.5,"no2":1.9,"co":97.0,"o3":62.0,"so2":0.8,"mosquito_risk":7,"arthritis_risk":5,"migraine_risk":4,"frizz_risk":1,"updated_at":"2026-07-05T16:35:31.456382+05:30"},{"city":"Kozhikode","state":"Kerala","latitude":11.2588,"longitude":75.7804,"temp":28.2,"humidity":77,"rain":0.0,"pressure":1007.1,"uv_index":8.5,"wind_gusts":46.4,"aqi":47,"pm10":27.5,"pm2_5":12.8,"no2":0.5,"co":99.0,"o3":58.0,"so2":0.7,"mosquito_risk":7,"arthritis_risk":5,"migraine_risk":4,"frizz_risk":1,"updated_at":"2026-07-05T16:35:31.456388+05:30"},{"city":"Thrissur","state":"Kerala","latitude":10.5276,"longitude":76.2144,"temp":28.3,"humidity":80,"rain":0.0,"pressure":1006.5,"uv_index":7.55,"wind_gusts":49.0,"aqi":51,"pm10":24.9,"pm2_5":12.2,"no2":1.6,"co":99.0,"o3":53.0,"so2":1.3,"mosquito_risk":7,"arthritis_risk":5,"migraine_risk":4,"frizz_risk":1,"updated_at":"2026-07-05T16:35:31.456396+05:30"},{"city":"Kannur","state":"Kerala","latitude":11.8745,"longitude":75.3704,"temp":27.9,"humidity":77,"rain":0.1,"pressure":1006.3,"uv_index":7.7,"wind_gusts":52.2,"aqi":49,"pm10":26.9,"pm2_5":13.7,"no2":0.9,"co":97.0,"o3":55.0,"so2":0.9,"mosquito_risk":10,"arthritis_risk":5,"migraine_risk":4,"frizz_risk":1,"updated_at":"2026-07-05T16:35:31.456403+05:30"},{"city":"Patna","state":"Bihar","latitude":25.5941,"longitude":85.1376,"temp":31.4,"humidity":74,"rain":0.1,"pressure":988.3,"uv_index":8.05,"wind_gusts":55.1,"aqi":100,"pm10":10.9,"pm2_5":10.7,"no2":5.6,"co":210.0,"o3":112.0,"so2":5.1,"mosquito_risk":6,"arthritis_risk":5,"migraine_risk":7,"frizz_risk":1,"updated_at":"2026-07-05T16:35:31.456409+05:30"},{"city":"Gaya","state":"Bihar","latitude":24.7914,"longitude":85.0002,"temp":29.4,"humidity":85,"rain":0.1,"pressure":981.6,"uv_index":7.5,"wind_gusts":52.2,"aqi":74,"pm10":10.0,"pm2_5":9.6,"no2":3.7,"co":212.0,"o3":103.0,"so2":4.3,"mosquito_risk":10,"arthritis_risk":5,"migraine_risk":7,"frizz_risk":1,"updated_at":"2026-07-05T16:35:31.456416+05:30"},{"city":"Muzaffarpur","state":"Bihar","latitude":26.1209,"longitude":85.3647,"temp":32.7,"humidity":69,"rain":0.0,"pressure":988.5,"uv_index":8.5,"wind_gusts":53.3,"aqi":101,"pm10":11.1,"pm2_5":10.9,"no2":5.9,"co":221.0,"o3":109.0,"so2":3.9,"mosquito_risk":3,"arthritis_risk":5,"migraine_risk":7,"frizz_risk":1,"updated_at":"2026-07-05T16:35:31.456423+05:30"},{"city":"Bhagalpur","state":"Bihar","latitude":25.2425,"longitude":87.0117,"temp":34.0,"humidity":54,"rain":0.0,"pressure":988.4,"uv_index":8.6,"wind_gusts":58.3,"aqi":60,"pm10":7.5,"pm2_5":7.3,"no2":3.8,"co":178.0,"o3":105.0,"so2":5.7,"mosquito_risk":0,"arthritis_risk":5,"migraine_risk":7,"frizz_risk":1,"updated_at":"2026-07-05T16:35:31.456429+05:30"},{"city":"Ranchi","state":"Jharkhand","latitude":23.3441,"longitude":85.3096,"temp":25.9,"humidity":87,"rain":0.1,"pressure":925.0,"uv_index":5.65,"wind_gusts":51.1,"aqi":56,"pm10":13.6,"pm2_5":13.4,"no2":6.3,"co":387.0,"o3":100.0,"so2":14.6,"mosquito_risk":10,"arthritis_risk":5,"migraine_risk":3,"frizz_risk":1,"updated_at":"2026-07-05T16:35:31.456436+05:30"},{"city":"Jamshedpur","state":"Jharkhand","latitude":22.8046,"longitude":86.2029,"temp":28.4,"humidity":85,"rain":0.1,"pressure":976.2,"uv_index":7.0,"wind_gusts":46.4,"aqi":51,"pm10":10.5,"pm2_5":10.4,"no2":7.8,"co":252.0,"o3":79.0,"so2":11.2,"mosquito_risk":10,"arthritis_risk":5,"migraine_risk":7,"frizz_risk":1,"updated_at":"2026-07-05T16:35:31.456442+05:30"},{"city":"Dhanbad","state":"Jharkhand","latitude":23.7957,"longitude":86.4304,"temp":28.4,"humidity":86,"rain":0.1,"pressure":966.3,"uv_index":6.9,"wind_gusts":55.8,"aqi":67,"pm10":16.2,"pm2_5":16.2,"no2":14.9,"co":224.0,"o3":87.0,"so2":38.0,"mosquito_risk":10,"arthritis_risk":5,"migraine_risk":7,"frizz_risk":1,"updated_at":"2026-07-05T16:35:31.456449+05:30"},{"city":"Bokaro","state":"Jharkhand","latitude":23.6693,"longitude":86.1511,"temp":28.4,"humidity":85,"rain":0.1,"pressure":970.1,"uv_index":5.35,"wind_gusts":51.1,"aqi":66,"pm10":16.2,"pm2_5":16.1,"no2":14.3,"co":233.0,"o3":82.0,"so2":37.3,"mosquito_risk":10,"arthritis_risk":5,"migraine_risk":3,"frizz_risk":1,"updated_at":"2026-07-05T16:35:31.456456+05:30"},{"city":"Bhubaneswar","state":"Odisha","latitude":20.2961,"longitude":85.8245,"temp":27.9,"humidity":90,"rain":0.2,"pressure":987.4,"uv_index":2.35,"wind_gusts":41.0,"aqi":47,"pm10":5.5,"pm2_5":5.2,"no2":4.6,"co":227.0,"o3":81.0,"so2":4.3,"mosquito_risk":10,"arthritis_risk":5,"migraine_risk":3,"frizz_risk":1,"updated_at":"2026-07-05T16:35:31.456462+05:30"},{"city":"Cuttack","state":"Odisha","latitude":20.4625,"longitude":85.8828,"temp":28.7,"humidity":83,"rain":0.0,"pressure":989.0,"uv_index":2.45,"wind_gusts":36.0,"aqi":47,"pm10":5.5,"pm2_5":5.2,"no2":4.6,"co":230.0,"o3":81.0,"so2":4.3,"mosquito_risk":7,"arthritis_risk":5,"migraine_risk":3,"frizz_risk":1,"updated_at":"2026-07-05T16:35:31.456469+05:30"},{"city":"Rourkela","state":"Odisha","latitude":22.2604,"longitude":84.8536,"temp":26.9,"humidity":92,"rain":0.2,"pressure":971.2,"uv_index":6.25,"wind_gusts":46.1,"aqi":53,"pm10":13.3,"pm2_5":13.2,"no2":6.6,"co":249.0,"o3":94.0,"so2":8.9,"mosquito_risk":10,"arthritis_risk":5,"migraine_risk":7,"frizz_risk":1,"updated_at":"2026-07-05T16:35:31.456475+05:30"},{"city":"Raipur","state":"Chhattisgarh","latitude":21.2514,"longitude":81.6296,"temp":27.4,"humidity":92,"rain":0.1,"pressure":963.1,"uv_index":5.7,"wind_gusts":46.1,"aqi":71,"pm10":19.2,"pm2_5":19.0,"no2":20.2,"co":389.0,"o3":103.0,"so2":41.7,"mosquito_risk":10,"arthritis_risk":5,"migraine_risk":3,"frizz_risk":1,"updated_at":"2026-07-05T16:35:31.456482+05:30"},{"city":"Bhilai","state":"Chhattisgarh","latitude":21.1938,"longitude":81.3509,"temp":27.6,"humidity":88,"rain":0.2,"pressure":963.7,"uv_index":5.7,"wind_gusts":47.2,"aqi":64,"pm10":16.9,"pm2_5":16.7,"no2":13.8,"co":674.0,"o3":111.0,"so2":30.1,"mosquito_risk":10,"arthritis_risk":5,"migraine_risk":3,"frizz_risk":1,"updated_at":"2026-07-05T16:35:31.456489+05:30"},{"city":"Guwahati","state":"Assam","latitude":26.1158,"longitude":91.7086,"temp":33.1,"humidity":69,"rain":0.0,"pressure":990.3,"uv_index":8.55,"wind_gusts":40.0,"aqi":41,"pm10":6.8,"pm2_5":6.6,"no2":3.0,"co":216.0,"o3":67.0,"so2":0.9,"mosquito_risk":3,"arthritis_risk":5,"migraine_risk":7,"frizz_risk":1,"updated_at":"2026-07-05T16:35:31.456496+05:30"},{"city":"Agartala","state":"Tripura","latitude":23.8315,"longitude":91.2868,"temp":28.0,"humidity":90,"rain":0.1,"pressure":995.9,"uv_index":1.9,"wind_gusts":53.6,"aqi":37,"pm10":3.5,"pm2_5":3.4,"no2":3.5,"co":161.0,"o3":65.0,"so2":1.0,"mosquito_risk":10,"arthritis_risk":5,"migraine_risk":3,"frizz_risk":1,"updated_at":"2026-07-05T16:35:31.456502+05:30"},{"city":"Shillong","state":"Meghalaya","latitude":25.5788,"longitude":91.8933,"temp":24.2,"humidity":78,"rain":0.0,"pressure":852.0,"uv_index":8.2,"wind_gusts":42.5,"aqi":32,"pm10":3.9,"pm2_5":3.8,"no2":3.1,"co":144.0,"o3":59.0,"so2":0.9,"mosquito_risk":3,"arthritis_risk":5,"migraine_risk":7,"frizz_risk":1,"updated_at":"2026-07-05T16:35:31.456509+05:30"},{"city":"Imphal","state":"Manipur","latitude":24.817,"longitude":93.9368,"temp":26.5,"humidity":81,"rain":0.1,"pressure":916.9,"uv_index":6.15,"wind_gusts":32.8,"aqi":28,"pm10":2.6,"pm2_5":2.5,"no2":1.7,"co":164.0,"o3":59.0,"so2":0.9,"mosquito_risk":10,"arthritis_risk":5,"migraine_risk":7,"frizz_risk":1,"updated_at":"2026-07-05T16:35:31.456516+05:30"},{"city":"Aizawl","state":"Mizoram","latitude":23.7271,"longitude":92.7176,"temp":22.6,"humidity":95,"rain":0.2,"pressure":885.3,"uv_index":1.75,"wind_gusts":32.8,"aqi":27,"pm10":3.8,"pm2_5":3.8,"no2":3.4,"co":125.0,"o3":40.0,"so2":0.5,"mosquito_risk":6,"arthritis_risk":5,"migraine_risk":3,"frizz_risk":1,"updated_at":"2026-07-05T16:35:31.456522+05:30"},{"city":"Kohima","state":"Nagaland","latitude":25.6701,"longitude":94.1077,"temp":25.9,"humidity":72,"rain":0.0,"pressure":850.5,"uv_index":8.95,"wind_gusts":31.7,"aqi":29,"pm10":1.5,"pm2_5":1.4,"no2":1.3,"co":158.0,"o3":58.0,"so2":0.4,"mosquito_risk":7,"arthritis_risk":5,"migraine_risk":7,"frizz_risk":1,"updated_at":"2026-07-05T16:35:31.456529+05:30"},{"city":"Gangtok","state":"Sikkim","latitude":27.3314,"longitude":88.6138,"temp":21.2,"humidity":93,"rain":0.1,"pressure":832.5,"uv_index":8.2,"wind_gusts":28.8,"aqi":48,"pm10":3.5,"pm2_5":3.5,"no2":2.8,"co":179.0,"o3":99.0,"so2":0.7,"mosquito_risk":6,"arthritis_risk":5,"migraine_risk":7,"frizz_risk":1,"updated_at":"2026-07-05T16:35:31.456535+05:30"},{"city":"Siliguri","state":"West Bengal","latitude":26.7271,"longitude":88.3953,"temp":28.4,"humidity":94,"rain":0.1,"pressure":983.2,"uv_index":8.75,"wind_gusts":42.8,"aqi":65,"pm10":5.7,"pm2_5":5.6,"no2":3.3,"co":263.0,"o3":111.0,"so2":1.5,"mosquito_risk":10,"arthritis_risk":5,"migraine_risk":7,"frizz_risk":1,"updated_at":"2026-07-05T16:35:34.730260+05:30"},{"city":"Durgapur","state":"West Bengal","latitude":23.5204,"longitude":87.3119,"temp":28.1,"humidity":88,"rain":0.2,"pressure":980.7,"uv_index":6.7,"wind_gusts":51.5,"aqi":58,"pm10":10.7,"pm2_5":10.5,"no2":10.8,"co":233.0,"o3":80.0,"so2":17.6,"mosquito_risk":10,"arthritis_risk":5,"migraine_risk":7,"frizz_risk":1,"updated_at":"2026-07-05T16:35:34.730298+05:30"},{"city":"Asansol","state":"West Bengal","latitude":23.6739,"longitude":86.9524,"temp":29.0,"humidity":79,"rain":0.0,"pressure":979.3,"uv_index":6.8,"wind_gusts":53.3,"aqi":57,"pm10":12.1,"pm2_5":12.0,"no2":11.7,"co":238.0,"o3":87.0,"so2":18.9,"mosquito_risk":7,"arthritis_risk":5,"migraine_risk":7,"frizz_risk":1,"updated_at":"2026-07-05T16:35:34.730309+05:30"},{"city":"Pondicherry","state":"Puducherry","latitude":11.9139,"longitude":79.8145,"temp":35.2,"humidity":43,"rain":0.0,"pressure":1002.4,"uv_index":8.65,"wind_gusts":50.0,"aqi":50,"pm10":25.9,"pm2_5":16.2,"no2":7.6,"co":141.0,"o3":89.0,"so2":9.2,"mosquito_risk":0,"arthritis_risk":5,"migraine_risk":7,"frizz_risk":1,"updated_at":"2026-07-05T16:35:34.730319+05:30"},{"city":"Port Blair","state":"Andaman and Nicobar Islands","latitude":11.6234,"longitude":92.7265,"temp":29.4,"humidity":77,"rain":0.0,"pressure":1005.3,"uv_index":6.4,"wind_gusts":47.9,"aqi":52,"pm10":19.7,"pm2_5":11.5,"no2":0.3,"co":102.0,"o3":49.0,"so2":0.5,"mosquito_risk":7,"arthritis_risk":5,"migraine_risk":4,"frizz_risk":1,"updated_at":"2026-07-05T16:35:34.730345+05:30"},{"city":"Haridwar","state":"Uttarakhand","latitude":29.9457,"longitude":78.1642,"temp":31.5,"humidity":81,"rain":0.0,"pressure":964.1,"uv_index":6.95,"wind_gusts":22.7,"aqi":116,"pm10":32.2,"pm2_5":31.7,"no2":1.8,"co":316.0,"o3":162.0,"so2":6.0,"mosquito_risk":3,"arthritis_risk":5,"migraine_risk":7,"frizz_risk":1,"updated_at":"2026-07-05T16:35:34.730353+05:30"},{"city":"Rishikesh","state":"Uttarakhand","latitude":30.0869,"longitude":78.2676,"temp":31.7,"humidity":70,"rain":0.0,"pressure":957.3,"uv_index":6.95,"wind_gusts":23.8,"aqi":98,"pm10":25.6,"pm2_5":25.2,"no2":2.0,"co":303.0,"o3":135.0,"so2":4.0,"mosquito_risk":3,"arthritis_risk":5,"migraine_risk":7,"frizz_risk":1,"updated_at":"2026-07-05T16:35:34.730361+05:30"},{"city":"Nainital","state":"Uttarakhand","latitude":29.3919,"longitude":79.4542,"temp":20.1,"humidity":94,"rain":0.1,"pressure":801.5,"uv_index":6.35,"wind_gusts":26.3,"aqi":69,"pm10":13.7,"pm2_5":13.3,"no2":2.3,"co":224.0,"o3":117.0,"so2":1.9,"mosquito_risk":6,"arthritis_risk":5,"migraine_risk":7,"frizz_risk":1,"updated_at":"2026-07-05T16:35:34.730368+05:30"},{"city":"Mussoorie","state":"Uttarakhand","latitude":30.4599,"longitude":78.0664,"temp":22.9,"humidity":71,"rain":0.1,"pressure":800.0,"uv_index":6.2,"wind_gusts":35.3,"aqi":129,"pm10":30.7,"pm2_5":30.3,"no2":2.1,"co":269.0,"o3":154.0,"so2":6.2,"mosquito_risk":6,"arthritis_risk":5,"migraine_risk":7,"frizz_risk":1,"updated_at":"2026-07-05T16:35:34.730375+05:30"},{"city":"Dharamshala","state":"Himachal Pradesh","latitude":32.219,"longitude":76.3234,"temp":25.8,"humidity":81,"rain":0.0,"pressure":863.7,"uv_index":8.25,"wind_gusts":33.1,"aqi":66,"pm10":11.4,"pm2_5":10.3,"no2":1.1,"co":269.0,"o3":119.0,"so2":0.4,"mosquito_risk":7,"arthritis_risk":5,"migraine_risk":7,"frizz_risk":1,"updated_at":"2026-07-05T16:35:34.730383+05:30"},{"city":"Dalhousie","state":"Himachal Pradesh","latitude":32.5387,"longitude":75.971,"temp":23.4,"humidity":79,"rain":0.1,"pressure":802.0,"uv_index":8.0,"wind_gusts":25.9,"aqi":136,"pm10":33.6,"pm2_5":27.7,"no2":1.0,"co":292.0,"o3":175.0,"so2":2.7,"mosquito_risk":6,"arthritis_risk":5,"migraine_risk":7,"frizz_risk":1,"updated_at":"2026-07-05T16:35:34.730391+05:30"},{"city":"Patiala","state":"Punjab","latitude":30.3398,"longitude":76.3869,"temp":34.3,"humidity":60,"rain":0.0,"pressure":967.6,"uv_index":7.05,"wind_gusts":18.7,"aqi":172,"pm10":94.8,"pm2_5":64.5,"no2":2.1,"co":357.0,"o3":189.0,"so2":13.0,"mosquito_risk":0,"arthritis_risk":5,"migraine_risk":7,"frizz_risk":1,"updated_at":"2026-07-05T16:35:34.730398+05:30"},{"city":"Bhatinda","state":"Punjab","latitude":30.211,"longitude":74.9455,"temp":37.4,"humidity":47,"rain":0.0,"pressure":972.6,"uv_index":7.45,"wind_gusts":23.0,"aqi":171,"pm10":127.1,"pm2_5":64.3,"no2":3.1,"co":319.0,"o3":213.0,"so2":18.2,"mosquito_risk":0,"arthritis_risk":5,"migraine_risk":10,"frizz_risk":1,"updated_at":"2026-07-05T16:35:34.730404+05:30"},{"city":"Rohtak","state":"Haryana","latitude":28.8955,"longitude":76.6066,"temp":36.0,"humidity":55,"rain":0.0,"pressure":970.5,"uv_index":7.0,"wind_gusts":18.0,"aqi":178,"pm10":66.1,"pm2_5":39.2,"no2":4.1,"co":335.0,"o3":223.0,"so2":14.1,"mosquito_risk":0,"arthritis_risk":5,"migraine_risk":10,"frizz_risk":1,"updated_at":"2026-07-05T16:35:34.730411+05:30"},{"city":"Panipat","state":"Haryana","latitude":29.3909,"longitude":76.9635,"temp":34.7,"humidity":58,"rain":0.0,"pressure":969.6,"uv_index":6.95,"wind_gusts":18.0,"aqi":162,"pm10":105.2,"pm2_5":57.9,"no2":6.5,"co":324.0,"o3":219.0,"so2":32.1,"mosquito_risk":0,"arthritis_risk":5,"migraine_risk":7,"frizz_risk":1,"updated_at":"2026-07-05T16:35:34.730418+05:30"},{"city":"Mathura","state":"Uttar Pradesh","latitude":27.4924,"longitude":77.6737,"temp":36.3,"humidity":51,"rain":0.0,"pressure":975.3,"uv_index":6.8,"wind_gusts":32.0,"aqi":116,"pm10":155.5,"pm2_5":37.1,"no2":1.8,"co":272.0,"o3":161.0,"so2":5.4,"mosquito_risk":0,"arthritis_risk":5,"migraine_risk":10,"frizz_risk":1,"updated_at":"2026-07-05T16:35:34.730425+05:30"},{"city":"Vrindavan","state":"Uttar Pradesh","latitude":27.5823,"longitude":77.7027,"temp":36.3,"humidity":49,"rain":0.0,"pressure":975.7,"uv_index":6.7,"wind_gusts":30.6,"aqi":116,"pm10":155.5,"pm2_5":37.1,"no2":1.8,"co":272.0,"o3":161.0,"so2":5.4,"mosquito_risk":0,"arthritis_risk":5,"migraine_risk":10,"frizz_risk":1,"updated_at":"2026-07-05T16:35:34.730431+05:30"},{"city":"Ayodhya","state":"Uttar Pradesh","latitude":26.7922,"longitude":82.1998,"temp":34.1,"humidity":61,"rain":0.0,"pressure":984.1,"uv_index":8.05,"wind_gusts":41.0,"aqi":126,"pm10":21.2,"pm2_5":20.8,"no2":2.3,"co":247.0,"o3":144.0,"so2":3.1,"mosquito_risk":3,"arthritis_risk":5,"migraine_risk":7,"frizz_risk":1,"updated_at":"2026-07-05T16:35:34.730438+05:30"},{"city":"Ratlam","state":"Madhya Pradesh","latitude":23.3315,"longitude":75.0367,"temp":30.4,"humidity":70,"rain":0.0,"pressure":943.8,"uv_index":8.45,"wind_gusts":25.6,"aqi":51,"pm10":21.0,"pm2_5":18.6,"no2":1.1,"co":207.0,"o3":117.0,"so2":2.7,"mosquito_risk":3,"arthritis_risk":5,"migraine_risk":7,"frizz_risk":1,"updated_at":"2026-07-05T16:35:34.730445+05:30"},{"city":"Sagar","state":"Madhya Pradesh","latitude":23.8388,"longitude":78.7378,"temp":31.2,"humidity":66,"rain":0.0,"pressure":939.7,"uv_index":7.65,"wind_gusts":21.2,"aqi":77,"pm10":15.9,"pm2_5":15.5,"no2":1.7,"co":173.0,"o3":112.0,"so2":2.2,"mosquito_risk":3,"arthritis_risk":5,"migraine_risk":7,"frizz_risk":1,"updated_at":"2026-07-05T16:35:34.730452+05:30"},{"city":"Satna","state":"Madhya Pradesh","latitude":24.6005,"longitude":80.8322,"temp":34.4,"humidity":54,"rain":0.0,"pressure":959.6,"uv_index":8.25,"wind_gusts":41.0,"aqi":89,"pm10":17.5,"pm2_5":17.2,"no2":1.5,"co":175.0,"o3":155.0,"so2":3.9,"mosquito_risk":0,"arthritis_risk":5,"migraine_risk":7,"frizz_risk":1,"updated_at":"2026-07-05T16:35:34.730458+05:30"},{"city":"Akola","state":"Maharashtra","latitude":20.7002,"longitude":77.0082,"temp":32.0,"humidity":63,"rain":0.0,"pressure":964.3,"uv_index":4.55,"wind_gusts":36.0,"aqi":39,"pm10":5.4,"pm2_5":5.1,"no2":2.7,"co":139.0,"o3":85.0,"so2":4.3,"mosquito_risk":3,"arthritis_risk":5,"migraine_risk":3,"frizz_risk":1,"updated_at":"2026-07-05T16:35:34.730465+05:30"},{"city":"Amravati","state":"Maharashtra","latitude":20.9374,"longitude":77.7796,"temp":28.6,"humidity":78,"rain":0.1,"pressure":957.4,"uv_index":4.65,"wind_gusts":35.3,"aqi":40,"pm10":6.3,"pm2_5":6.0,"no2":2.7,"co":169.0,"o3":90.0,"so2":5.7,"mosquito_risk":10,"arthritis_risk":5,"migraine_risk":3,"frizz_risk":1,"updated_at":"2026-07-05T16:35:34.730472+05:30"},{"city":"Latur","state":"Maharashtra","latitude":18.4088,"longitude":76.5604,"temp":24.2,"humidity":91,"rain":0.2,"pressure":931.5,"uv_index":1.25,"wind_gusts":56.2,"aqi":24,"pm10":2.2,"pm2_5":2.1,"no2":2.6,"co":119.0,"o3":51.0,"so2":1.0,"mosquito_risk":6,"arthritis_risk":5,"migraine_risk":3,"frizz_risk":1,"updated_at":"2026-07-05T16:35:34.730480+05:30"},{"city":"Nanded","state":"Maharashtra","latitude":19.1383,"longitude":77.3091,"temp":28.2,"humidity":74,"rain":0.0,"pressure":959.7,"uv_index":6.7,"wind_gusts":48.2,"aqi":26,"pm10":2.6,"pm2_5":2.6,"no2":2.8,"co":122.0,"o3":62.0,"so2":3.4,"mosquito_risk":7,"arthritis_risk":5,"migraine_risk":7,"frizz_risk":1,"updated_at":"2026-07-05T16:35:34.730486+05:30"},{"city":"Gulbarga","state":"Karnataka","latitude":17.3297,"longitude":76.8343,"temp":28.4,"humidity":63,"rain":0.0,"pressure":951.9,"uv_index":4.9,"wind_gusts":69.8,"aqi":27,"pm10":2.5,"pm2_5":1.9,"no2":3.6,"co":107.0,"o3":54.0,"so2":1.5,"mosquito_risk":7,"arthritis_risk":5,"migraine_risk":3,"frizz_risk":1,"updated_at":"2026-07-05T16:35:34.730493+05:30"},{"city":"Bidar","state":"Karnataka","latitude":17.9104,"longitude":77.5199,"temp":24.6,"humidity":85,"rain":0.1,"pressure":928.0,"uv_index":3.0,"wind_gusts":55.8,"aqi":25,"pm10":2.6,"pm2_5":2.3,"no2":3.3,"co":113.0,"o3":54.0,"so2":1.3,"mosquito_risk":6,"arthritis_risk":5,"migraine_risk":3,"frizz_risk":1,"updated_at":"2026-07-05T16:35:34.730499+05:30"},{"city":"Hospet","state":"Karnataka","latitude":15.2689,"longitude":76.3909,"temp":27.7,"humidity":63,"rain":0.1,"pressure":951.4,"uv_index":2.75,"wind_gusts":78.1,"aqi":26,"pm10":9.4,"pm2_5":5.6,"no2":1.8,"co":103.0,"o3":57.0,"so2":1.3,"mosquito_risk":10,"arthritis_risk":5,"migraine_risk":3,"frizz_risk":1,"updated_at":"2026-07-05T16:35:34.730506+05:30"},{"city":"Tirupur","state":"Tamil Nadu","latitude":11.1085,"longitude":77.3411,"temp":30.4,"humidity":57,"rain":0.0,"pressure":972.0,"uv_index":7.55,"wind_gusts":73.4,"aqi":35,"pm10":14.8,"pm2_5":7.7,"no2":1.8,"co":118.0,"o3":68.0,"so2":1.8,"mosquito_risk":0,"arthritis_risk":5,"migraine_risk":7,"frizz_risk":1,"updated_at":"2026-07-05T16:35:34.730512+05:30"},{"city":"Alappuzha","state":"Kerala","latitude":9.4981,"longitude":76.3388,"temp":29.0,"humidity":77,"rain":0.0,"pressure":1008.3,"uv_index":8.3,"wind_gusts":43.9,"aqi":52,"pm10":27.6,"pm2_5":12.9,"no2":2.8,"co":89.0,"o3":56.0,"so2":1.4,"mosquito_risk":7,"arthritis_risk":0,"migraine_risk":4,"frizz_risk":1,"updated_at":"2026-07-05T16:35:34.730518+05:30"},{"city":"Munnar","state":"Kerala","latitude":10.0889,"longitude":77.0595,"temp":17.0,"humidity":90,"rain":0.1,"pressure":855.5,"uv_index":4.05,"wind_gusts":58.3,"aqi":25,"pm10":18.0,"pm2_5":8.4,"no2":2.1,"co":103.0,"o3":56.0,"so2":1.3,"mosquito_risk":6,"arthritis_risk":10,"migraine_risk":3,"frizz_risk":0,"updated_at":"2026-07-05T16:35:34.730525+05:30"},{"city":"Silchar","state":"Assam","latitude":24.8333,"longitude":92.7789,"temp":30.3,"humidity":86,"rain":0.0,"pressure":994.9,"uv_index":8.95,"wind_gusts":36.7,"aqi":43,"pm10":6.0,"pm2_5":5.9,"no2":3.0,"co":149.0,"o3":63.0,"so2":1.9,"mosquito_risk":3,"arthritis_risk":5,"migraine_risk":7,"frizz_risk":1,"updated_at":"2026-07-05T16:35:34.730533+05:30"},{"city":"Dibrugarh","state":"Assam","latitude":27.4728,"longitude":94.912,"temp":34.9,"humidity":65,"rain":0.0,"pressure":984.8,"uv_index":8.95,"wind_gusts":26.3,"aqi":42,"pm10":5.9,"pm2_5":5.8,"no2":3.6,"co":191.0,"o3":71.0,"so2":1.0,"mosquito_risk":3,"arthritis_risk":5,"migraine_risk":7,"frizz_risk":1,"updated_at":"2026-07-05T16:35:34.730540+05:30"}]