[{"city":"Delhi","state":"Delhi","latitude":28.6139,"longitude":77.209,"temp":27.3,"humidity":54,"rain":0.0,"pressure":986.3,"uv_index":6.5,"wind_gusts":36.0,"aqi":167,"pm10":219.8,"pm2_5":54.0,"mosquito_risk":4,"arthritis_risk":5,"migraine_risk":7,"frizz_risk":1,"updated_at":"2026-03-27T10:40:36.023253+05:30"},{"city":"Mumbai","state":"Maharashtra","latitude":19.076,"longitude":72.8777,"temp":29.7,"humidity":68,"rain":0.0,"pressure":1010.3,"uv_index":8.0,"wind_gusts":25.9,"aqi":101,"pm10":56.7,"pm2_5":49.9,"mosquito_risk":7,"arthritis_risk":0,"migraine_risk":4,"frizz_risk":1,"updated_at":"2026-03-27T10:40:36.023290+05:30"},{"city":"Bangalore","state":"Karnataka","latitude":12.9716,"longitude":77.5946,"temp":30.1,"humidity":30,"rain":0.0,"pressure":915.2,"uv_index":9.5,"wind_gusts":27.0,"aqi":70,"pm10":32.2,"pm2_5":22.8,"mosquito_risk":0,"arthritis_risk":5,"migraine_risk":7,"frizz_risk":0,"updated_at":"2026-03-27T10:40:36.023306+05:30"},{"city":"Hyderabad","state":"Telangana","latitude":17.385,"longitude":78.4867,"temp":32.8,"humidity":41,"rain":0.0,"pressure":957.0,"uv_index":9.0,"wind_gusts":39.2,"aqi":78,"pm10":24.2,"pm2_5":17.9,"mosquito_risk":0,"arthritis_risk":5,"migraine_risk":7,"frizz_risk":1,"updated_at":"2026-03-27T10:40:36.023316+05:30"},{"city":"Chennai","state":"Tamil Nadu","latitude":13.0827,"longitude":80.2707,"temp":31.4,"humidity":58,"rain":0.0,"pressure":1010.4,"uv_index":9.25,"wind_gusts":29.9,"aqi":68,"pm10":41.6,"pm2_5":24.2,"mosquito_risk":0,"arthritis_risk":0,"migraine_risk":4,"frizz_risk":1,"updated_at":"2026-03-27T10:40:36.023325+05:30"},{"city":"Kolkata","state":"West Bengal","latitude":22.5726,"longitude":88.3639,"temp":31.8,"humidity":65,"rain":0.0,"pressure":1008.1,"uv_index":8.45,"wind_gusts":24.5,"aqi":135,"pm10":60.8,"pm2_5":50.4,"mosquito_risk":3,"arthritis_risk":0,"migraine_risk":4,"frizz_risk":1,"updated_at":"2026-03-27T10:40:36.023333+05:30"},{"city":"Pune","state":"Maharashtra","latitude":18.5204,"longitude":73.8567,"temp":34.4,"humidity":31,"rain":0.0,"pressure":952.1,"uv_index":8.55,"wind_gusts":44.3,"aqi":111,"pm10":37.5,"pm2_5":26.8,"mosquito_risk":0,"arthritis_risk":5,"migraine_risk":7,"frizz_risk":0,"updated_at":"2026-03-27T10:40:36.023344+05:30"},{"city":"Ahmedabad","state":"Gujarat","latitude":23.0225,"longitude":72.5714,"temp":32.1,"humidity":44,"rain":0.0,"pressure":1006.3,"uv_index":7.9,"wind_gusts":31.3,"aqi":57,"pm10":32.8,"pm2_5":15.6,"mosquito_risk":0,"arthritis_risk":5,"migraine_risk":4,"frizz_risk":1,"updated_at":"2026-03-27T10:40:36.023351+05:30"},{"city":"Jaipur","state":"Rajasthan","latitude":26.9124,"longitude":75.7873,"temp":28.8,"humidity":43,"rain":0.0,"pressure":962.8,"uv_index":7.4,"wind_gusts":33.8,"aqi":91,"pm10":182.5,"pm2_5":31.5,"mosquito_risk":4,"arthritis_risk":5,"migraine_risk":7,"frizz_risk":0,"updated_at":"2026-03-27T10:40:36.023358+05:30"},{"city":"Lucknow","state":"Uttar Pradesh","latitude":26.8467,"longitude":80.9462,"temp":29.1,"humidity":45,"rain":0.0,"pressure":996.7,"uv_index":5.1,"wind_gusts":49.3,"aqi":90,"pm10":90.6,"pm2_5":27.9,"mosquito_risk":4,"arthritis_risk":5,"migraine_risk":3,"frizz_risk":0,"updated_at":"2026-03-27T10:40:36.023367+05:30"},{"city":"Kanpur","state":"Uttar Pradesh","latitude":26.4499,"longitude":80.3319,"temp":27.4,"humidity":53,"rain":0.0,"pressure":995.8,"uv_index":6.05,"wind_gusts":64.1,"aqi":153,"pm10":275.7,"pm2_5":45.8,"mosquito_risk":4,"arthritis_risk":5,"migraine_risk":7,"frizz_risk":1,"updated_at":"2026-03-27T10:40:36.023374+05:30"},{"city":"Chandigarh","state":"Chandigarh","latitude":30.7333,"longitude":76.7794,"temp":24.8,"humidity":68,"rain":0.0,"pressure":972.0,"uv_index":6.45,"wind_gusts":33.1,"aqi":68,"pm10":34.9,"pm2_5":22.0,"mosquito_risk":3,"arthritis_risk":5,"migraine_risk":7,"frizz_risk":1,"updated_at":"2026-03-27T10:40:36.023381+05:30"},{"city":"Srinagar","state":"Jammu and Kashmir","latitude":34.0837,"longitude":74.7973,"temp":15.5,"humidity":55,"rain":0.0,"pressure":844.4,"uv_index":7.5,"wind_gusts":16.6,"aqi":103,"pm10":36.2,"pm2_5":26.5,"mosquito_risk":0,"arthritis_risk":5,"migraine_risk":7,"frizz_risk":0,"updated_at":"2026-03-27T10:40:36.023389+05:30"},{"city":"Jammu","state":"Jammu and Kashmir","latitude":32.7266,"longitude":74.857,"temp":24.5,"humidity":63,"rain":0.0,"pressure":975.9,"uv_index":7.15,"wind_gusts":25.2,"aqi":83,"pm10":34.3,"pm2_5":28.7,"mosquito_risk":3,"arthritis_risk":5,"migraine_risk":7,"frizz_risk":1,"updated_at":"2026-03-27T10:40:36.023395+05:30"},{"city":"Amritsar","state":"Punjab","latitude":31.634,"longitude":74.8723,"temp":24.3,"humidity":60,"rain":0.0,"pressure":984.6,"uv_index":7.1,"wind_gusts":25.9,"aqi":80,"pm10":40.9,"pm2_5":28.4,"mosquito_risk":0,"arthritis_risk":5,"migraine_risk":7,"frizz_risk":0,"updated_at":"2026-03-27T10:40:36.023401+05:30"},{"city":"Ludhiana","state":"Punjab","latitude":30.901,"longitude":75.8573,"temp":25.3,"humidity":60,"rain":0.0,"pressure":982.2,"uv_index":6.3,"wind_gusts":27.4,"aqi":86,"pm10":53.1,"pm2_5":34.6,"mosquito_risk":4,"arthritis_risk":5,"migraine_risk":7,"frizz_risk":1,"updated_at":"2026-03-27T10:40:36.023408+05:30"},{"city":"Jalandhar","state":"Punjab","latitude":31.326,"longitude":75.5762,"temp":24.5,"humidity":64,"rain":0.0,"pressure":983.5,"uv_index":6.9,"wind_gusts":23.0,"aqi":86,"pm10":59.0,"pm2_5":26.4,"mosquito_risk":3,"arthritis_risk":5,"migraine_risk":7,"frizz_risk":1,"updated_at":"2026-03-27T10:40:36.023414+05:30"},{"city":"Dehradun","state":"Uttarakhand","latitude":30.6284,"longitude":78.0322,"temp":18.4,"humidity":56,"rain":0.0,"pressure":832.0,"uv_index":6.5,"wind_gusts":24.1,"aqi":48,"pm10":23.0,"pm2_5":11.6,"mosquito_risk":0,"arthritis_risk":5,"migraine_risk":7,"frizz_risk":0,"updated_at":"2026-03-27T10:40:36.023420+05:30"},{"city":"Shimla","state":"Himachal Pradesh","latitude":31.1048,"longitude":77.1734,"temp":16.4,"humidity":59,"rain":0.0,"pressure":786.5,"uv_index":6.2,"wind_gusts":40.0,"aqi":57,"pm10":20.5,"pm2_5":10.6,"mosquito_risk":0,"arthritis_risk":5,"migraine_risk":7,"frizz_risk":0,"updated_at":"2026-03-27T10:40:36.023426+05:30"},{"city":"Manali","state":"Himachal Pradesh","latitude":32.2396,"longitude":77.1887,"temp":20.0,"humidity":35,"rain":0.0,"pressure":821.0,"uv_index":8.1,"wind_gusts":26.6,"aqi":55,"pm10":10.0,"pm2_5":4.7,"mosquito_risk":0,"arthritis_risk":5,"migraine_risk":7,"frizz_risk":0,"updated_at":"2026-03-27T10:40:36.023434+05:30"},{"city":"Gurgaon","state":"Haryana","latitude":28.4595,"longitude":77.0266,"temp":27.3,"humidity":58,"rain":0.0,"pressure":984.8,"uv_index":6.7,"wind_gusts":37.4,"aqi":651,"pm10":733.9,"pm2_5":97.3,"mosquito_risk":4,"arthritis_risk":5,"migraine_risk":7,"frizz_risk":1,"updated_at":"2026-03-27T10:40:36.023440+05:30"},{"city":"Noida","state":"Uttar Pradesh","latitude":28.5355,"longitude":77.391,"temp":27.4,"humidity":54,"rain":0.0,"pressure":987.8,"uv_index":6.5,"wind_gusts":34.6,"aqi":651,"pm10":733.9,"pm2_5":97.3,"mosquito_risk":4,"arthritis_risk":5,"migraine_risk":7,"frizz_risk":1,"updated_at":"2026-03-27T10:40:36.023447+05:30"},{"city":"Ghaziabad","state":"Uttar Pradesh","latitude":28.6692,"longitude":77.4538,"temp":26.9,"humidity":59,"rain":0.0,"pressure":985.8,"uv_index":6.25,"wind_gusts":34.6,"aqi":130,"pm10":154.6,"pm2_5":43.7,"mosquito_risk":4,"arthritis_risk":5,"migraine_risk":7,"frizz_risk":1,"updated_at":"2026-03-27T10:40:36.023453+05:30"},{"city":"Faridabad","state":"Haryana","latitude":28.4089,"longitude":77.3178,"temp":27.6,"humidity":54,"rain":0.0,"pressure":987.2,"uv_index":6.5,"wind_gusts":33.1,"aqi":651,"pm10":733.9,"pm2_5":97.3,"mosquito_risk":4,"arthritis_risk":5,"migraine_risk":7,"frizz_risk":1,"updated_at":"2026-03-27T10:40:36.023459+05:30"},{"city":"Meerut","state":"Uttar Pradesh","latitude":28.9845,"longitude":77.7064,"temp":27.1,"humidity":56,"rain":0.0,"pressure":984.4,"uv_index":6.4,"wind_gusts":42.1,"aqi":130,"pm10":154.6,"pm2_5":43.7,"mosquito_risk":4,"arthritis_risk":5,"migraine_risk":7,"frizz_risk":1,"updated_at":"2026-03-27T10:40:36.023465+05:30"},{"city":"Agra","state":"Uttar Pradesh","latitude":27.1767,"longitude":78.0081,"temp":28.9,"humidity":48,"rain":0.0,"pressure":991.5,"uv_index":6.7,"wind_gusts":47.5,"aqi":547,"pm10":468.5,"pm2_5":88.7,"mosquito_risk":4,"arthritis_risk":5,"migraine_risk":7,"frizz_risk":1,"updated_at":"2026-03-27T10:40:36.023472+05:30"},{"city":"Varanasi","state":"Uttar Pradesh","latitude":25.3176,"longitude":82.9739,"temp":31.9,"humidity":39,"rain":0.0,"pressure":999.4,"uv_index":7.35,"wind_gusts":52.2,"aqi":91,"pm10":113.2,"pm2_5":30.3,"mosquito_risk":0,"arthritis_risk":5,"migraine_risk":7,"frizz_risk":1,"updated_at":"2026-03-27T10:40:36.023479+05:30"},{"city":"Prayagraj","state":"Uttar Pradesh","latitude":25.4358,"longitude":81.8463,"temp":31.3,"humidity":47,"rain":0.0,"pressure":998.4,"uv_index":7.25,"wind_gusts":34.6,"aqi":90,"pm10":142.5,"pm2_5":35.2,"mosquito_risk":0,"arthritis_risk":5,"migraine_risk":7,"frizz_risk":1,"updated_at":"2026-03-27T10:40:36.023485+05:30"},{"city":"Gorakhpur","state":"Uttar Pradesh","latitude":26.7606,"longitude":83.3732,"temp":27.3,"humidity":55,"rain":0.0,"pressure":998.9,"uv_index":6.2,"wind_gusts":44.6,"aqi":93,"pm10":73.8,"pm2_5":42.5,"mosquito_risk":4,"arthritis_risk":5,"migraine_risk":7,"frizz_risk":1,"updated_at":"2026-03-27T10:40:36.023494+05:30"},{"city":"Bareilly","state":"Uttar Pradesh","latitude":28.367,"longitude":79.4304,"temp":27.4,"humidity":56,"rain":0.0,"pressure":989.4,"uv_index":5.3,"wind_gusts":51.5,"aqi":66,"pm10":31.0,"pm2_5":15.1,"mosquito_risk":4,"arthritis_risk":5,"migraine_risk":3,"frizz_risk":1,"updated_at":"2026-03-27T10:40:36.023502+05:30"},{"city":"Aligarh","state":"Uttar Pradesh","latitude":27.8974,"longitude":78.088,"temp":26.7,"humidity":56,"rain":0.0,"pressure":989.0,"uv_index":5.85,"wind_gusts":44.6,"aqi":304,"pm10":287.8,"pm2_5":59.1,"mosquito_risk":4,"arthritis_risk":5,"migraine_risk":3,"frizz_risk":1,"updated_at":"2026-03-27T10:40:36.023509+05:30"},{"city":"Moradabad","state":"Uttar Pradesh","latitude":28.8386,"longitude":78.7733,"temp":27.4,"humidity":55,"rain":0.0,"pressure":986.2,"uv_index":5.55,"wind_gusts":40.3,"aqi":74,"pm10":40.9,"pm2_5":21.2,"mosquito_risk":4,"arthritis_risk":5,"migraine_risk":3,"frizz_risk":1,"updated_at":"2026-03-27T10:40:36.023515+05:30"},{"city":"Saharanpur","state":"Uttar Pradesh","latitude":29.9637,"longitude":77.546,"temp":23.3,"humidity":58,"rain":0.0,"pressure":978.2,"uv_index":3.4,"wind_gusts":34.2,"aqi":84,"pm10":39.8,"pm2_5":28.3,"mosquito_risk":0,"arthritis_risk":5,"migraine_risk":3,"frizz_risk":0,"updated_at":"2026-03-27T10:40:36.023521+05:30"},{"city":"Jhansi","state":"Uttar Pradesh","latitude":25.4484,"longitude":78.5685,"temp":29.9,"humidity":42,"rain":0.0,"pressure":981.7,"uv_index":7.55,"wind_gusts":61.2,"aqi":82,"pm10":195.6,"pm2_5":42.7,"mosquito_risk":4,"arthritis_risk":5,"migraine_risk":7,"frizz_risk":0,"updated_at":"2026-03-27T10:40:39.241196+05:30"},{"city":"Surat","state":"Gujarat","latitude":21.1702,"longitude":72.8311,"temp":30.8,"humidity":49,"rain":0.0,"pressure":1010.0,"uv_index":7.75,"wind_gusts":27.7,"aqi":125,"pm10":38.4,"pm2_5":32.9,"mosquito_risk":0,"arthritis_risk":0,"migraine_risk":4,"frizz_risk":1,"updated_at":"2026-03-27T10:40:39.241223+05:30"},{"city":"Vadodara","state":"Gujarat","latitude":22.3072,"longitude":73.1812,"temp":32.4,"humidity":42,"rain":0.0,"pressure":1008.0,"uv_index":7.95,"wind_gusts":27.4,"aqi":75,"pm10":24.7,"pm2_5":16.7,"mosquito_risk":0,"arthritis_risk":0,"migraine_risk":4,"frizz_risk":1,"updated_at":"2026-03-27T10:40:39.241232+05:30"},{"city":"Rajkot","state":"Gujarat","latitude":22.3039,"longitude":70.8022,"temp":30.3,"humidity":57,"rain":0.0,"pressure":998.9,"uv_index":7.75,"wind_gusts":32.8,"aqi":51,"pm10":36.6,"pm2_5":15.9,"mosquito_risk":0,"arthritis_risk":5,"migraine_risk":7,"frizz_risk":1,"updated_at":"2026-03-27T10:40:39.241240+05:30"},{"city":"Thane","state":"Maharashtra","latitude":19.2183,"longitude":72.9781,"temp":34.6,"humidity":37,"rain":0.0,"pressure":1009.9,"uv_index":8.0,"wind_gusts":38.5,"aqi":101,"pm10":56.7,"pm2_5":49.9,"mosquito_risk":0,"arthritis_risk":0,"migraine_risk":4,"frizz_risk":1,"updated_at":"2026-03-27T10:40:39.241246+05:30"},{"city":"Nagpur","state":"Maharashtra","latitude":21.1458,"longitude":79.0882,"temp":34.5,"humidity":30,"rain":0.0,"pressure":975.6,"uv_index":8.25,"wind_gusts":50.0,"aqi":124,"pm10":47.5,"pm2_5":41.6,"mosquito_risk":0,"arthritis_risk":5,"migraine_risk":7,"frizz_risk":0,"updated_at":"2026-03-27T10:40:39.241253+05:30"},{"city":"Nashik","state":"Maharashtra","latitude":19.9975,"longitude":73.7898,"temp":31.4,"humidity":34,"rain":0.0,"pressure":949.0,"uv_index":8.2,"wind_gusts":43.6,"aqi":77,"pm10":24.7,"pm2_5":14.1,"mosquito_risk":0,"arthritis_risk":5,"migraine_risk":7,"frizz_risk":0,"updated_at":"2026-03-27T10:40:39.241260+05:30"},{"city":"Aurangabad","state":"Maharashtra","latitude":19.8762,"longitude":75.3433,"temp":32.8,"humidity":32,"rain":0.0,"pressure":947.7,"uv_index":8.7,"wind_gusts":39.2,"aqi":68,"pm10":20.3,"pm2_5":12.5,"mosquito_risk":0,"arthritis_risk":5,"migraine_risk":7,"frizz_risk":0,"updated_at":"2026-03-27T10:40:39.241267+05:30"},{"city":"Solapur","state":"Maharashtra","latitude":17.6599,"longitude":75.9064,"temp":33.8,"humidity":35,"rain":0.0,"pressure":960.9,"uv_index":8.85,"wind_gusts":30.2,"aqi":100,"pm10":42.5,"pm2_5":35.2,"mosquito_risk":0,"arthritis_risk":5,"migraine_risk":7,"frizz_risk":1,"updated_at":"2026-03-27T10:40:39.241273+05:30"},{"city":"Kolhapur","state":"Maharashtra","latitude":16.705,"longitude":74.2433,"temp":30.4,"humidity":50,"rain":0.0,"pressure":951.8,"uv_index":8.95,"wind_gusts":44.6,"aqi":156,"pm10":53.2,"pm2_5":45.4,"mosquito_risk":0,"arthritis_risk":5,"migraine_risk":7,"frizz_risk":1,"updated_at":"2026-03-27T10:40:39.241280+05:30"},{"city":"Goa","state":"Goa","latitude":15.2993,"longitude":74.124,"temp":33.3,"humidity":63,"rain":0.0,"pressure":1000.5,"uv_index":8.95,"wind_gusts":32.0,"aqi":98,"pm10":35.9,"pm2_5":29.7,"mosquito_risk":3,"arthritis_risk":5,"migraine_risk":4,"frizz_risk":1,"updated_at":"2026-03-27T10:40:39.241286+05:30"},{"city":"Jodhpur","state":"Rajasthan","latitude":26.2389,"longitude":73.0243,"temp":30.8,"humidity":42,"rain":0.0,"pressure":987.7,"uv_index":7.7,"wind_gusts":30.6,"aqi":82,"pm10":106.4,"pm2_5":31.0,"mosquito_risk":0,"arthritis_risk":5,"migraine_risk":7,"frizz_risk":1,"updated_at":"2026-03-27T10:40:39.241293+05:30"},{"city":"Udaipur","state":"Rajasthan","latitude":24.5854,"longitude":73.7125,"temp":30.3,"humidity":31,"rain":0.0,"pressure":950.4,"uv_index":8.35,"wind_gusts":43.2,"aqi":27,"pm10":41.4,"pm2_5":12.5,"mosquito_risk":0,"arthritis_risk":5,"migraine_risk":7,"frizz_risk":0,"updated_at":"2026-03-27T10:40:39.241299+05:30"},{"city":"Kota","state":"Rajasthan","latitude":25.2138,"longitude":75.8648,"temp":33.7,"humidity":26,"rain":0.0,"pressure":981.3,"uv_index":7.7,"wind_gusts":39.6,"aqi":62,"pm10":77.8,"pm2_5":23.4,"mosquito_risk":0,"arthritis_risk":5,"migraine_risk":7,"frizz_risk":0,"updated_at":"2026-03-27T10:40:39.241306+05:30"},{"city":"Bikaner","state":"Rajasthan","latitude":28.0229,"longitude":73.3119,"temp":26.2,"humidity":50,"rain":0.0,"pressure":987.3,"uv_index":7.45,"wind_gusts":27.4,"aqi":69,"pm10":69.4,"pm2_5":30.2,"mosquito_risk":4,"arthritis_risk":5,"migraine_risk":7,"frizz_risk":0,"updated_at":"2026-03-27T10:40:39.241312+05:30"},{"city":"Ajmer","state":"Rajasthan","latitude":26.4499,"longitude":74.6399,"temp":28.2,"humidity":43,"rain":0.0,"pressure":958.2,"uv_index":7.7,"wind_gusts":36.0,"aqi":55,"pm10":138.8,"pm2_5":25.9,"mosquito_risk":4,"arthritis_risk":5,"migraine_risk":7,"frizz_risk":0,"updated_at":"2026-03-27T10:40:39.241319+05:30"},{"city":"Gwalior","state":"Madhya Pradesh","latitude":26.2183,"longitude":78.1828,"temp":26.2,"humidity":59,"rain":0.0,"pressure":987.4,"uv_index":7.05,"wind_gusts":55.8,"aqi":120,"pm10":249.6,"pm2_5":55.9,"mosquito_risk":4,"arthritis_risk":5,"migraine_risk":7,"frizz_risk":1,"updated_at":"2026-03-27T10:40:39.241326+05:30"},{"city":"Indore","state":"Madhya Pradesh","latitude":22.7196,"longitude":75.8577,"temp":31.7,"humidity":32,"rain":0.0,"pressure":951.4,"uv_index":8.2,"wind_gusts":38.9,"aqi":44,"pm10":45.8,"pm2_5":12.2,"mosquito_risk":0,"arthritis_risk":5,"migraine_risk":7,"frizz_risk":0,"updated_at":"2026-03-27T10:40:39.241332+05:30"},{"city":"Bhopal","state":"Madhya Pradesh","latitude":23.2599,"longitude":77.4126,"temp":32.8,"humidity":31,"rain":0.0,"pressure":956.2,"uv_index":8.1,"wind_gusts":44.3,"aqi":44,"pm10":19.6,"pm2_5":14.7,"mosquito_risk":0,"arthritis_risk":5,"migraine_risk":7,"frizz_risk":0,"updated_at":"2026-03-27T10:40:39.241338+05:30"},{"city":"Jabalpur","state":"Madhya Pradesh","latitude":23.1815,"longitude":79.9864,"temp":32.7,"humidity":38,"rain":0.0,"pressure":963.7,"uv_index":8.0,"wind_gusts":47.2,"aqi":58,"pm10":18.3,"pm2_5":12.3,"mosquito_risk":0,"arthritis_risk":5,"migraine_risk":7,"frizz_risk":1,"updated_at":"2026-03-27T10:40:39.241345+05:30"},{"city":"Ujjain","state":"Madhya Pradesh","latitude":23.1765,"longitude":75.7885,"temp":31.3,"humidity":34,"rain":0.0,"pressure":956.9,"uv_index":8.1,"wind_gusts":38.5,"aqi":38,"pm10":44.0,"pm2_5":11.7,"mosquito_risk":0,"arthritis_risk":5,"migraine_risk":7,"frizz_risk":0,"updated_at":"2026-03-27T10:40:39.241351+05:30"},{"city":"Visakhapatnam","state":"Andhra Pradesh","latitude":17.6868,"longitude":83.2185,"temp":33.8,"humidity":47,"rain":0.0,"pressure":1006.4,"uv_index":8.95,"wind_gusts":38.2,"aqi":83,"pm10":39.7,"pm2_5":28.5,"mosquito_risk":0,"arthritis_risk":5,"migraine_risk":4,"frizz_risk":1,"updated_at":"2026-03-27T10:40:39.241358+05:30"},{"city":"Vijayawada","state":"Andhra Pradesh","latitude":16.5062,"longitude":80.648,"temp":30.4,"humidity":68,"rain":0.0,"pressure":1006.3,"uv_index":9.05,"wind_gusts":25.6,"aqi":76,"pm10":31.4,"pm2_5":20.0,"mosquito_risk":3,"arthritis_risk":5,"migraine_risk":4,"frizz_risk":1,"updated_at":"2026-03-27T10:40:39.241365+05:30"},{"city":"Guntur","state":"Andhra Pradesh","latitude":16.3067,"longitude":80.4365,"temp":31.0,"humidity":63,"rain":0.0,"pressure":1007.3,"uv_index":9.05,"wind_gusts":30.2,"aqi":72,"pm10":29.6,"pm2_5":18.6,"mosquito_risk":3,"arthritis_risk":5,"migraine_risk":4,"frizz_risk":1,"updated_at":"2026-03-27T10:40:39.241371+05:30"},{"city":"Nellore","state":"Andhra Pradesh","latitude":14.4426,"longitude":79.9865,"temp":32.5,"humidity":48,"rain":0.0,"pressure":1008.7,"uv_index":9.15,"wind_gusts":29.9,"aqi":63,"pm10":34.6,"pm2_5":21.8,"mosquito_risk":0,"arthritis_risk":0,"migraine_risk":4,"frizz_risk":1,"updated_at":"2026-03-27T10:40:39.241379+05:30"},{"city":"Kurnool","state":"Andhra Pradesh","latitude":15.8281,"longitude":78.0373,"temp":34.4,"humidity":30,"rain":0.0,"pressure":980.2,"uv_index":9.05,"wind_gusts":16.2,"aqi":69,"pm10":30.7,"pm2_5":21.1,"mosquito_risk":0,"arthritis_risk":5,"migraine_risk":7,"frizz_risk":0,"updated_at":"2026-03-27T10:40:39.241386+05:30"},{"city":"Kakinada","state":"Andhra Pradesh","latitude":16.9891,"longitude":82.2475,"temp":32.8,"humidity":56,"rain":0.0,"pressure":1010.7,"uv_index":8.95,"wind_gusts":27.7,"aqi":67,"pm10":38.0,"pm2_5":23.6,"mosquito_risk":0,"arthritis_risk":0,"migraine_risk":4,"frizz_risk":1,"updated_at":"2026-03-27T10:40:39.241393+05:30"},{"city":"Tirupati","state":"Andhra Pradesh","latitude":13.6288,"longitude":79.4192,"temp":33.1,"humidity":34,"rain":0.0,"pressure":994.6,"uv_index":9.25,"wind_gusts":31.3,"aqi":96,"pm10":33.8,"pm2_5":23.1,"mosquito_risk":0,"arthritis_risk":5,"migraine_risk":7,"frizz_risk":0,"updated_at":"2026-03-27T10:40:39.241399+05:30"},{"city":"Warangal","state":"Telangana","latitude":17.9689,"longitude":79.5941,"temp":32.6,"humidity":39,"rain":0.0,"pressure":982.1,"uv_index":8.85,"wind_gusts":26.6,"aqi":84,"pm10":27.2,"pm2_5":19.8,"mosquito_risk":0,"arthritis_risk":5,"migraine_risk":7,"frizz_risk":1,"updated_at":"2026-03-27T10:40:39.241405+05:30"},{"city":"Nizamabad","state":"Telangana","latitude":18.6725,"longitude":78.0941,"temp":34.1,"humidity":38,"rain":0.0,"pressure":968.1,"uv_index":8.8,"wind_gusts":30.6,"aqi":99,"pm10":38.8,"pm2_5":32.0,"mosquito_risk":0,"arthritis_risk":5,"migraine_risk":7,"frizz_risk":1,"updated_at":"2026-03-27T10:40:39.241411+05:30"},{"city":"Mysore","state":"Karnataka","latitude":12.2958,"longitude":76.6396,"temp":30.8,"humidity":33,"rain":0.0,"pressure":931.8,"uv_index":9.45,"wind_gusts":41.0,"aqi":71,"pm10":29.6,"pm2_5":22.5,"mosquito_risk":0,"arthritis_risk":5,"migraine_risk":7,"frizz_risk":0,"updated_at":"2026-03-27T10:40:39.241417+05:30"},{"city":"Mangalore","state":"Karnataka","latitude":12.9141,"longitude":74.856,"temp":29.7,"humidity":81,"rain":0.0,"pressure":1009.1,"uv_index":9.1,"wind_gusts":24.8,"aqi":99,"pm10":43.8,"pm2_5":35.3,"mosquito_risk":7,"arthritis_risk":0,"migraine_risk":4,"frizz_risk":1,"updated_at":"2026-03-27T10:40:39.241424+05:30"},{"city":"Hubli-Dharwad","state":"Karnataka","latitude":15.3647,"longitude":75.124,"temp":30.5,"humidity":51,"rain":0.0,"pressure":944.7,"uv_index":9.1,"wind_gusts":41.8,"aqi":77,"pm10":21.4,"pm2_5":18.5,"mosquito_risk":0,"arthritis_risk":5,"migraine_risk":7,"frizz_risk":1,"updated_at":"2026-03-27T10:40:39.241430+05:30"},{"city":"Belgaum","state":"Karnataka","latitude":15.8497,"longitude":74.4977,"temp":32.3,"humidity":32,"rain":0.0,"pressure":929.6,"uv_index":9.15,"wind_gusts":37.8,"aqi":113,"pm10":27.5,"pm2_5":22.9,"mosquito_risk":0,"arthritis_risk":5,"migraine_risk":7,"frizz_risk":0,"updated_at":"2026-03-27T10:40:42.459607+05:30"},{"city":"Coimbatore","state":"Tamil Nadu","latitude":11.0168,"longitude":76.9558,"temp":31.1,"humidity":50,"rain":0.0,"pressure":965.2,"uv_index":9.4,"wind_gusts":40.7,"aqi":79,"pm10":30.9,"pm2_5":23.3,"mosquito_risk":0,"arthritis_risk":5,"migraine_risk":7,"frizz_risk":1,"updated_at":"2026-03-27T10:40:42.459637+05:30"},{"city":"Madurai","state":"Tamil Nadu","latitude":9.9252,"longitude":78.1198,"temp":29.9,"humidity":59,"rain":0.0,"pressure":996.5,"uv_index":9.35,"wind_gusts":21.6,"aqi":77,"pm10":33.1,"pm2_5":21.7,"mosquito_risk":4,"arthritis_risk":5,"migraine_risk":7,"frizz_risk":1,"updated_at":"2026-03-27T10:40:42.459649+05:30"},{"city":"Trichy","state":"Tamil Nadu","latitude":10.7905,"longitude":78.7047,"temp":29.5,"humidity":62,"rain":0.0,"pressure":1003.3,"uv_index":9.3,"wind_gusts":18.7,"aqi":87,"pm10":41.7,"pm2_5":27.5,"mosquito_risk":7,"arthritis_risk":5,"migraine_risk":4,"frizz_risk":1,"updated_at":"2026-03-27T10:40:42.459659+05:30"},{"city":"Salem","state":"Tamil Nadu","latitude":11.6643,"longitude":78.146,"temp":30.5,"humidity":58,"rain":0.0,"pressure":980.8,"uv_index":9.35,"wind_gusts":26.3,"aqi":94,"pm10":36.4,"pm2_5":29.7,"mosquito_risk":0,"arthritis_risk":5,"migraine_risk":7,"frizz_risk":1,"updated_at":"2026-03-27T10:40:42.459668+05:30"},{"city":"Tirunelveli","state":"Tamil Nadu","latitude":8.7139,"longitude":77.7567,"temp":31.6,"humidity":53,"rain":0.0,"pressure":1006.5,"uv_index":9.35,"wind_gusts":44.3,"aqi":57,"pm10":25.8,"pm2_5":17.3,"mosquito_risk":0,"arthritis_risk":5,"migraine_risk":4,"frizz_risk":1,"updated_at":"2026-03-27T10:40:42.459679+05:30"},{"city":"Vellore","state":"Tamil Nadu","latitude":12.9165,"longitude":79.1325,"temp":31.6,"humidity":42,"rain":0.0,"pressure":987.8,"uv_index":9.3,"wind_gusts":31.7,"aqi":94,"pm10":32.1,"pm2_5":22.4,"mosquito_risk":0,"arthritis_risk":5,"migraine_risk":7,"frizz_risk":1,"updated_at":"2026-03-27T10:40:42.459687+05:30"},{"city":"Erode","state":"Tamil Nadu","latitude":11.341,"longitude":77.7172,"temp":30.7,"humidity":59,"rain":0.0,"pressure":992.4,"uv_index":9.35,"wind_gusts":29.2,"aqi":88,"pm10":35.3,"pm2_5":28.0,"mosquito_risk":0,"arthritis_risk":5,"migraine_risk":7,"frizz_risk":1,"updated_at":"2026-03-27T10:40:42.459695+05:30"},{"city":"Kochi","state":"Kerala","latitude":9.9312,"longitude":76.2673,"temp":28.9,"humidity":78,"rain":0.0,"pressure":1010.9,"uv_index":9.15,"wind_gusts":37.8,"aqi":93,"pm10":35.0,"pm2_5":29.6,"mosquito_risk":7,"arthritis_risk":0,"migraine_risk":4,"frizz_risk":1,"updated_at":"2026-03-27T10:40:42.459703+05:30"},{"city":"Thiruvananthapuram","state":"Kerala","latitude":8.5241,"longitude":76.9366,"temp":29.2,"humidity":73,"rain":0.0,"pressure":1010.1,"uv_index":9.2,"wind_gusts":31.7,"aqi":69,"pm10":24.0,"pm2_5":19.0,"mosquito_risk":7,"arthritis_risk":0,"migraine_risk":4,"frizz_risk":1,"updated_at":"2026-03-27T10:40:42.459711+05:30"},{"city":"Kozhikode","state":"Kerala","latitude":11.2588,"longitude":75.7804,"temp":30.3,"humidity":74,"rain":0.0,"pressure":1010.2,"uv_index":9.1,"wind_gusts":31.3,"aqi":93,"pm10":40.9,"pm2_5":34.1,"mosquito_risk":3,"arthritis_risk":0,"migraine_risk":4,"frizz_risk":1,"updated_at":"2026-03-27T10:40:42.459718+05:30"},{"city":"Thrissur","state":"Kerala","latitude":10.5276,"longitude":76.2144,"temp":33.4,"humidity":54,"rain":0.0,"pressure":1009.1,"uv_index":9.15,"wind_gusts":40.7,"aqi":90,"pm10":36.4,"pm2_5":30.3,"mosquito_risk":0,"arthritis_risk":0,"migraine_risk":4,"frizz_risk":1,"updated_at":"2026-03-27T10:40:42.459726+05:30"},{"city":"Kannur","state":"Kerala","latitude":11.8745,"longitude":75.3704,"temp":31.6,"humidity":68,"rain":0.0,"pressure":1009.5,"uv_index":9.1,"wind_gusts":31.0,"aqi":104,"pm10":43.4,"pm2_5":35.5,"mosquito_risk":3,"arthritis_risk":0,"migraine_risk":4,"frizz_risk":1,"updated_at":"2026-03-27T10:40:42.459733+05:30"},{"city":"Patna","state":"Bihar","latitude":25.5941,"longitude":85.1376,"temp":30.6,"humidity":45,"rain":0.0,"pressure":1002.1,"uv_index":7.6,"wind_gusts":41.8,"aqi":148,"pm10":94.8,"pm2_5":51.9,"mosquito_risk":0,"arthritis_risk":5,"migraine_risk":4,"frizz_risk":1,"updated_at":"2026-03-27T10:40:42.459740+05:30"},{"city":"Gaya","state":"Bihar","latitude":24.7914,"longitude":85.0002,"temp":33.3,"humidity":32,"rain":0.0,"pressure":995.3,"uv_index":8.05,"wind_gusts":30.2,"aqi":70,"pm10":65.0,"pm2_5":18.0,"mosquito_risk":0,"arthritis_risk":5,"migraine_risk":7,"frizz_risk":0,"updated_at":"2026-03-27T10:40:42.459748+05:30"},{"city":"Muzaffarpur","state":"Bihar","latitude":26.1209,"longitude":85.3647,"temp":28.7,"humidity":59,"rain":0.0,"pressure":1002.2,"uv_index":7.25,"wind_gusts":44.6,"aqi":156,"pm10":85.2,"pm2_5":64.0,"mosquito_risk":4,"arthritis_risk":5,"migraine_risk":4,"frizz_risk":1,"updated_at":"2026-03-27T10:40:42.459798+05:30"},{"city":"Bhagalpur","state":"Bihar","latitude":25.2425,"longitude":87.0117,"temp":29.7,"humidity":64,"rain":0.0,"pressure":1002.9,"uv_index":7.9,"wind_gusts":28.8,"aqi":132,"pm10":74.7,"pm2_5":53.4,"mosquito_risk":7,"arthritis_risk":5,"migraine_risk":4,"frizz_risk":1,"updated_at":"2026-03-27T10:40:42.459812+05:30"},{"city":"Ranchi","state":"Jharkhand","latitude":23.3441,"longitude":85.3096,"temp":30.0,"humidity":31,"rain":0.0,"pressure":940.9,"uv_index":8.65,"wind_gusts":34.2,"aqi":52,"pm10":39.6,"pm2_5":11.0,"mosquito_risk":4,"arthritis_risk":5,"migraine_risk":7,"frizz_risk":0,"updated_at":"2026-03-27T10:40:42.459821+05:30"},{"city":"Jamshedpur","state":"Jharkhand","latitude":22.8046,"longitude":86.2029,"temp":32.6,"humidity":50,"rain":0.0,"pressure":993.4,"uv_index":8.55,"wind_gusts":24.5,"aqi":156,"pm10":61.0,"pm2_5":45.4,"mosquito_risk":0,"arthritis_risk":5,"migraine_risk":7,"frizz_risk":1,"updated_at":"2026-03-27T10:40:42.459830+05:30"},{"city":"Dhanbad","state":"Jharkhand","latitude":23.7957,"longitude":86.4304,"temp":33.1,"humidity":25,"rain":0.0,"pressure":982.3,"uv_index":8.4,"wind_gusts":25.6,"aqi":136,"pm10":58.2,"pm2_5":35.4,"mosquito_risk":0,"arthritis_risk":5,"migraine_risk":7,"frizz_risk":0,"updated_at":"2026-03-27T10:40:42.459837+05:30"},{"city":"Bokaro","state":"Jharkhand","latitude":23.6693,"longitude":86.1511,"temp":32.5,"humidity":26,"rain":0.0,"pressure":986.4,"uv_index":8.45,"wind_gusts":36.0,"aqi":124,"pm10":49.2,"pm2_5":23.6,"mosquito_risk":0,"arthritis_risk":5,"migraine_risk":7,"frizz_risk":0,"updated_at":"2026-03-27T10:40:42.459844+05:30"},{"city":"Bhubaneswar","state":"Odisha","latitude":20.2961,"longitude":85.8245,"temp":32.0,"humidity":68,"rain":0.0,"pressure":1005.2,"uv_index":8.75,"wind_gusts":25.2,"aqi":115,"pm10":49.9,"pm2_5":39.3,"mosquito_risk":3,"arthritis_risk":5,"migraine_risk":4,"frizz_risk":1,"updated_at":"2026-03-27T10:40:42.459852+05:30"},{"city":"Cuttack","state":"Odisha","latitude":20.4625,"longitude":85.8828,"temp":32.5,"humidity":67,"rain":0.0,"pressure":1007.1,"uv_index":8.8,"wind_gusts":31.7,"aqi":115,"pm10":49.9,"pm2_5":39.3,"mosquito_risk":3,"arthritis_risk":5,"migraine_risk":4,"frizz_risk":1,"updated_at":"2026-03-27T10:40:42.459859+05:30"},{"city":"Rourkela","state":"Odisha","latitude":22.2604,"longitude":84.8536,"temp":33.6,"humidity":42,"rain":0.0,"pressure":987.9,"uv_index":8.45,"wind_gusts":42.1,"aqi":78,"pm10":40.6,"pm2_5":24.7,"mosquito_risk":0,"arthritis_risk":5,"migraine_risk":7,"frizz_risk":1,"updated_at":"2026-03-27T10:40:42.459869+05:30"},{"city":"Raipur","state":"Chhattisgarh","latitude":21.2514,"longitude":81.6296,"temp":34.0,"humidity":42,"rain":0.0,"pressure":977.5,"uv_index":8.55,"wind_gusts":48.6,"aqi":130,"pm10":47.8,"pm2_5":41.7,"mosquito_risk":0,"arthritis_risk":5,"migraine_risk":7,"frizz_risk":1,"updated_at":"2026-03-27T10:40:42.459876+05:30"},{"city":"Bhilai","state":"Chhattisgarh","latitude":21.1938,"longitude":81.3509,"temp":34.1,"humidity":44,"rain":0.0,"pressure":977.8,"uv_index":8.6,"wind_gusts":45.0,"aqi":127,"pm10":39.6,"pm2_5":35.2,"mosquito_risk":0,"arthritis_risk":5,"migraine_risk":7,"frizz_risk":1,"updated_at":"2026-03-27T10:40:42.459884+05:30"},{"city":"Guwahati","state":"Assam","latitude":26.1158,"longitude":91.7086,"temp":25.4,"humidity":77,"rain":0.0,"pressure":1005.3,"uv_index":7.85,"wind_gusts":28.4,"aqi":152,"pm10":70.8,"pm2_5":46.6,"mosquito_risk":7,"arthritis_risk":5,"migraine_risk":4,"frizz_risk":1,"updated_at":"2026-03-27T10:40:42.459891+05:30"},{"city":"Agartala","state":"Tripura","latitude":23.8315,"longitude":91.2868,"temp":31.1,"humidity":56,"rain":0.0,"pressure":1008.4,"uv_index":8.2,"wind_gusts":24.5,"aqi":156,"pm10":71.9,"pm2_5":53.3,"mosquito_risk":0,"arthritis_risk":0,"migraine_risk":4,"frizz_risk":1,"updated_at":"2026-03-27T10:40:42.459898+05:30"},{"city":"Shillong","state":"Meghalaya","latitude":25.5788,"longitude":91.8933,"temp":18.4,"humidity":51,"rain":0.0,"pressure":858.6,"uv_index":8.1,"wind_gusts":42.1,"aqi":122,"pm10":62.9,"pm2_5":36.9,"mosquito_risk":0,"arthritis_risk":5,"migraine_risk":7,"frizz_risk":0,"updated_at":"2026-03-27T10:40:42.459905+05:30"},{"city":"Imphal","state":"Manipur","latitude":24.817,"longitude":93.9368,"temp":22.9,"humidity":51,"rain":0.0,"pressure":926.2,"uv_index":8.55,"wind_gusts":43.2,"aqi":129,"pm10":43.7,"pm2_5":25.6,"mosquito_risk":0,"arthritis_risk":5,"migraine_risk":7,"frizz_risk":0,"updated_at":"2026-03-27T10:40:42.459912+05:30"},{"city":"Aizawl","state":"Mizoram","latitude":23.7271,"longitude":92.7176,"temp":25.6,"humidity":39,"rain":0.0,"pressure":896.5,"uv_index":8.45,"wind_gusts":30.6,"aqi":102,"pm10":52.9,"pm2_5":27.6,"mosquito_risk":4,"arthritis_risk":5,"migraine_risk":7,"frizz_risk":0,"updated_at":"2026-03-27T10:40:42.459919+05:30"},{"city":"Kohima","state":"Nagaland","latitude":25.6701,"longitude":94.1077,"temp":18.7,"humidity":60,"rain":0.0,"pressure":858.1,"uv_index":8.45,"wind_gusts":71.6,"aqi":97,"pm10":40.9,"pm2_5":26.1,"mosquito_risk":0,"arthritis_risk":5,"migraine_risk":7,"frizz_risk":0,"updated_at":"2026-03-27T10:40:42.459926+05:30"},{"city":"Gangtok","state":"Sikkim","latitude":27.3314,"longitude":88.6138,"temp":17.3,"humidity":80,"rain":0.0,"pressure":839.3,"uv_index":7.85,"wind_gusts":21.2,"aqi":111,"pm10":53.0,"pm2_5":36.1,"mosquito_risk":3,"arthritis_risk":5,"migraine_risk":7,"frizz_risk":0,"updated_at":"2026-03-27T10:40:42.459933+05:30"},{"city":"Siliguri","state":"West Bengal","latitude":26.7271,"longitude":88.3953,"temp":21.5,"humidity":82,"rain":0.0,"pressure":997.2,"uv_index":7.7,"wind_gusts":33.1,"aqi":158,"pm10":91.3,"pm2_5":58.9,"mosquito_risk":3,"arthritis_risk":5,"migraine_risk":7,"frizz_risk":1,"updated_at":"2026-03-27T10:40:45.686403+05:30"},{"city":"Durgapur","state":"West Bengal","latitude":23.5204,"longitude":87.3119,"temp":32.9,"humidity":54,"rain":0.0,"pressure":997.2,"uv_index":8.4,"wind_gusts":19.8,"aqi":156,"pm10":65.7,"pm2_5":43.4,"mosquito_risk":0,"arthritis_risk":5,"migraine_risk":7,"frizz_risk":1,"updated_at":"2026-03-27T10:40:45.686441+05:30"},{"city":"Asansol","state":"West Bengal","latitude":23.6739,"longitude":86.9524,"temp":33.0,"humidity":48,"rain":0.0,"pressure":995.7,"uv_index":8.4,"wind_gusts":20.2,"aqi":124,"pm10":59.8,"pm2_5":37.1,"mosquito_risk":0,"arthritis_risk":5,"migraine_risk":7,"frizz_risk":1,"updated_at":"2026-03-27T10:40:45.686451+05:30"},{"city":"Pondicherry","state":"Puducherry","latitude":11.9139,"longitude":79.8145,"temp":30.3,"humidity":64,"rain":0.0,"pressure":1011.7,"uv_index":9.2,"wind_gusts":25.6,"aqi":67,"pm10":38.2,"pm2_5":21.2,"mosquito_risk":3,"arthritis_risk":0,"migraine_risk":4,"frizz_risk":1,"updated_at":"2026-03-27T10:40:45.686458+05:30"},{"city":"Port Blair","state":"Andaman and Nicobar Islands","latitude":11.6234,"longitude":92.7265,"temp":28.2,"humidity":75,"rain":0.0,"pressure":1008.7,"uv_index":9.15,"wind_gusts":23.0,"aqi":53,"pm10":34.6,"pm2_5":23.8,"mosquito_risk":7,"arthritis_risk":0,"migraine_risk":4,"frizz_risk":1,"updated_at":"2026-03-27T10:40:45.686466+05:30"},{"city":"Haridwar","state":"Uttarakhand","latitude":29.9457,"longitude":78.1642,"temp":26.7,"humidity":53,"rain":0.0,"pressure":977.1,"uv_index":6.2,"wind_gusts":38.5,"aqi":74,"pm10":39.1,"pm2_5":20.7,"mosquito_risk":4,"arthritis_risk":5,"migraine_risk":7,"frizz_risk":1,"updated_at":"2026-03-27T10:40:45.686473+05:30"},{"city":"Rishikesh","state":"Uttarakhand","latitude":30.0869,"longitude":78.2676,"temp":26.6,"humidity":54,"rain":0.0,"pressure":969.8,"uv_index":6.1,"wind_gusts":29.5,"aqi":58,"pm10":32.5,"pm2_5":13.0,"mosquito_risk":4,"arthritis_risk":5,"migraine_risk":7,"frizz_risk":1,"updated_at":"2026-03-27T10:40:45.686480+05:30"},{"city":"Nainital","state":"Uttarakhand","latitude":29.3919,"longitude":79.4542,"temp":22.0,"humidity":46,"rain":0.0,"pressure":808.9,"uv_index":6.95,"wind_gusts":58.0,"aqi":52,"pm10":26.4,"pm2_5":8.5,"mosquito_risk":0,"arthritis_risk":5,"migraine_risk":7,"frizz_risk":0,"updated_at":"2026-03-27T10:40:45.686487+05:30"},{"city":"Mussoorie","state":"Uttarakhand","latitude":30.4599,"longitude":78.0664,"temp":18.7,"humidity":59,"rain":0.0,"pressure":805.0,"uv_index":6.55,"wind_gusts":28.4,"aqi":66,"pm10":30.2,"pm2_5":16.0,"mosquito_risk":0,"arthritis_risk":5,"migraine_risk":7,"frizz_risk":0,"updated_at":"2026-03-27T10:40:45.686494+05:30"},{"city":"Dharamshala","state":"Himachal Pradesh","latitude":32.219,"longitude":76.3234,"temp":20.6,"humidity":62,"rain":0.0,"pressure":871.2,"uv_index":6.95,"wind_gusts":20.2,"aqi":46,"pm10":16.2,"pm2_5":8.2,"mosquito_risk":3,"arthritis_risk":5,"migraine_risk":7,"frizz_risk":0,"updated_at":"2026-03-27T10:40:45.686501+05:30"},{"city":"Dalhousie","state":"Himachal Pradesh","latitude":32.5387,"longitude":75.971,"temp":19.3,"humidity":48,"rain":0.0,"pressure":806.1,"uv_index":7.2,"wind_gusts":22.7,"aqi":67,"pm10":22.6,"pm2_5":15.0,"mosquito_risk":0,"arthritis_risk":5,"migraine_risk":7,"frizz_risk":0,"updated_at":"2026-03-27T10:40:45.686508+05:30"},{"city":"Patiala","state":"Punjab","latitude":30.3398,"longitude":76.3869,"temp":25.6,"humidity":57,"rain":0.0,"pressure":981.3,"uv_index":6.35,"wind_gusts":34.2,"aqi":176,"pm10":44.8,"pm2_5":29.0,"mosquito_risk":4,"arthritis_risk":5,"migraine_risk":7,"frizz_risk":1,"updated_at":"2026-03-27T10:40:45.686515+05:30"},{"city":"Bhatinda","state":"Punjab","latitude":30.211,"longitude":74.9455,"temp":26.6,"humidity":54,"rain":0.0,"pressure":987.9,"uv_index":7.05,"wind_gusts":29.9,"aqi":86,"pm10":40.2,"pm2_5":20.0,"mosquito_risk":4,"arthritis_risk":5,"migraine_risk":7,"frizz_risk":1,"updated_at":"2026-03-27T10:40:45.686522+05:30"},{"city":"Rohtak","state":"Haryana","latitude":28.8955,"longitude":76.6066,"temp":27.0,"humidity":57,"rain":0.0,"pressure":985.2,"uv_index":6.55,"wind_gusts":35.3,"aqi":171,"pm10":305.5,"pm2_5":63.1,"mosquito_risk":4,"arthritis_risk":5,"migraine_risk":7,"frizz_risk":1,"updated_at":"2026-03-27T10:40:45.686528+05:30"},{"city":"Panipat","state":"Haryana","latitude":29.3909,"longitude":76.9635,"temp":27.2,"humidity":53,"rain":0.0,"pressure":983.6,"uv_index":6.3,"wind_gusts":41.8,"aqi":287,"pm10":527.1,"pm2_5":72.2,"mosquito_risk":4,"arthritis_risk":5,"migraine_risk":7,"frizz_risk":1,"updated_at":"2026-03-27T10:40:45.686535+05:30"},{"city":"Mathura","state":"Uttar Pradesh","latitude":27.4924,"longitude":77.6737,"temp":27.7,"humidity":54,"rain":0.0,"pressure":990.2,"uv_index":6.8,"wind_gusts":36.0,"aqi":523,"pm10":312.0,"pm2_5":75.0,"mosquito_risk":4,"arthritis_risk":5,"migraine_risk":7,"frizz_risk":1,"updated_at":"2026-03-27T10:40:45.686541+05:30"},{"city":"Vrindavan","state":"Uttar Pradesh","latitude":27.5823,"longitude":77.7027,"temp":27.0,"humidity":56,"rain":0.0,"pressure":990.6,"uv_index":6.75,"wind_gusts":39.2,"aqi":523,"pm10":312.0,"pm2_5":75.0,"mosquito_risk":4,"arthritis_risk":5,"migraine_risk":7,"frizz_risk":1,"updated_at":"2026-03-27T10:40:45.686547+05:30"},{"city":"Ayodhya","state":"Uttar Pradesh","latitude":26.7922,"longitude":82.1998,"temp":29.1,"humidity":43,"rain":0.0,"pressure":997.9,"uv_index":5.8,"wind_gusts":52.6,"aqi":86,"pm10":65.2,"pm2_5":24.7,"mosquito_risk":4,"arthritis_risk":5,"migraine_risk":3,"frizz_risk":0,"updated_at":"2026-03-27T10:40:45.686554+05:30"},{"city":"Ratlam","state":"Madhya Pradesh","latitude":23.3315,"longitude":75.0367,"temp":30.4,"humidity":37,"rain":0.0,"pressure":957.9,"uv_index":8.05,"wind_gusts":33.8,"aqi":30,"pm10":18.3,"pm2_5":6.8,"mosquito_risk":0,"arthritis_risk":5,"migraine_risk":7,"frizz_risk":0,"updated_at":"2026-03-27T10:40:45.686561+05:30"},{"city":"Sagar","state":"Madhya Pradesh","latitude":23.8388,"longitude":78.7378,"temp":33.7,"humidity":29,"rain":0.0,"pressure":952.4,"uv_index":8.05,"wind_gusts":40.0,"aqi":47,"pm10":24.1,"pm2_5":9.0,"mosquito_risk":0,"arthritis_risk":5,"migraine_risk":7,"frizz_risk":0,"updated_at":"2026-03-27T10:40:45.686566+05:30"},{"city":"Satna","state":"Madhya Pradesh","latitude":24.6005,"longitude":80.8322,"temp":33.3,"humidity":29,"rain":0.0,"pressure":973.2,"uv_index":7.7,"wind_gusts":38.5,"aqi":63,"pm10":159.7,"pm2_5":27.5,"mosquito_risk":0,"arthritis_risk":5,"migraine_risk":7,"frizz_risk":0,"updated_at":"2026-03-27T10:40:45.686573+05:30"},{"city":"Akola","state":"Maharashtra","latitude":20.7002,"longitude":77.0082,"temp":32.6,"humidity":37,"rain":0.0,"pressure":978.1,"uv_index":8.45,"wind_gusts":41.4,"aqi":67,"pm10":8.9,"pm2_5":7.5,"mosquito_risk":0,"arthritis_risk":5,"migraine_risk":7,"frizz_risk":0,"updated_at":"2026-03-27T10:40:45.686580+05:30"},{"city":"Amravati","state":"Maharashtra","latitude":20.9374,"longitude":77.7796,"temp":34.1,"humidity":27,"rain":0.0,"pressure":970.2,"uv_index":8.45,"wind_gusts":40.3,"aqi":67,"pm10":7.4,"pm2_5":6.7,"mosquito_risk":0,"arthritis_risk":5,"migraine_risk":7,"frizz_risk":0,"updated_at":"2026-03-27T10:40:45.686587+05:30"},{"city":"Latur","state":"Maharashtra","latitude":18.4088,"longitude":76.5604,"temp":32.7,"humidity":30,"rain":0.0,"pressure":943.7,"uv_index":8.8,"wind_gusts":27.7,"aqi":89,"pm10":36.2,"pm2_5":27.4,"mosquito_risk":0,"arthritis_risk":5,"migraine_risk":7,"frizz_risk":0,"updated_at":"2026-03-27T10:40:45.686593+05:30"},{"city":"Nanded","state":"Maharashtra","latitude":19.1383,"longitude":77.3091,"temp":35.0,"humidity":29,"rain":0.0,"pressure":972.1,"uv_index":8.65,"wind_gusts":26.3,"aqi":87,"pm10":22.4,"pm2_5":18.6,"mosquito_risk":0,"arthritis_risk":5,"migraine_risk":7,"frizz_risk":0,"updated_at":"2026-03-27T10:40:45.686600+05:30"},{"city":"Gulbarga","state":"Karnataka","latitude":17.3297,"longitude":76.8343,"temp":33.8,"humidity":35,"rain":0.0,"pressure":962.4,"uv_index":8.85,"wind_gusts":32.0,"aqi":92,"pm10":29.7,"pm2_5":24.0,"mosquito_risk":0,"arthritis_risk":5,"migraine_risk":7,"frizz_risk":1,"updated_at":"2026-03-27T10:40:45.686606+05:30"},{"city":"Bidar","state":"Karnataka","latitude":17.9104,"longitude":77.5199,"temp":33.0,"humidity":37,"rain":0.0,"pressure":939.3,"uv_index":8.85,"wind_gusts":29.9,"aqi":89,"pm10":27.1,"pm2_5":22.1,"mosquito_risk":0,"arthritis_risk":5,"migraine_risk":7,"frizz_risk":1,"updated_at":"2026-03-27T10:40:45.686612+05:30"},{"city":"Hospet","state":"Karnataka","latitude":15.2689,"longitude":76.3909,"temp":30.9,"humidity":42,"rain":0.0,"pressure":959.5,"uv_index":9.1,"wind_gusts":23.8,"aqi":84,"pm10":29.5,"pm2_5":23.8,"mosquito_risk":0,"arthritis_risk":5,"migraine_risk":7,"frizz_risk":1,"updated_at":"2026-03-27T10:40:45.686618+05:30"},{"city":"Tirupur","state":"Tamil Nadu","latitude":11.1085,"longitude":77.3411,"temp":31.2,"humidity":49,"rain":0.0,"pressure":978.6,"uv_index":9.4,"wind_gusts":30.6,"aqi":93,"pm10":35.2,"pm2_5":28.5,"mosquito_risk":0,"arthritis_risk":5,"migraine_risk":7,"frizz_risk":1,"updated_at":"2026-03-27T10:40:45.686624+05:30"},{"city":"Alappuzha","state":"Kerala","latitude":9.4981,"longitude":76.3388,"temp":28.8,"humidity":79,"rain":0.0,"pressure":1011.1,"uv_index":9.15,"wind_gusts":34.9,"aqi":85,"pm10":34.5,"pm2_5":28.8,"mosquito_risk":7,"arthritis_risk":0,"migraine_risk":4,"frizz_risk":1,"updated_at":"2026-03-27T10:40:45.686630+05:30"},{"city":"Munnar","state":"Kerala","latitude":10.0889,"longitude":77.0595,"temp":28.1,"humidity":49,"rain":0.0,"pressure":861.2,"uv_index":9.65,"wind_gusts":33.8,"aqi":72,"pm10":24.0,"pm2_5":15.9,"mosquito_risk":4,"arthritis_risk":5,"migraine_risk":7,"frizz_risk":1,"updated_at":"2026-03-27T10:40:45.686636+05:30"},{"city":"Silchar","state":"Assam","latitude":24.8333,"longitude":92.7789,"temp":29.7,"humidity":58,"rain":0.0,"pressure":1007.9,"uv_index":8.25,"wind_gusts":16.9,"aqi":155,"pm10":60.8,"pm2_5":39.3,"mosquito_risk":4,"arthritis_risk":5,"migraine_risk":4,"frizz_risk":1,"updated_at":"2026-03-27T10:40:45.686642+05:30"},{"city":"Dibrugarh","state":"Assam","latitude":27.4728,"longitude":94.912,"temp":24.4,"humidity":73,"rain":0.0,"pressure":999.9,"uv_index":6.8,"wind_gusts":10.8,"aqi":118,"pm10":67.5,"pm2_5":43.9,"mosquito_risk":3,"arthritis_risk":5,"migraine_risk":7,"frizz_risk":1,"updated_at":"2026-03-27T10:40:45.686649+05:30"}]