[{"city":"Delhi","state":"Delhi","latitude":28.6139,"longitude":77.209,"temp":34.2,"humidity":44,"rain":0.0,"pressure":979.8,"uv_index":7.65,"wind_gusts":51.5,"aqi":172,"pm10":583.0,"pm2_5":97.8,"no2":5.8,"co":387.0,"o3":247.0,"so2":29.0,"mosquito_risk":0,"arthritis_risk":5,"migraine_risk":7,"frizz_risk":1,"updated_at":"2026-05-12T13:14:06.447210+05:30"},{"city":"Mumbai","state":"Maharashtra","latitude":19.076,"longitude":72.8777,"temp":34.5,"humidity":51,"rain":0.0,"pressure":1004.5,"uv_index":7.9,"wind_gusts":46.1,"aqi":90,"pm10":66.1,"pm2_5":37.5,"no2":7.7,"co":277.0,"o3":176.0,"so2":27.2,"mosquito_risk":0,"arthritis_risk":5,"migraine_risk":4,"frizz_risk":1,"updated_at":"2026-05-12T13:14:06.447269+05:30"},{"city":"Bangalore","state":"Karnataka","latitude":12.9716,"longitude":77.5946,"temp":34.5,"humidity":26,"rain":0.0,"pressure":910.2,"uv_index":8.75,"wind_gusts":42.5,"aqi":73,"pm10":30.2,"pm2_5":15.9,"no2":1.7,"co":260.0,"o3":166.0,"so2":5.2,"mosquito_risk":0,"arthritis_risk":5,"migraine_risk":7,"frizz_risk":0,"updated_at":"2026-05-12T13:14:06.447284+05:30"},{"city":"Hyderabad","state":"Telangana","latitude":17.385,"longitude":78.4867,"temp":37.3,"humidity":24,"rain":0.0,"pressure":951.0,"uv_index":8.7,"wind_gusts":38.5,"aqi":60,"pm10":35.0,"pm2_5":16.1,"no2":1.5,"co":280.0,"o3":155.0,"so2":4.4,"mosquito_risk":0,"arthritis_risk":5,"migraine_risk":10,"frizz_risk":0,"updated_at":"2026-05-12T13:14:06.447298+05:30"},{"city":"Chennai","state":"Tamil Nadu","latitude":13.0827,"longitude":80.2707,"temp":33.0,"humidity":58,"rain":0.0,"pressure":1003.6,"uv_index":9.2,"wind_gusts":41.4,"aqi":24,"pm10":8.4,"pm2_5":5.2,"no2":1.4,"co":116.0,"o3":54.0,"so2":3.7,"mosquito_risk":0,"arthritis_risk":5,"migraine_risk":4,"frizz_risk":1,"updated_at":"2026-05-12T13:14:06.447307+05:30"},{"city":"Kolkata","state":"West Bengal","latitude":22.5726,"longitude":88.3639,"temp":33.5,"humidity":56,"rain":0.0,"pressure":1004.4,"uv_index":8.95,"wind_gusts":32.0,"aqi":82,"pm10":29.9,"pm2_5":21.0,"no2":2.1,"co":251.0,"o3":136.0,"so2":8.0,"mosquito_risk":0,"arthritis_risk":5,"migraine_risk":4,"frizz_risk":1,"updated_at":"2026-05-12T13:14:06.447315+05:30"},{"city":"Pune","state":"Maharashtra","latitude":18.5204,"longitude":73.8567,"temp":41.7,"humidity":12,"rain":0.0,"pressure":944.6,"uv_index":8.5,"wind_gusts":54.4,"aqi":63,"pm10":32.7,"pm2_5":16.1,"no2":1.6,"co":229.0,"o3":169.0,"so2":10.2,"mosquito_risk":0,"arthritis_risk":5,"migraine_risk":10,"frizz_risk":0,"updated_at":"2026-05-12T13:14:06.447323+05:30"},{"city":"Ahmedabad","state":"Gujarat","latitude":23.0225,"longitude":72.5714,"temp":42.5,"humidity":15,"rain":0.0,"pressure":998.1,"uv_index":8.15,"wind_gusts":30.2,"aqi":60,"pm10":35.0,"pm2_5":14.6,"no2":1.9,"co":201.0,"o3":143.0,"so2":5.1,"mosquito_risk":0,"arthritis_risk":5,"migraine_risk":10,"frizz_risk":0,"updated_at":"2026-05-12T13:14:06.447336+05:30"},{"city":"Jaipur","state":"Rajasthan","latitude":26.9124,"longitude":75.7873,"temp":41.4,"humidity":15,"rain":0.0,"pressure":956.9,"uv_index":8.2,"wind_gusts":55.4,"aqi":132,"pm10":218.9,"pm2_5":40.6,"no2":1.4,"co":226.0,"o3":155.0,"so2":8.3,"mosquito_risk":0,"arthritis_risk":5,"migraine_risk":10,"frizz_risk":0,"updated_at":"2026-05-12T13:14:06.447344+05:30"},{"city":"Lucknow","state":"Uttar Pradesh","latitude":26.8467,"longitude":80.9462,"temp":37.7,"humidity":32,"rain":0.0,"pressure":991.1,"uv_index":8.15,"wind_gusts":34.9,"aqi":105,"pm10":58.2,"pm2_5":47.4,"no2":1.5,"co":390.0,"o3":220.0,"so2":15.9,"mosquito_risk":0,"arthritis_risk":5,"migraine_risk":10,"frizz_risk":1,"updated_at":"2026-05-12T13:14:06.447351+05:30"},{"city":"Kanpur","state":"Uttar Pradesh","latitude":26.4499,"longitude":80.3319,"temp":39.2,"humidity":24,"rain":0.0,"pressure":989.0,"uv_index":8.15,"wind_gusts":40.3,"aqi":110,"pm10":119.0,"pm2_5":43.9,"no2":1.4,"co":344.0,"o3":216.0,"so2":13.1,"mosquito_risk":0,"arthritis_risk":5,"migraine_risk":10,"frizz_risk":0,"updated_at":"2026-05-12T13:14:06.447357+05:30"},{"city":"Chandigarh","state":"Chandigarh","latitude":30.7333,"longitude":76.7794,"temp":32.5,"humidity":40,"rain":0.0,"pressure":968.1,"uv_index":7.65,"wind_gusts":43.2,"aqi":138,"pm10":135.5,"pm2_5":47.5,"no2":1.8,"co":383.0,"o3":212.0,"so2":13.0,"mosquito_risk":0,"arthritis_risk":5,"migraine_risk":7,"frizz_risk":1,"updated_at":"2026-05-12T13:14:06.447363+05:30"},{"city":"Srinagar","state":"Jammu and Kashmir","latitude":34.0837,"longitude":74.7973,"temp":21.1,"humidity":58,"rain":0.0,"pressure":843.1,"uv_index":8.75,"wind_gusts":25.6,"aqi":91,"pm10":30.2,"pm2_5":14.6,"no2":1.2,"co":252.0,"o3":135.0,"so2":1.9,"mosquito_risk":0,"arthritis_risk":5,"migraine_risk":7,"frizz_risk":0,"updated_at":"2026-05-12T13:14:06.447371+05:30"},{"city":"Jammu","state":"Jammu and Kashmir","latitude":32.7266,"longitude":74.857,"temp":30.7,"humidity":40,"rain":0.0,"pressure":971.9,"uv_index":8.45,"wind_gusts":50.8,"aqi":118,"pm10":54.9,"pm2_5":23.9,"no2":2.2,"co":231.0,"o3":136.0,"so2":2.2,"mosquito_risk":0,"arthritis_risk":5,"migraine_risk":7,"frizz_risk":0,"updated_at":"2026-05-12T13:14:06.447377+05:30"},{"city":"Amritsar","state":"Punjab","latitude":31.634,"longitude":74.8723,"temp":36.0,"humidity":30,"rain":0.0,"pressure":978.7,"uv_index":8.35,"wind_gusts":43.2,"aqi":159,"pm10":118.5,"pm2_5":58.1,"no2":1.7,"co":305.0,"o3":180.0,"so2":11.5,"mosquito_risk":0,"arthritis_risk":5,"migraine_risk":10,"frizz_risk":0,"updated_at":"2026-05-12T13:14:06.447384+05:30"},{"city":"Ludhiana","state":"Punjab","latitude":30.901,"longitude":75.8573,"temp":36.5,"humidity":27,"rain":0.0,"pressure":976.6,"uv_index":7.95,"wind_gusts":32.8,"aqi":163,"pm10":375.3,"pm2_5":72.4,"no2":1.6,"co":307.0,"o3":201.0,"so2":14.1,"mosquito_risk":0,"arthritis_risk":5,"migraine_risk":10,"frizz_risk":0,"updated_at":"2026-05-12T13:14:06.447390+05:30"},{"city":"Jalandhar","state":"Punjab","latitude":31.326,"longitude":75.5762,"temp":34.7,"humidity":37,"rain":0.0,"pressure":977.9,"uv_index":8.1,"wind_gusts":33.8,"aqi":161,"pm10":161.1,"pm2_5":57.7,"no2":1.6,"co":318.0,"o3":200.0,"so2":18.4,"mosquito_risk":0,"arthritis_risk":5,"migraine_risk":7,"frizz_risk":1,"updated_at":"2026-05-12T13:14:06.447396+05:30"},{"city":"Dehradun","state":"Uttarakhand","latitude":30.6284,"longitude":78.0322,"temp":21.9,"humidity":66,"rain":0.0,"pressure":832.0,"uv_index":8.1,"wind_gusts":34.6,"aqi":76,"pm10":67.8,"pm2_5":31.9,"no2":1.0,"co":294.0,"o3":163.0,"so2":4.7,"mosquito_risk":3,"arthritis_risk":5,"migraine_risk":7,"frizz_risk":0,"updated_at":"2026-05-12T13:14:06.447404+05:30"},{"city":"Shimla","state":"Himachal Pradesh","latitude":31.1048,"longitude":77.1734,"temp":19.9,"humidity":44,"rain":0.0,"pressure":787.0,"uv_index":8.2,"wind_gusts":46.4,"aqi":108,"pm10":66.8,"pm2_5":28.0,"no2":0.9,"co":236.0,"o3":162.0,"so2":4.6,"mosquito_risk":0,"arthritis_risk":5,"migraine_risk":7,"frizz_risk":0,"updated_at":"2026-05-12T13:14:06.447411+05:30"},{"city":"Manali","state":"Himachal Pradesh","latitude":32.2396,"longitude":77.1887,"temp":19.6,"humidity":52,"rain":0.0,"pressure":818.8,"uv_index":9.25,"wind_gusts":38.5,"aqi":89,"pm10":30.5,"pm2_5":14.1,"no2":0.7,"co":172.0,"o3":153.0,"so2":0.6,"mosquito_risk":0,"arthritis_risk":5,"migraine_risk":7,"frizz_risk":0,"updated_at":"2026-05-12T13:14:06.447417+05:30"},{"city":"Gurgaon","state":"Haryana","latitude":28.4595,"longitude":77.0266,"temp":36.5,"humidity":33,"rain":0.0,"pressure":978.1,"uv_index":7.8,"wind_gusts":53.3,"aqi":583,"pm10":1411.9,"pm2_5":156.5,"no2":3.1,"co":354.0,"o3":203.0,"so2":14.8,"mosquito_risk":0,"arthritis_risk":5,"migraine_risk":10,"frizz_risk":1,"updated_at":"2026-05-12T13:14:06.447423+05:30"},{"city":"Noida","state":"Uttar Pradesh","latitude":28.5355,"longitude":77.391,"temp":34.6,"humidity":43,"rain":0.0,"pressure":981.6,"uv_index":7.7,"wind_gusts":49.7,"aqi":583,"pm10":1411.9,"pm2_5":156.5,"no2":3.1,"co":351.0,"o3":203.0,"so2":14.8,"mosquito_risk":0,"arthritis_risk":5,"migraine_risk":7,"frizz_risk":1,"updated_at":"2026-05-12T13:14:06.447429+05:30"},{"city":"Ghaziabad","state":"Uttar Pradesh","latitude":28.6692,"longitude":77.4538,"temp":34.5,"humidity":38,"rain":0.0,"pressure":980.1,"uv_index":7.65,"wind_gusts":40.7,"aqi":156,"pm10":373.5,"pm2_5":67.1,"no2":2.5,"co":333.0,"o3":210.0,"so2":12.7,"mosquito_risk":0,"arthritis_risk":5,"migraine_risk":7,"frizz_risk":1,"updated_at":"2026-05-12T13:14:06.447437+05:30"},{"city":"Faridabad","state":"Haryana","latitude":28.4089,"longitude":77.3178,"temp":34.8,"humidity":39,"rain":0.0,"pressure":980.6,"uv_index":7.7,"wind_gusts":59.8,"aqi":583,"pm10":1411.9,"pm2_5":156.5,"no2":3.1,"co":351.0,"o3":203.0,"so2":14.8,"mosquito_risk":0,"arthritis_risk":5,"migraine_risk":7,"frizz_risk":1,"updated_at":"2026-05-12T13:14:06.447444+05:30"},{"city":"Meerut","state":"Uttar Pradesh","latitude":28.9845,"longitude":77.7064,"temp":33.5,"humidity":43,"rain":0.0,"pressure":979.4,"uv_index":7.6,"wind_gusts":37.1,"aqi":156,"pm10":373.5,"pm2_5":67.1,"no2":2.5,"co":342.0,"o3":210.0,"so2":12.7,"mosquito_risk":0,"arthritis_risk":5,"migraine_risk":7,"frizz_risk":1,"updated_at":"2026-05-12T13:14:06.447451+05:30"},{"city":"Agra","state":"Uttar Pradesh","latitude":27.1767,"longitude":78.0081,"temp":35.8,"humidity":34,"rain":0.0,"pressure":985.6,"uv_index":7.85,"wind_gusts":66.2,"aqi":352,"pm10":482.4,"pm2_5":66.1,"no2":1.2,"co":327.0,"o3":187.0,"so2":9.1,"mosquito_risk":0,"arthritis_risk":5,"migraine_risk":10,"frizz_risk":1,"updated_at":"2026-05-12T13:14:06.447457+05:30"},{"city":"Varanasi","state":"Uttar Pradesh","latitude":25.3176,"longitude":82.9739,"temp":37.8,"humidity":31,"rain":0.0,"pressure":993.9,"uv_index":8.7,"wind_gusts":33.8,"aqi":129,"pm10":78.0,"pm2_5":50.5,"no2":1.6,"co":339.0,"o3":214.0,"so2":17.4,"mosquito_risk":0,"arthritis_risk":5,"migraine_risk":10,"frizz_risk":1,"updated_at":"2026-05-12T13:14:06.447463+05:30"},{"city":"Prayagraj","state":"Uttar Pradesh","latitude":25.4358,"longitude":81.8463,"temp":39.4,"humidity":24,"rain":0.0,"pressure":992.5,"uv_index":8.55,"wind_gusts":36.0,"aqi":126,"pm10":63.1,"pm2_5":46.1,"no2":1.6,"co":346.0,"o3":217.0,"so2":16.5,"mosquito_risk":0,"arthritis_risk":5,"migraine_risk":10,"frizz_risk":0,"updated_at":"2026-05-12T13:14:06.447471+05:30"},{"city":"Gorakhpur","state":"Uttar Pradesh","latitude":26.7606,"longitude":83.3732,"temp":33.9,"humidity":46,"rain":0.0,"pressure":995.1,"uv_index":8.5,"wind_gusts":43.9,"aqi":116,"pm10":54.6,"pm2_5":45.3,"no2":1.5,"co":376.0,"o3":196.0,"so2":12.8,"mosquito_risk":0,"arthritis_risk":5,"migraine_risk":7,"frizz_risk":1,"updated_at":"2026-05-12T13:14:06.447477+05:30"},{"city":"Bareilly","state":"Uttar Pradesh","latitude":28.367,"longitude":79.4304,"temp":33.2,"humidity":45,"rain":0.0,"pressure":985.5,"uv_index":7.95,"wind_gusts":32.8,"aqi":125,"pm10":143.9,"pm2_5":42.4,"no2":2.2,"co":349.0,"o3":215.0,"so2":14.9,"mosquito_risk":0,"arthritis_risk":5,"migraine_risk":7,"frizz_risk":1,"updated_at":"2026-05-12T13:14:06.447483+05:30"},{"city":"Aligarh","state":"Uttar Pradesh","latitude":27.8974,"longitude":78.088,"temp":32.2,"humidity":48,"rain":0.0,"pressure":982.4,"uv_index":7.85,"wind_gusts":57.2,"aqi":216,"pm10":466.6,"pm2_5":69.6,"no2":1.7,"co":333.0,"o3":197.0,"so2":12.2,"mosquito_risk":0,"arthritis_risk":5,"migraine_risk":7,"frizz_risk":1,"updated_at":"2026-05-12T13:14:06.447490+05:30"},{"city":"Moradabad","state":"Uttar Pradesh","latitude":28.8386,"longitude":78.7733,"temp":33.4,"humidity":46,"rain":0.0,"pressure":982.2,"uv_index":7.8,"wind_gusts":28.8,"aqi":150,"pm10":59.8,"pm2_5":37.4,"no2":2.3,"co":317.0,"o3":216.0,"so2":15.8,"mosquito_risk":0,"arthritis_risk":5,"migraine_risk":7,"frizz_risk":1,"updated_at":"2026-05-12T13:14:06.447496+05:30"},{"city":"Saharanpur","state":"Uttar Pradesh","latitude":29.9637,"longitude":77.546,"temp":33.0,"humidity":48,"rain":0.0,"pressure":974.2,"uv_index":7.4,"wind_gusts":34.6,"aqi":138,"pm10":137.8,"pm2_5":53.6,"no2":1.1,"co":328.0,"o3":208.0,"so2":16.7,"mosquito_risk":0,"arthritis_risk":5,"migraine_risk":7,"frizz_risk":1,"updated_at":"2026-05-12T13:14:06.447502+05:30"},{"city":"Jhansi","state":"Uttar Pradesh","latitude":25.4484,"longitude":78.5685,"temp":40.8,"humidity":22,"rain":0.0,"pressure":974.8,"uv_index":8.45,"wind_gusts":30.2,"aqi":107,"pm10":111.8,"pm2_5":39.1,"no2":1.7,"co":279.0,"o3":202.0,"so2":23.5,"mosquito_risk":0,"arthritis_risk":5,"migraine_risk":10,"frizz_risk":0,"updated_at":"2026-05-12T13:14:09.789027+05:30"},{"city":"Surat","state":"Gujarat","latitude":21.1702,"longitude":72.8311,"temp":42.0,"humidity":15,"rain":0.0,"pressure":1002.5,"uv_index":7.75,"wind_gusts":33.8,"aqi":98,"pm10":71.2,"pm2_5":46.1,"no2":39.6,"co":159.0,"o3":89.0,"so2":111.5,"mosquito_risk":0,"arthritis_risk":5,"migraine_risk":7,"frizz_risk":0,"updated_at":"2026-05-12T13:14:09.789060+05:30"},{"city":"Vadodara","state":"Gujarat","latitude":22.3072,"longitude":73.1812,"temp":42.7,"humidity":16,"rain":0.0,"pressure":1000.0,"uv_index":8.1,"wind_gusts":29.9,"aqi":78,"pm10":37.7,"pm2_5":21.4,"no2":2.9,"co":249.0,"o3":173.0,"so2":12.8,"mosquito_risk":0,"arthritis_risk":5,"migraine_risk":7,"frizz_risk":0,"updated_at":"2026-05-12T13:14:09.789071+05:30"},{"city":"Rajkot","state":"Gujarat","latitude":22.3039,"longitude":70.8022,"temp":41.0,"humidity":23,"rain":0.0,"pressure":990.7,"uv_index":7.75,"wind_gusts":51.8,"aqi":52,"pm10":57.5,"pm2_5":17.9,"no2":1.3,"co":149.0,"o3":130.0,"so2":6.6,"mosquito_risk":0,"arthritis_risk":5,"migraine_risk":10,"frizz_risk":0,"updated_at":"2026-05-12T13:14:09.789080+05:30"},{"city":"Thane","state":"Maharashtra","latitude":19.2183,"longitude":72.9781,"temp":38.5,"humidity":39,"rain":0.0,"pressure":1003.2,"uv_index":7.9,"wind_gusts":40.3,"aqi":90,"pm10":66.1,"pm2_5":37.5,"no2":7.7,"co":251.0,"o3":176.0,"so2":27.2,"mosquito_risk":0,"arthritis_risk":5,"migraine_risk":7,"frizz_risk":1,"updated_at":"2026-05-12T13:14:09.789088+05:30"},{"city":"Nagpur","state":"Maharashtra","latitude":21.1458,"longitude":79.0882,"temp":42.1,"humidity":16,"rain":0.0,"pressure":969.7,"uv_index":8.95,"wind_gusts":38.2,"aqi":116,"pm10":60.1,"pm2_5":33.9,"no2":5.8,"co":250.0,"o3":211.0,"so2":33.4,"mosquito_risk":0,"arthritis_risk":5,"migraine_risk":10,"frizz_risk":0,"updated_at":"2026-05-12T13:14:09.789095+05:30"},{"city":"Nashik","state":"Maharashtra","latitude":19.9975,"longitude":73.7898,"temp":39.3,"humidity":19,"rain":0.0,"pressure":943.2,"uv_index":8.2,"wind_gusts":46.4,"aqi":67,"pm10":31.5,"pm2_5":15.9,"no2":1.4,"co":184.0,"o3":157.0,"so2":8.7,"mosquito_risk":0,"arthritis_risk":5,"migraine_risk":10,"frizz_risk":0,"updated_at":"2026-05-12T13:14:09.789101+05:30"},{"city":"Aurangabad","state":"Maharashtra","latitude":19.8762,"longitude":75.3433,"temp":41.4,"humidity":13,"rain":0.0,"pressure":941.3,"uv_index":9.05,"wind_gusts":37.1,"aqi":79,"pm10":44.6,"pm2_5":18.4,"no2":1.0,"co":229.0,"o3":174.0,"so2":10.3,"mosquito_risk":0,"arthritis_risk":5,"migraine_risk":10,"frizz_risk":0,"updated_at":"2026-05-12T13:14:09.789107+05:30"},{"city":"Solapur","state":"Maharashtra","latitude":17.6599,"longitude":75.9064,"temp":40.2,"humidity":19,"rain":0.0,"pressure":953.6,"uv_index":8.45,"wind_gusts":37.4,"aqi":67,"pm10":42.4,"pm2_5":21.3,"no2":1.5,"co":234.0,"o3":174.0,"so2":7.5,"mosquito_risk":0,"arthritis_risk":5,"migraine_risk":10,"frizz_risk":0,"updated_at":"2026-05-12T13:14:09.789114+05:30"},{"city":"Kolhapur","state":"Maharashtra","latitude":16.705,"longitude":74.2433,"temp":38.8,"humidity":20,"rain":0.0,"pressure":945.1,"uv_index":8.35,"wind_gusts":57.6,"aqi":73,"pm10":45.6,"pm2_5":20.3,"no2":1.5,"co":202.0,"o3":142.0,"so2":5.2,"mosquito_risk":0,"arthritis_risk":5,"migraine_risk":10,"frizz_risk":0,"updated_at":"2026-05-12T13:14:09.789120+05:30"},{"city":"Goa","state":"Goa","latitude":15.2993,"longitude":74.124,"temp":37.7,"humidity":44,"rain":0.0,"pressure":993.5,"uv_index":8.9,"wind_gusts":34.2,"aqi":80,"pm10":54.4,"pm2_5":19.7,"no2":0.7,"co":167.0,"o3":94.0,"so2":1.5,"mosquito_risk":0,"arthritis_risk":5,"migraine_risk":10,"frizz_risk":1,"updated_at":"2026-05-12T13:14:09.789127+05:30"},{"city":"Jodhpur","state":"Rajasthan","latitude":26.2389,"longitude":73.0243,"temp":42.8,"humidity":12,"rain":0.0,"pressure":979.4,"uv_index":8.35,"wind_gusts":49.0,"aqi":107,"pm10":135.5,"pm2_5":25.8,"no2":0.7,"co":156.0,"o3":145.0,"so2":2.4,"mosquito_risk":0,"arthritis_risk":5,"migraine_risk":10,"frizz_risk":0,"updated_at":"2026-05-12T13:14:09.789133+05:30"},{"city":"Udaipur","state":"Rajasthan","latitude":24.5854,"longitude":73.7125,"temp":40.3,"humidity":13,"rain":0.0,"pressure":944.8,"uv_index":8.85,"wind_gusts":31.0,"aqi":52,"pm10":23.9,"pm2_5":8.0,"no2":0.6,"co":157.0,"o3":143.0,"so2":3.2,"mosquito_risk":0,"arthritis_risk":5,"migraine_risk":10,"frizz_risk":0,"updated_at":"2026-05-12T13:14:09.789138+05:30"},{"city":"Kota","state":"Rajasthan","latitude":25.2138,"longitude":75.8648,"temp":42.5,"humidity":13,"rain":0.0,"pressure":975.5,"uv_index":8.4,"wind_gusts":39.6,"aqi":101,"pm10":69.2,"pm2_5":26.2,"no2":1.2,"co":230.0,"o3":173.0,"so2":11.5,"mosquito_risk":0,"arthritis_risk":5,"migraine_risk":10,"frizz_risk":0,"updated_at":"2026-05-12T13:14:09.789144+05:30"},{"city":"Bikaner","state":"Rajasthan","latitude":28.0229,"longitude":73.3119,"temp":42.5,"humidity":17,"rain":0.0,"pressure":977.8,"uv_index":8.35,"wind_gusts":40.3,"aqi":76,"pm10":65.0,"pm2_5":21.6,"no2":0.4,"co":282.0,"o3":129.0,"so2":7.4,"mosquito_risk":0,"arthritis_risk":5,"migraine_risk":10,"frizz_risk":0,"updated_at":"2026-05-12T13:14:09.789151+05:30"},{"city":"Ajmer","state":"Rajasthan","latitude":26.4499,"longitude":74.6399,"temp":40.5,"humidity":14,"rain":0.0,"pressure":952.6,"uv_index":8.35,"wind_gusts":54.7,"aqi":70,"pm10":53.6,"pm2_5":14.8,"no2":0.6,"co":155.0,"o3":134.0,"so2":1.8,"mosquito_risk":0,"arthritis_risk":5,"migraine_risk":10,"frizz_risk":0,"updated_at":"2026-05-12T13:14:09.789157+05:30"},{"city":"Gwalior","state":"Madhya Pradesh","latitude":26.2183,"longitude":78.1828,"temp":40.3,"humidity":23,"rain":0.0,"pressure":979.7,"uv_index":7.7,"wind_gusts":46.1,"aqi":111,"pm10":119.2,"pm2_5":37.6,"no2":0.8,"co":303.0,"o3":186.0,"so2":11.2,"mosquito_risk":0,"arthritis_risk":5,"migraine_risk":10,"frizz_risk":0,"updated_at":"2026-05-12T13:14:09.789163+05:30"},{"city":"Indore","state":"Madhya Pradesh","latitude":22.7196,"longitude":75.8577,"temp":41.9,"humidity":12,"rain":0.0,"pressure":945.9,"uv_index":8.7,"wind_gusts":36.0,"aqi":84,"pm10":88.2,"pm2_5":23.6,"no2":0.9,"co":238.0,"o3":160.0,"so2":6.3,"mosquito_risk":0,"arthritis_risk":5,"migraine_risk":10,"frizz_risk":0,"updated_at":"2026-05-12T13:14:09.789169+05:30"},{"city":"Bhopal","state":"Madhya Pradesh","latitude":23.2599,"longitude":77.4126,"temp":40.8,"humidity":14,"rain":0.0,"pressure":951.4,"uv_index":8.7,"wind_gusts":33.5,"aqi":108,"pm10":107.1,"pm2_5":29.8,"no2":0.6,"co":266.0,"o3":172.0,"so2":6.9,"mosquito_risk":0,"arthritis_risk":5,"migraine_risk":10,"frizz_risk":0,"updated_at":"2026-05-12T13:14:09.789175+05:30"},{"city":"Jabalpur","state":"Madhya Pradesh","latitude":23.1815,"longitude":79.9864,"temp":40.7,"humidity":16,"rain":0.0,"pressure":958.7,"uv_index":8.85,"wind_gusts":41.8,"aqi":120,"pm10":86.1,"pm2_5":32.6,"no2":0.8,"co":252.0,"o3":179.0,"so2":9.3,"mosquito_risk":0,"arthritis_risk":5,"migraine_risk":10,"frizz_risk":0,"updated_at":"2026-05-12T13:14:09.789181+05:30"},{"city":"Ujjain","state":"Madhya Pradesh","latitude":23.1765,"longitude":75.7885,"temp":42.5,"humidity":12,"rain":0.0,"pressure":951.3,"uv_index":8.6,"wind_gusts":27.4,"aqi":84,"pm10":88.5,"pm2_5":21.7,"no2":0.5,"co":211.0,"o3":158.0,"so2":7.1,"mosquito_risk":0,"arthritis_risk":5,"migraine_risk":10,"frizz_risk":0,"updated_at":"2026-05-12T13:14:09.789187+05:30"},{"city":"Visakhapatnam","state":"Andhra Pradesh","latitude":17.6868,"longitude":83.2185,"temp":33.5,"humidity":52,"rain":0.0,"pressure":1001.3,"uv_index":9.05,"wind_gusts":39.2,"aqi":62,"pm10":19.5,"pm2_5":13.5,"no2":11.1,"co":680.0,"o3":74.0,"so2":14.3,"mosquito_risk":0,"arthritis_risk":5,"migraine_risk":4,"frizz_risk":1,"updated_at":"2026-05-12T13:14:09.789213+05:30"},{"city":"Vijayawada","state":"Andhra Pradesh","latitude":16.5062,"longitude":80.648,"temp":37.8,"humidity":36,"rain":0.0,"pressure":999.1,"uv_index":9.15,"wind_gusts":37.4,"aqi":55,"pm10":26.0,"pm2_5":15.8,"no2":1.7,"co":169.0,"o3":119.0,"so2":5.1,"mosquito_risk":0,"arthritis_risk":5,"migraine_risk":10,"frizz_risk":1,"updated_at":"2026-05-12T13:14:09.789219+05:30"},{"city":"Guntur","state":"Andhra Pradesh","latitude":16.3067,"longitude":80.4365,"temp":38.7,"humidity":35,"rain":0.0,"pressure":1000.1,"uv_index":9.2,"wind_gusts":33.8,"aqi":56,"pm10":29.9,"pm2_5":18.5,"no2":1.6,"co":192.0,"o3":131.0,"so2":5.4,"mosquito_risk":0,"arthritis_risk":5,"migraine_risk":7,"frizz_risk":1,"updated_at":"2026-05-12T13:14:09.789227+05:30"},{"city":"Nellore","state":"Andhra Pradesh","latitude":14.4426,"longitude":79.9865,"temp":35.0,"humidity":48,"rain":0.0,"pressure":1002.5,"uv_index":8.8,"wind_gusts":37.8,"aqi":30,"pm10":15.9,"pm2_5":7.9,"no2":0.9,"co":119.0,"o3":81.0,"so2":2.1,"mosquito_risk":0,"arthritis_risk":5,"migraine_risk":4,"frizz_risk":1,"updated_at":"2026-05-12T13:14:09.789234+05:30"},{"city":"Kurnool","state":"Andhra Pradesh","latitude":15.8281,"longitude":78.0373,"temp":39.7,"humidity":22,"rain":0.0,"pressure":973.4,"uv_index":9.1,"wind_gusts":42.5,"aqi":52,"pm10":28.4,"pm2_5":13.2,"no2":0.8,"co":183.0,"o3":134.0,"so2":3.6,"mosquito_risk":0,"arthritis_risk":5,"migraine_risk":10,"frizz_risk":0,"updated_at":"2026-05-12T13:14:09.789242+05:30"},{"city":"Kakinada","state":"Andhra Pradesh","latitude":16.9891,"longitude":82.2475,"temp":33.0,"humidity":56,"rain":0.0,"pressure":1004.9,"uv_index":9.1,"wind_gusts":41.8,"aqi":28,"pm10":11.2,"pm2_5":6.6,"no2":0.8,"co":300.0,"o3":77.0,"so2":0.8,"mosquito_risk":0,"arthritis_risk":5,"migraine_risk":4,"frizz_risk":1,"updated_at":"2026-05-12T13:14:09.789248+05:30"},{"city":"Tirupati","state":"Andhra Pradesh","latitude":13.6288,"longitude":79.4192,"temp":36.5,"humidity":35,"rain":0.0,"pressure":987.5,"uv_index":9.25,"wind_gusts":41.4,"aqi":54,"pm10":19.8,"pm2_5":9.1,"no2":0.8,"co":148.0,"o3":103.0,"so2":1.4,"mosquito_risk":0,"arthritis_risk":5,"migraine_risk":10,"frizz_risk":1,"updated_at":"2026-05-12T13:14:09.789254+05:30"},{"city":"Warangal","state":"Telangana","latitude":17.9689,"longitude":79.5941,"temp":37.2,"humidity":37,"rain":0.0,"pressure":976.2,"uv_index":8.5,"wind_gusts":41.0,"aqi":63,"pm10":28.8,"pm2_5":17.5,"no2":1.6,"co":192.0,"o3":145.0,"so2":7.3,"mosquito_risk":0,"arthritis_risk":5,"migraine_risk":10,"frizz_risk":1,"updated_at":"2026-05-12T13:14:09.789260+05:30"},{"city":"Nizamabad","state":"Telangana","latitude":18.6725,"longitude":78.0941,"temp":38.6,"humidity":25,"rain":0.0,"pressure":961.9,"uv_index":9.15,"wind_gusts":29.9,"aqi":68,"pm10":35.5,"pm2_5":18.0,"no2":1.0,"co":212.0,"o3":163.0,"so2":4.6,"mosquito_risk":0,"arthritis_risk":5,"migraine_risk":10,"frizz_risk":0,"updated_at":"2026-05-12T13:14:09.789266+05:30"},{"city":"Mysore","state":"Karnataka","latitude":12.2958,"longitude":76.6396,"temp":33.8,"humidity":29,"rain":0.0,"pressure":926.3,"uv_index":8.8,"wind_gusts":36.0,"aqi":84,"pm10":30.4,"pm2_5":18.6,"no2":2.0,"co":250.0,"o3":174.0,"so2":5.7,"mosquito_risk":0,"arthritis_risk":5,"migraine_risk":7,"frizz_risk":0,"updated_at":"2026-05-12T13:14:09.789272+05:30"},{"city":"Mangalore","state":"Karnataka","latitude":12.9141,"longitude":74.856,"temp":32.0,"humidity":72,"rain":0.0,"pressure":1002.7,"uv_index":8.8,"wind_gusts":37.4,"aqi":90,"pm10":47.1,"pm2_5":23.1,"no2":1.0,"co":160.0,"o3":117.0,"so2":1.7,"mosquito_risk":3,"arthritis_risk":5,"migraine_risk":4,"frizz_risk":1,"updated_at":"2026-05-12T13:14:09.789279+05:30"},{"city":"Hubli-Dharwad","state":"Karnataka","latitude":15.3647,"longitude":75.124,"temp":36.9,"humidity":28,"rain":0.0,"pressure":938.7,"uv_index":9.1,"wind_gusts":43.9,"aqi":68,"pm10":38.6,"pm2_5":18.1,"no2":1.4,"co":201.0,"o3":150.0,"so2":4.4,"mosquito_risk":0,"arthritis_risk":5,"migraine_risk":10,"frizz_risk":0,"updated_at":"2026-05-12T13:14:09.789286+05:30"},{"city":"Belgaum","state":"Karnataka","latitude":15.8497,"longitude":74.4977,"temp":36.0,"humidity":25,"rain":0.0,"pressure":924.0,"uv_index":8.45,"wind_gusts":41.0,"aqi":68,"pm10":42.0,"pm2_5":17.6,"no2":1.5,"co":198.0,"o3":142.0,"so2":5.9,"mosquito_risk":0,"arthritis_risk":5,"migraine_risk":10,"frizz_risk":0,"updated_at":"2026-05-12T13:14:13.130096+05:30"},{"city":"Coimbatore","state":"Tamil Nadu","latitude":11.0168,"longitude":76.9558,"temp":33.8,"humidity":43,"rain":0.0,"pressure":958.6,"uv_index":9.05,"wind_gusts":30.6,"aqi":73,"pm10":30.9,"pm2_5":17.5,"no2":1.6,"co":308.0,"o3":165.0,"so2":5.2,"mosquito_risk":0,"arthritis_risk":5,"migraine_risk":7,"frizz_risk":1,"updated_at":"2026-05-12T13:14:13.130129+05:30"},{"city":"Madurai","state":"Tamil Nadu","latitude":9.9252,"longitude":78.1198,"temp":36.0,"humidity":39,"rain":0.0,"pressure":988.9,"uv_index":8.95,"wind_gusts":31.3,"aqi":82,"pm10":29.2,"pm2_5":21.5,"no2":1.7,"co":263.0,"o3":163.0,"so2":8.1,"mosquito_risk":0,"arthritis_risk":5,"migraine_risk":10,"frizz_risk":1,"updated_at":"2026-05-12T13:14:13.130139+05:30"},{"city":"Trichy","state":"Tamil Nadu","latitude":10.7905,"longitude":78.7047,"temp":35.5,"humidity":41,"rain":0.0,"pressure":995.5,"uv_index":9.1,"wind_gusts":32.0,"aqi":70,"pm10":27.0,"pm2_5":19.7,"no2":1.9,"co":196.0,"o3":152.0,"so2":12.9,"mosquito_risk":0,"arthritis_risk":5,"migraine_risk":10,"frizz_risk":1,"updated_at":"2026-05-12T13:14:13.130148+05:30"},{"city":"Salem","state":"Tamil Nadu","latitude":11.6643,"longitude":78.146,"temp":36.0,"humidity":37,"rain":0.0,"pressure":973.4,"uv_index":8.45,"wind_gusts":31.7,"aqi":87,"pm10":36.4,"pm2_5":23.9,"no2":2.9,"co":227.0,"o3":197.0,"so2":17.7,"mosquito_risk":0,"arthritis_risk":5,"migraine_risk":10,"frizz_risk":1,"updated_at":"2026-05-12T13:14:13.130156+05:30"},{"city":"Tirunelveli","state":"Tamil Nadu","latitude":8.7139,"longitude":77.7567,"temp":38.0,"humidity":33,"rain":0.0,"pressure":998.6,"uv_index":9.0,"wind_gusts":40.0,"aqi":67,"pm10":27.4,"pm2_5":20.4,"no2":1.4,"co":210.0,"o3":155.0,"so2":3.0,"mosquito_risk":0,"arthritis_risk":5,"migraine_risk":10,"frizz_risk":1,"updated_at":"2026-05-12T13:14:13.130164+05:30"},{"city":"Vellore","state":"Tamil Nadu","latitude":12.9165,"longitude":79.1325,"temp":35.8,"humidity":37,"rain":0.0,"pressure":980.9,"uv_index":9.0,"wind_gusts":35.3,"aqi":70,"pm10":21.4,"pm2_5":11.4,"no2":1.1,"co":164.0,"o3":120.0,"so2":3.8,"mosquito_risk":0,"arthritis_risk":5,"migraine_risk":10,"frizz_risk":1,"updated_at":"2026-05-12T13:14:13.130172+05:30"},{"city":"Erode","state":"Tamil Nadu","latitude":11.341,"longitude":77.7172,"temp":34.8,"humidity":43,"rain":0.0,"pressure":985.1,"uv_index":9.15,"wind_gusts":28.1,"aqi":91,"pm10":32.9,"pm2_5":22.1,"no2":2.1,"co":287.0,"o3":201.0,"so2":5.7,"mosquito_risk":0,"arthritis_risk":5,"migraine_risk":7,"frizz_risk":1,"updated_at":"2026-05-12T13:14:13.130180+05:30"},{"city":"Kochi","state":"Kerala","latitude":9.9312,"longitude":76.2673,"temp":31.3,"humidity":75,"rain":0.0,"pressure":1004.5,"uv_index":8.15,"wind_gusts":34.6,"aqi":86,"pm10":24.4,"pm2_5":19.0,"no2":1.7,"co":232.0,"o3":135.0,"so2":2.0,"mosquito_risk":3,"arthritis_risk":5,"migraine_risk":4,"frizz_risk":1,"updated_at":"2026-05-12T13:14:13.130187+05:30"},{"city":"Thiruvananthapuram","state":"Kerala","latitude":8.5241,"longitude":76.9366,"temp":30.5,"humidity":74,"rain":0.1,"pressure":1004.4,"uv_index":8.8,"wind_gusts":40.0,"aqi":54,"pm10":22.3,"pm2_5":17.7,"no2":1.5,"co":223.0,"o3":151.0,"so2":2.8,"mosquito_risk":6,"arthritis_risk":5,"migraine_risk":4,"frizz_risk":1,"updated_at":"2026-05-12T13:14:13.130214+05:30"},{"city":"Kozhikode","state":"Kerala","latitude":11.2588,"longitude":75.7804,"temp":32.2,"humidity":69,"rain":0.0,"pressure":1003.5,"uv_index":8.5,"wind_gusts":37.8,"aqi":62,"pm10":33.8,"pm2_5":20.5,"no2":0.9,"co":193.0,"o3":128.0,"so2":2.4,"mosquito_risk":3,"arthritis_risk":5,"migraine_risk":4,"frizz_risk":1,"updated_at":"2026-05-12T13:14:13.130220+05:30"},{"city":"Thrissur","state":"Kerala","latitude":10.5276,"longitude":76.2144,"temp":33.4,"humidity":64,"rain":0.0,"pressure":1002.9,"uv_index":8.25,"wind_gusts":33.5,"aqi":85,"pm10":28.1,"pm2_5":20.3,"no2":1.4,"co":213.0,"o3":134.0,"so2":2.2,"mosquito_risk":3,"arthritis_risk":5,"migraine_risk":4,"frizz_risk":1,"updated_at":"2026-05-12T13:14:13.130227+05:30"},{"city":"Kannur","state":"Kerala","latitude":11.8745,"longitude":75.3704,"temp":33.0,"humidity":68,"rain":0.0,"pressure":1002.8,"uv_index":8.95,"wind_gusts":48.6,"aqi":73,"pm10":34.5,"pm2_5":19.2,"no2":0.9,"co":203.0,"o3":124.0,"so2":1.5,"mosquito_risk":3,"arthritis_risk":5,"migraine_risk":4,"frizz_risk":1,"updated_at":"2026-05-12T13:14:13.130234+05:30"},{"city":"Patna","state":"Bihar","latitude":25.5941,"longitude":85.1376,"temp":34.0,"humidity":52,"rain":0.0,"pressure":997.5,"uv_index":8.6,"wind_gusts":35.3,"aqi":125,"pm10":62.9,"pm2_5":54.5,"no2":2.3,"co":323.0,"o3":207.0,"so2":17.1,"mosquito_risk":0,"arthritis_risk":5,"migraine_risk":7,"frizz_risk":1,"updated_at":"2026-05-12T13:14:13.130239+05:30"},{"city":"Gaya","state":"Bihar","latitude":24.7914,"longitude":85.0002,"temp":36.8,"humidity":40,"rain":0.0,"pressure":990.1,"uv_index":8.7,"wind_gusts":51.8,"aqi":110,"pm10":92.7,"pm2_5":58.6,"no2":2.0,"co":293.0,"o3":226.0,"so2":19.5,"mosquito_risk":0,"arthritis_risk":5,"migraine_risk":10,"frizz_risk":1,"updated_at":"2026-05-12T13:14:13.130246+05:30"},{"city":"Muzaffarpur","state":"Bihar","latitude":26.1209,"longitude":85.3647,"temp":32.2,"humidity":59,"rain":0.0,"pressure":998.1,"uv_index":8.75,"wind_gusts":43.6,"aqi":120,"pm10":55.9,"pm2_5":50.2,"no2":2.1,"co":306.0,"o3":202.0,"so2":14.6,"mosquito_risk":0,"arthritis_risk":5,"migraine_risk":7,"frizz_risk":1,"updated_at":"2026-05-12T13:14:13.130251+05:30"},{"city":"Bhagalpur","state":"Bihar","latitude":25.2425,"longitude":87.0117,"temp":30.5,"humidity":61,"rain":0.0,"pressure":1000.0,"uv_index":8.6,"wind_gusts":33.8,"aqi":137,"pm10":48.4,"pm2_5":43.0,"no2":4.4,"co":245.0,"o3":175.0,"so2":9.4,"mosquito_risk":3,"arthritis_risk":5,"migraine_risk":4,"frizz_risk":1,"updated_at":"2026-05-12T13:14:13.130257+05:30"},{"city":"Ranchi","state":"Jharkhand","latitude":23.3441,"longitude":85.3096,"temp":32.4,"humidity":48,"rain":0.0,"pressure":936.5,"uv_index":9.1,"wind_gusts":36.4,"aqi":127,"pm10":66.8,"pm2_5":45.1,"no2":1.5,"co":230.0,"o3":192.0,"so2":23.3,"mosquito_risk":0,"arthritis_risk":5,"migraine_risk":7,"frizz_risk":1,"updated_at":"2026-05-12T13:14:13.130263+05:30"},{"city":"Jamshedpur","state":"Jharkhand","latitude":22.8046,"longitude":86.2029,"temp":36.7,"humidity":35,"rain":0.0,"pressure":988.5,"uv_index":9.1,"wind_gusts":41.8,"aqi":74,"pm10":57.0,"pm2_5":43.3,"no2":3.7,"co":372.0,"o3":173.0,"so2":24.1,"mosquito_risk":0,"arthritis_risk":5,"migraine_risk":10,"frizz_risk":1,"updated_at":"2026-05-12T13:14:13.130269+05:30"},{"city":"Dhanbad","state":"Jharkhand","latitude":23.7957,"longitude":86.4304,"temp":34.3,"humidity":45,"rain":0.0,"pressure":978.0,"uv_index":8.95,"wind_gusts":33.1,"aqi":117,"pm10":77.1,"pm2_5":61.7,"no2":19.8,"co":422.0,"o3":148.0,"so2":52.9,"mosquito_risk":0,"arthritis_risk":5,"migraine_risk":7,"frizz_risk":1,"updated_at":"2026-05-12T13:14:13.130276+05:30"},{"city":"Bokaro","state":"Jharkhand","latitude":23.6693,"longitude":86.1511,"temp":34.6,"humidity":45,"rain":0.0,"pressure":981.6,"uv_index":8.9,"wind_gusts":32.0,"aqi":132,"pm10":85.9,"pm2_5":65.0,"no2":16.0,"co":872.0,"o3":191.0,"so2":53.6,"mosquito_risk":0,"arthritis_risk":5,"migraine_risk":7,"frizz_risk":1,"updated_at":"2026-05-12T13:14:13.130282+05:30"},{"city":"Bhubaneswar","state":"Odisha","latitude":20.2961,"longitude":85.8245,"temp":34.0,"humidity":51,"rain":0.0,"pressure":1001.0,"uv_index":9.15,"wind_gusts":34.2,"aqi":67,"pm10":21.0,"pm2_5":13.8,"no2":1.6,"co":188.0,"o3":101.0,"so2":3.5,"mosquito_risk":0,"arthritis_risk":5,"migraine_risk":4,"frizz_risk":1,"updated_at":"2026-05-12T13:14:13.130288+05:30"},{"city":"Cuttack","state":"Odisha","latitude":20.4625,"longitude":85.8828,"temp":34.5,"humidity":49,"rain":0.0,"pressure":1002.7,"uv_index":9.2,"wind_gusts":33.8,"aqi":67,"pm10":21.0,"pm2_5":13.8,"no2":1.6,"co":176.0,"o3":101.0,"so2":3.5,"mosquito_risk":0,"arthritis_risk":5,"migraine_risk":4,"frizz_risk":1,"updated_at":"2026-05-12T13:14:13.130295+05:30"},{"city":"Rourkela","state":"Odisha","latitude":22.2604,"longitude":84.8536,"temp":36.3,"humidity":38,"rain":0.0,"pressure":982.8,"uv_index":9.0,"wind_gusts":40.3,"aqi":110,"pm10":61.9,"pm2_5":41.6,"no2":1.7,"co":206.0,"o3":181.0,"so2":35.3,"mosquito_risk":0,"arthritis_risk":5,"migraine_risk":10,"frizz_risk":1,"updated_at":"2026-05-12T13:14:13.130301+05:30"},{"city":"Raipur","state":"Chhattisgarh","latitude":21.2514,"longitude":81.6296,"temp":39.5,"humidity":27,"rain":0.0,"pressure":971.9,"uv_index":9.05,"wind_gusts":32.0,"aqi":106,"pm10":42.0,"pm2_5":28.0,"no2":5.4,"co":397.0,"o3":250.0,"so2":7.3,"mosquito_risk":0,"arthritis_risk":5,"migraine_risk":10,"frizz_risk":1,"updated_at":"2026-05-12T13:14:13.130308+05:30"},{"city":"Bhilai","state":"Chhattisgarh","latitude":21.1938,"longitude":81.3509,"temp":38.8,"humidity":29,"rain":0.0,"pressure":972.3,"uv_index":9.05,"wind_gusts":33.1,"aqi":99,"pm10":42.6,"pm2_5":26.4,"no2":5.1,"co":578.0,"o3":215.0,"so2":7.4,"mosquito_risk":0,"arthritis_risk":5,"migraine_risk":10,"frizz_risk":1,"updated_at":"2026-05-12T13:14:13.130313+05:30"},{"city":"Guwahati","state":"Assam","latitude":26.1158,"longitude":91.7086,"temp":29.9,"humidity":59,"rain":0.0,"pressure":1000.4,"uv_index":8.65,"wind_gusts":29.2,"aqi":83,"pm10":28.0,"pm2_5":21.6,"no2":1.0,"co":293.0,"o3":145.0,"so2":1.3,"mosquito_risk":4,"arthritis_risk":5,"migraine_risk":4,"frizz_risk":1,"updated_at":"2026-05-12T13:14:13.130319+05:30"},{"city":"Agartala","state":"Tripura","latitude":23.8315,"longitude":91.2868,"temp":31.0,"humidity":55,"rain":0.0,"pressure":1005.2,"uv_index":8.85,"wind_gusts":19.8,"aqi":89,"pm10":29.7,"pm2_5":24.7,"no2":4.0,"co":249.0,"o3":162.0,"so2":1.4,"mosquito_risk":0,"arthritis_risk":5,"migraine_risk":4,"frizz_risk":1,"updated_at":"2026-05-12T13:14:13.130325+05:30"},{"city":"Shillong","state":"Meghalaya","latitude":25.5788,"longitude":91.8933,"temp":21.2,"humidity":64,"rain":0.0,"pressure":857.3,"uv_index":5.2,"wind_gusts":22.3,"aqi":70,"pm10":25.7,"pm2_5":19.4,"no2":1.0,"co":332.0,"o3":150.0,"so2":1.7,"mosquito_risk":3,"arthritis_risk":5,"migraine_risk":3,"frizz_risk":0,"updated_at":"2026-05-12T13:14:13.130331+05:30"},{"city":"Imphal","state":"Manipur","latitude":24.817,"longitude":93.9368,"temp":27.5,"humidity":51,"rain":0.0,"pressure":922.3,"uv_index":9.2,"wind_gusts":24.8,"aqi":86,"pm10":25.3,"pm2_5":19.3,"no2":0.8,"co":274.0,"o3":144.0,"so2":1.4,"mosquito_risk":4,"arthritis_risk":5,"migraine_risk":7,"frizz_risk":1,"updated_at":"2026-05-12T13:14:13.130337+05:30"},{"city":"Aizawl","state":"Mizoram","latitude":23.7271,"longitude":92.7176,"temp":26.1,"humidity":49,"rain":0.0,"pressure":892.7,"uv_index":9.05,"wind_gusts":24.5,"aqi":68,"pm10":26.6,"pm2_5":19.8,"no2":0.7,"co":260.0,"o3":126.0,"so2":0.7,"mosquito_risk":4,"arthritis_risk":5,"migraine_risk":7,"frizz_risk":0,"updated_at":"2026-05-12T13:14:13.130343+05:30"},{"city":"Kohima","state":"Nagaland","latitude":25.6701,"longitude":94.1077,"temp":23.9,"humidity":54,"rain":0.1,"pressure":855.7,"uv_index":8.3,"wind_gusts":29.9,"aqi":59,"pm10":21.9,"pm2_5":16.2,"no2":0.6,"co":265.0,"o3":139.0,"so2":1.0,"mosquito_risk":3,"arthritis_risk":5,"migraine_risk":7,"frizz_risk":0,"updated_at":"2026-05-12T13:14:13.130349+05:30"},{"city":"Gangtok","state":"Sikkim","latitude":27.3314,"longitude":88.6138,"temp":18.6,"humidity":83,"rain":0.1,"pressure":837.3,"uv_index":9.05,"wind_gusts":39.6,"aqi":77,"pm10":37.6,"pm2_5":27.0,"no2":0.7,"co":266.0,"o3":140.0,"so2":1.9,"mosquito_risk":6,"arthritis_risk":10,"migraine_risk":7,"frizz_risk":0,"updated_at":"2026-05-12T13:14:13.130356+05:30"},{"city":"Siliguri","state":"West Bengal","latitude":26.7271,"longitude":88.3953,"temp":29.0,"humidity":64,"rain":0.1,"pressure":992.3,"uv_index":8.5,"wind_gusts":24.5,"aqi":116,"pm10":47.5,"pm2_5":33.3,"no2":1.1,"co":332.0,"o3":149.0,"so2":1.8,"mosquito_risk":10,"arthritis_risk":5,"migraine_risk":7,"frizz_risk":1,"updated_at":"2026-05-12T13:14:16.474843+05:30"},{"city":"Durgapur","state":"West Bengal","latitude":23.5204,"longitude":87.3119,"temp":33.0,"humidity":55,"rain":0.0,"pressure":993.5,"uv_index":9.0,"wind_gusts":28.8,"aqi":102,"pm10":45.4,"pm2_5":37.0,"no2":10.5,"co":193.0,"o3":124.0,"so2":30.3,"mosquito_risk":0,"arthritis_risk":5,"migraine_risk":7,"frizz_risk":1,"updated_at":"2026-05-12T13:14:16.474874+05:30"},{"city":"Asansol","state":"West Bengal","latitude":23.6739,"longitude":86.9524,"temp":34.0,"humidity":51,"rain":0.0,"pressure":991.7,"uv_index":8.9,"wind_gusts":30.6,"aqi":95,"pm10":53.7,"pm2_5":43.2,"no2":10.7,"co":364.0,"o3":123.0,"so2":30.9,"mosquito_risk":0,"arthritis_risk":5,"migraine_risk":7,"frizz_risk":1,"updated_at":"2026-05-12T13:14:16.474885+05:30"},{"city":"Pondicherry","state":"Puducherry","latitude":11.9139,"longitude":79.8145,"temp":30.5,"humidity":74,"rain":0.0,"pressure":1004.5,"uv_index":9.1,"wind_gusts":36.4,"aqi":35,"pm10":13.9,"pm2_5":11.0,"no2":3.8,"co":146.0,"o3":84.0,"so2":8.4,"mosquito_risk":3,"arthritis_risk":5,"migraine_risk":4,"frizz_risk":1,"updated_at":"2026-05-12T13:14:16.474894+05:30"},{"city":"Port Blair","state":"Andaman and Nicobar Islands","latitude":11.6234,"longitude":92.7265,"temp":28.1,"humidity":83,"rain":0.0,"pressure":1004.6,"uv_index":2.15,"wind_gusts":27.4,"aqi":24,"pm10":5.5,"pm2_5":3.8,"no2":0.4,"co":102.0,"o3":51.0,"so2":0.1,"mosquito_risk":7,"arthritis_risk":5,"migraine_risk":0,"frizz_risk":1,"updated_at":"2026-05-12T13:14:16.474902+05:30"},{"city":"Haridwar","state":"Uttarakhand","latitude":29.9457,"longitude":78.1642,"temp":32.5,"humidity":48,"rain":0.0,"pressure":972.9,"uv_index":7.45,"wind_gusts":23.0,"aqi":119,"pm10":146.7,"pm2_5":51.9,"no2":1.0,"co":289.0,"o3":204.0,"so2":17.6,"mosquito_risk":0,"arthritis_risk":5,"migraine_risk":7,"frizz_risk":1,"updated_at":"2026-05-12T13:14:16.474911+05:30"},{"city":"Rishikesh","state":"Uttarakhand","latitude":30.0869,"longitude":78.2676,"temp":31.2,"humidity":50,"rain":0.0,"pressure":965.8,"uv_index":7.55,"wind_gusts":25.2,"aqi":111,"pm10":137.4,"pm2_5":47.5,"no2":0.8,"co":295.0,"o3":194.0,"so2":14.0,"mosquito_risk":0,"arthritis_risk":5,"migraine_risk":7,"frizz_risk":1,"updated_at":"2026-05-12T13:14:16.474919+05:30"},{"city":"Nainital","state":"Uttarakhand","latitude":29.3919,"longitude":79.4542,"temp":20.0,"humidity":65,"rain":0.0,"pressure":807.5,"uv_index":8.25,"wind_gusts":41.0,"aqi":116,"pm10":93.4,"pm2_5":37.8,"no2":0.8,"co":278.0,"o3":175.0,"so2":5.6,"mosquito_risk":3,"arthritis_risk":5,"migraine_risk":7,"frizz_risk":0,"updated_at":"2026-05-12T13:14:16.474927+05:30"},{"city":"Mussoorie","state":"Uttarakhand","latitude":30.4599,"longitude":78.0664,"temp":20.7,"humidity":60,"rain":0.0,"pressure":804.9,"uv_index":7.95,"wind_gusts":45.4,"aqi":106,"pm10":120.1,"pm2_5":45.3,"no2":1.0,"co":310.0,"o3":190.0,"so2":12.6,"mosquito_risk":0,"arthritis_risk":5,"migraine_risk":7,"frizz_risk":0,"updated_at":"2026-05-12T13:14:16.474936+05:30"},{"city":"Dharamshala","state":"Himachal Pradesh","latitude":32.219,"longitude":76.3234,"temp":25.9,"humidity":40,"rain":0.0,"pressure":869.9,"uv_index":8.35,"wind_gusts":42.8,"aqi":83,"pm10":55.6,"pm2_5":22.5,"no2":0.6,"co":254.0,"o3":142.0,"so2":2.0,"mosquito_risk":4,"arthritis_risk":5,"migraine_risk":7,"frizz_risk":0,"updated_at":"2026-05-12T13:14:16.474943+05:30"},{"city":"Dalhousie","state":"Himachal Pradesh","latitude":32.5387,"longitude":75.971,"temp":22.0,"humidity":41,"rain":0.0,"pressure":807.0,"uv_index":8.6,"wind_gusts":37.8,"aqi":134,"pm10":78.5,"pm2_5":35.0,"no2":1.4,"co":263.0,"o3":160.0,"so2":3.2,"mosquito_risk":0,"arthritis_risk":5,"migraine_risk":7,"frizz_risk":0,"updated_at":"2026-05-12T13:14:16.474952+05:30"},{"city":"Patiala","state":"Punjab","latitude":30.3398,"longitude":76.3869,"temp":34.8,"humidity":40,"rain":0.0,"pressure":976.3,"uv_index":7.55,"wind_gusts":39.2,"aqi":317,"pm10":823.3,"pm2_5":110.4,"no2":2.0,"co":320.0,"o3":221.0,"so2":19.1,"mosquito_risk":0,"arthritis_risk":5,"migraine_risk":7,"frizz_risk":1,"updated_at":"2026-05-12T13:14:16.474960+05:30"},{"city":"Bhatinda","state":"Punjab","latitude":30.211,"longitude":74.9455,"temp":39.2,"humidity":25,"rain":0.0,"pressure":980.2,"uv_index":8.2,"wind_gusts":37.4,"aqi":184,"pm10":343.7,"pm2_5":70.3,"no2":1.9,"co":389.0,"o3":197.0,"so2":17.6,"mosquito_risk":0,"arthritis_risk":5,"migraine_risk":10,"frizz_risk":0,"updated_at":"2026-05-12T13:14:16.474967+05:30"},{"city":"Rohtak","state":"Haryana","latitude":28.8955,"longitude":76.6066,"temp":38.2,"humidity":29,"rain":0.0,"pressure":978.2,"uv_index":7.7,"wind_gusts":54.0,"aqi":288,"pm10":726.4,"pm2_5":107.1,"no2":2.5,"co":379.0,"o3":226.0,"so2":15.9,"mosquito_risk":0,"arthritis_risk":5,"migraine_risk":10,"frizz_risk":1,"updated_at":"2026-05-12T13:14:16.474975+05:30"},{"city":"Panipat","state":"Haryana","latitude":29.3909,"longitude":76.9635,"temp":35.3,"humidity":37,"rain":0.0,"pressure":978.0,"uv_index":7.55,"wind_gusts":38.9,"aqi":533,"pm10":1229.3,"pm2_5":146.2,"no2":4.0,"co":339.0,"o3":245.0,"so2":26.0,"mosquito_risk":0,"arthritis_risk":5,"migraine_risk":10,"frizz_risk":1,"updated_at":"2026-05-12T13:14:16.474982+05:30"},{"city":"Mathura","state":"Uttar Pradesh","latitude":27.4924,"longitude":77.6737,"temp":31.6,"humidity":48,"rain":0.0,"pressure":984.6,"uv_index":7.95,"wind_gusts":70.9,"aqi":369,"pm10":624.0,"pm2_5":78.5,"no2":1.1,"co":339.0,"o3":188.0,"so2":7.5,"mosquito_risk":0,"arthritis_risk":5,"migraine_risk":7,"frizz_risk":1,"updated_at":"2026-05-12T13:14:16.474990+05:30"},{"city":"Vrindavan","state":"Uttar Pradesh","latitude":27.5823,"longitude":77.7027,"temp":32.3,"humidity":45,"rain":0.0,"pressure":984.9,"uv_index":7.95,"wind_gusts":70.9,"aqi":369,"pm10":624.0,"pm2_5":78.5,"no2":1.1,"co":346.0,"o3":188.0,"so2":7.5,"mosquito_risk":0,"arthritis_risk":5,"migraine_risk":7,"frizz_risk":1,"updated_at":"2026-05-12T13:14:16.474997+05:30"},{"city":"Ayodhya","state":"Uttar Pradesh","latitude":26.7922,"longitude":82.1998,"temp":34.3,"humidity":45,"rain":0.0,"pressure":993.3,"uv_index":8.3,"wind_gusts":36.4,"aqi":113,"pm10":58.1,"pm2_5":46.2,"no2":1.5,"co":372.0,"o3":204.0,"so2":14.5,"mosquito_risk":0,"arthritis_risk":5,"migraine_risk":7,"frizz_risk":1,"updated_at":"2026-05-12T13:14:16.475005+05:30"},{"city":"Ratlam","state":"Madhya Pradesh","latitude":23.3315,"longitude":75.0367,"temp":42.3,"humidity":12,"rain":0.0,"pressure":952.3,"uv_index":8.55,"wind_gusts":41.0,"aqi":68,"pm10":59.8,"pm2_5":15.8,"no2":0.4,"co":175.0,"o3":152.0,"so2":6.0,"mosquito_risk":0,"arthritis_risk":5,"migraine_risk":10,"frizz_risk":0,"updated_at":"2026-05-12T13:14:16.475012+05:30"},{"city":"Sagar","state":"Madhya Pradesh","latitude":23.8388,"longitude":78.7378,"temp":40.1,"humidity":17,"rain":0.0,"pressure":948.2,"uv_index":8.75,"wind_gusts":32.8,"aqi":119,"pm10":86.8,"pm2_5":26.1,"no2":0.5,"co":233.0,"o3":163.0,"so2":6.0,"mosquito_risk":0,"arthritis_risk":5,"migraine_risk":10,"frizz_risk":0,"updated_at":"2026-05-12T13:14:16.475020+05:30"},{"city":"Satna","state":"Madhya Pradesh","latitude":24.6005,"longitude":80.8322,"temp":39.6,"humidity":20,"rain":0.0,"pressure":968.6,"uv_index":8.75,"wind_gusts":47.9,"aqi":102,"pm10":73.3,"pm2_5":32.9,"no2":0.7,"co":279.0,"o3":185.0,"so2":7.8,"mosquito_risk":0,"arthritis_risk":5,"migraine_risk":10,"frizz_risk":0,"updated_at":"2026-05-12T13:14:16.475027+05:30"},{"city":"Akola","state":"Maharashtra","latitude":20.7002,"longitude":77.0082,"temp":42.0,"humidity":16,"rain":0.0,"pressure":971.3,"uv_index":8.9,"wind_gusts":34.6,"aqi":82,"pm10":82.0,"pm2_5":29.2,"no2":1.9,"co":233.0,"o3":195.0,"so2":17.4,"mosquito_risk":0,"arthritis_risk":5,"migraine_risk":10,"frizz_risk":0,"updated_at":"2026-05-12T13:14:16.475035+05:30"},{"city":"Amravati","state":"Maharashtra","latitude":20.9374,"longitude":77.7796,"temp":40.8,"humidity":18,"rain":0.0,"pressure":964.2,"uv_index":8.9,"wind_gusts":44.3,"aqi":84,"pm10":67.1,"pm2_5":25.4,"no2":2.3,"co":228.0,"o3":195.0,"so2":9.5,"mosquito_risk":0,"arthritis_risk":5,"migraine_risk":10,"frizz_risk":0,"updated_at":"2026-05-12T13:14:16.475043+05:30"},{"city":"Latur","state":"Maharashtra","latitude":18.4088,"longitude":76.5604,"temp":40.5,"humidity":17,"rain":0.0,"pressure":937.1,"uv_index":9.05,"wind_gusts":38.9,"aqi":65,"pm10":47.3,"pm2_5":20.4,"no2":1.0,"co":208.0,"o3":169.0,"so2":7.6,"mosquito_risk":0,"arthritis_risk":5,"migraine_risk":10,"frizz_risk":0,"updated_at":"2026-05-12T13:14:16.475051+05:30"},{"city":"Nanded","state":"Maharashtra","latitude":19.1383,"longitude":77.3091,"temp":41.3,"humidity":18,"rain":0.0,"pressure":964.9,"uv_index":9.05,"wind_gusts":34.6,"aqi":66,"pm10":46.7,"pm2_5":21.0,"no2":1.2,"co":225.0,"o3":176.0,"so2":9.7,"mosquito_risk":0,"arthritis_risk":5,"migraine_risk":10,"frizz_risk":0,"updated_at":"2026-05-12T13:14:16.475058+05:30"},{"city":"Gulbarga","state":"Karnataka","latitude":17.3297,"longitude":76.8343,"temp":40.0,"humidity":20,"rain":0.0,"pressure":955.5,"uv_index":8.7,"wind_gusts":43.6,"aqi":59,"pm10":40.6,"pm2_5":19.4,"no2":1.7,"co":214.0,"o3":176.0,"so2":7.2,"mosquito_risk":0,"arthritis_risk":5,"migraine_risk":10,"frizz_risk":0,"updated_at":"2026-05-12T13:14:16.475065+05:30"},{"city":"Bidar","state":"Karnataka","latitude":17.9104,"longitude":77.5199,"temp":37.4,"humidity":24,"rain":0.0,"pressure":933.7,"uv_index":9.15,"wind_gusts":39.2,"aqi":62,"pm10":37.6,"pm2_5":17.1,"no2":1.4,"co":206.0,"o3":164.0,"so2":6.6,"mosquito_risk":0,"arthritis_risk":5,"migraine_risk":10,"frizz_risk":0,"updated_at":"2026-05-12T13:14:16.475073+05:30"},{"city":"Hospet","state":"Karnataka","latitude":15.2689,"longitude":76.3909,"temp":35.0,"humidity":38,"rain":0.0,"pressure":953.3,"uv_index":9.2,"wind_gusts":28.4,"aqi":65,"pm10":37.8,"pm2_5":19.5,"no2":1.9,"co":203.0,"o3":162.0,"so2":5.4,"mosquito_risk":0,"arthritis_risk":5,"migraine_risk":7,"frizz_risk":1,"updated_at":"2026-05-12T13:14:16.475080+05:30"},{"city":"Tirupur","state":"Tamil Nadu","latitude":11.1085,"longitude":77.3411,"temp":36.0,"humidity":34,"rain":0.0,"pressure":971.7,"uv_index":9.25,"wind_gusts":29.9,"aqi":89,"pm10":33.1,"pm2_5":22.2,"no2":2.1,"co":272.0,"o3":200.0,"so2":6.6,"mosquito_risk":0,"arthritis_risk":5,"migraine_risk":10,"frizz_risk":1,"updated_at":"2026-05-12T13:14:16.475087+05:30"},{"city":"Alappuzha","state":"Kerala","latitude":9.4981,"longitude":76.3388,"temp":31.1,"humidity":74,"rain":0.0,"pressure":1004.8,"uv_index":8.75,"wind_gusts":36.4,"aqi":73,"pm10":23.6,"pm2_5":18.6,"no2":1.9,"co":204.0,"o3":145.0,"so2":3.1,"mosquito_risk":3,"arthritis_risk":5,"migraine_risk":4,"frizz_risk":1,"updated_at":"2026-05-12T13:14:16.475094+05:30"},{"city":"Munnar","state":"Kerala","latitude":10.0889,"longitude":77.0595,"temp":25.6,"humidity":33,"rain":0.0,"pressure":856.3,"uv_index":9.1,"wind_gusts":22.3,"aqi":77,"pm10":27.4,"pm2_5":15.9,"no2":1.0,"co":178.0,"o3":143.0,"so2":3.4,"mosquito_risk":4,"arthritis_risk":5,"migraine_risk":7,"frizz_risk":0,"updated_at":"2026-05-12T13:14:16.475101+05:30"},{"city":"Silchar","state":"Assam","latitude":24.8333,"longitude":92.7789,"temp":30.6,"humidity":59,"rain":0.0,"pressure":1003.7,"uv_index":8.85,"wind_gusts":25.6,"aqi":101,"pm10":32.9,"pm2_5":26.1,"no2":1.0,"co":319.0,"o3":149.0,"so2":3.5,"mosquito_risk":0,"arthritis_risk":5,"migraine_risk":4,"frizz_risk":1,"updated_at":"2026-05-12T13:14:16.475109+05:30"},{"city":"Dibrugarh","state":"Assam","latitude":27.4728,"longitude":94.912,"temp":29.9,"humidity":53,"rain":0.0,"pressure":993.6,"uv_index":8.8,"wind_gusts":18.4,"aqi":84,"pm10":18.7,"pm2_5":13.2,"no2":0.9,"co":222.0,"o3":137.0,"so2":1.1,"mosquito_risk":4,"arthritis_risk":5,"migraine_risk":7,"frizz_risk":1,"updated_at":"2026-05-12T13:14:16.475115+05:30"}]