[{"city":"Delhi","state":"Delhi","latitude":28.6139,"longitude":77.209,"temp":27.7,"humidity":56,"rain":0.0,"pressure":980.5,"uv_index":7.4,"wind_gusts":45.0,"aqi":438,"pm10":363.2,"pm2_5":80.6,"no2":17.7,"co":481.0,"o3":99.0,"so2":20.6,"mosquito_risk":4,"arthritis_risk":5,"migraine_risk":7,"frizz_risk":1,"updated_at":"2026-05-30T03:23:14.725049+05:30"},{"city":"Mumbai","state":"Maharashtra","latitude":19.076,"longitude":72.8777,"temp":30.2,"humidity":73,"rain":0.0,"pressure":1007.1,"uv_index":7.8,"wind_gusts":43.9,"aqi":63,"pm10":25.6,"pm2_5":15.1,"no2":4.0,"co":124.0,"o3":52.0,"so2":3.9,"mosquito_risk":3,"arthritis_risk":5,"migraine_risk":4,"frizz_risk":1,"updated_at":"2026-05-30T03:23:14.725099+05:30"},{"city":"Bangalore","state":"Karnataka","latitude":12.9716,"longitude":77.5946,"temp":21.6,"humidity":96,"rain":0.0,"pressure":910.9,"uv_index":8.55,"wind_gusts":32.0,"aqi":54,"pm10":13.7,"pm2_5":13.2,"no2":20.3,"co":320.0,"o3":48.0,"so2":6.0,"mosquito_risk":3,"arthritis_risk":5,"migraine_risk":7,"frizz_risk":1,"updated_at":"2026-05-30T03:23:14.725116+05:30"},{"city":"Hyderabad","state":"Telangana","latitude":17.385,"longitude":78.4867,"temp":29.4,"humidity":53,"rain":0.0,"pressure":951.0,"uv_index":8.85,"wind_gusts":41.4,"aqi":61,"pm10":16.6,"pm2_5":14.3,"no2":10.2,"co":235.0,"o3":71.0,"so2":5.9,"mosquito_risk":4,"arthritis_risk":5,"migraine_risk":7,"frizz_risk":1,"updated_at":"2026-05-30T03:23:14.725126+05:30"},{"city":"Chennai","state":"Tamil Nadu","latitude":13.0827,"longitude":80.2707,"temp":29.8,"humidity":60,"rain":0.0,"pressure":1004.0,"uv_index":9.0,"wind_gusts":40.3,"aqi":79,"pm10":27.0,"pm2_5":21.7,"no2":13.9,"co":396.0,"o3":78.0,"so2":9.6,"mosquito_risk":4,"arthritis_risk":5,"migraine_risk":4,"frizz_risk":1,"updated_at":"2026-05-30T03:23:14.725136+05:30"},{"city":"Kolkata","state":"West Bengal","latitude":22.5726,"longitude":88.3639,"temp":23.9,"humidity":92,"rain":0.0,"pressure":1005.1,"uv_index":8.9,"wind_gusts":29.9,"aqi":113,"pm10":90.1,"pm2_5":73.6,"no2":32.2,"co":758.0,"o3":37.0,"so2":12.5,"mosquito_risk":3,"arthritis_risk":5,"migraine_risk":4,"frizz_risk":1,"updated_at":"2026-05-30T03:23:14.725145+05:30"},{"city":"Pune","state":"Maharashtra","latitude":18.5204,"longitude":73.8567,"temp":25.3,"humidity":83,"rain":0.0,"pressure":947.1,"uv_index":8.35,"wind_gusts":47.2,"aqi":41,"pm10":15.5,"pm2_5":10.8,"no2":8.5,"co":133.0,"o3":40.0,"so2":6.8,"mosquito_risk":7,"arthritis_risk":5,"migraine_risk":7,"frizz_risk":1,"updated_at":"2026-05-30T03:23:14.725152+05:30"},{"city":"Ahmedabad","state":"Gujarat","latitude":23.0225,"longitude":72.5714,"temp":30.7,"humidity":61,"rain":0.0,"pressure":998.9,"uv_index":8.1,"wind_gusts":48.2,"aqi":73,"pm10":34.0,"pm2_5":18.9,"no2":4.4,"co":124.0,"o3":46.0,"so2":4.4,"mosquito_risk":3,"arthritis_risk":5,"migraine_risk":7,"frizz_risk":1,"updated_at":"2026-05-30T03:23:14.725159+05:30"},{"city":"Jaipur","state":"Rajasthan","latitude":26.9124,"longitude":75.7873,"temp":26.0,"humidity":63,"rain":0.0,"pressure":956.5,"uv_index":8.15,"wind_gusts":58.7,"aqi":119,"pm10":216.5,"pm2_5":58.9,"no2":6.0,"co":269.0,"o3":88.0,"so2":4.4,"mosquito_risk":7,"arthritis_risk":5,"migraine_risk":7,"frizz_risk":1,"updated_at":"2026-05-30T03:23:14.725170+05:30"},{"city":"Lucknow","state":"Uttar Pradesh","latitude":26.8467,"longitude":80.9462,"temp":25.6,"humidity":75,"rain":0.0,"pressure":991.6,"uv_index":8.1,"wind_gusts":36.7,"aqi":99,"pm10":32.4,"pm2_5":27.6,"no2":9.4,"co":353.0,"o3":111.0,"so2":10.5,"mosquito_risk":7,"arthritis_risk":5,"migraine_risk":7,"frizz_risk":1,"updated_at":"2026-05-30T03:23:14.725178+05:30"},{"city":"Kanpur","state":"Uttar Pradesh","latitude":26.4499,"longitude":80.3319,"temp":26.9,"humidity":70,"rain":0.0,"pressure":990.1,"uv_index":8.1,"wind_gusts":42.5,"aqi":147,"pm10":51.2,"pm2_5":34.1,"no2":9.7,"co":319.0,"o3":106.0,"so2":10.4,"mosquito_risk":7,"arthritis_risk":5,"migraine_risk":7,"frizz_risk":1,"updated_at":"2026-05-30T03:23:14.725185+05:30"},{"city":"Chandigarh","state":"Chandigarh","latitude":30.7333,"longitude":76.7794,"temp":29.1,"humidity":37,"rain":0.0,"pressure":966.6,"uv_index":7.7,"wind_gusts":38.2,"aqi":110,"pm10":45.8,"pm2_5":31.5,"no2":10.3,"co":288.0,"o3":120.0,"so2":6.0,"mosquito_risk":4,"arthritis_risk":5,"migraine_risk":7,"frizz_risk":0,"updated_at":"2026-05-30T03:23:14.725193+05:30"},{"city":"Srinagar","state":"Jammu and Kashmir","latitude":34.0837,"longitude":74.7973,"temp":11.9,"humidity":98,"rain":0.0,"pressure":839.0,"uv_index":8.95,"wind_gusts":26.6,"aqi":69,"pm10":48.0,"pm2_5":45.2,"no2":31.0,"co":386.0,"o3":20.0,"so2":0.3,"mosquito_risk":3,"arthritis_risk":10,"migraine_risk":7,"frizz_risk":0,"updated_at":"2026-05-30T03:23:14.725200+05:30"},{"city":"Jammu","state":"Jammu and Kashmir","latitude":32.7266,"longitude":74.857,"temp":27.7,"humidity":38,"rain":0.0,"pressure":970.7,"uv_index":8.5,"wind_gusts":47.2,"aqi":150,"pm10":97.6,"pm2_5":66.6,"no2":40.5,"co":352.0,"o3":31.0,"so2":4.5,"mosquito_risk":4,"arthritis_risk":5,"migraine_risk":7,"frizz_risk":0,"updated_at":"2026-05-30T03:23:14.725208+05:30"},{"city":"Amritsar","state":"Punjab","latitude":31.634,"longitude":74.8723,"temp":28.1,"humidity":48,"rain":0.0,"pressure":977.8,"uv_index":8.35,"wind_gusts":74.9,"aqi":239,"pm10":358.6,"pm2_5":101.0,"no2":8.4,"co":381.0,"o3":118.0,"so2":15.1,"mosquito_risk":4,"arthritis_risk":5,"migraine_risk":7,"frizz_risk":1,"updated_at":"2026-05-30T03:23:14.725215+05:30"},{"city":"Ludhiana","state":"Punjab","latitude":30.901,"longitude":75.8573,"temp":28.5,"humidity":44,"rain":0.0,"pressure":975.9,"uv_index":7.95,"wind_gusts":63.0,"aqi":600,"pm10":401.4,"pm2_5":94.5,"no2":6.7,"co":326.0,"o3":129.0,"so2":12.8,"mosquito_risk":4,"arthritis_risk":5,"migraine_risk":7,"frizz_risk":0,"updated_at":"2026-05-30T03:23:14.725223+05:30"},{"city":"Jalandhar","state":"Punjab","latitude":31.326,"longitude":75.5762,"temp":28.2,"humidity":43,"rain":0.0,"pressure":977.0,"uv_index":8.15,"wind_gusts":58.3,"aqi":470,"pm10":366.0,"pm2_5":101.5,"no2":11.4,"co":317.0,"o3":102.0,"so2":15.7,"mosquito_risk":4,"arthritis_risk":5,"migraine_risk":7,"frizz_risk":0,"updated_at":"2026-05-30T03:23:14.725231+05:30"},{"city":"Dehradun","state":"Uttarakhand","latitude":30.6284,"longitude":78.0322,"temp":12.6,"humidity":95,"rain":0.0,"pressure":828.0,"uv_index":7.95,"wind_gusts":27.4,"aqi":104,"pm10":64.7,"pm2_5":47.6,"no2":26.6,"co":264.0,"o3":62.0,"so2":2.0,"mosquito_risk":3,"arthritis_risk":10,"migraine_risk":7,"frizz_risk":0,"updated_at":"2026-05-30T03:23:14.725237+05:30"},{"city":"Shimla","state":"Himachal Pradesh","latitude":31.1048,"longitude":77.1734,"temp":9.4,"humidity":85,"rain":0.0,"pressure":780.0,"uv_index":7.2,"wind_gusts":31.0,"aqi":90,"pm10":43.8,"pm2_5":36.1,"no2":17.3,"co":420.0,"o3":73.0,"so2":0.8,"mosquito_risk":3,"arthritis_risk":10,"migraine_risk":7,"frizz_risk":0,"updated_at":"2026-05-30T03:23:14.725248+05:30"},{"city":"Manali","state":"Himachal Pradesh","latitude":32.2396,"longitude":77.1887,"temp":10.0,"humidity":89,"rain":0.0,"pressure":815.1,"uv_index":7.55,"wind_gusts":32.4,"aqi":47,"pm10":7.6,"pm2_5":5.9,"no2":40.6,"co":309.0,"o3":74.0,"so2":0.0,"mosquito_risk":3,"arthritis_risk":10,"migraine_risk":7,"frizz_risk":0,"updated_at":"2026-05-30T03:23:14.725255+05:30"},{"city":"Gurgaon","state":"Haryana","latitude":28.4595,"longitude":77.0266,"temp":26.1,"humidity":69,"rain":0.0,"pressure":978.7,"uv_index":6.75,"wind_gusts":63.0,"aqi":1163,"pm10":512.2,"pm2_5":109.0,"no2":19.3,"co":430.0,"o3":77.0,"so2":14.5,"mosquito_risk":7,"arthritis_risk":5,"migraine_risk":7,"frizz_risk":1,"updated_at":"2026-05-30T03:23:14.725263+05:30"},{"city":"Noida","state":"Uttar Pradesh","latitude":28.5355,"longitude":77.391,"temp":26.1,"humidity":63,"rain":0.0,"pressure":982.2,"uv_index":7.55,"wind_gusts":52.6,"aqi":1163,"pm10":512.2,"pm2_5":109.0,"no2":19.3,"co":380.0,"o3":77.0,"so2":14.5,"mosquito_risk":7,"arthritis_risk":5,"migraine_risk":7,"frizz_risk":1,"updated_at":"2026-05-30T03:23:14.725270+05:30"},{"city":"Ghaziabad","state":"Uttar Pradesh","latitude":28.6692,"longitude":77.4538,"temp":27.0,"humidity":57,"rain":0.0,"pressure":980.5,"uv_index":7.65,"wind_gusts":65.9,"aqi":207,"pm10":170.9,"pm2_5":52.5,"no2":7.9,"co":336.0,"o3":112.0,"so2":10.7,"mosquito_risk":4,"arthritis_risk":5,"migraine_risk":7,"frizz_risk":1,"updated_at":"2026-05-30T03:23:14.725292+05:30"},{"city":"Faridabad","state":"Haryana","latitude":28.4089,"longitude":77.3178,"temp":26.7,"humidity":61,"rain":0.0,"pressure":981.4,"uv_index":7.2,"wind_gusts":49.0,"aqi":1163,"pm10":512.2,"pm2_5":109.0,"no2":19.3,"co":409.0,"o3":77.0,"so2":14.5,"mosquito_risk":7,"arthritis_risk":5,"migraine_risk":7,"frizz_risk":1,"updated_at":"2026-05-30T03:23:14.725299+05:30"},{"city":"Meerut","state":"Uttar Pradesh","latitude":28.9845,"longitude":77.7064,"temp":26.4,"humidity":64,"rain":0.0,"pressure":979.5,"uv_index":7.55,"wind_gusts":49.7,"aqi":207,"pm10":170.9,"pm2_5":52.5,"no2":7.9,"co":311.0,"o3":112.0,"so2":10.7,"mosquito_risk":7,"arthritis_risk":5,"migraine_risk":7,"frizz_risk":1,"updated_at":"2026-05-30T03:23:14.725305+05:30"},{"city":"Agra","state":"Uttar Pradesh","latitude":27.1767,"longitude":78.0081,"temp":26.6,"humidity":70,"rain":0.0,"pressure":985.4,"uv_index":7.95,"wind_gusts":63.0,"aqi":631,"pm10":75.0,"pm2_5":38.2,"no2":7.8,"co":328.0,"o3":105.0,"so2":6.6,"mosquito_risk":7,"arthritis_risk":5,"migraine_risk":7,"frizz_risk":1,"updated_at":"2026-05-30T03:23:14.725311+05:30"},{"city":"Varanasi","state":"Uttar Pradesh","latitude":25.3176,"longitude":82.9739,"temp":24.4,"humidity":83,"rain":0.0,"pressure":995.7,"uv_index":8.7,"wind_gusts":27.4,"aqi":120,"pm10":31.0,"pm2_5":29.0,"no2":9.9,"co":377.0,"o3":116.0,"so2":15.3,"mosquito_risk":3,"arthritis_risk":5,"migraine_risk":7,"frizz_risk":1,"updated_at":"2026-05-30T03:23:14.725318+05:30"},{"city":"Prayagraj","state":"Uttar Pradesh","latitude":25.4358,"longitude":81.8463,"temp":26.0,"humidity":78,"rain":0.0,"pressure":994.1,"uv_index":8.4,"wind_gusts":28.8,"aqi":114,"pm10":37.3,"pm2_5":32.6,"no2":10.6,"co":409.0,"o3":118.0,"so2":12.5,"mosquito_risk":7,"arthritis_risk":5,"migraine_risk":7,"frizz_risk":1,"updated_at":"2026-05-30T03:23:14.725325+05:30"},{"city":"Gorakhpur","state":"Uttar Pradesh","latitude":26.7606,"longitude":83.3732,"temp":23.8,"humidity":90,"rain":0.0,"pressure":996.1,"uv_index":8.25,"wind_gusts":40.7,"aqi":83,"pm10":35.3,"pm2_5":29.7,"no2":16.6,"co":450.0,"o3":73.0,"so2":5.4,"mosquito_risk":3,"arthritis_risk":5,"migraine_risk":7,"frizz_risk":1,"updated_at":"2026-05-30T03:23:14.725333+05:30"},{"city":"Bareilly","state":"Uttar Pradesh","latitude":28.367,"longitude":79.4304,"temp":26.6,"humidity":75,"rain":0.0,"pressure":985.5,"uv_index":7.9,"wind_gusts":30.2,"aqi":91,"pm10":31.4,"pm2_5":25.3,"no2":8.7,"co":291.0,"o3":108.0,"so2":5.9,"mosquito_risk":7,"arthritis_risk":5,"migraine_risk":7,"frizz_risk":1,"updated_at":"2026-05-30T03:23:14.725340+05:30"},{"city":"Aligarh","state":"Uttar Pradesh","latitude":27.8974,"longitude":78.088,"temp":26.5,"humidity":67,"rain":0.0,"pressure":983.4,"uv_index":7.8,"wind_gusts":56.5,"aqi":509,"pm10":450.8,"pm2_5":83.8,"no2":9.1,"co":359.0,"o3":99.0,"so2":9.0,"mosquito_risk":7,"arthritis_risk":5,"migraine_risk":7,"frizz_risk":1,"updated_at":"2026-05-30T03:23:14.725347+05:30"},{"city":"Moradabad","state":"Uttar Pradesh","latitude":28.8386,"longitude":78.7733,"temp":27.6,"humidity":64,"rain":0.0,"pressure":982.3,"uv_index":7.75,"wind_gusts":42.1,"aqi":89,"pm10":40.9,"pm2_5":30.3,"no2":11.4,"co":308.0,"o3":106.0,"so2":7.3,"mosquito_risk":7,"arthritis_risk":5,"migraine_risk":7,"frizz_risk":1,"updated_at":"2026-05-30T03:23:14.725353+05:30"},{"city":"Saharanpur","state":"Uttar Pradesh","latitude":29.9637,"longitude":77.546,"temp":26.2,"humidity":55,"rain":0.0,"pressure":974.3,"uv_index":7.4,"wind_gusts":44.6,"aqi":105,"pm10":50.4,"pm2_5":35.3,"no2":8.8,"co":328.0,"o3":116.0,"so2":6.8,"mosquito_risk":4,"arthritis_risk":5,"migraine_risk":7,"frizz_risk":1,"updated_at":"2026-05-30T03:23:14.725360+05:30"},{"city":"Jhansi","state":"Uttar Pradesh","latitude":25.4484,"longitude":78.5685,"temp":29.1,"humidity":53,"rain":0.0,"pressure":975.4,"uv_index":8.35,"wind_gusts":67.3,"aqi":99,"pm10":76.1,"pm2_5":35.9,"no2":4.4,"co":309.0,"o3":118.0,"so2":6.0,"mosquito_risk":4,"arthritis_risk":5,"migraine_risk":7,"frizz_risk":1,"updated_at":"2026-05-30T03:23:18.147524+05:30"},{"city":"Surat","state":"Gujarat","latitude":21.1702,"longitude":72.8311,"temp":29.5,"humidity":75,"rain":0.0,"pressure":1004.5,"uv_index":7.7,"wind_gusts":60.8,"aqi":81,"pm10":49.2,"pm2_5":26.9,"no2":11.8,"co":218.0,"o3":43.0,"so2":21.2,"mosquito_risk":7,"arthritis_risk":5,"migraine_risk":4,"frizz_risk":1,"updated_at":"2026-05-30T03:23:18.147559+05:30"},{"city":"Vadodara","state":"Gujarat","latitude":22.3072,"longitude":73.1812,"temp":29.4,"humidity":71,"rain":0.0,"pressure":1001.8,"uv_index":8.05,"wind_gusts":56.9,"aqi":78,"pm10":38.6,"pm2_5":22.3,"no2":6.6,"co":121.0,"o3":44.0,"so2":7.0,"mosquito_risk":7,"arthritis_risk":5,"migraine_risk":4,"frizz_risk":1,"updated_at":"2026-05-30T03:23:18.147570+05:30"},{"city":"Rajkot","state":"Gujarat","latitude":22.3039,"longitude":70.8022,"temp":28.2,"humidity":78,"rain":0.0,"pressure":991.0,"uv_index":7.7,"wind_gusts":56.5,"aqi":67,"pm10":35.6,"pm2_5":17.8,"no2":2.5,"co":103.0,"o3":47.0,"so2":2.5,"mosquito_risk":7,"arthritis_risk":5,"migraine_risk":7,"frizz_risk":1,"updated_at":"2026-05-30T03:23:18.147578+05:30"},{"city":"Thane","state":"Maharashtra","latitude":19.2183,"longitude":72.9781,"temp":30.0,"humidity":74,"rain":0.0,"pressure":1006.5,"uv_index":7.8,"wind_gusts":41.4,"aqi":63,"pm10":25.6,"pm2_5":15.1,"no2":4.0,"co":136.0,"o3":52.0,"so2":3.9,"mosquito_risk":7,"arthritis_risk":5,"migraine_risk":4,"frizz_risk":1,"updated_at":"2026-05-30T03:23:18.147586+05:30"},{"city":"Nagpur","state":"Maharashtra","latitude":21.1458,"longitude":79.0882,"temp":33.3,"humidity":31,"rain":0.0,"pressure":969.8,"uv_index":8.9,"wind_gusts":50.0,"aqi":68,"pm10":34.0,"pm2_5":23.1,"no2":17.3,"co":269.0,"o3":41.0,"so2":7.0,"mosquito_risk":0,"arthritis_risk":5,"migraine_risk":7,"frizz_risk":0,"updated_at":"2026-05-30T03:23:18.147594+05:30"},{"city":"Nashik","state":"Maharashtra","latitude":19.9975,"longitude":73.7898,"temp":24.7,"humidity":87,"rain":0.0,"pressure":943.8,"uv_index":8.1,"wind_gusts":55.4,"aqi":57,"pm10":22.2,"pm2_5":14.2,"no2":9.8,"co":124.0,"o3":39.0,"so2":9.2,"mosquito_risk":3,"arthritis_risk":5,"migraine_risk":7,"frizz_risk":1,"updated_at":"2026-05-30T03:23:18.147601+05:30"},{"city":"Aurangabad","state":"Maharashtra","latitude":19.8762,"longitude":75.3433,"temp":25.6,"humidity":78,"rain":0.0,"pressure":942.7,"uv_index":8.95,"wind_gusts":52.9,"aqi":57,"pm10":28.2,"pm2_5":18.1,"no2":11.4,"co":159.0,"o3":54.0,"so2":14.1,"mosquito_risk":7,"arthritis_risk":5,"migraine_risk":7,"frizz_risk":1,"updated_at":"2026-05-30T03:23:18.147608+05:30"},{"city":"Solapur","state":"Maharashtra","latitude":17.6599,"longitude":75.9064,"temp":27.9,"humidity":65,"rain":0.0,"pressure":956.2,"uv_index":8.95,"wind_gusts":36.4,"aqi":42,"pm10":12.7,"pm2_5":9.4,"no2":5.5,"co":166.0,"o3":51.0,"so2":1.9,"mosquito_risk":7,"arthritis_risk":5,"migraine_risk":7,"frizz_risk":1,"updated_at":"2026-05-30T03:23:18.147616+05:30"},{"city":"Kolhapur","state":"Maharashtra","latitude":16.705,"longitude":74.2433,"temp":24.6,"humidity":89,"rain":0.0,"pressure":947.2,"uv_index":8.75,"wind_gusts":45.4,"aqi":35,"pm10":11.0,"pm2_5":8.3,"no2":5.5,"co":150.0,"o3":41.0,"so2":2.1,"mosquito_risk":3,"arthritis_risk":5,"migraine_risk":7,"frizz_risk":1,"updated_at":"2026-05-30T03:23:18.147623+05:30"},{"city":"Goa","state":"Goa","latitude":15.2993,"longitude":74.124,"temp":26.6,"humidity":100,"rain":0.1,"pressure":997.6,"uv_index":7.25,"wind_gusts":27.0,"aqi":54,"pm10":24.1,"pm2_5":18.5,"no2":6.1,"co":369.0,"o3":45.0,"so2":1.9,"mosquito_risk":10,"arthritis_risk":5,"migraine_risk":7,"frizz_risk":1,"updated_at":"2026-05-30T03:23:18.147630+05:30"},{"city":"Jodhpur","state":"Rajasthan","latitude":26.2389,"longitude":73.0243,"temp":32.3,"humidity":52,"rain":0.0,"pressure":977.8,"uv_index":8.35,"wind_gusts":48.6,"aqi":222,"pm10":416.3,"pm2_5":86.6,"no2":1.9,"co":147.0,"o3":65.0,"so2":2.6,"mosquito_risk":0,"arthritis_risk":5,"migraine_risk":7,"frizz_risk":1,"updated_at":"2026-05-30T03:23:18.147637+05:30"},{"city":"Udaipur","state":"Rajasthan","latitude":24.5854,"longitude":73.7125,"temp":28.4,"humidity":55,"rain":0.0,"pressure":943.5,"uv_index":8.75,"wind_gusts":44.3,"aqi":73,"pm10":32.6,"pm2_5":19.0,"no2":2.4,"co":133.0,"o3":64.0,"so2":2.3,"mosquito_risk":4,"arthritis_risk":5,"migraine_risk":7,"frizz_risk":1,"updated_at":"2026-05-30T03:23:18.147644+05:30"},{"city":"Kota","state":"Rajasthan","latitude":25.2138,"longitude":75.8648,"temp":29.4,"humidity":53,"rain":0.0,"pressure":974.6,"uv_index":8.3,"wind_gusts":68.8,"aqi":83,"pm10":55.5,"pm2_5":27.8,"no2":4.0,"co":156.0,"o3":96.0,"so2":4.3,"mosquito_risk":4,"arthritis_risk":5,"migraine_risk":7,"frizz_risk":1,"updated_at":"2026-05-30T03:23:18.147651+05:30"},{"city":"Bikaner","state":"Rajasthan","latitude":28.0229,"longitude":73.3119,"temp":31.3,"humidity":42,"rain":0.0,"pressure":976.0,"uv_index":8.35,"wind_gusts":41.4,"aqi":157,"pm10":68.7,"pm2_5":33.6,"no2":2.6,"co":152.0,"o3":97.0,"so2":2.6,"mosquito_risk":0,"arthritis_risk":5,"migraine_risk":7,"frizz_risk":1,"updated_at":"2026-05-30T03:23:18.147658+05:30"},{"city":"Ajmer","state":"Rajasthan","latitude":26.4499,"longitude":74.6399,"temp":26.4,"humidity":58,"rain":0.0,"pressure":950.7,"uv_index":8.3,"wind_gusts":61.2,"aqi":92,"pm10":72.9,"pm2_5":33.8,"no2":3.7,"co":184.0,"o3":91.0,"so2":2.6,"mosquito_risk":4,"arthritis_risk":5,"migraine_risk":7,"frizz_risk":1,"updated_at":"2026-05-30T03:23:18.147664+05:30"},{"city":"Gwalior","state":"Madhya Pradesh","latitude":26.2183,"longitude":78.1828,"temp":27.8,"humidity":62,"rain":0.0,"pressure":980.5,"uv_index":8.15,"wind_gusts":42.5,"aqi":147,"pm10":104.1,"pm2_5":43.0,"no2":5.1,"co":299.0,"o3":105.0,"so2":5.5,"mosquito_risk":7,"arthritis_risk":5,"migraine_risk":7,"frizz_risk":1,"updated_at":"2026-05-30T03:23:18.147671+05:30"},{"city":"Indore","state":"Madhya Pradesh","latitude":22.7196,"longitude":75.8577,"temp":26.5,"humidity":70,"rain":0.0,"pressure":945.9,"uv_index":8.6,"wind_gusts":45.7,"aqi":81,"pm10":40.0,"pm2_5":23.9,"no2":4.9,"co":139.0,"o3":67.0,"so2":9.0,"mosquito_risk":7,"arthritis_risk":5,"migraine_risk":7,"frizz_risk":1,"updated_at":"2026-05-30T03:23:18.147679+05:30"},{"city":"Bhopal","state":"Madhya Pradesh","latitude":23.2599,"longitude":77.4126,"temp":27.4,"humidity":60,"rain":0.0,"pressure":950.6,"uv_index":8.65,"wind_gusts":63.7,"aqi":76,"pm10":37.0,"pm2_5":25.4,"no2":4.2,"co":227.0,"o3":84.0,"so2":6.4,"mosquito_risk":4,"arthritis_risk":5,"migraine_risk":7,"frizz_risk":1,"updated_at":"2026-05-30T03:23:18.147686+05:30"},{"city":"Jabalpur","state":"Madhya Pradesh","latitude":23.1815,"longitude":79.9864,"temp":24.6,"humidity":82,"rain":0.1,"pressure":960.0,"uv_index":8.85,"wind_gusts":42.8,"aqi":71,"pm10":39.1,"pm2_5":23.0,"no2":5.5,"co":284.0,"o3":77.0,"so2":3.9,"mosquito_risk":6,"arthritis_risk":5,"migraine_risk":7,"frizz_risk":1,"updated_at":"2026-05-30T03:23:18.147693+05:30"},{"city":"Ujjain","state":"Madhya Pradesh","latitude":23.1765,"longitude":75.7885,"temp":25.3,"humidity":74,"rain":0.0,"pressure":951.2,"uv_index":8.55,"wind_gusts":52.6,"aqi":79,"pm10":38.4,"pm2_5":23.2,"no2":4.7,"co":139.0,"o3":60.0,"so2":9.1,"mosquito_risk":7,"arthritis_risk":5,"migraine_risk":7,"frizz_risk":1,"updated_at":"2026-05-30T03:23:18.147700+05:30"},{"city":"Visakhapatnam","state":"Andhra Pradesh","latitude":17.6868,"longitude":83.2185,"temp":29.9,"humidity":87,"rain":0.0,"pressure":999.5,"uv_index":9.0,"wind_gusts":41.8,"aqi":122,"pm10":48.1,"pm2_5":39.6,"no2":37.9,"co":782.0,"o3":77.0,"so2":51.0,"mosquito_risk":7,"arthritis_risk":5,"migraine_risk":7,"frizz_risk":1,"updated_at":"2026-05-30T03:23:18.147706+05:30"},{"city":"Vijayawada","state":"Andhra Pradesh","latitude":16.5062,"longitude":80.648,"temp":31.5,"humidity":58,"rain":0.0,"pressure":998.0,"uv_index":9.05,"wind_gusts":38.5,"aqi":83,"pm10":21.9,"pm2_5":19.6,"no2":11.1,"co":259.0,"o3":66.0,"so2":4.1,"mosquito_risk":0,"arthritis_risk":5,"migraine_risk":7,"frizz_risk":1,"updated_at":"2026-05-30T03:23:18.147713+05:30"},{"city":"Guntur","state":"Andhra Pradesh","latitude":16.3067,"longitude":80.4365,"temp":30.9,"humidity":59,"rain":0.0,"pressure":999.0,"uv_index":8.95,"wind_gusts":43.2,"aqi":79,"pm10":20.0,"pm2_5":18.3,"no2":13.2,"co":216.0,"o3":60.0,"so2":4.5,"mosquito_risk":0,"arthritis_risk":5,"migraine_risk":7,"frizz_risk":1,"updated_at":"2026-05-30T03:23:18.147720+05:30"},{"city":"Nellore","state":"Andhra Pradesh","latitude":14.4426,"longitude":79.9865,"temp":29.0,"humidity":77,"rain":0.0,"pressure":1001.6,"uv_index":7.35,"wind_gusts":51.8,"aqi":67,"pm10":19.6,"pm2_5":15.7,"no2":7.4,"co":224.0,"o3":84.0,"so2":4.7,"mosquito_risk":7,"arthritis_risk":5,"migraine_risk":4,"frizz_risk":1,"updated_at":"2026-05-30T03:23:18.147727+05:30"},{"city":"Kurnool","state":"Andhra Pradesh","latitude":15.8281,"longitude":78.0373,"temp":29.1,"humidity":71,"rain":0.0,"pressure":975.3,"uv_index":8.95,"wind_gusts":40.0,"aqi":51,"pm10":11.8,"pm2_5":10.4,"no2":10.8,"co":180.0,"o3":55.0,"so2":7.2,"mosquito_risk":7,"arthritis_risk":5,"migraine_risk":7,"frizz_risk":1,"updated_at":"2026-05-30T03:23:18.147735+05:30"},{"city":"Kakinada","state":"Andhra Pradesh","latitude":16.9891,"longitude":82.2475,"temp":30.5,"humidity":78,"rain":0.0,"pressure":1003.0,"uv_index":8.6,"wind_gusts":36.7,"aqi":92,"pm10":28.8,"pm2_5":21.9,"no2":3.5,"co":292.0,"o3":142.0,"so2":4.2,"mosquito_risk":3,"arthritis_risk":5,"migraine_risk":4,"frizz_risk":1,"updated_at":"2026-05-30T03:23:18.147741+05:30"},{"city":"Tirupati","state":"Andhra Pradesh","latitude":13.6288,"longitude":79.4192,"temp":28.4,"humidity":59,"rain":0.0,"pressure":987.8,"uv_index":7.85,"wind_gusts":36.7,"aqi":64,"pm10":19.6,"pm2_5":16.2,"no2":12.1,"co":202.0,"o3":61.0,"so2":2.4,"mosquito_risk":4,"arthritis_risk":5,"migraine_risk":7,"frizz_risk":1,"updated_at":"2026-05-30T03:23:18.147748+05:30"},{"city":"Warangal","state":"Telangana","latitude":17.9689,"longitude":79.5941,"temp":31.2,"humidity":50,"rain":0.0,"pressure":974.6,"uv_index":9.05,"wind_gusts":45.7,"aqi":80,"pm10":29.6,"pm2_5":27.5,"no2":20.1,"co":329.0,"o3":59.0,"so2":6.8,"mosquito_risk":0,"arthritis_risk":5,"migraine_risk":7,"frizz_risk":1,"updated_at":"2026-05-30T03:23:18.147754+05:30"},{"city":"Nizamabad","state":"Telangana","latitude":18.6725,"longitude":78.0941,"temp":29.9,"humidity":46,"rain":0.0,"pressure":961.8,"uv_index":9.0,"wind_gusts":39.6,"aqi":67,"pm10":31.9,"pm2_5":27.9,"no2":21.7,"co":371.0,"o3":56.0,"so2":5.8,"mosquito_risk":4,"arthritis_risk":5,"migraine_risk":7,"frizz_risk":1,"updated_at":"2026-05-30T03:23:18.147760+05:30"},{"city":"Mysore","state":"Karnataka","latitude":12.2958,"longitude":76.6396,"temp":22.2,"humidity":95,"rain":0.0,"pressure":928.1,"uv_index":8.55,"wind_gusts":40.7,"aqi":31,"pm10":6.3,"pm2_5":5.9,"no2":8.2,"co":154.0,"o3":45.0,"so2":2.2,"mosquito_risk":3,"arthritis_risk":5,"migraine_risk":7,"frizz_risk":1,"updated_at":"2026-05-30T03:23:18.147766+05:30"},{"city":"Mangalore","state":"Karnataka","latitude":12.9141,"longitude":74.856,"temp":23.6,"humidity":98,"rain":0.2,"pressure":1007.2,"uv_index":6.65,"wind_gusts":33.1,"aqi":39,"pm10":9.5,"pm2_5":6.9,"no2":5.4,"co":197.0,"o3":59.0,"so2":1.8,"mosquito_risk":6,"arthritis_risk":5,"migraine_risk":4,"frizz_risk":1,"updated_at":"2026-05-30T03:23:18.147773+05:30"},{"city":"Hubli-Dharwad","state":"Karnataka","latitude":15.3647,"longitude":75.124,"temp":24.0,"humidity":94,"rain":0.0,"pressure":940.4,"uv_index":8.5,"wind_gusts":40.3,"aqi":34,"pm10":6.3,"pm2_5":4.9,"no2":4.0,"co":148.0,"o3":48.0,"so2":1.2,"mosquito_risk":3,"arthritis_risk":5,"migraine_risk":7,"frizz_risk":1,"updated_at":"2026-05-30T03:23:18.147779+05:30"},{"city":"Belgaum","state":"Karnataka","latitude":15.8497,"longitude":74.4977,"temp":23.5,"humidity":94,"rain":0.0,"pressure":925.4,"uv_index":8.5,"wind_gusts":41.0,"aqi":33,"pm10":7.5,"pm2_5":5.6,"no2":2.9,"co":147.0,"o3":47.0,"so2":1.3,"mosquito_risk":3,"arthritis_risk":5,"migraine_risk":7,"frizz_risk":1,"updated_at":"2026-05-30T03:23:21.416253+05:30"},{"city":"Coimbatore","state":"Tamil Nadu","latitude":11.0168,"longitude":76.9558,"temp":24.5,"humidity":88,"rain":0.0,"pressure":961.1,"uv_index":8.45,"wind_gusts":50.4,"aqi":24,"pm10":4.6,"pm2_5":3.9,"no2":4.7,"co":135.0,"o3":46.0,"so2":2.2,"mosquito_risk":3,"arthritis_risk":5,"migraine_risk":7,"frizz_risk":1,"updated_at":"2026-05-30T03:23:21.416306+05:30"},{"city":"Madurai","state":"Tamil Nadu","latitude":9.9252,"longitude":78.1198,"temp":28.4,"humidity":68,"rain":0.0,"pressure":992.2,"uv_index":8.35,"wind_gusts":29.9,"aqi":64,"pm10":24.6,"pm2_5":23.7,"no2":42.0,"co":148.0,"o3":2.0,"so2":6.3,"mosquito_risk":7,"arthritis_risk":5,"migraine_risk":7,"frizz_risk":1,"updated_at":"2026-05-30T03:23:21.416318+05:30"},{"city":"Trichy","state":"Tamil Nadu","latitude":10.7905,"longitude":78.7047,"temp":28.5,"humidity":71,"rain":0.0,"pressure":998.3,"uv_index":7.95,"wind_gusts":45.4,"aqi":43,"pm10":4.7,"pm2_5":4.4,"no2":8.2,"co":138.0,"o3":40.0,"so2":3.4,"mosquito_risk":7,"arthritis_risk":5,"migraine_risk":7,"frizz_risk":1,"updated_at":"2026-05-30T03:23:21.416326+05:30"},{"city":"Salem","state":"Tamil Nadu","latitude":11.6643,"longitude":78.146,"temp":24.8,"humidity":86,"rain":0.0,"pressure":976.8,"uv_index":8.15,"wind_gusts":47.5,"aqi":55,"pm10":21.9,"pm2_5":19.1,"no2":23.6,"co":194.0,"o3":37.0,"so2":7.9,"mosquito_risk":3,"arthritis_risk":5,"migraine_risk":7,"frizz_risk":1,"updated_at":"2026-05-30T03:23:21.416334+05:30"},{"city":"Tirunelveli","state":"Tamil Nadu","latitude":8.7139,"longitude":77.7567,"temp":28.2,"humidity":68,"rain":0.0,"pressure":1002.4,"uv_index":8.2,"wind_gusts":41.0,"aqi":19,"pm10":5.2,"pm2_5":4.6,"no2":6.8,"co":142.0,"o3":30.0,"so2":2.1,"mosquito_risk":7,"arthritis_risk":5,"migraine_risk":4,"frizz_risk":1,"updated_at":"2026-05-30T03:23:21.416342+05:30"},{"city":"Vellore","state":"Tamil Nadu","latitude":12.9165,"longitude":79.1325,"temp":27.6,"humidity":68,"rain":0.0,"pressure":981.7,"uv_index":9.05,"wind_gusts":43.6,"aqi":65,"pm10":21.8,"pm2_5":19.3,"no2":13.1,"co":219.0,"o3":58.0,"so2":3.1,"mosquito_risk":7,"arthritis_risk":5,"migraine_risk":7,"frizz_risk":1,"updated_at":"2026-05-30T03:23:21.416350+05:30"},{"city":"Erode","state":"Tamil Nadu","latitude":11.341,"longitude":77.7172,"temp":25.9,"humidity":89,"rain":0.0,"pressure":988.3,"uv_index":8.9,"wind_gusts":45.4,"aqi":35,"pm10":9.5,"pm2_5":8.7,"no2":13.9,"co":229.0,"o3":32.0,"so2":3.7,"mosquito_risk":7,"arthritis_risk":5,"migraine_risk":7,"frizz_risk":1,"updated_at":"2026-05-30T03:23:21.416357+05:30"},{"city":"Kochi","state":"Kerala","latitude":9.9312,"longitude":76.2673,"temp":25.0,"humidity":94,"rain":0.0,"pressure":1009.9,"uv_index":7.55,"wind_gusts":32.0,"aqi":38,"pm10":10.2,"pm2_5":8.7,"no2":11.5,"co":179.0,"o3":30.0,"so2":3.3,"mosquito_risk":7,"arthritis_risk":0,"migraine_risk":4,"frizz_risk":1,"updated_at":"2026-05-30T03:23:21.416365+05:30"},{"city":"Thiruvananthapuram","state":"Kerala","latitude":8.5241,"longitude":76.9366,"temp":23.5,"humidity":99,"rain":0.1,"pressure":1009.5,"uv_index":7.6,"wind_gusts":41.0,"aqi":20,"pm10":9.4,"pm2_5":4.7,"no2":1.7,"co":135.0,"o3":44.0,"so2":0.6,"mosquito_risk":6,"arthritis_risk":0,"migraine_risk":4,"frizz_risk":1,"updated_at":"2026-05-30T03:23:21.416372+05:30"},{"city":"Kozhikode","state":"Kerala","latitude":11.2588,"longitude":75.7804,"temp":24.4,"humidity":99,"rain":0.0,"pressure":1008.7,"uv_index":8.1,"wind_gusts":37.1,"aqi":28,"pm10":5.8,"pm2_5":3.6,"no2":1.1,"co":152.0,"o3":61.0,"so2":0.5,"mosquito_risk":3,"arthritis_risk":0,"migraine_risk":4,"frizz_risk":1,"updated_at":"2026-05-30T03:23:21.416379+05:30"},{"city":"Thrissur","state":"Kerala","latitude":10.5276,"longitude":76.2144,"temp":24.0,"humidity":99,"rain":0.0,"pressure":1008.2,"uv_index":7.35,"wind_gusts":35.3,"aqi":41,"pm10":10.3,"pm2_5":9.1,"no2":11.2,"co":195.0,"o3":29.0,"so2":4.0,"mosquito_risk":3,"arthritis_risk":0,"migraine_risk":4,"frizz_risk":1,"updated_at":"2026-05-30T03:23:21.416386+05:30"},{"city":"Kannur","state":"Kerala","latitude":11.8745,"longitude":75.3704,"temp":24.3,"humidity":98,"rain":0.0,"pressure":1007.8,"uv_index":7.75,"wind_gusts":33.5,"aqi":29,"pm10":7.2,"pm2_5":5.8,"no2":6.8,"co":182.0,"o3":42.0,"so2":1.9,"mosquito_risk":3,"arthritis_risk":5,"migraine_risk":4,"frizz_risk":1,"updated_at":"2026-05-30T03:23:21.416393+05:30"},{"city":"Patna","state":"Bihar","latitude":25.5941,"longitude":85.1376,"temp":23.5,"humidity":90,"rain":0.0,"pressure":999.2,"uv_index":8.75,"wind_gusts":33.1,"aqi":94,"pm10":48.8,"pm2_5":43.9,"no2":17.2,"co":366.0,"o3":78.0,"so2":15.5,"mosquito_risk":3,"arthritis_risk":5,"migraine_risk":7,"frizz_risk":1,"updated_at":"2026-05-30T03:23:21.416400+05:30"},{"city":"Gaya","state":"Bihar","latitude":24.7914,"longitude":85.0002,"temp":24.2,"humidity":88,"rain":0.0,"pressure":992.0,"uv_index":8.8,"wind_gusts":24.8,"aqi":99,"pm10":50.4,"pm2_5":44.9,"no2":15.9,"co":406.0,"o3":76.0,"so2":27.8,"mosquito_risk":3,"arthritis_risk":5,"migraine_risk":7,"frizz_risk":1,"updated_at":"2026-05-30T03:23:21.416407+05:30"},{"city":"Muzaffarpur","state":"Bihar","latitude":26.1209,"longitude":85.3647,"temp":24.0,"humidity":89,"rain":0.0,"pressure":999.4,"uv_index":8.75,"wind_gusts":34.9,"aqi":101,"pm10":58.3,"pm2_5":50.9,"no2":20.5,"co":415.0,"o3":64.0,"so2":14.3,"mosquito_risk":3,"arthritis_risk":5,"migraine_risk":7,"frizz_risk":1,"updated_at":"2026-05-30T03:23:21.416415+05:30"},{"city":"Bhagalpur","state":"Bihar","latitude":25.2425,"longitude":87.0117,"temp":24.2,"humidity":90,"rain":0.0,"pressure":1000.1,"uv_index":8.75,"wind_gusts":25.2,"aqi":102,"pm10":47.0,"pm2_5":36.4,"no2":10.7,"co":358.0,"o3":111.0,"so2":13.2,"mosquito_risk":3,"arthritis_risk":5,"migraine_risk":4,"frizz_risk":1,"updated_at":"2026-05-30T03:23:21.416421+05:30"},{"city":"Ranchi","state":"Jharkhand","latitude":23.3441,"longitude":85.3096,"temp":21.4,"humidity":96,"rain":0.0,"pressure":935.5,"uv_index":9.25,"wind_gusts":31.7,"aqi":109,"pm10":78.0,"pm2_5":64.5,"no2":18.3,"co":332.0,"o3":78.0,"so2":13.3,"mosquito_risk":3,"arthritis_risk":5,"migraine_risk":7,"frizz_risk":1,"updated_at":"2026-05-30T03:23:21.416429+05:30"},{"city":"Jamshedpur","state":"Jharkhand","latitude":22.8046,"longitude":86.2029,"temp":24.2,"humidity":92,"rain":0.0,"pressure":989.3,"uv_index":9.05,"wind_gusts":28.4,"aqi":111,"pm10":87.8,"pm2_5":68.0,"no2":36.1,"co":431.0,"o3":32.0,"so2":17.6,"mosquito_risk":3,"arthritis_risk":5,"migraine_risk":7,"frizz_risk":1,"updated_at":"2026-05-30T03:23:21.416436+05:30"},{"city":"Dhanbad","state":"Jharkhand","latitude":23.7957,"longitude":86.4304,"temp":22.8,"humidity":89,"rain":0.0,"pressure":978.6,"uv_index":9.0,"wind_gusts":28.8,"aqi":154,"pm10":115.3,"pm2_5":102.0,"no2":57.5,"co":806.0,"o3":29.0,"so2":148.8,"mosquito_risk":3,"arthritis_risk":5,"migraine_risk":7,"frizz_risk":1,"updated_at":"2026-05-30T03:23:21.416443+05:30"},{"city":"Bokaro","state":"Jharkhand","latitude":23.6693,"longitude":86.1511,"temp":23.0,"humidity":93,"rain":0.0,"pressure":982.5,"uv_index":9.05,"wind_gusts":25.9,"aqi":153,"pm10":125.7,"pm2_5":109.9,"no2":68.8,"co":1047.0,"o3":11.0,"so2":165.4,"mosquito_risk":3,"arthritis_risk":5,"migraine_risk":7,"frizz_risk":1,"updated_at":"2026-05-30T03:23:21.416450+05:30"},{"city":"Bhubaneswar","state":"Odisha","latitude":20.2961,"longitude":85.8245,"temp":28.0,"humidity":92,"rain":0.0,"pressure":999.8,"uv_index":9.0,"wind_gusts":38.2,"aqi":105,"pm10":51.8,"pm2_5":43.5,"no2":15.7,"co":348.0,"o3":61.0,"so2":6.6,"mosquito_risk":7,"arthritis_risk":5,"migraine_risk":7,"frizz_risk":1,"updated_at":"2026-05-30T03:23:21.416456+05:30"},{"city":"Cuttack","state":"Odisha","latitude":20.4625,"longitude":85.8828,"temp":27.6,"humidity":91,"rain":0.0,"pressure":1001.7,"uv_index":9.05,"wind_gusts":37.1,"aqi":105,"pm10":51.8,"pm2_5":43.5,"no2":15.7,"co":384.0,"o3":61.0,"so2":6.6,"mosquito_risk":7,"arthritis_risk":5,"migraine_risk":4,"frizz_risk":1,"updated_at":"2026-05-30T03:23:21.416463+05:30"},{"city":"Rourkela","state":"Odisha","latitude":22.2604,"longitude":84.8536,"temp":26.5,"humidity":85,"rain":0.0,"pressure":982.7,"uv_index":8.95,"wind_gusts":48.2,"aqi":130,"pm10":92.2,"pm2_5":77.5,"no2":34.8,"co":352.0,"o3":50.0,"so2":26.0,"mosquito_risk":7,"arthritis_risk":5,"migraine_risk":7,"frizz_risk":1,"updated_at":"2026-05-30T03:23:21.416470+05:30"},{"city":"Raipur","state":"Chhattisgarh","latitude":21.2514,"longitude":81.6296,"temp":30.0,"humidity":56,"rain":0.0,"pressure":970.3,"uv_index":8.95,"wind_gusts":47.2,"aqi":97,"pm10":60.3,"pm2_5":46.6,"no2":23.0,"co":380.0,"o3":86.0,"so2":29.1,"mosquito_risk":4,"arthritis_risk":5,"migraine_risk":7,"frizz_risk":1,"updated_at":"2026-05-30T03:23:21.416476+05:30"},{"city":"Bhilai","state":"Chhattisgarh","latitude":21.1938,"longitude":81.3509,"temp":29.8,"humidity":55,"rain":0.0,"pressure":970.8,"uv_index":8.95,"wind_gusts":70.6,"aqi":83,"pm10":46.8,"pm2_5":38.1,"no2":34.0,"co":479.0,"o3":46.0,"so2":40.2,"mosquito_risk":4,"arthritis_risk":5,"migraine_risk":7,"frizz_risk":1,"updated_at":"2026-05-30T03:23:21.416482+05:30"},{"city":"Guwahati","state":"Assam","latitude":26.1158,"longitude":91.7086,"temp":23.9,"humidity":91,"rain":0.0,"pressure":1000.0,"uv_index":8.75,"wind_gusts":17.6,"aqi":126,"pm10":63.8,"pm2_5":54.4,"no2":21.0,"co":386.0,"o3":12.0,"so2":1.1,"mosquito_risk":3,"arthritis_risk":5,"migraine_risk":4,"frizz_risk":1,"updated_at":"2026-05-30T03:23:21.416488+05:30"},{"city":"Agartala","state":"Tripura","latitude":23.8315,"longitude":91.2868,"temp":23.8,"humidity":97,"rain":0.0,"pressure":1004.8,"uv_index":8.85,"wind_gusts":21.6,"aqi":153,"pm10":123.4,"pm2_5":105.9,"no2":81.0,"co":476.0,"o3":11.0,"so2":10.2,"mosquito_risk":3,"arthritis_risk":5,"migraine_risk":4,"frizz_risk":1,"updated_at":"2026-05-30T03:23:21.416495+05:30"},{"city":"Shillong","state":"Meghalaya","latitude":25.5788,"longitude":91.8933,"temp":17.9,"humidity":62,"rain":0.0,"pressure":855.7,"uv_index":8.65,"wind_gusts":23.0,"aqi":82,"pm10":32.0,"pm2_5":25.2,"no2":11.5,"co":221.0,"o3":36.0,"so2":1.2,"mosquito_risk":3,"arthritis_risk":5,"migraine_risk":7,"frizz_risk":0,"updated_at":"2026-05-30T03:23:21.416501+05:30"},{"city":"Imphal","state":"Manipur","latitude":24.817,"longitude":93.9368,"temp":22.4,"humidity":90,"rain":0.1,"pressure":922.2,"uv_index":9.25,"wind_gusts":22.3,"aqi":132,"pm10":88.7,"pm2_5":67.1,"no2":34.6,"co":423.0,"o3":7.0,"so2":4.8,"mosquito_risk":6,"arthritis_risk":5,"migraine_risk":7,"frizz_risk":1,"updated_at":"2026-05-30T03:23:21.416508+05:30"},{"city":"Aizawl","state":"Mizoram","latitude":23.7271,"longitude":92.7176,"temp":20.3,"humidity":90,"rain":0.0,"pressure":890.3,"uv_index":8.15,"wind_gusts":16.9,"aqi":92,"pm10":70.3,"pm2_5":38.1,"no2":17.7,"co":337.0,"o3":38.0,"so2":3.5,"mosquito_risk":3,"arthritis_risk":5,"migraine_risk":7,"frizz_risk":1,"updated_at":"2026-05-30T03:23:21.416515+05:30"},{"city":"Kohima","state":"Nagaland","latitude":25.6701,"longitude":94.1077,"temp":17.0,"humidity":90,"rain":0.0,"pressure":853.9,"uv_index":8.7,"wind_gusts":24.5,"aqi":99,"pm10":48.3,"pm2_5":34.1,"no2":12.0,"co":254.0,"o3":28.0,"so2":0.8,"mosquito_risk":3,"arthritis_risk":10,"migraine_risk":7,"frizz_risk":0,"updated_at":"2026-05-30T03:23:21.416522+05:30"},{"city":"Gangtok","state":"Sikkim","latitude":27.3314,"longitude":88.6138,"temp":15.3,"humidity":82,"rain":0.0,"pressure":836.8,"uv_index":9.0,"wind_gusts":32.4,"aqi":65,"pm10":35.5,"pm2_5":26.6,"no2":15.1,"co":595.0,"o3":55.0,"so2":1.7,"mosquito_risk":3,"arthritis_risk":10,"migraine_risk":7,"frizz_risk":0,"updated_at":"2026-05-30T03:23:21.416528+05:30"},{"city":"Siliguri","state":"West Bengal","latitude":26.7271,"longitude":88.3953,"temp":22.9,"humidity":95,"rain":0.1,"pressure":993.0,"uv_index":8.7,"wind_gusts":40.0,"aqi":117,"pm10":80.8,"pm2_5":57.0,"no2":22.5,"co":532.0,"o3":88.0,"so2":6.5,"mosquito_risk":6,"arthritis_risk":5,"migraine_risk":7,"frizz_risk":1,"updated_at":"2026-05-30T03:23:24.704338+05:30"},{"city":"Durgapur","state":"West Bengal","latitude":23.5204,"longitude":87.3119,"temp":22.1,"humidity":99,"rain":0.0,"pressure":994.0,"uv_index":8.95,"wind_gusts":17.3,"aqi":149,"pm10":84.1,"pm2_5":75.4,"no2":40.9,"co":787.0,"o3":50.0,"so2":36.7,"mosquito_risk":3,"arthritis_risk":5,"migraine_risk":7,"frizz_risk":1,"updated_at":"2026-05-30T03:23:24.704375+05:30"},{"city":"Asansol","state":"West Bengal","latitude":23.6739,"longitude":86.9524,"temp":22.8,"humidity":93,"rain":0.0,"pressure":992.6,"uv_index":8.95,"wind_gusts":26.3,"aqi":150,"pm10":93.4,"pm2_5":82.7,"no2":46.1,"co":628.0,"o3":41.0,"so2":50.6,"mosquito_risk":3,"arthritis_risk":5,"migraine_risk":7,"frizz_risk":1,"updated_at":"2026-05-30T03:23:24.704386+05:30"},{"city":"Pondicherry","state":"Puducherry","latitude":11.9139,"longitude":79.8145,"temp":28.5,"humidity":83,"rain":0.0,"pressure":1005.8,"uv_index":8.9,"wind_gusts":57.6,"aqi":68,"pm10":21.5,"pm2_5":18.4,"no2":17.2,"co":297.0,"o3":53.0,"so2":9.5,"mosquito_risk":7,"arthritis_risk":5,"migraine_risk":4,"frizz_risk":1,"updated_at":"2026-05-30T03:23:24.704395+05:30"},{"city":"Port Blair","state":"Andaman and Nicobar Islands","latitude":11.6234,"longitude":92.7265,"temp":26.7,"humidity":90,"rain":0.0,"pressure":1005.5,"uv_index":8.8,"wind_gusts":33.5,"aqi":31,"pm10":12.5,"pm2_5":7.1,"no2":0.2,"co":116.0,"o3":73.0,"so2":0.5,"mosquito_risk":7,"arthritis_risk":5,"migraine_risk":4,"frizz_risk":1,"updated_at":"2026-05-30T03:23:24.704403+05:30"},{"city":"Haridwar","state":"Uttarakhand","latitude":29.9457,"longitude":78.1642,"temp":23.9,"humidity":69,"rain":0.0,"pressure":972.7,"uv_index":7.5,"wind_gusts":25.2,"aqi":95,"pm10":42.4,"pm2_5":33.9,"no2":11.0,"co":433.0,"o3":96.0,"so2":4.7,"mosquito_risk":3,"arthritis_risk":5,"migraine_risk":7,"frizz_risk":1,"updated_at":"2026-05-30T03:23:24.704411+05:30"},{"city":"Rishikesh","state":"Uttarakhand","latitude":30.0869,"longitude":78.2676,"temp":21.9,"humidity":82,"rain":0.0,"pressure":965.3,"uv_index":7.6,"wind_gusts":36.0,"aqi":120,"pm10":52.4,"pm2_5":35.2,"no2":6.6,"co":519.0,"o3":135.0,"so2":4.2,"mosquito_risk":3,"arthritis_risk":5,"migraine_risk":7,"frizz_risk":1,"updated_at":"2026-05-30T03:23:24.704418+05:30"},{"city":"Nainital","state":"Uttarakhand","latitude":29.3919,"longitude":79.4542,"temp":11.4,"humidity":87,"rain":0.0,"pressure":802.7,"uv_index":7.85,"wind_gusts":27.0,"aqi":67,"pm10":21.8,"pm2_5":14.8,"no2":10.8,"co":321.0,"o3":96.0,"so2":1.6,"mosquito_risk":3,"arthritis_risk":10,"migraine_risk":7,"frizz_risk":0,"updated_at":"2026-05-30T03:23:24.704425+05:30"},{"city":"Mussoorie","state":"Uttarakhand","latitude":30.4599,"longitude":78.0664,"temp":11.3,"humidity":90,"rain":0.0,"pressure":800.3,"uv_index":7.75,"wind_gusts":26.6,"aqi":98,"pm10":54.9,"pm2_5":38.2,"no2":12.1,"co":288.0,"o3":119.0,"so2":3.5,"mosquito_risk":3,"arthritis_risk":10,"migraine_risk":7,"frizz_risk":0,"updated_at":"2026-05-30T03:23:24.704432+05:30"},{"city":"Dharamshala","state":"Himachal Pradesh","latitude":32.219,"longitude":76.3234,"temp":20.4,"humidity":49,"rain":0.0,"pressure":868.1,"uv_index":7.9,"wind_gusts":36.7,"aqi":62,"pm10":22.9,"pm2_5":12.3,"no2":13.9,"co":296.0,"o3":45.0,"so2":0.1,"mosquito_risk":0,"arthritis_risk":5,"migraine_risk":7,"frizz_risk":0,"updated_at":"2026-05-30T03:23:24.704439+05:30"},{"city":"Dalhousie","state":"Himachal Pradesh","latitude":32.5387,"longitude":75.971,"temp":11.8,"humidity":71,"rain":0.0,"pressure":801.3,"uv_index":8.4,"wind_gusts":34.6,"aqi":113,"pm10":58.1,"pm2_5":32.8,"no2":43.3,"co":304.0,"o3":20.0,"so2":1.7,"mosquito_risk":3,"arthritis_risk":5,"migraine_risk":7,"frizz_risk":0,"updated_at":"2026-05-30T03:23:24.704447+05:30"},{"city":"Patiala","state":"Punjab","latitude":30.3398,"longitude":76.3869,"temp":27.4,"humidity":46,"rain":0.0,"pressure":975.8,"uv_index":7.55,"wind_gusts":49.0,"aqi":1372,"pm10":2294.8,"pm2_5":271.0,"no2":4.6,"co":321.0,"o3":142.0,"so2":9.7,"mosquito_risk":4,"arthritis_risk":5,"migraine_risk":7,"frizz_risk":0,"updated_at":"2026-05-30T03:23:24.704453+05:30"},{"city":"Bhatinda","state":"Punjab","latitude":30.211,"longitude":74.9455,"temp":29.0,"humidity":56,"rain":0.0,"pressure":979.8,"uv_index":7.7,"wind_gusts":59.8,"aqi":689,"pm10":750.6,"pm2_5":192.3,"no2":7.9,"co":351.0,"o3":123.0,"so2":13.3,"mosquito_risk":4,"arthritis_risk":5,"migraine_risk":7,"frizz_risk":1,"updated_at":"2026-05-30T03:23:24.704460+05:30"},{"city":"Rohtak","state":"Haryana","latitude":28.8955,"longitude":76.6066,"temp":27.0,"humidity":69,"rain":0.0,"pressure":978.7,"uv_index":6.95,"wind_gusts":66.6,"aqi":764,"pm10":1009.6,"pm2_5":163.9,"no2":25.9,"co":445.0,"o3":75.0,"so2":22.7,"mosquito_risk":7,"arthritis_risk":5,"migraine_risk":7,"frizz_risk":1,"updated_at":"2026-05-30T03:23:24.704467+05:30"},{"city":"Panipat","state":"Haryana","latitude":29.3909,"longitude":76.9635,"temp":27.0,"humidity":51,"rain":0.0,"pressure":978.0,"uv_index":7.5,"wind_gusts":52.6,"aqi":1512,"pm10":530.9,"pm2_5":92.4,"no2":10.9,"co":318.0,"o3":107.0,"so2":13.6,"mosquito_risk":4,"arthritis_risk":5,"migraine_risk":7,"frizz_risk":1,"updated_at":"2026-05-30T03:23:24.704473+05:30"},{"city":"Mathura","state":"Uttar Pradesh","latitude":27.4924,"longitude":77.6737,"temp":26.1,"humidity":69,"rain":0.0,"pressure":984.4,"uv_index":7.9,"wind_gusts":68.4,"aqi":374,"pm10":169.5,"pm2_5":49.8,"no2":9.8,"co":332.0,"o3":94.0,"so2":5.8,"mosquito_risk":7,"arthritis_risk":5,"migraine_risk":7,"frizz_risk":1,"updated_at":"2026-05-30T03:23:24.704480+05:30"},{"city":"Vrindavan","state":"Uttar Pradesh","latitude":27.5823,"longitude":77.7027,"temp":26.3,"humidity":68,"rain":0.0,"pressure":984.9,"uv_index":7.85,"wind_gusts":68.8,"aqi":374,"pm10":169.5,"pm2_5":49.8,"no2":9.8,"co":334.0,"o3":94.0,"so2":5.8,"mosquito_risk":7,"arthritis_risk":5,"migraine_risk":7,"frizz_risk":1,"updated_at":"2026-05-30T03:23:24.704487+05:30"},{"city":"Ayodhya","state":"Uttar Pradesh","latitude":26.7922,"longitude":82.1998,"temp":23.5,"humidity":83,"rain":0.0,"pressure":994.2,"uv_index":7.8,"wind_gusts":35.3,"aqi":92,"pm10":30.2,"pm2_5":26.4,"no2":16.8,"co":431.0,"o3":77.0,"so2":6.2,"mosquito_risk":3,"arthritis_risk":5,"migraine_risk":7,"frizz_risk":1,"updated_at":"2026-05-30T03:23:24.704493+05:30"},{"city":"Ratlam","state":"Madhya Pradesh","latitude":23.3315,"longitude":75.0367,"temp":27.3,"humidity":77,"rain":0.0,"pressure":952.3,"uv_index":8.45,"wind_gusts":43.9,"aqi":78,"pm10":37.8,"pm2_5":22.4,"no2":5.6,"co":133.0,"o3":50.0,"so2":9.6,"mosquito_risk":7,"arthritis_risk":5,"migraine_risk":7,"frizz_risk":1,"updated_at":"2026-05-30T03:23:24.704500+05:30"},{"city":"Sagar","state":"Madhya Pradesh","latitude":23.8388,"longitude":78.7378,"temp":25.3,"humidity":75,"rain":0.0,"pressure":947.0,"uv_index":8.65,"wind_gusts":41.8,"aqi":71,"pm10":49.5,"pm2_5":27.4,"no2":6.2,"co":233.0,"o3":77.0,"so2":4.4,"mosquito_risk":7,"arthritis_risk":5,"migraine_risk":7,"frizz_risk":1,"updated_at":"2026-05-30T03:23:24.704507+05:30"},{"city":"Satna","state":"Madhya Pradesh","latitude":24.6005,"longitude":80.8322,"temp":26.1,"humidity":69,"rain":0.1,"pressure":969.8,"uv_index":8.75,"wind_gusts":37.1,"aqi":98,"pm10":44.9,"pm2_5":36.6,"no2":6.6,"co":330.0,"o3":133.0,"so2":14.2,"mosquito_risk":10,"arthritis_risk":5,"migraine_risk":7,"frizz_risk":1,"updated_at":"2026-05-30T03:23:24.704514+05:30"},{"city":"Akola","state":"Maharashtra","latitude":20.7002,"longitude":77.0082,"temp":30.5,"humidity":51,"rain":0.0,"pressure":972.8,"uv_index":8.8,"wind_gusts":48.2,"aqi":68,"pm10":40.3,"pm2_5":21.3,"no2":7.3,"co":157.0,"o3":58.0,"so2":6.8,"mosquito_risk":0,"arthritis_risk":5,"migraine_risk":7,"frizz_risk":1,"updated_at":"2026-05-30T03:23:24.704522+05:30"},{"city":"Amravati","state":"Maharashtra","latitude":20.9374,"longitude":77.7796,"temp":32.0,"humidity":27,"rain":0.0,"pressure":964.9,"uv_index":8.8,"wind_gusts":49.3,"aqi":67,"pm10":42.8,"pm2_5":22.2,"no2":7.4,"co":150.0,"o3":64.0,"so2":6.8,"mosquito_risk":0,"arthritis_risk":5,"migraine_risk":7,"frizz_risk":0,"updated_at":"2026-05-30T03:23:24.704530+05:30"},{"city":"Latur","state":"Maharashtra","latitude":18.4088,"longitude":76.5604,"temp":27.6,"humidity":62,"rain":0.0,"pressure":938.0,"uv_index":8.95,"wind_gusts":39.2,"aqi":49,"pm10":18.8,"pm2_5":14.6,"no2":6.2,"co":173.0,"o3":83.0,"so2":7.5,"mosquito_risk":7,"arthritis_risk":5,"migraine_risk":7,"frizz_risk":1,"updated_at":"2026-05-30T03:23:24.704537+05:30"},{"city":"Nanded","state":"Maharashtra","latitude":19.1383,"longitude":77.3091,"temp":31.6,"humidity":40,"rain":0.0,"pressure":966.3,"uv_index":8.9,"wind_gusts":40.3,"aqi":63,"pm10":23.7,"pm2_5":18.4,"no2":11.8,"co":158.0,"o3":63.0,"so2":5.0,"mosquito_risk":0,"arthritis_risk":5,"migraine_risk":7,"frizz_risk":1,"updated_at":"2026-05-30T03:23:24.704543+05:30"},{"city":"Gulbarga","state":"Karnataka","latitude":17.3297,"longitude":76.8343,"temp":28.6,"humidity":60,"rain":0.0,"pressure":957.2,"uv_index":8.95,"wind_gusts":40.3,"aqi":40,"pm10":11.5,"pm2_5":8.9,"no2":6.3,"co":147.0,"o3":53.0,"so2":2.7,"mosquito_risk":4,"arthritis_risk":5,"migraine_risk":7,"frizz_risk":1,"updated_at":"2026-05-30T03:23:24.704549+05:30"},{"city":"Bidar","state":"Karnataka","latitude":17.9104,"longitude":77.5199,"temp":27.9,"humidity":57,"rain":0.0,"pressure":933.6,"uv_index":9.0,"wind_gusts":34.9,"aqi":59,"pm10":16.1,"pm2_5":13.5,"no2":12.6,"co":197.0,"o3":65.0,"so2":3.7,"mosquito_risk":4,"arthritis_risk":5,"migraine_risk":7,"frizz_risk":1,"updated_at":"2026-05-30T03:23:24.704556+05:30"},{"city":"Hospet","state":"Karnataka","latitude":15.2689,"longitude":76.3909,"temp":25.2,"humidity":88,"rain":0.0,"pressure":955.1,"uv_index":8.75,"wind_gusts":42.5,"aqi":39,"pm10":6.0,"pm2_5":5.2,"no2":5.4,"co":141.0,"o3":48.0,"so2":1.5,"mosquito_risk":7,"arthritis_risk":5,"migraine_risk":7,"frizz_risk":1,"updated_at":"2026-05-30T03:23:24.704563+05:30"},{"city":"Tirupur","state":"Tamil Nadu","latitude":11.1085,"longitude":77.3411,"temp":25.9,"humidity":82,"rain":0.0,"pressure":974.4,"uv_index":8.5,"wind_gusts":50.4,"aqi":37,"pm10":11.1,"pm2_5":10.2,"no2":15.4,"co":133.0,"o3":32.0,"so2":4.0,"mosquito_risk":7,"arthritis_risk":5,"migraine_risk":7,"frizz_risk":1,"updated_at":"2026-05-30T03:23:24.704570+05:30"},{"city":"Alappuzha","state":"Kerala","latitude":9.4981,"longitude":76.3388,"temp":24.6,"humidity":97,"rain":0.1,"pressure":1010.1,"uv_index":7.85,"wind_gusts":27.7,"aqi":29,"pm10":8.4,"pm2_5":6.3,"no2":6.9,"co":157.0,"o3":43.0,"so2":1.4,"mosquito_risk":6,"arthritis_risk":0,"migraine_risk":4,"frizz_risk":1,"updated_at":"2026-05-30T03:23:24.704576+05:30"},{"city":"Munnar","state":"Kerala","latitude":10.0889,"longitude":77.0595,"temp":17.9,"humidity":100,"rain":0.2,"pressure":856.7,"uv_index":8.7,"wind_gusts":28.1,"aqi":21,"pm10":6.3,"pm2_5":6.0,"no2":8.5,"co":107.0,"o3":25.0,"so2":1.7,"mosquito_risk":6,"arthritis_risk":10,"migraine_risk":7,"frizz_risk":1,"updated_at":"2026-05-30T03:23:24.704583+05:30"},{"city":"Silchar","state":"Assam","latitude":24.8333,"longitude":92.7789,"temp":24.9,"humidity":93,"rain":0.0,"pressure":1002.4,"uv_index":8.9,"wind_gusts":24.1,"aqi":151,"pm10":84.5,"pm2_5":69.4,"no2":28.1,"co":1021.0,"o3":7.0,"so2":3.9,"mosquito_risk":3,"arthritis_risk":5,"migraine_risk":4,"frizz_risk":1,"updated_at":"2026-05-30T03:23:24.704590+05:30"},{"city":"Dibrugarh","state":"Assam","latitude":27.4728,"longitude":94.912,"temp":26.4,"humidity":89,"rain":0.0,"pressure":993.7,"uv_index":7.45,"wind_gusts":16.9,"aqi":133,"pm10":74.3,"pm2_5":55.4,"no2":35.1,"co":812.0,"o3":5.0,"so2":1.8,"mosquito_risk":7,"arthritis_risk":5,"migraine_risk":7,"frizz_risk":1,"updated_at":"2026-05-30T03:23:24.704596+05:30"}]