[{"city":"Delhi","state":"Delhi","latitude":28.6139,"longitude":77.209,"temp":19.0,"humidity":67,"rain":0.0,"pressure":985.8,"uv_index":5.7,"wind_gusts":31.7,"aqi":158,"pm10":339.0,"pm2_5":88.2,"mosquito_risk":3,"arthritis_risk":5,"migraine_risk":3,"frizz_risk":0,"updated_at":"2026-03-02T00:08:26.657765+05:30"},{"city":"Mumbai","state":"Maharashtra","latitude":19.076,"longitude":72.8777,"temp":26.1,"humidity":77,"rain":0.0,"pressure":1010.5,"uv_index":7.25,"wind_gusts":24.1,"aqi":80,"pm10":48.9,"pm2_5":28.1,"mosquito_risk":7,"arthritis_risk":0,"migraine_risk":4,"frizz_risk":1,"updated_at":"2026-03-02T00:08:26.657807+05:30"},{"city":"Bangalore","state":"Karnataka","latitude":12.9716,"longitude":77.5946,"temp":22.6,"humidity":62,"rain":0.0,"pressure":912.0,"uv_index":9.05,"wind_gusts":23.0,"aqi":151,"pm10":42.6,"pm2_5":42.0,"mosquito_risk":3,"arthritis_risk":5,"migraine_risk":7,"frizz_risk":0,"updated_at":"2026-03-02T00:08:26.657823+05:30"},{"city":"Hyderabad","state":"Telangana","latitude":17.385,"longitude":78.4867,"temp":24.6,"humidity":71,"rain":0.0,"pressure":954.0,"uv_index":8.3,"wind_gusts":27.4,"aqi":133,"pm10":75.4,"pm2_5":75.0,"mosquito_risk":3,"arthritis_risk":5,"migraine_risk":7,"frizz_risk":1,"updated_at":"2026-03-02T00:08:26.657833+05:30"},{"city":"Chennai","state":"Tamil Nadu","latitude":13.0827,"longitude":80.2707,"temp":25.2,"humidity":80,"rain":0.0,"pressure":1009.0,"uv_index":8.75,"wind_gusts":33.1,"aqi":131,"pm10":45.4,"pm2_5":41.4,"mosquito_risk":7,"arthritis_risk":0,"migraine_risk":4,"frizz_risk":1,"updated_at":"2026-03-02T00:08:26.657841+05:30"},{"city":"Kolkata","state":"West Bengal","latitude":22.5726,"longitude":88.3639,"temp":24.3,"humidity":93,"rain":0.0,"pressure":1007.1,"uv_index":7.6,"wind_gusts":25.2,"aqi":102,"pm10":44.2,"pm2_5":42.1,"mosquito_risk":3,"arthritis_risk":5,"migraine_risk":4,"frizz_risk":1,"updated_at":"2026-03-02T00:08:26.657850+05:30"},{"city":"Pune","state":"Maharashtra","latitude":18.5204,"longitude":73.8567,"temp":21.1,"humidity":83,"rain":0.0,"pressure":949.1,"uv_index":7.8,"wind_gusts":34.2,"aqi":139,"pm10":42.1,"pm2_5":35.9,"mosquito_risk":3,"arthritis_risk":5,"migraine_risk":7,"frizz_risk":1,"updated_at":"2026-03-02T00:08:26.657862+05:30"},{"city":"Ahmedabad","state":"Gujarat","latitude":23.0225,"longitude":72.5714,"temp":24.2,"humidity":57,"rain":0.0,"pressure":1004.4,"uv_index":7.05,"wind_gusts":21.2,"aqi":94,"pm10":70.1,"pm2_5":56.1,"mosquito_risk":0,"arthritis_risk":5,"migraine_risk":4,"frizz_risk":0,"updated_at":"2026-03-02T00:08:26.657870+05:30"},{"city":"Jaipur","state":"Rajasthan","latitude":26.9124,"longitude":75.7873,"temp":22.5,"humidity":32,"rain":0.0,"pressure":962.1,"uv_index":6.45,"wind_gusts":25.2,"aqi":89,"pm10":85.2,"pm2_5":50.8,"mosquito_risk":0,"arthritis_risk":5,"migraine_risk":7,"frizz_risk":0,"updated_at":"2026-03-02T00:08:26.657878+05:30"},{"city":"Lucknow","state":"Uttar Pradesh","latitude":26.8467,"longitude":80.9462,"temp":18.5,"humidity":55,"rain":0.0,"pressure":995.8,"uv_index":6.2,"wind_gusts":38.5,"aqi":123,"pm10":185.3,"pm2_5":51.7,"mosquito_risk":0,"arthritis_risk":5,"migraine_risk":7,"frizz_risk":0,"updated_at":"2026-03-02T00:08:26.657886+05:30"},{"city":"Kanpur","state":"Uttar Pradesh","latitude":26.4499,"longitude":80.3319,"temp":16.3,"humidity":64,"rain":0.0,"pressure":994.3,"uv_index":6.2,"wind_gusts":31.3,"aqi":151,"pm10":264.5,"pm2_5":56.9,"mosquito_risk":3,"arthritis_risk":5,"migraine_risk":7,"frizz_risk":0,"updated_at":"2026-03-02T00:08:26.657893+05:30"},{"city":"Chandigarh","state":"Chandigarh","latitude":30.7333,"longitude":76.7794,"temp":17.2,"humidity":53,"rain":0.0,"pressure":971.1,"uv_index":5.6,"wind_gusts":31.0,"aqi":85,"pm10":38.5,"pm2_5":35.4,"mosquito_risk":0,"arthritis_risk":5,"migraine_risk":3,"frizz_risk":0,"updated_at":"2026-03-02T00:08:26.657901+05:30"},{"city":"Srinagar","state":"Jammu and Kashmir","latitude":34.0837,"longitude":74.7973,"temp":5.7,"humidity":76,"rain":0.0,"pressure":839.0,"uv_index":6.45,"wind_gusts":14.8,"aqi":146,"pm10":103.8,"pm2_5":90.8,"mosquito_risk":3,"arthritis_risk":5,"migraine_risk":7,"frizz_risk":0,"updated_at":"2026-03-02T00:08:26.657909+05:30"},{"city":"Jammu","state":"Jammu and Kashmir","latitude":32.7266,"longitude":74.857,"temp":16.6,"humidity":71,"rain":0.0,"pressure":975.1,"uv_index":6.15,"wind_gusts":25.2,"aqi":102,"pm10":54.6,"pm2_5":50.1,"mosquito_risk":3,"arthritis_risk":5,"migraine_risk":7,"frizz_risk":0,"updated_at":"2026-03-02T00:08:26.657915+05:30"},{"city":"Amritsar","state":"Punjab","latitude":31.634,"longitude":74.8723,"temp":18.2,"humidity":64,"rain":0.0,"pressure":983.5,"uv_index":6.1,"wind_gusts":20.5,"aqi":129,"pm10":79.4,"pm2_5":57.9,"mosquito_risk":3,"arthritis_risk":5,"migraine_risk":7,"frizz_risk":0,"updated_at":"2026-03-02T00:08:26.657922+05:30"},{"city":"Ludhiana","state":"Punjab","latitude":30.901,"longitude":75.8573,"temp":18.5,"humidity":61,"rain":0.0,"pressure":981.7,"uv_index":5.8,"wind_gusts":25.9,"aqi":154,"pm10":97.8,"pm2_5":84.3,"mosquito_risk":3,"arthritis_risk":5,"migraine_risk":3,"frizz_risk":0,"updated_at":"2026-03-02T00:08:26.657928+05:30"},{"city":"Jalandhar","state":"Punjab","latitude":31.326,"longitude":75.5762,"temp":18.3,"humidity":63,"rain":0.0,"pressure":982.8,"uv_index":5.95,"wind_gusts":23.0,"aqi":156,"pm10":114.1,"pm2_5":94.8,"mosquito_risk":3,"arthritis_risk":5,"migraine_risk":3,"frizz_risk":0,"updated_at":"2026-03-02T00:08:26.657936+05:30"},{"city":"Dehradun","state":"Uttarakhand","latitude":30.6284,"longitude":78.0322,"temp":10.4,"humidity":55,"rain":0.0,"pressure":828.1,"uv_index":5.95,"wind_gusts":32.4,"aqi":63,"pm10":32.2,"pm2_5":26.8,"mosquito_risk":0,"arthritis_risk":5,"migraine_risk":3,"frizz_risk":0,"updated_at":"2026-03-02T00:08:26.657943+05:30"},{"city":"Shimla","state":"Himachal Pradesh","latitude":31.1048,"longitude":77.1734,"temp":7.4,"humidity":56,"rain":0.0,"pressure":781.6,"uv_index":6.0,"wind_gusts":50.4,"aqi":68,"pm10":34.0,"pm2_5":26.5,"mosquito_risk":0,"arthritis_risk":5,"migraine_risk":3,"frizz_risk":1,"updated_at":"2026-03-02T00:08:26.657950+05:30"},{"city":"Manali","state":"Himachal Pradesh","latitude":32.2396,"longitude":77.1887,"temp":10.7,"humidity":31,"rain":0.0,"pressure":817.6,"uv_index":7.6,"wind_gusts":34.9,"aqi":62,"pm10":24.3,"pm2_5":17.9,"mosquito_risk":0,"arthritis_risk":5,"migraine_risk":7,"frizz_risk":1,"updated_at":"2026-03-02T00:08:26.657957+05:30"},{"city":"Gurgaon","state":"Haryana","latitude":28.4595,"longitude":77.0266,"temp":17.0,"humidity":75,"rain":0.0,"pressure":984.1,"uv_index":5.8,"wind_gusts":31.0,"aqi":537,"pm10":547.6,"pm2_5":105.9,"mosquito_risk":3,"arthritis_risk":5,"migraine_risk":3,"frizz_risk":0,"updated_at":"2026-03-02T00:08:26.657964+05:30"},{"city":"Noida","state":"Uttar Pradesh","latitude":28.5355,"longitude":77.391,"temp":19.2,"humidity":66,"rain":0.0,"pressure":987.3,"uv_index":5.75,"wind_gusts":31.3,"aqi":537,"pm10":547.6,"pm2_5":105.9,"mosquito_risk":3,"arthritis_risk":5,"migraine_risk":3,"frizz_risk":0,"updated_at":"2026-03-02T00:08:26.657971+05:30"},{"city":"Ghaziabad","state":"Uttar Pradesh","latitude":28.6692,"longitude":77.4538,"temp":18.4,"humidity":67,"rain":0.0,"pressure":985.3,"uv_index":5.7,"wind_gusts":28.1,"aqi":154,"pm10":333.4,"pm2_5":86.1,"mosquito_risk":3,"arthritis_risk":5,"migraine_risk":3,"frizz_risk":0,"updated_at":"2026-03-02T00:08:26.657978+05:30"},{"city":"Faridabad","state":"Haryana","latitude":28.4089,"longitude":77.3178,"temp":19.4,"humidity":59,"rain":0.0,"pressure":986.5,"uv_index":5.75,"wind_gusts":28.8,"aqi":537,"pm10":547.6,"pm2_5":105.9,"mosquito_risk":0,"arthritis_risk":5,"migraine_risk":3,"frizz_risk":0,"updated_at":"2026-03-02T00:08:26.657984+05:30"},{"city":"Meerut","state":"Uttar Pradesh","latitude":28.9845,"longitude":77.7064,"temp":16.2,"humidity":73,"rain":0.0,"pressure":983.7,"uv_index":5.6,"wind_gusts":31.7,"aqi":154,"pm10":333.4,"pm2_5":86.1,"mosquito_risk":3,"arthritis_risk":5,"migraine_risk":3,"frizz_risk":0,"updated_at":"2026-03-02T00:08:26.657991+05:30"},{"city":"Agra","state":"Uttar Pradesh","latitude":27.1767,"longitude":78.0081,"temp":19.0,"humidity":52,"rain":0.0,"pressure":990.5,"uv_index":6.05,"wind_gusts":27.4,"aqi":245,"pm10":363.2,"pm2_5":73.8,"mosquito_risk":0,"arthritis_risk":5,"migraine_risk":7,"frizz_risk":0,"updated_at":"2026-03-02T00:08:26.657997+05:30"},{"city":"Varanasi","state":"Uttar Pradesh","latitude":25.3176,"longitude":82.9739,"temp":17.2,"humidity":67,"rain":0.0,"pressure":1000.0,"uv_index":6.85,"wind_gusts":26.6,"aqi":132,"pm10":69.4,"pm2_5":37.4,"mosquito_risk":3,"arthritis_risk":5,"migraine_risk":4,"frizz_risk":0,"updated_at":"2026-03-02T00:08:26.658006+05:30"},{"city":"Prayagraj","state":"Uttar Pradesh","latitude":25.4358,"longitude":81.8463,"temp":17.2,"humidity":66,"rain":0.0,"pressure":998.8,"uv_index":6.7,"wind_gusts":28.1,"aqi":133,"pm10":89.9,"pm2_5":41.8,"mosquito_risk":3,"arthritis_risk":5,"migraine_risk":7,"frizz_risk":0,"updated_at":"2026-03-02T00:08:26.658016+05:30"},{"city":"Gorakhpur","state":"Uttar Pradesh","latitude":26.7606,"longitude":83.3732,"temp":17.0,"humidity":59,"rain":0.0,"pressure":998.9,"uv_index":6.55,"wind_gusts":32.4,"aqi":107,"pm10":56.1,"pm2_5":32.9,"mosquito_risk":0,"arthritis_risk":5,"migraine_risk":7,"frizz_risk":0,"updated_at":"2026-03-02T00:08:26.658023+05:30"},{"city":"Bareilly","state":"Uttar Pradesh","latitude":28.367,"longitude":79.4304,"temp":16.5,"humidity":70,"rain":0.0,"pressure":988.9,"uv_index":5.9,"wind_gusts":35.6,"aqi":120,"pm10":113.6,"pm2_5":44.4,"mosquito_risk":3,"arthritis_risk":5,"migraine_risk":3,"frizz_risk":0,"updated_at":"2026-03-02T00:08:26.658029+05:30"},{"city":"Aligarh","state":"Uttar Pradesh","latitude":27.8974,"longitude":78.088,"temp":17.3,"humidity":66,"rain":0.0,"pressure":988.1,"uv_index":5.8,"wind_gusts":31.3,"aqi":299,"pm10":451.7,"pm2_5":98.3,"mosquito_risk":3,"arthritis_risk":5,"migraine_risk":3,"frizz_risk":0,"updated_at":"2026-03-02T00:08:26.658036+05:30"},{"city":"Moradabad","state":"Uttar Pradesh","latitude":28.8386,"longitude":78.7733,"temp":15.8,"humidity":68,"rain":0.0,"pressure":985.7,"uv_index":5.7,"wind_gusts":33.8,"aqi":127,"pm10":168.6,"pm2_5":56.1,"mosquito_risk":3,"arthritis_risk":5,"migraine_risk":3,"frizz_risk":0,"updated_at":"2026-03-02T00:08:26.658042+05:30"},{"city":"Saharanpur","state":"Uttar Pradesh","latitude":29.9637,"longitude":77.546,"temp":15.9,"humidity":65,"rain":0.0,"pressure":977.5,"uv_index":5.35,"wind_gusts":38.2,"aqi":135,"pm10":80.3,"pm2_5":46.2,"mosquito_risk":3,"arthritis_risk":5,"migraine_risk":3,"frizz_risk":0,"updated_at":"2026-03-02T00:08:26.658050+05:30"},{"city":"Jhansi","state":"Uttar Pradesh","latitude":25.4484,"longitude":78.5685,"temp":19.9,"humidity":56,"rain":0.0,"pressure":980.7,"uv_index":6.65,"wind_gusts":24.5,"aqi":73,"pm10":67.8,"pm2_5":32.1,"mosquito_risk":0,"arthritis_risk":5,"migraine_risk":7,"frizz_risk":0,"updated_at":"2026-03-02T00:08:29.874132+05:30"},{"city":"Surat","state":"Gujarat","latitude":21.1702,"longitude":72.8311,"temp":23.7,"humidity":86,"rain":0.0,"pressure":1008.8,"uv_index":6.95,"wind_gusts":28.4,"aqi":117,"pm10":68.2,"pm2_5":58.3,"mosquito_risk":3,"arthritis_risk":0,"migraine_risk":4,"frizz_risk":1,"updated_at":"2026-03-02T00:08:29.874162+05:30"},{"city":"Vadodara","state":"Gujarat","latitude":22.3072,"longitude":73.1812,"temp":25.2,"humidity":58,"rain":0.0,"pressure":1006.4,"uv_index":7.05,"wind_gusts":11.9,"aqi":112,"pm10":76.1,"pm2_5":66.4,"mosquito_risk":4,"arthritis_risk":5,"migraine_risk":4,"frizz_risk":1,"updated_at":"2026-03-02T00:08:29.874171+05:30"},{"city":"Rajkot","state":"Gujarat","latitude":22.3039,"longitude":70.8022,"temp":22.4,"humidity":67,"rain":0.0,"pressure":996.9,"uv_index":6.9,"wind_gusts":20.5,"aqi":84,"pm10":43.1,"pm2_5":27.4,"mosquito_risk":3,"arthritis_risk":5,"migraine_risk":7,"frizz_risk":0,"updated_at":"2026-03-02T00:08:29.874179+05:30"},{"city":"Thane","state":"Maharashtra","latitude":19.2183,"longitude":72.9781,"temp":23.7,"humidity":85,"rain":0.0,"pressure":1010.0,"uv_index":7.25,"wind_gusts":36.4,"aqi":80,"pm10":48.9,"pm2_5":28.1,"mosquito_risk":3,"arthritis_risk":0,"migraine_risk":4,"frizz_risk":1,"updated_at":"2026-03-02T00:08:29.874186+05:30"},{"city":"Nagpur","state":"Maharashtra","latitude":21.1458,"longitude":79.0882,"temp":22.9,"humidity":56,"rain":0.0,"pressure":974.7,"uv_index":7.65,"wind_gusts":30.6,"aqi":88,"pm10":27.1,"pm2_5":26.4,"mosquito_risk":0,"arthritis_risk":5,"migraine_risk":7,"frizz_risk":0,"updated_at":"2026-03-02T00:08:29.874193+05:30"},{"city":"Nashik","state":"Maharashtra","latitude":19.9975,"longitude":73.7898,"temp":20.7,"humidity":79,"rain":0.0,"pressure":946.8,"uv_index":7.45,"wind_gusts":28.8,"aqi":83,"pm10":40.5,"pm2_5":35.0,"mosquito_risk":3,"arthritis_risk":5,"migraine_risk":7,"frizz_risk":1,"updated_at":"2026-03-02T00:08:29.874199+05:30"},{"city":"Aurangabad","state":"Maharashtra","latitude":19.8762,"longitude":75.3433,"temp":23.7,"humidity":57,"rain":0.0,"pressure":944.8,"uv_index":7.95,"wind_gusts":28.8,"aqi":78,"pm10":38.1,"pm2_5":36.7,"mosquito_risk":0,"arthritis_risk":5,"migraine_risk":7,"frizz_risk":0,"updated_at":"2026-03-02T00:08:29.874206+05:30"},{"city":"Solapur","state":"Maharashtra","latitude":17.6599,"longitude":75.9064,"temp":24.7,"humidity":59,"rain":0.0,"pressure":957.0,"uv_index":8.25,"wind_gusts":19.8,"aqi":98,"pm10":45.8,"pm2_5":45.3,"mosquito_risk":0,"arthritis_risk":5,"migraine_risk":7,"frizz_risk":1,"updated_at":"2026-03-02T00:08:29.874213+05:30"},{"city":"Kolhapur","state":"Maharashtra","latitude":16.705,"longitude":74.2433,"temp":18.6,"humidity":86,"rain":0.0,"pressure":948.5,"uv_index":8.35,"wind_gusts":37.8,"aqi":81,"pm10":32.0,"pm2_5":30.3,"mosquito_risk":3,"arthritis_risk":10,"migraine_risk":7,"frizz_risk":1,"updated_at":"2026-03-02T00:08:29.874220+05:30"},{"city":"Goa","state":"Goa","latitude":15.2993,"longitude":74.124,"temp":24.8,"humidity":80,"rain":0.0,"pressure":999.3,"uv_index":8.4,"wind_gusts":35.3,"aqi":62,"pm10":29.7,"pm2_5":25.0,"mosquito_risk":3,"arthritis_risk":5,"migraine_risk":7,"frizz_risk":1,"updated_at":"2026-03-02T00:08:29.874227+05:30"},{"city":"Jodhpur","state":"Rajasthan","latitude":26.2389,"longitude":73.0243,"temp":25.3,"humidity":42,"rain":0.0,"pressure":985.2,"uv_index":6.75,"wind_gusts":18.0,"aqi":67,"pm10":43.1,"pm2_5":26.5,"mosquito_risk":4,"arthritis_risk":5,"migraine_risk":7,"frizz_risk":0,"updated_at":"2026-03-02T00:08:29.874234+05:30"},{"city":"Udaipur","state":"Rajasthan","latitude":24.5854,"longitude":73.7125,"temp":19.7,"humidity":58,"rain":0.0,"pressure":948.5,"uv_index":7.35,"wind_gusts":25.2,"aqi":58,"pm10":32.9,"pm2_5":23.0,"mosquito_risk":0,"arthritis_risk":5,"migraine_risk":7,"frizz_risk":0,"updated_at":"2026-03-02T00:08:29.874241+05:30"},{"city":"Kota","state":"Rajasthan","latitude":25.2138,"longitude":75.8648,"temp":21.6,"humidity":66,"rain":0.0,"pressure":981.1,"uv_index":6.8,"wind_gusts":20.2,"aqi":85,"pm10":57.6,"pm2_5":40.0,"mosquito_risk":3,"arthritis_risk":5,"migraine_risk":7,"frizz_risk":0,"updated_at":"2026-03-02T00:08:29.874247+05:30"},{"city":"Bikaner","state":"Rajasthan","latitude":28.0229,"longitude":73.3119,"temp":24.0,"humidity":40,"rain":0.0,"pressure":984.2,"uv_index":6.45,"wind_gusts":16.2,"aqi":67,"pm10":39.3,"pm2_5":21.5,"mosquito_risk":0,"arthritis_risk":5,"migraine_risk":7,"frizz_risk":0,"updated_at":"2026-03-02T00:08:29.874254+05:30"},{"city":"Ajmer","state":"Rajasthan","latitude":26.4499,"longitude":74.6399,"temp":21.9,"humidity":40,"rain":0.0,"pressure":956.4,"uv_index":6.7,"wind_gusts":17.6,"aqi":81,"pm10":59.1,"pm2_5":41.0,"mosquito_risk":0,"arthritis_risk":5,"migraine_risk":7,"frizz_risk":0,"updated_at":"2026-03-02T00:08:29.874260+05:30"},{"city":"Gwalior","state":"Madhya Pradesh","latitude":26.2183,"longitude":78.1828,"temp":22.2,"humidity":47,"rain":0.0,"pressure":986.1,"uv_index":6.35,"wind_gusts":28.8,"aqi":97,"pm10":139.7,"pm2_5":41.0,"mosquito_risk":0,"arthritis_risk":5,"migraine_risk":7,"frizz_risk":0,"updated_at":"2026-03-02T00:08:29.874292+05:30"},{"city":"Indore","state":"Madhya Pradesh","latitude":22.7196,"longitude":75.8577,"temp":20.9,"humidity":64,"rain":0.0,"pressure":949.8,"uv_index":7.35,"wind_gusts":22.3,"aqi":82,"pm10":46.3,"pm2_5":40.7,"mosquito_risk":3,"arthritis_risk":5,"migraine_risk":7,"frizz_risk":0,"updated_at":"2026-03-02T00:08:29.874300+05:30"},{"city":"Bhopal","state":"Madhya Pradesh","latitude":23.2599,"longitude":77.4126,"temp":22.2,"humidity":49,"rain":0.0,"pressure":955.7,"uv_index":7.2,"wind_gusts":25.9,"aqi":65,"pm10":26.7,"pm2_5":23.9,"mosquito_risk":0,"arthritis_risk":5,"migraine_risk":7,"frizz_risk":0,"updated_at":"2026-03-02T00:08:29.874306+05:30"},{"city":"Jabalpur","state":"Madhya Pradesh","latitude":23.1815,"longitude":79.9864,"temp":21.4,"humidity":61,"rain":0.0,"pressure":963.3,"uv_index":7.3,"wind_gusts":39.2,"aqi":72,"pm10":30.3,"pm2_5":26.8,"mosquito_risk":3,"arthritis_risk":5,"migraine_risk":7,"frizz_risk":0,"updated_at":"2026-03-02T00:08:29.874312+05:30"},{"city":"Ujjain","state":"Madhya Pradesh","latitude":23.1765,"longitude":75.7885,"temp":21.2,"humidity":66,"rain":0.0,"pressure":955.6,"uv_index":7.2,"wind_gusts":20.5,"aqi":89,"pm10":66.6,"pm2_5":60.5,"mosquito_risk":3,"arthritis_risk":5,"migraine_risk":7,"frizz_risk":0,"updated_at":"2026-03-02T00:08:29.874320+05:30"},{"city":"Visakhapatnam","state":"Andhra Pradesh","latitude":17.6868,"longitude":83.2185,"temp":25.3,"humidity":82,"rain":0.0,"pressure":1005.4,"uv_index":8.3,"wind_gusts":39.2,"aqi":151,"pm10":48.2,"pm2_5":45.1,"mosquito_risk":7,"arthritis_risk":5,"migraine_risk":4,"frizz_risk":1,"updated_at":"2026-03-02T00:08:29.874327+05:30"},{"city":"Vijayawada","state":"Andhra Pradesh","latitude":16.5062,"longitude":80.648,"temp":24.1,"humidity":87,"rain":0.0,"pressure":1004.3,"uv_index":8.4,"wind_gusts":24.8,"aqi":140,"pm10":41.2,"pm2_5":39.3,"mosquito_risk":3,"arthritis_risk":5,"migraine_risk":4,"frizz_risk":1,"updated_at":"2026-03-02T00:08:29.874333+05:30"},{"city":"Guntur","state":"Andhra Pradesh","latitude":16.3067,"longitude":80.4365,"temp":24.4,"humidity":86,"rain":0.0,"pressure":1005.4,"uv_index":8.4,"wind_gusts":28.4,"aqi":135,"pm10":38.4,"pm2_5":36.9,"mosquito_risk":3,"arthritis_risk":5,"migraine_risk":4,"frizz_risk":1,"updated_at":"2026-03-02T00:08:29.874339+05:30"},{"city":"Nellore","state":"Andhra Pradesh","latitude":14.4426,"longitude":79.9865,"temp":24.5,"humidity":84,"rain":0.0,"pressure":1007.3,"uv_index":8.6,"wind_gusts":31.0,"aqi":131,"pm10":39.8,"pm2_5":37.7,"mosquito_risk":3,"arthritis_risk":5,"migraine_risk":4,"frizz_risk":1,"updated_at":"2026-03-02T00:08:29.874347+05:30"},{"city":"Kurnool","state":"Andhra Pradesh","latitude":15.8281,"longitude":78.0373,"temp":27.2,"humidity":49,"rain":0.0,"pressure":977.4,"uv_index":8.4,"wind_gusts":20.5,"aqi":117,"pm10":42.7,"pm2_5":42.3,"mosquito_risk":4,"arthritis_risk":5,"migraine_risk":7,"frizz_risk":0,"updated_at":"2026-03-02T00:08:29.874354+05:30"},{"city":"Kakinada","state":"Andhra Pradesh","latitude":16.9891,"longitude":82.2475,"temp":23.2,"humidity":90,"rain":0.0,"pressure":1009.4,"uv_index":8.3,"wind_gusts":33.5,"aqi":148,"pm10":48.3,"pm2_5":44.2,"mosquito_risk":3,"arthritis_risk":0,"migraine_risk":4,"frizz_risk":1,"updated_at":"2026-03-02T00:08:29.874361+05:30"},{"city":"Tirupati","state":"Andhra Pradesh","latitude":13.6288,"longitude":79.4192,"temp":23.3,"humidity":74,"rain":0.0,"pressure":993.5,"uv_index":8.7,"wind_gusts":28.4,"aqi":150,"pm10":49.6,"pm2_5":48.2,"mosquito_risk":3,"arthritis_risk":5,"migraine_risk":7,"frizz_risk":1,"updated_at":"2026-03-02T00:08:29.874368+05:30"},{"city":"Warangal","state":"Telangana","latitude":17.9689,"longitude":79.5941,"temp":25.1,"humidity":75,"rain":0.0,"pressure":979.4,"uv_index":8.1,"wind_gusts":27.7,"aqi":144,"pm10":59.0,"pm2_5":58.7,"mosquito_risk":7,"arthritis_risk":5,"migraine_risk":7,"frizz_risk":1,"updated_at":"2026-03-02T00:08:29.874374+05:30"},{"city":"Nizamabad","state":"Telangana","latitude":18.6725,"longitude":78.0941,"temp":23.1,"humidity":63,"rain":0.0,"pressure":965.1,"uv_index":8.0,"wind_gusts":20.9,"aqi":113,"pm10":50.8,"pm2_5":50.3,"mosquito_risk":3,"arthritis_risk":5,"migraine_risk":7,"frizz_risk":0,"updated_at":"2026-03-02T00:08:29.874380+05:30"},{"city":"Mysore","state":"Karnataka","latitude":12.2958,"longitude":76.6396,"temp":22.2,"humidity":84,"rain":0.0,"pressure":928.7,"uv_index":9.05,"wind_gusts":35.6,"aqi":133,"pm10":57.9,"pm2_5":57.0,"mosquito_risk":3,"arthritis_risk":5,"migraine_risk":7,"frizz_risk":1,"updated_at":"2026-03-02T00:08:29.874387+05:30"},{"city":"Mangalore","state":"Karnataka","latitude":12.9141,"longitude":74.856,"temp":28.5,"humidity":72,"rain":0.0,"pressure":1008.0,"uv_index":8.65,"wind_gusts":32.0,"aqi":50,"pm10":20.1,"pm2_5":15.5,"mosquito_risk":7,"arthritis_risk":0,"migraine_risk":4,"frizz_risk":1,"updated_at":"2026-03-02T00:08:29.874393+05:30"},{"city":"Hubli-Dharwad","state":"Karnataka","latitude":15.3647,"longitude":75.124,"temp":20.8,"humidity":80,"rain":0.0,"pressure":940.9,"uv_index":8.55,"wind_gusts":32.8,"aqi":73,"pm10":12.4,"pm2_5":11.4,"mosquito_risk":3,"arthritis_risk":5,"migraine_risk":7,"frizz_risk":1,"updated_at":"2026-03-02T00:08:29.874400+05:30"},{"city":"Belgaum","state":"Karnataka","latitude":15.8497,"longitude":74.4977,"temp":18.9,"humidity":90,"rain":0.0,"pressure":925.6,"uv_index":8.6,"wind_gusts":38.5,"aqi":77,"pm10":25.8,"pm2_5":24.3,"mosquito_risk":3,"arthritis_risk":10,"migraine_risk":7,"frizz_risk":1,"updated_at":"2026-03-02T00:08:33.087184+05:30"},{"city":"Coimbatore","state":"Tamil Nadu","latitude":11.0168,"longitude":76.9558,"temp":23.6,"humidity":88,"rain":0.0,"pressure":963.1,"uv_index":9.05,"wind_gusts":32.8,"aqi":146,"pm10":57.4,"pm2_5":56.5,"mosquito_risk":3,"arthritis_risk":5,"migraine_risk":7,"frizz_risk":1,"updated_at":"2026-03-02T00:08:33.087214+05:30"},{"city":"Madurai","state":"Tamil Nadu","latitude":9.9252,"longitude":78.1198,"temp":24.5,"humidity":75,"rain":0.0,"pressure":995.0,"uv_index":9.0,"wind_gusts":25.9,"aqi":140,"pm10":46.9,"pm2_5":45.5,"mosquito_risk":3,"arthritis_risk":5,"migraine_risk":7,"frizz_risk":1,"updated_at":"2026-03-02T00:08:33.087225+05:30"},{"city":"Trichy","state":"Tamil Nadu","latitude":10.7905,"longitude":78.7047,"temp":24.3,"humidity":87,"rain":0.0,"pressure":1001.5,"uv_index":8.9,"wind_gusts":27.7,"aqi":141,"pm10":46.6,"pm2_5":44.6,"mosquito_risk":3,"arthritis_risk":5,"migraine_risk":4,"frizz_risk":1,"updated_at":"2026-03-02T00:08:33.087233+05:30"},{"city":"Salem","state":"Tamil Nadu","latitude":11.6643,"longitude":78.146,"temp":26.3,"humidity":67,"rain":0.0,"pressure":978.4,"uv_index":8.95,"wind_gusts":25.9,"aqi":144,"pm10":46.0,"pm2_5":44.7,"mosquito_risk":7,"arthritis_risk":5,"migraine_risk":7,"frizz_risk":1,"updated_at":"2026-03-02T00:08:33.087241+05:30"},{"city":"Tirunelveli","state":"Tamil Nadu","latitude":8.7139,"longitude":77.7567,"temp":24.4,"humidity":85,"rain":0.0,"pressure":1005.0,"uv_index":9.05,"wind_gusts":39.2,"aqi":130,"pm10":55.1,"pm2_5":53.3,"mosquito_risk":3,"arthritis_risk":5,"migraine_risk":4,"frizz_risk":1,"updated_at":"2026-03-02T00:08:33.087248+05:30"},{"city":"Vellore","state":"Tamil Nadu","latitude":12.9165,"longitude":79.1325,"temp":23.3,"humidity":78,"rain":0.0,"pressure":986.3,"uv_index":8.8,"wind_gusts":37.4,"aqi":153,"pm10":59.6,"pm2_5":57.9,"mosquito_risk":3,"arthritis_risk":5,"migraine_risk":7,"frizz_risk":1,"updated_at":"2026-03-02T00:08:33.087256+05:30"},{"city":"Erode","state":"Tamil Nadu","latitude":11.341,"longitude":77.7172,"temp":26.1,"humidity":72,"rain":0.0,"pressure":990.6,"uv_index":8.95,"wind_gusts":25.2,"aqi":134,"pm10":37.3,"pm2_5":36.2,"mosquito_risk":7,"arthritis_risk":5,"migraine_risk":7,"frizz_risk":1,"updated_at":"2026-03-02T00:08:33.087279+05:30"},{"city":"Kochi","state":"Kerala","latitude":9.9312,"longitude":76.2673,"temp":27.6,"humidity":80,"rain":0.0,"pressure":1009.9,"uv_index":8.9,"wind_gusts":36.4,"aqi":104,"pm10":44.9,"pm2_5":44.1,"mosquito_risk":7,"arthritis_risk":0,"migraine_risk":4,"frizz_risk":1,"updated_at":"2026-03-02T00:08:33.087288+05:30"},{"city":"Thiruvananthapuram","state":"Kerala","latitude":8.5241,"longitude":76.9366,"temp":27.3,"humidity":80,"rain":0.0,"pressure":1009.4,"uv_index":8.95,"wind_gusts":24.1,"aqi":117,"pm10":23.7,"pm2_5":20.8,"mosquito_risk":7,"arthritis_risk":0,"migraine_risk":4,"frizz_risk":1,"updated_at":"2026-03-02T00:08:33.087295+05:30"},{"city":"Kozhikode","state":"Kerala","latitude":11.2588,"longitude":75.7804,"temp":28.4,"humidity":75,"rain":0.0,"pressure":1008.8,"uv_index":8.75,"wind_gusts":31.3,"aqi":56,"pm10":18.8,"pm2_5":13.9,"mosquito_risk":7,"arthritis_risk":0,"migraine_risk":4,"frizz_risk":1,"updated_at":"2026-03-02T00:08:33.087302+05:30"},{"city":"Thrissur","state":"Kerala","latitude":10.5276,"longitude":76.2144,"temp":26.5,"humidity":86,"rain":0.0,"pressure":1008.0,"uv_index":8.85,"wind_gusts":40.3,"aqi":102,"pm10":47.8,"pm2_5":44.9,"mosquito_risk":7,"arthritis_risk":0,"migraine_risk":4,"frizz_risk":1,"updated_at":"2026-03-02T00:08:33.087310+05:30"},{"city":"Kannur","state":"Kerala","latitude":11.8745,"longitude":75.3704,"temp":27.2,"humidity":78,"rain":0.0,"pressure":1008.3,"uv_index":8.75,"wind_gusts":38.2,"aqi":51,"pm10":18.6,"pm2_5":15.0,"mosquito_risk":7,"arthritis_risk":0,"migraine_risk":4,"frizz_risk":1,"updated_at":"2026-03-02T00:08:33.087317+05:30"},{"city":"Patna","state":"Bihar","latitude":25.5941,"longitude":85.1376,"temp":21.0,"humidity":65,"rain":0.0,"pressure":1002.3,"uv_index":7.0,"wind_gusts":28.8,"aqi":137,"pm10":82.7,"pm2_5":60.8,"mosquito_risk":3,"arthritis_risk":5,"migraine_risk":4,"frizz_risk":0,"updated_at":"2026-03-02T00:08:33.087324+05:30"},{"city":"Gaya","state":"Bihar","latitude":24.7914,"longitude":85.0002,"temp":22.2,"humidity":58,"rain":0.0,"pressure":995.8,"uv_index":7.1,"wind_gusts":19.1,"aqi":121,"pm10":97.8,"pm2_5":66.4,"mosquito_risk":0,"arthritis_risk":5,"migraine_risk":7,"frizz_risk":0,"updated_at":"2026-03-02T00:08:33.087330+05:30"},{"city":"Muzaffarpur","state":"Bihar","latitude":26.1209,"longitude":85.3647,"temp":18.9,"humidity":56,"rain":0.0,"pressure":1001.9,"uv_index":6.95,"wind_gusts":31.0,"aqi":129,"pm10":73.8,"pm2_5":52.6,"mosquito_risk":0,"arthritis_risk":5,"migraine_risk":4,"frizz_risk":0,"updated_at":"2026-03-02T00:08:33.087336+05:30"},{"city":"Bhagalpur","state":"Bihar","latitude":25.2425,"longitude":87.0117,"temp":22.0,"humidity":62,"rain":0.0,"pressure":1002.5,"uv_index":7.05,"wind_gusts":22.3,"aqi":120,"pm10":101.5,"pm2_5":61.7,"mosquito_risk":3,"arthritis_risk":5,"migraine_risk":4,"frizz_risk":0,"updated_at":"2026-03-02T00:08:33.087343+05:30"},{"city":"Ranchi","state":"Jharkhand","latitude":23.3441,"longitude":85.3096,"temp":20.5,"humidity":53,"rain":0.0,"pressure":938.9,"uv_index":7.75,"wind_gusts":24.5,"aqi":100,"pm10":37.6,"pm2_5":34.2,"mosquito_risk":0,"arthritis_risk":5,"migraine_risk":7,"frizz_risk":0,"updated_at":"2026-03-02T00:08:33.087350+05:30"},{"city":"Jamshedpur","state":"Jharkhand","latitude":22.8046,"longitude":86.2029,"temp":24.1,"humidity":66,"rain":0.0,"pressure":991.4,"uv_index":7.7,"wind_gusts":10.8,"aqi":154,"pm10":83.1,"pm2_5":80.1,"mosquito_risk":3,"arthritis_risk":5,"migraine_risk":7,"frizz_risk":1,"updated_at":"2026-03-02T00:08:33.087356+05:30"},{"city":"Dhanbad","state":"Jharkhand","latitude":23.7957,"longitude":86.4304,"temp":24.7,"humidity":39,"rain":0.0,"pressure":981.1,"uv_index":7.55,"wind_gusts":24.1,"aqi":155,"pm10":81.3,"pm2_5":63.3,"mosquito_risk":0,"arthritis_risk":5,"migraine_risk":7,"frizz_risk":0,"updated_at":"2026-03-02T00:08:33.087363+05:30"},{"city":"Bokaro","state":"Jharkhand","latitude":23.6693,"longitude":86.1511,"temp":23.2,"humidity":45,"rain":0.0,"pressure":985.5,"uv_index":7.55,"wind_gusts":22.0,"aqi":155,"pm10":82.7,"pm2_5":70.3,"mosquito_risk":0,"arthritis_risk":5,"migraine_risk":7,"frizz_risk":0,"updated_at":"2026-03-02T00:08:33.087370+05:30"},{"city":"Bhubaneswar","state":"Odisha","latitude":20.2961,"longitude":85.8245,"temp":24.5,"humidity":89,"rain":0.0,"pressure":1003.6,"uv_index":8.05,"wind_gusts":27.0,"aqi":117,"pm10":49.1,"pm2_5":47.4,"mosquito_risk":3,"arthritis_risk":5,"migraine_risk":4,"frizz_risk":1,"updated_at":"2026-03-02T00:08:33.087377+05:30"},{"city":"Cuttack","state":"Odisha","latitude":20.4625,"longitude":85.8828,"temp":24.1,"humidity":93,"rain":0.0,"pressure":1005.4,"uv_index":8.05,"wind_gusts":27.0,"aqi":117,"pm10":49.1,"pm2_5":47.4,"mosquito_risk":3,"arthritis_risk":5,"migraine_risk":4,"frizz_risk":1,"updated_at":"2026-03-02T00:08:33.087383+05:30"},{"city":"Rourkela","state":"Odisha","latitude":22.2604,"longitude":84.8536,"temp":24.2,"humidity":70,"rain":0.0,"pressure":985.4,"uv_index":7.6,"wind_gusts":18.0,"aqi":153,"pm10":80.8,"pm2_5":79.9,"mosquito_risk":3,"arthritis_risk":5,"migraine_risk":7,"frizz_risk":1,"updated_at":"2026-03-02T00:08:33.087389+05:30"},{"city":"Raipur","state":"Chhattisgarh","latitude":21.2514,"longitude":81.6296,"temp":24.6,"humidity":51,"rain":0.0,"pressure":975.4,"uv_index":7.75,"wind_gusts":27.4,"aqi":153,"pm10":46.9,"pm2_5":46.7,"mosquito_risk":0,"arthritis_risk":5,"migraine_risk":7,"frizz_risk":0,"updated_at":"2026-03-02T00:08:33.087396+05:30"},{"city":"Bhilai","state":"Chhattisgarh","latitude":21.1938,"longitude":81.3509,"temp":23.8,"humidity":58,"rain":0.0,"pressure":975.7,"uv_index":7.75,"wind_gusts":28.1,"aqi":150,"pm10":28.8,"pm2_5":28.5,"mosquito_risk":0,"arthritis_risk":5,"migraine_risk":7,"frizz_risk":0,"updated_at":"2026-03-02T00:08:33.087402+05:30"},{"city":"Guwahati","state":"Assam","latitude":26.1158,"longitude":91.7086,"temp":21.0,"humidity":82,"rain":0.0,"pressure":1003.9,"uv_index":7.0,"wind_gusts":32.0,"aqi":159,"pm10":74.5,"pm2_5":64.3,"mosquito_risk":3,"arthritis_risk":5,"migraine_risk":4,"frizz_risk":1,"updated_at":"2026-03-02T00:08:33.087409+05:30"},{"city":"Agartala","state":"Tripura","latitude":23.8315,"longitude":91.2868,"temp":21.6,"humidity":90,"rain":0.0,"pressure":1007.2,"uv_index":7.35,"wind_gusts":27.4,"aqi":111,"pm10":32.2,"pm2_5":29.6,"mosquito_risk":3,"arthritis_risk":5,"migraine_risk":4,"frizz_risk":1,"updated_at":"2026-03-02T00:08:33.087416+05:30"},{"city":"Shillong","state":"Meghalaya","latitude":25.5788,"longitude":91.8933,"temp":10.4,"humidity":82,"rain":0.0,"pressure":854.3,"uv_index":6.8,"wind_gusts":56.9,"aqi":133,"pm10":55.8,"pm2_5":43.8,"mosquito_risk":3,"arthritis_risk":10,"migraine_risk":7,"frizz_risk":0,"updated_at":"2026-03-02T00:08:33.087422+05:30"},{"city":"Imphal","state":"Manipur","latitude":24.817,"longitude":93.9368,"temp":14.0,"humidity":79,"rain":0.0,"pressure":923.0,"uv_index":7.55,"wind_gusts":49.3,"aqi":153,"pm10":94.1,"pm2_5":78.0,"mosquito_risk":3,"arthritis_risk":5,"migraine_risk":7,"frizz_risk":0,"updated_at":"2026-03-02T00:08:33.087429+05:30"},{"city":"Aizawl","state":"Mizoram","latitude":23.7271,"longitude":92.7176,"temp":16.1,"humidity":69,"rain":0.0,"pressure":892.6,"uv_index":7.55,"wind_gusts":40.3,"aqi":130,"pm10":69.6,"pm2_5":54.4,"mosquito_risk":3,"arthritis_risk":5,"migraine_risk":7,"frizz_risk":0,"updated_at":"2026-03-02T00:08:33.087436+05:30"},{"city":"Kohima","state":"Nagaland","latitude":25.6701,"longitude":94.1077,"temp":11.5,"humidity":75,"rain":0.0,"pressure":853.4,"uv_index":7.4,"wind_gusts":70.9,"aqi":154,"pm10":89.2,"pm2_5":74.3,"mosquito_risk":3,"arthritis_risk":5,"migraine_risk":7,"frizz_risk":0,"updated_at":"2026-03-02T00:08:33.087442+05:30"},{"city":"Gangtok","state":"Sikkim","latitude":27.3314,"longitude":88.6138,"temp":9.9,"humidity":81,"rain":0.0,"pressure":834.4,"uv_index":5.3,"wind_gusts":12.6,"aqi":127,"pm10":69.6,"pm2_5":54.6,"mosquito_risk":3,"arthritis_risk":10,"migraine_risk":3,"frizz_risk":0,"updated_at":"2026-03-02T00:08:33.087449+05:30"},{"city":"Siliguri","state":"West Bengal","latitude":26.7271,"longitude":88.3953,"temp":17.5,"humidity":72,"rain":0.0,"pressure":995.2,"uv_index":7.0,"wind_gusts":30.2,"aqi":172,"pm10":131.3,"pm2_5":102.7,"mosquito_risk":3,"arthritis_risk":5,"migraine_risk":7,"frizz_risk":0,"updated_at":"2026-03-02T00:08:36.301973+05:30"},{"city":"Durgapur","state":"West Bengal","latitude":23.5204,"longitude":87.3119,"temp":25.7,"humidity":47,"rain":0.0,"pressure":996.1,"uv_index":7.55,"wind_gusts":26.3,"aqi":150,"pm10":61.0,"pm2_5":45.6,"mosquito_risk":4,"arthritis_risk":5,"migraine_risk":7,"frizz_risk":0,"updated_at":"2026-03-02T00:08:36.302006+05:30"},{"city":"Asansol","state":"West Bengal","latitude":23.6739,"longitude":86.9524,"temp":26.0,"humidity":44,"rain":0.0,"pressure":994.8,"uv_index":7.5,"wind_gusts":22.7,"aqi":130,"pm10":59.0,"pm2_5":40.0,"mosquito_risk":4,"arthritis_risk":5,"migraine_risk":7,"frizz_risk":0,"updated_at":"2026-03-02T00:08:36.302016+05:30"},{"city":"Pondicherry","state":"Puducherry","latitude":11.9139,"longitude":79.8145,"temp":23.2,"humidity":89,"rain":0.0,"pressure":1010.3,"uv_index":8.8,"wind_gusts":28.1,"aqi":128,"pm10":44.5,"pm2_5":40.5,"mosquito_risk":3,"arthritis_risk":0,"migraine_risk":4,"frizz_risk":1,"updated_at":"2026-03-02T00:08:36.302024+05:30"},{"city":"Port Blair","state":"Andaman and Nicobar Islands","latitude":11.6234,"longitude":92.7265,"temp":27.4,"humidity":72,"rain":0.0,"pressure":1007.1,"uv_index":8.75,"wind_gusts":25.6,"aqi":70,"pm10":27.3,"pm2_5":23.5,"mosquito_risk":7,"arthritis_risk":5,"migraine_risk":4,"frizz_risk":1,"updated_at":"2026-03-02T00:08:36.302032+05:30"},{"city":"Haridwar","state":"Uttarakhand","latitude":29.9457,"longitude":78.1642,"temp":14.5,"humidity":84,"rain":0.0,"pressure":975.9,"uv_index":5.4,"wind_gusts":37.1,"aqi":102,"pm10":47.1,"pm2_5":42.5,"mosquito_risk":3,"arthritis_risk":10,"migraine_risk":3,"frizz_risk":0,"updated_at":"2026-03-02T00:08:36.302039+05:30"},{"city":"Rishikesh","state":"Uttarakhand","latitude":30.0869,"longitude":78.2676,"temp":15.6,"humidity":65,"rain":0.0,"pressure":968.5,"uv_index":5.5,"wind_gusts":34.9,"aqi":85,"pm10":39.0,"pm2_5":34.7,"mosquito_risk":3,"arthritis_risk":5,"migraine_risk":3,"frizz_risk":0,"updated_at":"2026-03-02T00:08:36.302047+05:30"},{"city":"Nainital","state":"Uttarakhand","latitude":29.3919,"longitude":79.4542,"temp":13.9,"humidity":47,"rain":0.0,"pressure":804.4,"uv_index":6.3,"wind_gusts":40.0,"aqi":92,"pm10":32.8,"pm2_5":25.5,"mosquito_risk":0,"arthritis_risk":5,"migraine_risk":7,"frizz_risk":0,"updated_at":"2026-03-02T00:08:36.302053+05:30"},{"city":"Mussoorie","state":"Uttarakhand","latitude":30.4599,"longitude":78.0664,"temp":12.2,"humidity":54,"rain":0.0,"pressure":800.9,"uv_index":5.85,"wind_gusts":39.6,"aqi":85,"pm10":50.1,"pm2_5":46.4,"mosquito_risk":0,"arthritis_risk":5,"migraine_risk":3,"frizz_risk":0,"updated_at":"2026-03-02T00:08:36.302060+05:30"},{"city":"Dharamshala","state":"Himachal Pradesh","latitude":32.219,"longitude":76.3234,"temp":16.2,"humidity":49,"rain":0.0,"pressure":869.7,"uv_index":6.05,"wind_gusts":27.4,"aqi":90,"pm10":34.1,"pm2_5":25.3,"mosquito_risk":0,"arthritis_risk":5,"migraine_risk":7,"frizz_risk":0,"updated_at":"2026-03-02T00:08:36.302067+05:30"},{"city":"Dalhousie","state":"Himachal Pradesh","latitude":32.5387,"longitude":75.971,"temp":12.9,"humidity":53,"rain":0.0,"pressure":803.2,"uv_index":6.25,"wind_gusts":30.2,"aqi":93,"pm10":63.6,"pm2_5":57.6,"mosquito_risk":0,"arthritis_risk":5,"migraine_risk":7,"frizz_risk":0,"updated_at":"2026-03-02T00:08:36.302074+05:30"},{"city":"Patiala","state":"Punjab","latitude":30.3398,"longitude":76.3869,"temp":16.0,"humidity":73,"rain":0.0,"pressure":980.8,"uv_index":5.5,"wind_gusts":28.4,"aqi":155,"pm10":213.7,"pm2_5":80.3,"mosquito_risk":3,"arthritis_risk":5,"migraine_risk":3,"frizz_risk":0,"updated_at":"2026-03-02T00:08:36.302081+05:30"},{"city":"Bhatinda","state":"Punjab","latitude":30.211,"longitude":74.9455,"temp":20.3,"humidity":61,"rain":0.0,"pressure":986.3,"uv_index":6.2,"wind_gusts":21.2,"aqi":154,"pm10":116.6,"pm2_5":91.3,"mosquito_risk":3,"arthritis_risk":5,"migraine_risk":7,"frizz_risk":0,"updated_at":"2026-03-02T00:08:36.302087+05:30"},{"city":"Rohtak","state":"Haryana","latitude":28.8955,"longitude":76.6066,"temp":17.7,"humidity":73,"rain":0.0,"pressure":984.3,"uv_index":5.7,"wind_gusts":30.6,"aqi":163,"pm10":380.9,"pm2_5":88.0,"mosquito_risk":3,"arthritis_risk":5,"migraine_risk":3,"frizz_risk":0,"updated_at":"2026-03-02T00:08:36.302093+05:30"},{"city":"Panipat","state":"Haryana","latitude":29.3909,"longitude":76.9635,"temp":16.1,"humidity":75,"rain":0.0,"pressure":982.9,"uv_index":5.5,"wind_gusts":29.9,"aqi":375,"pm10":728.3,"pm2_5":122.5,"mosquito_risk":3,"arthritis_risk":5,"migraine_risk":3,"frizz_risk":0,"updated_at":"2026-03-02T00:08:36.302099+05:30"},{"city":"Mathura","state":"Uttar Pradesh","latitude":27.4924,"longitude":77.6737,"temp":18.7,"humidity":53,"rain":0.0,"pressure":989.2,"uv_index":5.95,"wind_gusts":25.6,"aqi":243,"pm10":311.1,"pm2_5":75.7,"mosquito_risk":0,"arthritis_risk":5,"migraine_risk":3,"frizz_risk":0,"updated_at":"2026-03-02T00:08:36.302106+05:30"},{"city":"Vrindavan","state":"Uttar Pradesh","latitude":27.5823,"longitude":77.7027,"temp":17.5,"humidity":63,"rain":0.0,"pressure":989.8,"uv_index":5.95,"wind_gusts":28.4,"aqi":243,"pm10":311.1,"pm2_5":75.7,"mosquito_risk":3,"arthritis_risk":5,"migraine_risk":3,"frizz_risk":0,"updated_at":"2026-03-02T00:08:36.302112+05:30"},{"city":"Ayodhya","state":"Uttar Pradesh","latitude":26.7922,"longitude":82.1998,"temp":17.5,"humidity":55,"rain":0.0,"pressure":997.3,"uv_index":6.35,"wind_gusts":36.4,"aqi":108,"pm10":104.1,"pm2_5":39.2,"mosquito_risk":0,"arthritis_risk":5,"migraine_risk":7,"frizz_risk":0,"updated_at":"2026-03-02T00:08:36.302118+05:30"},{"city":"Ratlam","state":"Madhya Pradesh","latitude":23.3315,"longitude":75.0367,"temp":23.2,"humidity":55,"rain":0.0,"pressure":956.5,"uv_index":7.2,"wind_gusts":27.7,"aqi":80,"pm10":58.0,"pm2_5":51.7,"mosquito_risk":0,"arthritis_risk":5,"migraine_risk":7,"frizz_risk":0,"updated_at":"2026-03-02T00:08:36.302125+05:30"},{"city":"Sagar","state":"Madhya Pradesh","latitude":23.8388,"longitude":78.7378,"temp":23.0,"humidity":46,"rain":0.0,"pressure":952.2,"uv_index":7.15,"wind_gusts":20.2,"aqi":68,"pm10":38.8,"pm2_5":24.2,"mosquito_risk":0,"arthritis_risk":5,"migraine_risk":7,"frizz_risk":0,"updated_at":"2026-03-02T00:08:36.302131+05:30"},{"city":"Satna","state":"Madhya Pradesh","latitude":24.6005,"longitude":80.8322,"temp":20.4,"humidity":47,"rain":0.0,"pressure":973.7,"uv_index":7.1,"wind_gusts":31.7,"aqi":89,"pm10":39.8,"pm2_5":23.6,"mosquito_risk":0,"arthritis_risk":5,"migraine_risk":7,"frizz_risk":0,"updated_at":"2026-03-02T00:08:36.302137+05:30"},{"city":"Akola","state":"Maharashtra","latitude":20.7002,"longitude":77.0082,"temp":24.2,"humidity":59,"rain":0.0,"pressure":976.4,"uv_index":7.7,"wind_gusts":28.4,"aqi":79,"pm10":31.9,"pm2_5":31.0,"mosquito_risk":0,"arthritis_risk":5,"migraine_risk":7,"frizz_risk":0,"updated_at":"2026-03-02T00:08:36.302144+05:30"},{"city":"Amravati","state":"Maharashtra","latitude":20.9374,"longitude":77.7796,"temp":22.5,"humidity":56,"rain":0.0,"pressure":968.5,"uv_index":7.65,"wind_gusts":27.4,"aqi":75,"pm10":28.6,"pm2_5":27.9,"mosquito_risk":0,"arthritis_risk":5,"migraine_risk":7,"frizz_risk":0,"updated_at":"2026-03-02T00:08:36.302152+05:30"},{"city":"Latur","state":"Maharashtra","latitude":18.4088,"longitude":76.5604,"temp":24.9,"humidity":60,"rain":0.0,"pressure":940.3,"uv_index":8.15,"wind_gusts":25.6,"aqi":92,"pm10":30.0,"pm2_5":29.6,"mosquito_risk":0,"arthritis_risk":5,"migraine_risk":7,"frizz_risk":1,"updated_at":"2026-03-02T00:08:36.302158+05:30"},{"city":"Nanded","state":"Maharashtra","latitude":19.1383,"longitude":77.3091,"temp":25.8,"humidity":59,"rain":0.0,"pressure":969.1,"uv_index":7.9,"wind_gusts":15.5,"aqi":77,"pm10":27.1,"pm2_5":26.7,"mosquito_risk":4,"arthritis_risk":5,"migraine_risk":7,"frizz_risk":1,"updated_at":"2026-03-02T00:08:36.302165+05:30"},{"city":"Gulbarga","state":"Karnataka","latitude":17.3297,"longitude":76.8343,"temp":27.5,"humidity":55,"rain":0.0,"pressure":959.1,"uv_index":8.25,"wind_gusts":17.6,"aqi":118,"pm10":43.4,"pm2_5":43.1,"mosquito_risk":4,"arthritis_risk":5,"migraine_risk":7,"frizz_risk":1,"updated_at":"2026-03-02T00:08:36.302171+05:30"},{"city":"Bidar","state":"Karnataka","latitude":17.9104,"longitude":77.5199,"temp":24.7,"humidity":64,"rain":0.0,"pressure":935.9,"uv_index":8.2,"wind_gusts":20.5,"aqi":105,"pm10":49.2,"pm2_5":48.9,"mosquito_risk":3,"arthritis_risk":5,"migraine_risk":7,"frizz_risk":1,"updated_at":"2026-03-02T00:08:36.302177+05:30"},{"city":"Hospet","state":"Karnataka","latitude":15.2689,"longitude":76.3909,"temp":27.9,"humidity":51,"rain":0.0,"pressure":956.0,"uv_index":8.55,"wind_gusts":24.5,"aqi":140,"pm10":50.3,"pm2_5":49.6,"mosquito_risk":4,"arthritis_risk":5,"migraine_risk":7,"frizz_risk":1,"updated_at":"2026-03-02T00:08:36.302183+05:30"},{"city":"Tirupur","state":"Tamil Nadu","latitude":11.1085,"longitude":77.3411,"temp":25.7,"humidity":72,"rain":0.0,"pressure":976.9,"uv_index":9.05,"wind_gusts":20.2,"aqi":152,"pm10":51.6,"pm2_5":50.6,"mosquito_risk":7,"arthritis_risk":5,"migraine_risk":7,"frizz_risk":1,"updated_at":"2026-03-02T00:08:36.302190+05:30"},{"city":"Alappuzha","state":"Kerala","latitude":9.4981,"longitude":76.3388,"temp":27.2,"humidity":83,"rain":0.0,"pressure":1010.2,"uv_index":8.9,"wind_gusts":34.9,"aqi":92,"pm10":38.8,"pm2_5":35.5,"mosquito_risk":7,"arthritis_risk":0,"migraine_risk":4,"frizz_risk":1,"updated_at":"2026-03-02T00:08:36.302196+05:30"},{"city":"Munnar","state":"Kerala","latitude":10.0889,"longitude":77.0595,"temp":18.6,"humidity":85,"rain":0.0,"pressure":856.7,"uv_index":9.35,"wind_gusts":25.2,"aqi":133,"pm10":54.0,"pm2_5":53.1,"mosquito_risk":3,"arthritis_risk":10,"migraine_risk":7,"frizz_risk":1,"updated_at":"2026-03-02T00:08:36.302204+05:30"},{"city":"Silchar","state":"Assam","latitude":24.8333,"longitude":92.7789,"temp":20.2,"humidity":78,"rain":0.0,"pressure":1006.1,"uv_index":7.3,"wind_gusts":20.5,"aqi":157,"pm10":100.6,"pm2_5":78.9,"mosquito_risk":3,"arthritis_risk":5,"migraine_risk":4,"frizz_risk":1,"updated_at":"2026-03-02T00:08:36.302210+05:30"},{"city":"Dibrugarh","state":"Assam","latitude":27.4728,"longitude":94.912,"temp":19.5,"humidity":83,"rain":0.0,"pressure":998.3,"uv_index":7.0,"wind_gusts":13.7,"aqi":157,"pm10":76.1,"pm2_5":69.2,"mosquito_risk":3,"arthritis_risk":10,"migraine_risk":7,"frizz_risk":1,"updated_at":"2026-03-02T00:08:36.302217+05:30"}]