[{"city":"Delhi","state":"Delhi","latitude":28.6139,"longitude":77.209,"temp":32.3,"humidity":55,"rain":0.0,"pressure":976.1,"uv_index":7.5,"wind_gusts":33.5,"aqi":170,"pm10":349.2,"pm2_5":128.5,"no2":71.8,"co":816.0,"o3":6.0,"so2":23.2,"mosquito_risk":0,"arthritis_risk":5,"migraine_risk":7,"frizz_risk":1,"updated_at":"2026-06-28T02:36:55.101159+05:30"},{"city":"Mumbai","state":"Maharashtra","latitude":19.076,"longitude":72.8777,"temp":27.4,"humidity":89,"rain":0.1,"pressure":1004.2,"uv_index":7.7,"wind_gusts":39.2,"aqi":60,"pm10":34.1,"pm2_5":17.8,"no2":10.7,"co":234.0,"o3":42.0,"so2":6.7,"mosquito_risk":10,"arthritis_risk":5,"migraine_risk":4,"frizz_risk":1,"updated_at":"2026-06-28T02:36:55.101218+05:30"},{"city":"Bangalore","state":"Karnataka","latitude":12.9716,"longitude":77.5946,"temp":20.8,"humidity":96,"rain":0.0,"pressure":909.4,"uv_index":8.3,"wind_gusts":46.8,"aqi":38,"pm10":6.4,"pm2_5":5.8,"no2":12.0,"co":200.0,"o3":36.0,"so2":4.7,"mosquito_risk":3,"arthritis_risk":5,"migraine_risk":7,"frizz_risk":1,"updated_at":"2026-06-28T02:36:55.101236+05:30"},{"city":"Hyderabad","state":"Telangana","latitude":17.385,"longitude":78.4867,"temp":23.6,"humidity":95,"rain":0.1,"pressure":949.3,"uv_index":8.5,"wind_gusts":36.7,"aqi":76,"pm10":20.3,"pm2_5":16.1,"no2":8.9,"co":195.0,"o3":69.0,"so2":4.5,"mosquito_risk":6,"arthritis_risk":5,"migraine_risk":7,"frizz_risk":1,"updated_at":"2026-06-28T02:36:55.101246+05:30"},{"city":"Chennai","state":"Tamil Nadu","latitude":13.0827,"longitude":80.2707,"temp":25.8,"humidity":94,"rain":0.1,"pressure":1004.5,"uv_index":8.6,"wind_gusts":44.6,"aqi":71,"pm10":26.0,"pm2_5":19.0,"no2":13.5,"co":233.0,"o3":63.0,"so2":10.2,"mosquito_risk":10,"arthritis_risk":5,"migraine_risk":4,"frizz_risk":1,"updated_at":"2026-06-28T02:36:55.101255+05:30"},{"city":"Kolkata","state":"West Bengal","latitude":22.5726,"longitude":88.3639,"temp":27.7,"humidity":90,"rain":0.0,"pressure":1000.9,"uv_index":9.0,"wind_gusts":38.2,"aqi":71,"pm10":27.0,"pm2_5":24.3,"no2":10.0,"co":298.0,"o3":72.0,"so2":6.6,"mosquito_risk":7,"arthritis_risk":5,"migraine_risk":4,"frizz_risk":1,"updated_at":"2026-06-28T02:36:55.101263+05:30"},{"city":"Pune","state":"Maharashtra","latitude":18.5204,"longitude":73.8567,"temp":23.7,"humidity":90,"rain":0.0,"pressure":944.4,"uv_index":7.1,"wind_gusts":41.8,"aqi":45,"pm10":15.8,"pm2_5":12.0,"no2":15.2,"co":142.0,"o3":31.0,"so2":10.7,"mosquito_risk":3,"arthritis_risk":5,"migraine_risk":7,"frizz_risk":1,"updated_at":"2026-06-28T02:36:55.101271+05:30"},{"city":"Ahmedabad","state":"Gujarat","latitude":23.0225,"longitude":72.5714,"temp":31.3,"humidity":66,"rain":0.0,"pressure":996.7,"uv_index":8.05,"wind_gusts":39.6,"aqi":71,"pm10":30.3,"pm2_5":15.0,"no2":5.0,"co":121.0,"o3":54.0,"so2":3.1,"mosquito_risk":3,"arthritis_risk":5,"migraine_risk":7,"frizz_risk":1,"updated_at":"2026-06-28T02:36:55.101277+05:30"},{"city":"Jaipur","state":"Rajasthan","latitude":26.9124,"longitude":75.7873,"temp":30.0,"humidity":59,"rain":0.0,"pressure":953.9,"uv_index":8.2,"wind_gusts":38.5,"aqi":127,"pm10":271.9,"pm2_5":64.0,"no2":9.4,"co":197.0,"o3":53.0,"so2":4.8,"mosquito_risk":4,"arthritis_risk":5,"migraine_risk":7,"frizz_risk":1,"updated_at":"2026-06-28T02:36:55.101284+05:30"},{"city":"Lucknow","state":"Uttar Pradesh","latitude":26.8467,"longitude":80.9462,"temp":29.6,"humidity":75,"rain":0.1,"pressure":987.2,"uv_index":8.3,"wind_gusts":29.2,"aqi":133,"pm10":110.4,"pm2_5":57.7,"no2":26.6,"co":205.0,"o3":51.0,"so2":9.4,"mosquito_risk":10,"arthritis_risk":5,"migraine_risk":7,"frizz_risk":1,"updated_at":"2026-06-28T02:36:55.101295+05:30"},{"city":"Kanpur","state":"Uttar Pradesh","latitude":26.4499,"longitude":80.3319,"temp":33.5,"humidity":53,"rain":0.0,"pressure":985.0,"uv_index":8.3,"wind_gusts":43.6,"aqi":125,"pm10":66.8,"pm2_5":34.5,"no2":20.2,"co":178.0,"o3":48.0,"so2":5.4,"mosquito_risk":0,"arthritis_risk":5,"migraine_risk":7,"frizz_risk":1,"updated_at":"2026-06-28T02:36:55.101301+05:30"},{"city":"Chandigarh","state":"Chandigarh","latitude":30.7333,"longitude":76.7794,"temp":28.3,"humidity":74,"rain":0.0,"pressure":962.4,"uv_index":7.8,"wind_gusts":28.8,"aqi":155,"pm10":113.4,"pm2_5":95.0,"no2":60.5,"co":883.0,"o3":10.0,"so2":8.5,"mosquito_risk":7,"arthritis_risk":5,"migraine_risk":7,"frizz_risk":1,"updated_at":"2026-06-28T02:36:55.101308+05:30"},{"city":"Srinagar","state":"Jammu and Kashmir","latitude":34.0837,"longitude":74.7973,"temp":18.1,"humidity":79,"rain":0.0,"pressure":836.9,"uv_index":9.1,"wind_gusts":33.8,"aqi":78,"pm10":34.3,"pm2_5":31.8,"no2":18.5,"co":435.0,"o3":35.0,"so2":0.3,"mosquito_risk":3,"arthritis_risk":5,"migraine_risk":7,"frizz_risk":0,"updated_at":"2026-06-28T02:36:55.101314+05:30"},{"city":"Jammu","state":"Jammu and Kashmir","latitude":32.7266,"longitude":74.857,"temp":29.8,"humidity":63,"rain":0.0,"pressure":966.2,"uv_index":8.65,"wind_gusts":31.0,"aqi":133,"pm10":62.2,"pm2_5":54.9,"no2":56.2,"co":402.0,"o3":2.0,"so2":3.2,"mosquito_risk":7,"arthritis_risk":5,"migraine_risk":7,"frizz_risk":1,"updated_at":"2026-06-28T02:36:55.101320+05:30"},{"city":"Amritsar","state":"Punjab","latitude":31.634,"longitude":74.8723,"temp":29.9,"humidity":74,"rain":0.0,"pressure":973.7,"uv_index":8.5,"wind_gusts":48.2,"aqi":164,"pm10":100.8,"pm2_5":87.1,"no2":43.3,"co":621.0,"o3":37.0,"so2":7.6,"mosquito_risk":7,"arthritis_risk":5,"migraine_risk":7,"frizz_risk":1,"updated_at":"2026-06-28T02:36:55.101328+05:30"},{"city":"Ludhiana","state":"Punjab","latitude":30.901,"longitude":75.8573,"temp":31.7,"humidity":63,"rain":0.0,"pressure":971.9,"uv_index":8.0,"wind_gusts":43.6,"aqi":158,"pm10":120.1,"pm2_5":79.6,"no2":32.1,"co":1343.0,"o3":62.0,"so2":12.2,"mosquito_risk":3,"arthritis_risk":5,"migraine_risk":7,"frizz_risk":1,"updated_at":"2026-06-28T02:36:55.101335+05:30"},{"city":"Jalandhar","state":"Punjab","latitude":31.326,"longitude":75.5762,"temp":30.8,"humidity":68,"rain":0.0,"pressure":973.0,"uv_index":8.25,"wind_gusts":43.6,"aqi":161,"pm10":113.2,"pm2_5":85.9,"no2":46.5,"co":798.0,"o3":39.0,"so2":9.2,"mosquito_risk":3,"arthritis_risk":5,"migraine_risk":7,"frizz_risk":1,"updated_at":"2026-06-28T02:36:55.101340+05:30"},{"city":"Dehradun","state":"Uttarakhand","latitude":30.6284,"longitude":78.0322,"temp":16.8,"humidity":100,"rain":0.0,"pressure":826.8,"uv_index":6.45,"wind_gusts":31.7,"aqi":73,"pm10":39.2,"pm2_5":26.7,"no2":29.4,"co":202.0,"o3":18.0,"so2":0.4,"mosquito_risk":3,"arthritis_risk":10,"migraine_risk":7,"frizz_risk":1,"updated_at":"2026-06-28T02:36:55.101347+05:30"},{"city":"Shimla","state":"Himachal Pradesh","latitude":31.1048,"longitude":77.1734,"temp":13.6,"humidity":96,"rain":0.0,"pressure":780.2,"uv_index":7.6,"wind_gusts":35.6,"aqi":108,"pm10":65.2,"pm2_5":53.9,"no2":20.7,"co":328.0,"o3":43.0,"so2":0.5,"mosquito_risk":3,"arthritis_risk":10,"migraine_risk":7,"frizz_risk":0,"updated_at":"2026-06-28T02:36:55.101355+05:30"},{"city":"Manali","state":"Himachal Pradesh","latitude":32.2396,"longitude":77.1887,"temp":17.5,"humidity":61,"rain":0.0,"pressure":816.3,"uv_index":9.15,"wind_gusts":34.9,"aqi":45,"pm10":4.6,"pm2_5":4.2,"no2":79.0,"co":230.0,"o3":10.0,"so2":0.0,"mosquito_risk":3,"arthritis_risk":5,"migraine_risk":7,"frizz_risk":0,"updated_at":"2026-06-28T02:36:55.101363+05:30"},{"city":"Gurgaon","state":"Haryana","latitude":28.4595,"longitude":77.0266,"temp":31.3,"humidity":59,"rain":0.0,"pressure":974.5,"uv_index":7.5,"wind_gusts":36.7,"aqi":184,"pm10":181.1,"pm2_5":71.0,"no2":44.0,"co":637.0,"o3":22.0,"so2":12.2,"mosquito_risk":0,"arthritis_risk":5,"migraine_risk":7,"frizz_risk":1,"updated_at":"2026-06-28T02:36:55.101370+05:30"},{"city":"Noida","state":"Uttar Pradesh","latitude":28.5355,"longitude":77.391,"temp":30.3,"humidity":75,"rain":0.0,"pressure":977.3,"uv_index":7.2,"wind_gusts":24.1,"aqi":184,"pm10":181.1,"pm2_5":71.0,"no2":44.0,"co":1169.0,"o3":22.0,"so2":12.2,"mosquito_risk":3,"arthritis_risk":5,"migraine_risk":7,"frizz_risk":1,"updated_at":"2026-06-28T02:36:55.101376+05:30"},{"city":"Ghaziabad","state":"Uttar Pradesh","latitude":28.6692,"longitude":77.4538,"temp":29.8,"humidity":74,"rain":0.0,"pressure":975.6,"uv_index":7.75,"wind_gusts":29.9,"aqi":170,"pm10":328.8,"pm2_5":125.7,"no2":68.7,"co":676.0,"o3":18.0,"so2":24.3,"mosquito_risk":7,"arthritis_risk":5,"migraine_risk":7,"frizz_risk":1,"updated_at":"2026-06-28T02:36:55.101382+05:30"},{"city":"Faridabad","state":"Haryana","latitude":28.4089,"longitude":77.3178,"temp":31.5,"humidity":61,"rain":0.0,"pressure":976.8,"uv_index":7.2,"wind_gusts":29.9,"aqi":184,"pm10":181.1,"pm2_5":71.0,"no2":44.0,"co":1051.0,"o3":22.0,"so2":12.2,"mosquito_risk":3,"arthritis_risk":5,"migraine_risk":7,"frizz_risk":1,"updated_at":"2026-06-28T02:36:55.101388+05:30"},{"city":"Meerut","state":"Uttar Pradesh","latitude":28.9845,"longitude":77.7064,"temp":32.3,"humidity":64,"rain":0.0,"pressure":974.7,"uv_index":5.95,"wind_gusts":25.9,"aqi":170,"pm10":328.8,"pm2_5":125.7,"no2":68.7,"co":625.0,"o3":18.0,"so2":24.3,"mosquito_risk":3,"arthritis_risk":5,"migraine_risk":3,"frizz_risk":1,"updated_at":"2026-06-28T02:36:55.101394+05:30"},{"city":"Agra","state":"Uttar Pradesh","latitude":27.1767,"longitude":78.0081,"temp":32.3,"humidity":53,"rain":0.0,"pressure":981.3,"uv_index":7.25,"wind_gusts":37.8,"aqi":139,"pm10":129.5,"pm2_5":50.1,"no2":27.8,"co":197.0,"o3":37.0,"so2":5.7,"mosquito_risk":0,"arthritis_risk":5,"migraine_risk":7,"frizz_risk":1,"updated_at":"2026-06-28T02:36:55.101400+05:30"},{"city":"Varanasi","state":"Uttar Pradesh","latitude":25.3176,"longitude":82.9739,"temp":28.8,"humidity":80,"rain":0.1,"pressure":991.6,"uv_index":8.4,"wind_gusts":33.5,"aqi":124,"pm10":33.2,"pm2_5":28.2,"no2":13.5,"co":218.0,"o3":79.0,"so2":6.4,"mosquito_risk":10,"arthritis_risk":5,"migraine_risk":7,"frizz_risk":1,"updated_at":"2026-06-28T02:36:55.101406+05:30"},{"city":"Prayagraj","state":"Uttar Pradesh","latitude":25.4358,"longitude":81.8463,"temp":31.8,"humidity":65,"rain":0.0,"pressure":990.0,"uv_index":8.7,"wind_gusts":36.0,"aqi":108,"pm10":53.3,"pm2_5":37.5,"no2":17.8,"co":227.0,"o3":64.0,"so2":7.1,"mosquito_risk":3,"arthritis_risk":5,"migraine_risk":7,"frizz_risk":1,"updated_at":"2026-06-28T02:36:55.101412+05:30"},{"city":"Gorakhpur","state":"Uttar Pradesh","latitude":26.7606,"longitude":83.3732,"temp":26.4,"humidity":93,"rain":0.3,"pressure":992.0,"uv_index":7.75,"wind_gusts":34.2,"aqi":157,"pm10":70.5,"pm2_5":64.7,"no2":21.1,"co":672.0,"o3":81.0,"so2":10.1,"mosquito_risk":10,"arthritis_risk":5,"migraine_risk":7,"frizz_risk":1,"updated_at":"2026-06-28T02:36:55.101418+05:30"},{"city":"Bareilly","state":"Uttar Pradesh","latitude":28.367,"longitude":79.4304,"temp":31.8,"humidity":60,"rain":0.0,"pressure":980.0,"uv_index":8.1,"wind_gusts":23.4,"aqi":157,"pm10":165.3,"pm2_5":82.4,"no2":34.2,"co":659.0,"o3":63.0,"so2":14.4,"mosquito_risk":0,"arthritis_risk":5,"migraine_risk":7,"frizz_risk":1,"updated_at":"2026-06-28T02:36:55.101426+05:30"},{"city":"Aligarh","state":"Uttar Pradesh","latitude":27.8974,"longitude":78.088,"temp":31.3,"humidity":68,"rain":0.0,"pressure":978.6,"uv_index":5.5,"wind_gusts":29.9,"aqi":163,"pm10":229.1,"pm2_5":71.9,"no2":31.6,"co":669.0,"o3":37.0,"so2":5.8,"mosquito_risk":3,"arthritis_risk":5,"migraine_risk":3,"frizz_risk":1,"updated_at":"2026-06-28T02:36:55.101432+05:30"},{"city":"Moradabad","state":"Uttar Pradesh","latitude":28.8386,"longitude":78.7733,"temp":31.6,"humidity":59,"rain":0.0,"pressure":977.0,"uv_index":7.75,"wind_gusts":29.2,"aqi":163,"pm10":205.8,"pm2_5":110.6,"no2":47.4,"co":832.0,"o3":44.0,"so2":16.8,"mosquito_risk":0,"arthritis_risk":5,"migraine_risk":7,"frizz_risk":1,"updated_at":"2026-06-28T02:36:55.101438+05:30"},{"city":"Saharanpur","state":"Uttar Pradesh","latitude":29.9637,"longitude":77.546,"temp":30.7,"humidity":62,"rain":0.0,"pressure":969.4,"uv_index":6.9,"wind_gusts":22.3,"aqi":165,"pm10":222.6,"pm2_5":114.6,"no2":66.4,"co":607.0,"o3":12.0,"so2":15.4,"mosquito_risk":3,"arthritis_risk":5,"migraine_risk":7,"frizz_risk":1,"updated_at":"2026-06-28T02:36:55.101444+05:30"},{"city":"Jhansi","state":"Uttar Pradesh","latitude":25.4484,"longitude":78.5685,"temp":30.2,"humidity":64,"rain":0.0,"pressure":972.1,"uv_index":7.3,"wind_gusts":38.9,"aqi":87,"pm10":36.2,"pm2_5":22.6,"no2":6.1,"co":169.0,"o3":72.0,"so2":4.0,"mosquito_risk":3,"arthritis_risk":5,"migraine_risk":7,"frizz_risk":1,"updated_at":"2026-06-28T02:36:58.328127+05:30"},{"city":"Surat","state":"Gujarat","latitude":21.1702,"longitude":72.8311,"temp":29.4,"humidity":78,"rain":0.0,"pressure":1001.9,"uv_index":7.6,"wind_gusts":41.8,"aqi":83,"pm10":39.8,"pm2_5":21.7,"no2":15.6,"co":237.0,"o3":37.0,"so2":26.6,"mosquito_risk":7,"arthritis_risk":5,"migraine_risk":4,"frizz_risk":1,"updated_at":"2026-06-28T02:36:58.328159+05:30"},{"city":"Vadodara","state":"Gujarat","latitude":22.3072,"longitude":73.1812,"temp":30.3,"humidity":73,"rain":0.0,"pressure":999.0,"uv_index":8.0,"wind_gusts":45.0,"aqi":77,"pm10":31.9,"pm2_5":20.8,"no2":16.9,"co":167.0,"o3":33.0,"so2":17.7,"mosquito_risk":3,"arthritis_risk":5,"migraine_risk":7,"frizz_risk":1,"updated_at":"2026-06-28T02:36:58.328170+05:30"},{"city":"Rajkot","state":"Gujarat","latitude":22.3039,"longitude":70.8022,"temp":28.2,"humidity":75,"rain":0.0,"pressure":989.8,"uv_index":7.55,"wind_gusts":40.0,"aqi":66,"pm10":29.0,"pm2_5":14.0,"no2":7.3,"co":99.0,"o3":43.0,"so2":7.6,"mosquito_risk":7,"arthritis_risk":5,"migraine_risk":7,"frizz_risk":1,"updated_at":"2026-06-28T02:36:58.328180+05:30"},{"city":"Thane","state":"Maharashtra","latitude":19.2183,"longitude":72.9781,"temp":26.7,"humidity":92,"rain":0.0,"pressure":1003.7,"uv_index":7.7,"wind_gusts":33.1,"aqi":60,"pm10":34.1,"pm2_5":17.8,"no2":10.7,"co":221.0,"o3":42.0,"so2":6.7,"mosquito_risk":7,"arthritis_risk":5,"migraine_risk":4,"frizz_risk":1,"updated_at":"2026-06-28T02:36:58.328189+05:30"},{"city":"Nagpur","state":"Maharashtra","latitude":21.1458,"longitude":79.0882,"temp":26.5,"humidity":95,"rain":0.0,"pressure":968.7,"uv_index":8.85,"wind_gusts":35.6,"aqi":91,"pm10":27.0,"pm2_5":24.3,"no2":15.3,"co":301.0,"o3":55.0,"so2":8.3,"mosquito_risk":7,"arthritis_risk":5,"migraine_risk":7,"frizz_risk":1,"updated_at":"2026-06-28T02:36:58.328198+05:30"},{"city":"Nashik","state":"Maharashtra","latitude":19.9975,"longitude":73.7898,"temp":23.7,"humidity":94,"rain":0.0,"pressure":941.3,"uv_index":7.55,"wind_gusts":36.4,"aqi":54,"pm10":22.1,"pm2_5":14.3,"no2":10.6,"co":143.0,"o3":36.0,"so2":6.4,"mosquito_risk":3,"arthritis_risk":5,"migraine_risk":7,"frizz_risk":1,"updated_at":"2026-06-28T02:36:58.328229+05:30"},{"city":"Aurangabad","state":"Maharashtra","latitude":19.8762,"longitude":75.3433,"temp":25.5,"humidity":86,"rain":0.0,"pressure":940.0,"uv_index":7.65,"wind_gusts":33.5,"aqi":67,"pm10":15.3,"pm2_5":11.1,"no2":10.2,"co":153.0,"o3":43.0,"so2":5.1,"mosquito_risk":7,"arthritis_risk":5,"migraine_risk":7,"frizz_risk":1,"updated_at":"2026-06-28T02:36:58.328238+05:30"},{"city":"Solapur","state":"Maharashtra","latitude":17.6599,"longitude":75.9064,"temp":25.2,"humidity":93,"rain":0.0,"pressure":953.4,"uv_index":7.65,"wind_gusts":31.3,"aqi":51,"pm10":11.9,"pm2_5":10.0,"no2":13.3,"co":182.0,"o3":29.0,"so2":2.3,"mosquito_risk":7,"arthritis_risk":5,"migraine_risk":7,"frizz_risk":1,"updated_at":"2026-06-28T02:36:58.328247+05:30"},{"city":"Kolhapur","state":"Maharashtra","latitude":16.705,"longitude":74.2433,"temp":23.4,"humidity":92,"rain":0.0,"pressure":944.8,"uv_index":6.75,"wind_gusts":40.3,"aqi":32,"pm10":8.3,"pm2_5":7.0,"no2":7.3,"co":115.0,"o3":35.0,"so2":2.2,"mosquito_risk":3,"arthritis_risk":5,"migraine_risk":7,"frizz_risk":1,"updated_at":"2026-06-28T02:36:58.328255+05:30"},{"city":"Goa","state":"Goa","latitude":15.2993,"longitude":74.124,"temp":24.3,"humidity":99,"rain":0.0,"pressure":995.6,"uv_index":3.3,"wind_gusts":32.4,"aqi":42,"pm10":15.4,"pm2_5":11.8,"no2":5.0,"co":222.0,"o3":44.0,"so2":1.1,"mosquito_risk":3,"arthritis_risk":5,"migraine_risk":3,"frizz_risk":1,"updated_at":"2026-06-28T02:36:58.328264+05:30"},{"city":"Jodhpur","state":"Rajasthan","latitude":26.2389,"longitude":73.0243,"temp":31.5,"humidity":56,"rain":0.0,"pressure":976.8,"uv_index":8.45,"wind_gusts":38.5,"aqi":107,"pm10":127.1,"pm2_5":33.5,"no2":6.1,"co":144.0,"o3":50.0,"so2":1.8,"mosquito_risk":0,"arthritis_risk":5,"migraine_risk":7,"frizz_risk":1,"updated_at":"2026-06-28T02:36:58.328273+05:30"},{"city":"Udaipur","state":"Rajasthan","latitude":24.5854,"longitude":73.7125,"temp":26.4,"humidity":77,"rain":0.0,"pressure":941.6,"uv_index":8.7,"wind_gusts":32.4,"aqi":71,"pm10":44.0,"pm2_5":24.2,"no2":10.1,"co":118.0,"o3":49.0,"so2":2.8,"mosquito_risk":7,"arthritis_risk":5,"migraine_risk":7,"frizz_risk":1,"updated_at":"2026-06-28T02:36:58.328282+05:30"},{"city":"Kota","state":"Rajasthan","latitude":25.2138,"longitude":75.8648,"temp":29.0,"humidity":75,"rain":0.0,"pressure":973.1,"uv_index":6.25,"wind_gusts":30.2,"aqi":80,"pm10":32.2,"pm2_5":21.5,"no2":7.8,"co":199.0,"o3":60.0,"so2":4.6,"mosquito_risk":7,"arthritis_risk":5,"migraine_risk":7,"frizz_risk":1,"updated_at":"2026-06-28T02:36:58.328291+05:30"},{"city":"Bikaner","state":"Rajasthan","latitude":28.0229,"longitude":73.3119,"temp":33.4,"humidity":46,"rain":0.0,"pressure":974.8,"uv_index":8.45,"wind_gusts":32.4,"aqi":95,"pm10":143.4,"pm2_5":50.1,"no2":2.2,"co":120.0,"o3":63.0,"so2":2.9,"mosquito_risk":0,"arthritis_risk":5,"migraine_risk":7,"frizz_risk":1,"updated_at":"2026-06-28T02:36:58.328299+05:30"},{"city":"Ajmer","state":"Rajasthan","latitude":26.4499,"longitude":74.6399,"temp":28.3,"humidity":66,"rain":0.0,"pressure":949.2,"uv_index":8.35,"wind_gusts":42.1,"aqi":88,"pm10":63.6,"pm2_5":29.0,"no2":8.5,"co":137.0,"o3":54.0,"so2":3.9,"mosquito_risk":7,"arthritis_risk":5,"migraine_risk":7,"frizz_risk":1,"updated_at":"2026-06-28T02:36:58.328308+05:30"},{"city":"Gwalior","state":"Madhya Pradesh","latitude":26.2183,"longitude":78.1828,"temp":30.3,"humidity":62,"rain":0.0,"pressure":976.9,"uv_index":7.5,"wind_gusts":40.3,"aqi":89,"pm10":37.1,"pm2_5":22.9,"no2":9.0,"co":150.0,"o3":53.0,"so2":2.9,"mosquito_risk":3,"arthritis_risk":5,"migraine_risk":7,"frizz_risk":1,"updated_at":"2026-06-28T02:36:58.328316+05:30"},{"city":"Indore","state":"Madhya Pradesh","latitude":22.7196,"longitude":75.8577,"temp":25.2,"humidity":90,"rain":0.0,"pressure":943.4,"uv_index":3.25,"wind_gusts":40.0,"aqi":85,"pm10":36.1,"pm2_5":25.0,"no2":9.9,"co":326.0,"o3":60.0,"so2":4.3,"mosquito_risk":7,"arthritis_risk":5,"migraine_risk":3,"frizz_risk":1,"updated_at":"2026-06-28T02:36:58.328324+05:30"},{"city":"Bhopal","state":"Madhya Pradesh","latitude":23.2599,"longitude":77.4126,"temp":25.7,"humidity":90,"rain":0.0,"pressure":949.0,"uv_index":3.3,"wind_gusts":23.0,"aqi":87,"pm10":30.6,"pm2_5":24.1,"no2":8.0,"co":367.0,"o3":63.0,"so2":3.4,"mosquito_risk":7,"arthritis_risk":5,"migraine_risk":3,"frizz_risk":1,"updated_at":"2026-06-28T02:36:58.328332+05:30"},{"city":"Jabalpur","state":"Madhya Pradesh","latitude":23.1815,"longitude":79.9864,"temp":27.0,"humidity":89,"rain":0.0,"pressure":957.0,"uv_index":8.8,"wind_gusts":30.6,"aqi":63,"pm10":23.0,"pm2_5":21.3,"no2":11.1,"co":259.0,"o3":65.0,"so2":2.9,"mosquito_risk":7,"arthritis_risk":5,"migraine_risk":7,"frizz_risk":1,"updated_at":"2026-06-28T02:36:58.328341+05:30"},{"city":"Ujjain","state":"Madhya Pradesh","latitude":23.1765,"longitude":75.7885,"temp":25.5,"humidity":90,"rain":0.0,"pressure":949.2,"uv_index":7.0,"wind_gusts":33.8,"aqi":84,"pm10":38.8,"pm2_5":26.1,"no2":6.8,"co":292.0,"o3":65.0,"so2":3.7,"mosquito_risk":7,"arthritis_risk":5,"migraine_risk":7,"frizz_risk":1,"updated_at":"2026-06-28T02:36:58.328350+05:30"},{"city":"Visakhapatnam","state":"Andhra Pradesh","latitude":17.6868,"longitude":83.2185,"temp":27.1,"humidity":94,"rain":0.0,"pressure":998.5,"uv_index":8.4,"wind_gusts":36.7,"aqi":84,"pm10":30.4,"pm2_5":23.6,"no2":20.1,"co":347.0,"o3":78.0,"so2":31.7,"mosquito_risk":7,"arthritis_risk":5,"migraine_risk":7,"frizz_risk":1,"updated_at":"2026-06-28T02:36:58.328358+05:30"},{"city":"Vijayawada","state":"Andhra Pradesh","latitude":16.5062,"longitude":80.648,"temp":25.3,"humidity":97,"rain":0.4,"pressure":998.7,"uv_index":7.95,"wind_gusts":45.0,"aqi":85,"pm10":21.4,"pm2_5":16.5,"no2":5.9,"co":207.0,"o3":88.0,"so2":2.6,"mosquito_risk":10,"arthritis_risk":5,"migraine_risk":7,"frizz_risk":1,"updated_at":"2026-06-28T02:36:58.328367+05:30"},{"city":"Guntur","state":"Andhra Pradesh","latitude":16.3067,"longitude":80.4365,"temp":25.4,"humidity":97,"rain":0.3,"pressure":1000.2,"uv_index":7.75,"wind_gusts":40.3,"aqi":86,"pm10":19.4,"pm2_5":15.5,"no2":6.1,"co":193.0,"o3":80.0,"so2":2.2,"mosquito_risk":10,"arthritis_risk":5,"migraine_risk":4,"frizz_risk":1,"updated_at":"2026-06-28T02:36:58.328375+05:30"},{"city":"Nellore","state":"Andhra Pradesh","latitude":14.4426,"longitude":79.9865,"temp":25.4,"humidity":95,"rain":0.1,"pressure":1002.9,"uv_index":8.1,"wind_gusts":36.4,"aqi":62,"pm10":18.8,"pm2_5":13.6,"no2":7.6,"co":131.0,"o3":68.0,"so2":4.3,"mosquito_risk":10,"arthritis_risk":5,"migraine_risk":4,"frizz_risk":1,"updated_at":"2026-06-28T02:36:58.328385+05:30"},{"city":"Kurnool","state":"Andhra Pradesh","latitude":15.8281,"longitude":78.0373,"temp":24.8,"humidity":93,"rain":0.0,"pressure":974.2,"uv_index":7.6,"wind_gusts":37.1,"aqi":59,"pm10":9.0,"pm2_5":7.2,"no2":8.7,"co":178.0,"o3":52.0,"so2":1.2,"mosquito_risk":3,"arthritis_risk":5,"migraine_risk":7,"frizz_risk":1,"updated_at":"2026-06-28T02:36:58.328394+05:30"},{"city":"Kakinada","state":"Andhra Pradesh","latitude":16.9891,"longitude":82.2475,"temp":26.9,"humidity":97,"rain":0.0,"pressure":1002.6,"uv_index":5.85,"wind_gusts":33.8,"aqi":71,"pm10":28.5,"pm2_5":19.4,"no2":3.5,"co":260.0,"o3":105.0,"so2":3.1,"mosquito_risk":7,"arthritis_risk":5,"migraine_risk":0,"frizz_risk":1,"updated_at":"2026-06-28T02:36:58.328402+05:30"},{"city":"Tirupati","state":"Andhra Pradesh","latitude":13.6288,"longitude":79.4192,"temp":24.8,"humidity":94,"rain":0.1,"pressure":988.1,"uv_index":7.6,"wind_gusts":42.5,"aqi":58,"pm10":14.9,"pm2_5":10.9,"no2":11.3,"co":144.0,"o3":43.0,"so2":1.6,"mosquito_risk":6,"arthritis_risk":5,"migraine_risk":7,"frizz_risk":1,"updated_at":"2026-06-28T02:36:58.328411+05:30"},{"city":"Warangal","state":"Telangana","latitude":17.9689,"longitude":79.5941,"temp":26.0,"humidity":93,"rain":0.2,"pressure":974.3,"uv_index":6.6,"wind_gusts":33.8,"aqi":89,"pm10":32.5,"pm2_5":25.8,"no2":11.8,"co":223.0,"o3":55.0,"so2":2.8,"mosquito_risk":10,"arthritis_risk":5,"migraine_risk":7,"frizz_risk":1,"updated_at":"2026-06-28T02:36:58.328419+05:30"},{"city":"Nizamabad","state":"Telangana","latitude":18.6725,"longitude":78.0941,"temp":25.2,"humidity":89,"rain":0.0,"pressure":960.6,"uv_index":4.3,"wind_gusts":33.5,"aqi":100,"pm10":38.6,"pm2_5":28.9,"no2":11.0,"co":181.0,"o3":59.0,"so2":3.1,"mosquito_risk":7,"arthritis_risk":5,"migraine_risk":3,"frizz_risk":1,"updated_at":"2026-06-28T02:36:58.328427+05:30"},{"city":"Mysore","state":"Karnataka","latitude":12.2958,"longitude":76.6396,"temp":21.3,"humidity":95,"rain":0.0,"pressure":926.7,"uv_index":7.45,"wind_gusts":48.6,"aqi":28,"pm10":3.8,"pm2_5":3.5,"no2":6.5,"co":129.0,"o3":37.0,"so2":1.7,"mosquito_risk":3,"arthritis_risk":5,"migraine_risk":7,"frizz_risk":1,"updated_at":"2026-06-28T02:36:58.328435+05:30"},{"city":"Mangalore","state":"Karnataka","latitude":12.9141,"longitude":74.856,"temp":25.2,"humidity":96,"rain":0.2,"pressure":1006.0,"uv_index":1.2,"wind_gusts":42.8,"aqi":37,"pm10":11.8,"pm2_5":7.2,"no2":3.6,"co":128.0,"o3":41.0,"so2":1.2,"mosquito_risk":10,"arthritis_risk":5,"migraine_risk":0,"frizz_risk":1,"updated_at":"2026-06-28T02:36:58.328443+05:30"},{"city":"Hubli-Dharwad","state":"Karnataka","latitude":15.3647,"longitude":75.124,"temp":22.8,"humidity":94,"rain":0.0,"pressure":937.9,"uv_index":6.3,"wind_gusts":44.3,"aqi":20,"pm10":2.3,"pm2_5":1.8,"no2":3.8,"co":113.0,"o3":42.0,"so2":1.0,"mosquito_risk":3,"arthritis_risk":5,"migraine_risk":7,"frizz_risk":1,"updated_at":"2026-06-28T02:36:58.328451+05:30"},{"city":"Belgaum","state":"Karnataka","latitude":15.8497,"longitude":74.4977,"temp":22.6,"humidity":90,"rain":0.0,"pressure":922.8,"uv_index":7.45,"wind_gusts":40.3,"aqi":20,"pm10":4.2,"pm2_5":3.3,"no2":4.1,"co":102.0,"o3":43.0,"so2":1.4,"mosquito_risk":3,"arthritis_risk":5,"migraine_risk":7,"frizz_risk":1,"updated_at":"2026-06-28T02:37:01.556987+05:30"},{"city":"Coimbatore","state":"Tamil Nadu","latitude":11.0168,"longitude":76.9558,"temp":23.0,"humidity":94,"rain":0.0,"pressure":960.0,"uv_index":8.7,"wind_gusts":50.0,"aqi":31,"pm10":5.4,"pm2_5":4.0,"no2":5.7,"co":133.0,"o3":36.0,"so2":2.5,"mosquito_risk":3,"arthritis_risk":5,"migraine_risk":7,"frizz_risk":1,"updated_at":"2026-06-28T02:37:01.557017+05:30"},{"city":"Madurai","state":"Tamil Nadu","latitude":9.9252,"longitude":78.1198,"temp":28.7,"humidity":64,"rain":0.0,"pressure":990.7,"uv_index":8.25,"wind_gusts":50.8,"aqi":64,"pm10":19.8,"pm2_5":16.6,"no2":28.9,"co":134.0,"o3":12.0,"so2":4.8,"mosquito_risk":7,"arthritis_risk":5,"migraine_risk":7,"frizz_risk":1,"updated_at":"2026-06-28T02:37:01.557028+05:30"},{"city":"Trichy","state":"Tamil Nadu","latitude":10.7905,"longitude":78.7047,"temp":27.9,"humidity":72,"rain":0.0,"pressure":997.4,"uv_index":8.25,"wind_gusts":51.5,"aqi":52,"pm10":6.8,"pm2_5":5.3,"no2":7.8,"co":117.0,"o3":37.0,"so2":2.9,"mosquito_risk":7,"arthritis_risk":5,"migraine_risk":7,"frizz_risk":1,"updated_at":"2026-06-28T02:37:01.557036+05:30"},{"city":"Salem","state":"Tamil Nadu","latitude":11.6643,"longitude":78.146,"temp":24.4,"humidity":95,"rain":0.0,"pressure":975.4,"uv_index":8.8,"wind_gusts":31.7,"aqi":58,"pm10":14.3,"pm2_5":11.3,"no2":15.7,"co":282.0,"o3":36.0,"so2":4.7,"mosquito_risk":3,"arthritis_risk":5,"migraine_risk":7,"frizz_risk":1,"updated_at":"2026-06-28T02:37:01.557044+05:30"},{"city":"Tirunelveli","state":"Tamil Nadu","latitude":8.7139,"longitude":77.7567,"temp":28.2,"humidity":68,"rain":0.0,"pressure":1001.1,"uv_index":8.55,"wind_gusts":46.8,"aqi":36,"pm10":5.5,"pm2_5":4.5,"no2":6.3,"co":124.0,"o3":38.0,"so2":1.8,"mosquito_risk":7,"arthritis_risk":5,"migraine_risk":4,"frizz_risk":1,"updated_at":"2026-06-28T02:37:01.557052+05:30"},{"city":"Vellore","state":"Tamil Nadu","latitude":12.9165,"longitude":79.1325,"temp":24.5,"humidity":96,"rain":0.1,"pressure":982.0,"uv_index":8.8,"wind_gusts":37.4,"aqi":59,"pm10":7.5,"pm2_5":5.9,"no2":9.5,"co":169.0,"o3":49.0,"so2":1.8,"mosquito_risk":6,"arthritis_risk":5,"migraine_risk":7,"frizz_risk":1,"updated_at":"2026-06-28T02:37:01.557059+05:30"},{"city":"Erode","state":"Tamil Nadu","latitude":11.341,"longitude":77.7172,"temp":25.6,"humidity":86,"rain":0.0,"pressure":987.4,"uv_index":8.6,"wind_gusts":41.8,"aqi":50,"pm10":7.6,"pm2_5":6.4,"no2":10.8,"co":136.0,"o3":34.0,"so2":3.0,"mosquito_risk":7,"arthritis_risk":5,"migraine_risk":7,"frizz_risk":1,"updated_at":"2026-06-28T02:37:01.557066+05:30"},{"city":"Kochi","state":"Kerala","latitude":9.9312,"longitude":76.2673,"temp":24.3,"humidity":97,"rain":0.0,"pressure":1008.4,"uv_index":8.55,"wind_gusts":43.2,"aqi":50,"pm10":12.2,"pm2_5":8.4,"no2":10.0,"co":141.0,"o3":27.0,"so2":2.7,"mosquito_risk":3,"arthritis_risk":0,"migraine_risk":4,"frizz_risk":1,"updated_at":"2026-06-28T02:37:01.557073+05:30"},{"city":"Thiruvananthapuram","state":"Kerala","latitude":8.5241,"longitude":76.9366,"temp":23.8,"humidity":98,"rain":0.0,"pressure":1007.6,"uv_index":7.5,"wind_gusts":52.9,"aqi":36,"pm10":11.7,"pm2_5":5.9,"no2":2.1,"co":129.0,"o3":49.0,"so2":0.7,"mosquito_risk":3,"arthritis_risk":5,"migraine_risk":4,"frizz_risk":1,"updated_at":"2026-06-28T02:37:01.557080+05:30"},{"city":"Kozhikode","state":"Kerala","latitude":11.2588,"longitude":75.7804,"temp":23.4,"humidity":100,"rain":0.0,"pressure":1007.6,"uv_index":8.55,"wind_gusts":41.4,"aqi":26,"pm10":9.2,"pm2_5":4.7,"no2":1.3,"co":133.0,"o3":52.0,"so2":0.6,"mosquito_risk":3,"arthritis_risk":5,"migraine_risk":4,"frizz_risk":1,"updated_at":"2026-06-28T02:37:01.557087+05:30"},{"city":"Thrissur","state":"Kerala","latitude":10.5276,"longitude":76.2144,"temp":23.7,"humidity":99,"rain":0.2,"pressure":1006.6,"uv_index":8.55,"wind_gusts":41.4,"aqi":52,"pm10":13.9,"pm2_5":10.8,"no2":9.4,"co":127.0,"o3":30.0,"so2":2.6,"mosquito_risk":6,"arthritis_risk":5,"migraine_risk":4,"frizz_risk":1,"updated_at":"2026-06-28T02:37:01.557096+05:30"},{"city":"Kannur","state":"Kerala","latitude":11.8745,"longitude":75.3704,"temp":24.4,"humidity":98,"rain":0.2,"pressure":1006.8,"uv_index":8.6,"wind_gusts":40.3,"aqi":32,"pm10":9.8,"pm2_5":5.9,"no2":4.3,"co":111.0,"o3":40.0,"so2":1.1,"mosquito_risk":6,"arthritis_risk":5,"migraine_risk":4,"frizz_risk":1,"updated_at":"2026-06-28T02:37:01.557103+05:30"},{"city":"Patna","state":"Bihar","latitude":25.5941,"longitude":85.1376,"temp":27.5,"humidity":95,"rain":0.0,"pressure":995.7,"uv_index":8.45,"wind_gusts":28.4,"aqi":153,"pm10":69.2,"pm2_5":63.8,"no2":18.1,"co":311.0,"o3":80.0,"so2":10.8,"mosquito_risk":7,"arthritis_risk":5,"migraine_risk":7,"frizz_risk":1,"updated_at":"2026-06-28T02:37:01.557111+05:30"},{"city":"Gaya","state":"Bihar","latitude":24.7914,"longitude":85.0002,"temp":28.9,"humidity":86,"rain":0.0,"pressure":988.2,"uv_index":8.65,"wind_gusts":27.7,"aqi":135,"pm10":42.3,"pm2_5":41.3,"no2":10.1,"co":357.0,"o3":94.0,"so2":9.3,"mosquito_risk":7,"arthritis_risk":5,"migraine_risk":7,"frizz_risk":1,"updated_at":"2026-06-28T02:37:01.557118+05:30"},{"city":"Muzaffarpur","state":"Bihar","latitude":26.1209,"longitude":85.3647,"temp":26.6,"humidity":95,"rain":0.1,"pressure":995.5,"uv_index":8.85,"wind_gusts":27.4,"aqi":154,"pm10":65.9,"pm2_5":60.3,"no2":12.4,"co":354.0,"o3":101.0,"so2":8.2,"mosquito_risk":10,"arthritis_risk":5,"migraine_risk":7,"frizz_risk":1,"updated_at":"2026-06-28T02:37:01.557126+05:30"},{"city":"Bhagalpur","state":"Bihar","latitude":25.2425,"longitude":87.0117,"temp":26.7,"humidity":95,"rain":0.3,"pressure":996.5,"uv_index":7.75,"wind_gusts":32.8,"aqi":130,"pm10":49.2,"pm2_5":47.1,"no2":15.6,"co":369.0,"o3":73.0,"so2":24.3,"mosquito_risk":10,"arthritis_risk":5,"migraine_risk":7,"frizz_risk":1,"updated_at":"2026-06-28T02:37:01.557133+05:30"},{"city":"Ranchi","state":"Jharkhand","latitude":23.3441,"longitude":85.3096,"temp":24.7,"humidity":87,"rain":0.0,"pressure":933.2,"uv_index":9.0,"wind_gusts":28.8,"aqi":128,"pm10":44.5,"pm2_5":43.1,"no2":11.3,"co":345.0,"o3":92.0,"so2":19.9,"mosquito_risk":3,"arthritis_risk":5,"migraine_risk":7,"frizz_risk":1,"updated_at":"2026-06-28T02:37:01.557140+05:30"},{"city":"Jamshedpur","state":"Jharkhand","latitude":22.8046,"longitude":86.2029,"temp":27.6,"humidity":90,"rain":0.0,"pressure":985.7,"uv_index":5.55,"wind_gusts":27.7,"aqi":132,"pm10":47.6,"pm2_5":45.6,"no2":24.1,"co":399.0,"o3":50.0,"so2":24.0,"mosquito_risk":7,"arthritis_risk":5,"migraine_risk":3,"frizz_risk":1,"updated_at":"2026-06-28T02:37:01.557148+05:30"},{"city":"Dhanbad","state":"Jharkhand","latitude":23.7957,"longitude":86.4304,"temp":28.2,"humidity":87,"rain":0.0,"pressure":974.6,"uv_index":9.1,"wind_gusts":35.3,"aqi":159,"pm10":78.2,"pm2_5":75.9,"no2":52.1,"co":1686.0,"o3":36.0,"so2":140.5,"mosquito_risk":7,"arthritis_risk":5,"migraine_risk":7,"frizz_risk":1,"updated_at":"2026-06-28T02:37:01.557155+05:30"},{"city":"Bokaro","state":"Jharkhand","latitude":23.6693,"longitude":86.1511,"temp":28.4,"humidity":81,"rain":0.0,"pressure":978.5,"uv_index":9.1,"wind_gusts":36.7,"aqi":161,"pm10":79.4,"pm2_5":76.6,"no2":39.4,"co":964.0,"o3":57.0,"so2":111.5,"mosquito_risk":7,"arthritis_risk":5,"migraine_risk":7,"frizz_risk":1,"updated_at":"2026-06-28T02:37:01.557162+05:30"},{"city":"Bhubaneswar","state":"Odisha","latitude":20.2961,"longitude":85.8245,"temp":27.6,"humidity":94,"rain":0.0,"pressure":997.6,"uv_index":8.75,"wind_gusts":39.2,"aqi":77,"pm10":24.2,"pm2_5":20.8,"no2":5.8,"co":216.0,"o3":92.0,"so2":6.1,"mosquito_risk":7,"arthritis_risk":5,"migraine_risk":7,"frizz_risk":1,"updated_at":"2026-06-28T02:37:01.557170+05:30"},{"city":"Cuttack","state":"Odisha","latitude":20.4625,"longitude":85.8828,"temp":27.9,"humidity":93,"rain":0.0,"pressure":999.4,"uv_index":8.65,"wind_gusts":33.5,"aqi":77,"pm10":24.2,"pm2_5":20.8,"no2":5.8,"co":243.0,"o3":92.0,"so2":6.1,"mosquito_risk":7,"arthritis_risk":5,"migraine_risk":7,"frizz_risk":1,"updated_at":"2026-06-28T02:37:01.557178+05:30"},{"city":"Rourkela","state":"Odisha","latitude":22.2604,"longitude":84.8536,"temp":28.3,"humidity":82,"rain":0.0,"pressure":980.2,"uv_index":9.0,"wind_gusts":44.3,"aqi":102,"pm10":29.0,"pm2_5":27.4,"no2":11.1,"co":267.0,"o3":82.0,"so2":24.8,"mosquito_risk":7,"arthritis_risk":5,"migraine_risk":7,"frizz_risk":1,"updated_at":"2026-06-28T02:37:01.557185+05:30"},{"city":"Raipur","state":"Chhattisgarh","latitude":21.2514,"longitude":81.6296,"temp":28.3,"humidity":82,"rain":0.0,"pressure":969.8,"uv_index":8.95,"wind_gusts":26.3,"aqi":109,"pm10":42.5,"pm2_5":40.5,"no2":33.8,"co":530.0,"o3":53.0,"so2":57.2,"mosquito_risk":7,"arthritis_risk":5,"migraine_risk":7,"frizz_risk":1,"updated_at":"2026-06-28T02:37:01.557192+05:30"},{"city":"Bhilai","state":"Chhattisgarh","latitude":21.1938,"longitude":81.3509,"temp":28.2,"humidity":82,"rain":0.0,"pressure":970.3,"uv_index":8.95,"wind_gusts":35.6,"aqi":103,"pm10":40.5,"pm2_5":39.0,"no2":27.7,"co":591.0,"o3":66.0,"so2":47.9,"mosquito_risk":7,"arthritis_risk":5,"migraine_risk":7,"frizz_risk":1,"updated_at":"2026-06-28T02:37:01.557219+05:30"},{"city":"Guwahati","state":"Assam","latitude":26.1158,"longitude":91.7086,"temp":26.3,"humidity":91,"rain":0.0,"pressure":996.8,"uv_index":7.8,"wind_gusts":34.9,"aqi":75,"pm10":19.8,"pm2_5":18.5,"no2":6.4,"co":337.0,"o3":73.0,"so2":2.2,"mosquito_risk":7,"arthritis_risk":5,"migraine_risk":7,"frizz_risk":1,"updated_at":"2026-06-28T02:37:01.557228+05:30"},{"city":"Agartala","state":"Tripura","latitude":23.8315,"longitude":91.2868,"temp":26.7,"humidity":90,"rain":0.0,"pressure":1002.3,"uv_index":8.05,"wind_gusts":38.2,"aqi":56,"pm10":13.1,"pm2_5":11.8,"no2":9.9,"co":164.0,"o3":39.0,"so2":2.1,"mosquito_risk":7,"arthritis_risk":5,"migraine_risk":4,"frizz_risk":1,"updated_at":"2026-06-28T02:37:01.557236+05:30"},{"city":"Shillong","state":"Meghalaya","latitude":25.5788,"longitude":91.8933,"temp":19.7,"humidity":97,"rain":0.2,"pressure":854.0,"uv_index":8.0,"wind_gusts":37.8,"aqi":44,"pm10":2.7,"pm2_5":2.5,"no2":5.4,"co":162.0,"o3":55.0,"so2":1.3,"mosquito_risk":6,"arthritis_risk":10,"migraine_risk":7,"frizz_risk":1,"updated_at":"2026-06-28T02:37:01.557243+05:30"},{"city":"Imphal","state":"Manipur","latitude":24.817,"longitude":93.9368,"temp":23.3,"humidity":90,"rain":0.0,"pressure":920.1,"uv_index":9.25,"wind_gusts":32.0,"aqi":56,"pm10":14.6,"pm2_5":14.0,"no2":9.3,"co":275.0,"o3":35.0,"so2":2.1,"mosquito_risk":3,"arthritis_risk":5,"migraine_risk":7,"frizz_risk":1,"updated_at":"2026-06-28T02:37:01.557251+05:30"},{"city":"Aizawl","state":"Mizoram","latitude":23.7271,"longitude":92.7176,"temp":20.2,"humidity":93,"rain":0.0,"pressure":890.0,"uv_index":8.2,"wind_gusts":35.6,"aqi":31,"pm10":3.8,"pm2_5":3.4,"no2":2.6,"co":121.0,"o3":39.0,"so2":0.5,"mosquito_risk":3,"arthritis_risk":5,"migraine_risk":7,"frizz_risk":1,"updated_at":"2026-06-28T02:37:01.557258+05:30"},{"city":"Kohima","state":"Nagaland","latitude":25.6701,"longitude":94.1077,"temp":19.3,"humidity":97,"rain":0.0,"pressure":852.0,"uv_index":7.4,"wind_gusts":25.6,"aqi":44,"pm10":7.3,"pm2_5":6.5,"no2":4.4,"co":241.0,"o3":49.0,"so2":1.0,"mosquito_risk":3,"arthritis_risk":10,"migraine_risk":7,"frizz_risk":1,"updated_at":"2026-06-28T02:37:01.557265+05:30"},{"city":"Gangtok","state":"Sikkim","latitude":27.3314,"longitude":88.6138,"temp":18.8,"humidity":94,"rain":1.1,"pressure":834.7,"uv_index":6.7,"wind_gusts":31.0,"aqi":47,"pm10":11.9,"pm2_5":11.5,"no2":13.7,"co":326.0,"o3":80.0,"so2":2.1,"mosquito_risk":6,"arthritis_risk":10,"migraine_risk":7,"frizz_risk":1,"updated_at":"2026-06-28T02:37:01.557273+05:30"},{"city":"Siliguri","state":"West Bengal","latitude":26.7271,"longitude":88.3953,"temp":25.1,"humidity":99,"rain":0.2,"pressure":988.8,"uv_index":8.8,"wind_gusts":19.8,"aqi":83,"pm10":14.6,"pm2_5":13.0,"no2":7.3,"co":405.0,"o3":112.0,"so2":3.5,"mosquito_risk":10,"arthritis_risk":5,"migraine_risk":7,"frizz_risk":1,"updated_at":"2026-06-28T02:37:04.811246+05:30"},{"city":"Durgapur","state":"West Bengal","latitude":23.5204,"longitude":87.3119,"temp":27.5,"humidity":92,"rain":0.0,"pressure":989.8,"uv_index":9.05,"wind_gusts":28.8,"aqi":131,"pm10":43.9,"pm2_5":42.5,"no2":25.6,"co":476.0,"o3":52.0,"so2":32.9,"mosquito_risk":7,"arthritis_risk":5,"migraine_risk":7,"frizz_risk":1,"updated_at":"2026-06-28T02:37:04.811280+05:30"},{"city":"Asansol","state":"West Bengal","latitude":23.6739,"longitude":86.9524,"temp":27.8,"humidity":90,"rain":0.0,"pressure":988.4,"uv_index":8.85,"wind_gusts":37.4,"aqi":135,"pm10":46.7,"pm2_5":44.7,"no2":26.7,"co":422.0,"o3":49.0,"so2":36.8,"mosquito_risk":7,"arthritis_risk":5,"migraine_risk":7,"frizz_risk":1,"updated_at":"2026-06-28T02:37:04.811292+05:30"},{"city":"Pondicherry","state":"Puducherry","latitude":11.9139,"longitude":79.8145,"temp":26.6,"humidity":87,"rain":0.0,"pressure":1006.0,"uv_index":8.4,"wind_gusts":41.4,"aqi":67,"pm10":16.7,"pm2_5":13.0,"no2":11.2,"co":296.0,"o3":62.0,"so2":9.5,"mosquito_risk":7,"arthritis_risk":5,"migraine_risk":4,"frizz_risk":1,"updated_at":"2026-06-28T02:37:04.811303+05:30"},{"city":"Port Blair","state":"Andaman and Nicobar Islands","latitude":11.6234,"longitude":92.7265,"temp":25.5,"humidity":95,"rain":0.0,"pressure":1005.6,"uv_index":2.25,"wind_gusts":41.8,"aqi":19,"pm10":4.6,"pm2_5":2.7,"no2":0.2,"co":86.0,"o3":45.0,"so2":0.2,"mosquito_risk":7,"arthritis_risk":5,"migraine_risk":0,"frizz_risk":1,"updated_at":"2026-06-28T02:37:04.811312+05:30"},{"city":"Haridwar","state":"Uttarakhand","latitude":29.9457,"longitude":78.1642,"temp":28.7,"humidity":72,"rain":0.0,"pressure":967.8,"uv_index":7.05,"wind_gusts":27.7,"aqi":148,"pm10":93.4,"pm2_5":75.7,"no2":41.1,"co":365.0,"o3":29.0,"so2":10.3,"mosquito_risk":7,"arthritis_risk":5,"migraine_risk":7,"frizz_risk":1,"updated_at":"2026-06-28T02:37:04.811322+05:30"},{"city":"Rishikesh","state":"Uttarakhand","latitude":30.0869,"longitude":78.2676,"temp":26.3,"humidity":82,"rain":0.0,"pressure":960.6,"uv_index":6.55,"wind_gusts":31.3,"aqi":101,"pm10":72.4,"pm2_5":39.6,"no2":11.4,"co":350.0,"o3":99.0,"so2":5.6,"mosquito_risk":7,"arthritis_risk":5,"migraine_risk":7,"frizz_risk":1,"updated_at":"2026-06-28T02:37:04.811332+05:30"},{"city":"Nainital","state":"Uttarakhand","latitude":29.3919,"longitude":79.4542,"temp":16.1,"humidity":92,"rain":0.0,"pressure":802.6,"uv_index":6.75,"wind_gusts":28.4,"aqi":105,"pm10":77.3,"pm2_5":42.7,"no2":18.8,"co":316.0,"o3":80.0,"so2":6.1,"mosquito_risk":3,"arthritis_risk":10,"migraine_risk":7,"frizz_risk":0,"updated_at":"2026-06-28T02:37:04.811342+05:30"},{"city":"Mussoorie","state":"Uttarakhand","latitude":30.4599,"longitude":78.0664,"temp":17.1,"humidity":86,"rain":0.0,"pressure":800.6,"uv_index":5.7,"wind_gusts":40.7,"aqi":115,"pm10":78.2,"pm2_5":54.6,"no2":39.4,"co":296.0,"o3":39.0,"so2":7.9,"mosquito_risk":3,"arthritis_risk":10,"migraine_risk":3,"frizz_risk":0,"updated_at":"2026-06-28T02:37:04.811351+05:30"},{"city":"Dharamshala","state":"Himachal Pradesh","latitude":32.219,"longitude":76.3234,"temp":22.7,"humidity":76,"rain":0.1,"pressure":866.0,"uv_index":7.9,"wind_gusts":31.0,"aqi":55,"pm10":9.0,"pm2_5":7.8,"no2":9.9,"co":252.0,"o3":76.0,"so2":0.0,"mosquito_risk":6,"arthritis_risk":5,"migraine_risk":7,"frizz_risk":1,"updated_at":"2026-06-28T02:37:04.811360+05:30"},{"city":"Dalhousie","state":"Himachal Pradesh","latitude":32.5387,"longitude":75.971,"temp":15.6,"humidity":97,"rain":0.0,"pressure":801.2,"uv_index":7.1,"wind_gusts":33.1,"aqi":104,"pm10":34.1,"pm2_5":26.3,"no2":15.8,"co":383.0,"o3":62.0,"so2":1.1,"mosquito_risk":3,"arthritis_risk":10,"migraine_risk":7,"frizz_risk":0,"updated_at":"2026-06-28T02:37:04.811370+05:30"},{"city":"Patiala","state":"Punjab","latitude":30.3398,"longitude":76.3869,"temp":31.8,"humidity":63,"rain":0.0,"pressure":971.4,"uv_index":7.65,"wind_gusts":33.5,"aqi":167,"pm10":308.3,"pm2_5":121.5,"no2":40.2,"co":788.0,"o3":46.0,"so2":9.2,"mosquito_risk":3,"arthritis_risk":5,"migraine_risk":7,"frizz_risk":1,"updated_at":"2026-06-28T02:37:04.811379+05:30"},{"city":"Bhatinda","state":"Punjab","latitude":30.211,"longitude":74.9455,"temp":31.8,"humidity":70,"rain":0.0,"pressure":976.4,"uv_index":8.05,"wind_gusts":27.0,"aqi":154,"pm10":88.2,"pm2_5":67.5,"no2":38.2,"co":557.0,"o3":48.0,"so2":9.6,"mosquito_risk":3,"arthritis_risk":5,"migraine_risk":7,"frizz_risk":1,"updated_at":"2026-06-28T02:37:04.811388+05:30"},{"city":"Rohtak","state":"Haryana","latitude":28.8955,"longitude":76.6066,"temp":31.0,"humidity":62,"rain":0.0,"pressure":974.6,"uv_index":7.1,"wind_gusts":28.8,"aqi":184,"pm10":363.2,"pm2_5":122.0,"no2":75.0,"co":682.0,"o3":0.0,"so2":13.3,"mosquito_risk":3,"arthritis_risk":5,"migraine_risk":7,"frizz_risk":1,"updated_at":"2026-06-28T02:37:04.811397+05:30"},{"city":"Panipat","state":"Haryana","latitude":29.3909,"longitude":76.9635,"temp":30.3,"humidity":70,"rain":0.0,"pressure":973.4,"uv_index":6.8,"wind_gusts":28.8,"aqi":521,"pm10":566.2,"pm2_5":158.8,"no2":76.9,"co":821.0,"o3":5.0,"so2":13.1,"mosquito_risk":3,"arthritis_risk":5,"migraine_risk":7,"frizz_risk":1,"updated_at":"2026-06-28T02:37:04.811405+05:30"},{"city":"Mathura","state":"Uttar Pradesh","latitude":27.4924,"longitude":77.6737,"temp":31.8,"humidity":55,"rain":0.0,"pressure":980.0,"uv_index":7.4,"wind_gusts":31.0,"aqi":153,"pm10":340.9,"pm2_5":71.2,"no2":26.8,"co":428.0,"o3":38.0,"so2":4.0,"mosquito_risk":0,"arthritis_risk":5,"migraine_risk":7,"frizz_risk":1,"updated_at":"2026-06-28T02:37:04.811414+05:30"},{"city":"Vrindavan","state":"Uttar Pradesh","latitude":27.5823,"longitude":77.7027,"temp":31.4,"humidity":57,"rain":0.0,"pressure":980.3,"uv_index":7.4,"wind_gusts":28.4,"aqi":153,"pm10":340.9,"pm2_5":71.2,"no2":26.8,"co":486.0,"o3":38.0,"so2":4.0,"mosquito_risk":0,"arthritis_risk":5,"migraine_risk":7,"frizz_risk":1,"updated_at":"2026-06-28T02:37:04.811423+05:30"},{"city":"Ayodhya","state":"Uttar Pradesh","latitude":26.7922,"longitude":82.1998,"temp":28.0,"humidity":91,"rain":0.1,"pressure":989.6,"uv_index":8.0,"wind_gusts":23.4,"aqi":149,"pm10":80.8,"pm2_5":54.1,"no2":18.5,"co":709.0,"o3":78.0,"so2":9.0,"mosquito_risk":10,"arthritis_risk":5,"migraine_risk":7,"frizz_risk":1,"updated_at":"2026-06-28T02:37:04.811431+05:30"},{"city":"Ratlam","state":"Madhya Pradesh","latitude":23.3315,"longitude":75.0367,"temp":25.6,"humidity":85,"rain":0.0,"pressure":950.0,"uv_index":8.1,"wind_gusts":32.0,"aqi":81,"pm10":39.5,"pm2_5":25.3,"no2":5.8,"co":217.0,"o3":71.0,"so2":3.8,"mosquito_risk":7,"arthritis_risk":5,"migraine_risk":7,"frizz_risk":1,"updated_at":"2026-06-28T02:37:04.811441+05:30"},{"city":"Sagar","state":"Madhya Pradesh","latitude":23.8388,"longitude":78.7378,"temp":26.6,"humidity":85,"rain":0.0,"pressure":945.6,"uv_index":8.1,"wind_gusts":24.1,"aqi":66,"pm10":33.5,"pm2_5":25.6,"no2":9.2,"co":261.0,"o3":67.0,"so2":3.2,"mosquito_risk":7,"arthritis_risk":5,"migraine_risk":7,"frizz_risk":1,"updated_at":"2026-06-28T02:37:04.811449+05:30"},{"city":"Satna","state":"Madhya Pradesh","latitude":24.6005,"longitude":80.8322,"temp":29.2,"humidity":73,"rain":0.0,"pressure":966.0,"uv_index":6.35,"wind_gusts":25.9,"aqi":74,"pm10":26.1,"pm2_5":19.6,"no2":8.6,"co":185.0,"o3":76.0,"so2":3.1,"mosquito_risk":7,"arthritis_risk":5,"migraine_risk":7,"frizz_risk":1,"updated_at":"2026-06-28T02:37:04.811458+05:30"},{"city":"Akola","state":"Maharashtra","latitude":20.7002,"longitude":77.0082,"temp":27.0,"humidity":88,"rain":0.0,"pressure":970.6,"uv_index":5.8,"wind_gusts":34.2,"aqi":80,"pm10":25.3,"pm2_5":19.3,"no2":9.4,"co":197.0,"o3":64.0,"so2":4.1,"mosquito_risk":7,"arthritis_risk":5,"migraine_risk":3,"frizz_risk":1,"updated_at":"2026-06-28T02:37:04.811467+05:30"},{"city":"Amravati","state":"Maharashtra","latitude":20.9374,"longitude":77.7796,"temp":26.4,"humidity":90,"rain":0.0,"pressure":962.9,"uv_index":8.45,"wind_gusts":36.0,"aqi":78,"pm10":24.2,"pm2_5":18.8,"no2":9.8,"co":225.0,"o3":64.0,"so2":4.4,"mosquito_risk":7,"arthritis_risk":5,"migraine_risk":7,"frizz_risk":1,"updated_at":"2026-06-28T02:37:04.811477+05:30"},{"city":"Latur","state":"Maharashtra","latitude":18.4088,"longitude":76.5604,"temp":24.4,"humidity":89,"rain":0.0,"pressure":935.7,"uv_index":6.9,"wind_gusts":28.8,"aqi":80,"pm10":26.0,"pm2_5":18.5,"no2":12.3,"co":169.0,"o3":43.0,"so2":2.2,"mosquito_risk":3,"arthritis_risk":5,"migraine_risk":7,"frizz_risk":1,"updated_at":"2026-06-28T02:37:04.811486+05:30"},{"city":"Nanded","state":"Maharashtra","latitude":19.1383,"longitude":77.3091,"temp":25.5,"humidity":90,"rain":0.0,"pressure":964.3,"uv_index":8.2,"wind_gusts":29.2,"aqi":91,"pm10":28.5,"pm2_5":19.9,"no2":8.9,"co":189.0,"o3":61.0,"so2":2.1,"mosquito_risk":7,"arthritis_risk":5,"migraine_risk":7,"frizz_risk":1,"updated_at":"2026-06-28T02:37:04.811495+05:30"},{"city":"Gulbarga","state":"Karnataka","latitude":17.3297,"longitude":76.8343,"temp":24.7,"humidity":92,"rain":0.0,"pressure":954.9,"uv_index":8.6,"wind_gusts":40.0,"aqi":53,"pm10":9.8,"pm2_5":7.9,"no2":11.9,"co":162.0,"o3":37.0,"so2":2.7,"mosquito_risk":3,"arthritis_risk":5,"migraine_risk":7,"frizz_risk":1,"updated_at":"2026-06-28T02:37:04.811504+05:30"},{"city":"Bidar","state":"Karnataka","latitude":17.9104,"longitude":77.5199,"temp":23.5,"humidity":97,"rain":0.0,"pressure":931.4,"uv_index":8.35,"wind_gusts":37.1,"aqi":84,"pm10":26.7,"pm2_5":20.6,"no2":11.9,"co":164.0,"o3":58.0,"so2":3.0,"mosquito_risk":3,"arthritis_risk":5,"migraine_risk":7,"frizz_risk":1,"updated_at":"2026-06-28T02:37:04.811512+05:30"},{"city":"Hospet","state":"Karnataka","latitude":15.2689,"longitude":76.3909,"temp":24.2,"humidity":87,"rain":0.0,"pressure":953.2,"uv_index":7.85,"wind_gusts":46.4,"aqi":26,"pm10":3.9,"pm2_5":3.1,"no2":4.9,"co":125.0,"o3":40.0,"so2":1.1,"mosquito_risk":3,"arthritis_risk":5,"migraine_risk":7,"frizz_risk":1,"updated_at":"2026-06-28T02:37:04.811520+05:30"},{"city":"Tirupur","state":"Tamil Nadu","latitude":11.1085,"longitude":77.3411,"temp":23.8,"humidity":92,"rain":0.0,"pressure":973.5,"uv_index":8.9,"wind_gusts":55.1,"aqi":52,"pm10":8.8,"pm2_5":7.4,"no2":12.2,"co":123.0,"o3":30.0,"so2":3.6,"mosquito_risk":3,"arthritis_risk":5,"migraine_risk":7,"frizz_risk":1,"updated_at":"2026-06-28T02:37:04.811528+05:30"},{"city":"Alappuzha","state":"Kerala","latitude":9.4981,"longitude":76.3388,"temp":24.5,"humidity":96,"rain":0.1,"pressure":1008.8,"uv_index":8.5,"wind_gusts":44.6,"aqi":45,"pm10":10.5,"pm2_5":5.8,"no2":5.3,"co":85.0,"o3":40.0,"so2":1.7,"mosquito_risk":6,"arthritis_risk":0,"migraine_risk":4,"frizz_risk":1,"updated_at":"2026-06-28T02:37:04.811537+05:30"},{"city":"Munnar","state":"Kerala","latitude":10.0889,"longitude":77.0595,"temp":16.3,"humidity":98,"rain":0.0,"pressure":855.0,"uv_index":7.95,"wind_gusts":41.0,"aqi":25,"pm10":2.8,"pm2_5":2.6,"no2":6.8,"co":92.0,"o3":28.0,"so2":1.4,"mosquito_risk":3,"arthritis_risk":10,"migraine_risk":7,"frizz_risk":0,"updated_at":"2026-06-28T02:37:04.811546+05:30"},{"city":"Silchar","state":"Assam","latitude":24.8333,"longitude":92.7789,"temp":25.9,"humidity":98,"rain":0.0,"pressure":1002.0,"uv_index":8.5,"wind_gusts":32.4,"aqi":65,"pm10":17.4,"pm2_5":15.4,"no2":7.6,"co":197.0,"o3":60.0,"so2":3.5,"mosquito_risk":7,"arthritis_risk":5,"migraine_risk":4,"frizz_risk":1,"updated_at":"2026-06-28T02:37:04.811555+05:30"},{"city":"Dibrugarh","state":"Assam","latitude":27.4728,"longitude":94.912,"temp":24.9,"humidity":98,"rain":0.2,"pressure":990.7,"uv_index":7.45,"wind_gusts":41.0,"aqi":62,"pm10":16.6,"pm2_5":15.1,"no2":6.1,"co":249.0,"o3":83.0,"so2":1.7,"mosquito_risk":6,"arthritis_risk":5,"migraine_risk":7,"frizz_risk":1,"updated_at":"2026-06-28T02:37:04.811563+05:30"}]