[{"city":"Delhi","state":"Delhi","latitude":28.6139,"longitude":77.209,"temp":38.3,"humidity":21,"rain":0.0,"pressure":974.1,"uv_index":7.8,"wind_gusts":43.6,"aqi":511,"pm10":745.1,"pm2_5":151.8,"no2":51.1,"co":626.0,"o3":64.0,"so2":21.4,"mosquito_risk":0,"arthritis_risk":5,"migraine_risk":10,"frizz_risk":0,"updated_at":"2026-06-09T21:28:01.825641+05:30"},{"city":"Mumbai","state":"Maharashtra","latitude":19.076,"longitude":72.8777,"temp":30.1,"humidity":73,"rain":0.1,"pressure":1006.6,"uv_index":7.6,"wind_gusts":47.9,"aqi":79,"pm10":67.3,"pm2_5":25.7,"no2":6.2,"co":208.0,"o3":51.0,"so2":4.3,"mosquito_risk":6,"arthritis_risk":5,"migraine_risk":4,"frizz_risk":1,"updated_at":"2026-06-09T21:28:01.825699+05:30"},{"city":"Bangalore","state":"Karnataka","latitude":12.9716,"longitude":77.5946,"temp":22.9,"humidity":78,"rain":0.0,"pressure":911.9,"uv_index":8.5,"wind_gusts":52.6,"aqi":30,"pm10":8.0,"pm2_5":5.7,"no2":12.7,"co":319.0,"o3":48.0,"so2":4.2,"mosquito_risk":3,"arthritis_risk":5,"migraine_risk":7,"frizz_risk":1,"updated_at":"2026-06-09T21:28:01.825717+05:30"},{"city":"Hyderabad","state":"Telangana","latitude":17.385,"longitude":78.4867,"temp":26.3,"humidity":77,"rain":0.0,"pressure":951.2,"uv_index":8.6,"wind_gusts":39.6,"aqi":62,"pm10":33.1,"pm2_5":23.1,"no2":17.0,"co":353.0,"o3":66.0,"so2":6.0,"mosquito_risk":7,"arthritis_risk":5,"migraine_risk":7,"frizz_risk":1,"updated_at":"2026-06-09T21:28:01.825729+05:30"},{"city":"Chennai","state":"Tamil Nadu","latitude":13.0827,"longitude":80.2707,"temp":33.1,"humidity":51,"rain":0.0,"pressure":1005.0,"uv_index":8.3,"wind_gusts":60.5,"aqi":62,"pm10":12.8,"pm2_5":9.9,"no2":15.1,"co":343.0,"o3":68.0,"so2":8.9,"mosquito_risk":0,"arthritis_risk":5,"migraine_risk":4,"frizz_risk":1,"updated_at":"2026-06-09T21:28:01.825739+05:30"},{"city":"Kolkata","state":"West Bengal","latitude":22.5726,"longitude":88.3639,"temp":27.9,"humidity":89,"rain":0.0,"pressure":1000.4,"uv_index":8.95,"wind_gusts":32.8,"aqi":152,"pm10":57.9,"pm2_5":52.9,"no2":14.7,"co":428.0,"o3":104.0,"so2":14.5,"mosquito_risk":7,"arthritis_risk":5,"migraine_risk":4,"frizz_risk":1,"updated_at":"2026-06-09T21:28:01.825750+05:30"},{"city":"Pune","state":"Maharashtra","latitude":18.5204,"longitude":73.8567,"temp":25.6,"humidity":81,"rain":0.0,"pressure":946.9,"uv_index":6.65,"wind_gusts":50.0,"aqi":50,"pm10":27.2,"pm2_5":13.4,"no2":7.5,"co":171.0,"o3":52.0,"so2":5.2,"mosquito_risk":7,"arthritis_risk":5,"migraine_risk":7,"frizz_risk":1,"updated_at":"2026-06-09T21:28:01.825760+05:30"},{"city":"Ahmedabad","state":"Gujarat","latitude":23.0225,"longitude":72.5714,"temp":33.5,"humidity":60,"rain":0.0,"pressure":996.7,"uv_index":8.05,"wind_gusts":41.8,"aqi":88,"pm10":43.8,"pm2_5":22.9,"no2":7.0,"co":167.0,"o3":84.0,"so2":4.9,"mosquito_risk":0,"arthritis_risk":5,"migraine_risk":7,"frizz_risk":1,"updated_at":"2026-06-09T21:28:01.825793+05:30"},{"city":"Jaipur","state":"Rajasthan","latitude":26.9124,"longitude":75.7873,"temp":35.3,"humidity":28,"rain":0.0,"pressure":953.3,"uv_index":8.25,"wind_gusts":44.3,"aqi":136,"pm10":163.4,"pm2_5":43.1,"no2":14.5,"co":211.0,"o3":71.0,"so2":6.6,"mosquito_risk":0,"arthritis_risk":5,"migraine_risk":10,"frizz_risk":0,"updated_at":"2026-06-09T21:28:01.825807+05:30"},{"city":"Lucknow","state":"Uttar Pradesh","latitude":26.8467,"longitude":80.9462,"temp":35.4,"humidity":41,"rain":0.0,"pressure":985.1,"uv_index":8.3,"wind_gusts":43.9,"aqi":163,"pm10":454.5,"pm2_5":122.0,"no2":41.6,"co":272.0,"o3":65.0,"so2":19.7,"mosquito_risk":0,"arthritis_risk":5,"migraine_risk":10,"frizz_risk":1,"updated_at":"2026-06-09T21:28:01.825817+05:30"},{"city":"Kanpur","state":"Uttar Pradesh","latitude":26.4499,"longitude":80.3319,"temp":36.5,"humidity":33,"rain":0.0,"pressure":983.6,"uv_index":8.35,"wind_gusts":49.7,"aqi":317,"pm10":704.1,"pm2_5":136.9,"no2":14.1,"co":224.0,"o3":81.0,"so2":7.5,"mosquito_risk":0,"arthritis_risk":5,"migraine_risk":10,"frizz_risk":1,"updated_at":"2026-06-09T21:28:01.825825+05:30"},{"city":"Chandigarh","state":"Chandigarh","latitude":30.7333,"longitude":76.7794,"temp":32.0,"humidity":30,"rain":0.0,"pressure":959.7,"uv_index":7.8,"wind_gusts":33.8,"aqi":166,"pm10":37.5,"pm2_5":31.7,"no2":26.7,"co":599.0,"o3":110.0,"so2":11.1,"mosquito_risk":0,"arthritis_risk":5,"migraine_risk":7,"frizz_risk":0,"updated_at":"2026-06-09T21:28:01.825834+05:30"},{"city":"Srinagar","state":"Jammu and Kashmir","latitude":34.0837,"longitude":74.7973,"temp":18.5,"humidity":80,"rain":0.0,"pressure":836.2,"uv_index":9.0,"wind_gusts":20.5,"aqi":117,"pm10":21.7,"pm2_5":18.2,"no2":24.7,"co":1390.0,"o3":72.0,"so2":3.0,"mosquito_risk":3,"arthritis_risk":5,"migraine_risk":7,"frizz_risk":0,"updated_at":"2026-06-09T21:28:01.825843+05:30"},{"city":"Jammu","state":"Jammu and Kashmir","latitude":32.7266,"longitude":74.857,"temp":32.9,"humidity":33,"rain":0.0,"pressure":963.2,"uv_index":8.6,"wind_gusts":35.6,"aqi":158,"pm10":27.2,"pm2_5":24.3,"no2":22.5,"co":478.0,"o3":110.0,"so2":5.4,"mosquito_risk":0,"arthritis_risk":5,"migraine_risk":7,"frizz_risk":0,"updated_at":"2026-06-09T21:28:01.825851+05:30"},{"city":"Amritsar","state":"Punjab","latitude":31.634,"longitude":74.8723,"temp":37.1,"humidity":24,"rain":0.0,"pressure":970.9,"uv_index":8.45,"wind_gusts":23.8,"aqi":176,"pm10":64.0,"pm2_5":37.7,"no2":23.6,"co":397.0,"o3":99.0,"so2":11.3,"mosquito_risk":0,"arthritis_risk":5,"migraine_risk":10,"frizz_risk":0,"updated_at":"2026-06-09T21:28:01.825858+05:30"},{"city":"Ludhiana","state":"Punjab","latitude":30.901,"longitude":75.8573,"temp":35.3,"humidity":28,"rain":0.0,"pressure":969.1,"uv_index":8.0,"wind_gusts":40.3,"aqi":158,"pm10":124.3,"pm2_5":46.0,"no2":19.0,"co":946.0,"o3":103.0,"so2":7.6,"mosquito_risk":0,"arthritis_risk":5,"migraine_risk":10,"frizz_risk":0,"updated_at":"2026-06-09T21:28:01.825873+05:30"},{"city":"Jalandhar","state":"Punjab","latitude":31.326,"longitude":75.5762,"temp":36.0,"humidity":24,"rain":0.0,"pressure":970.0,"uv_index":8.25,"wind_gusts":32.0,"aqi":155,"pm10":97.1,"pm2_5":42.7,"no2":20.0,"co":773.0,"o3":102.0,"so2":6.8,"mosquito_risk":0,"arthritis_risk":5,"migraine_risk":10,"frizz_risk":0,"updated_at":"2026-06-09T21:28:01.825881+05:30"},{"city":"Dehradun","state":"Uttarakhand","latitude":30.6284,"longitude":78.0322,"temp":20.9,"humidity":53,"rain":0.0,"pressure":825.8,"uv_index":8.25,"wind_gusts":39.6,"aqi":146,"pm10":24.6,"pm2_5":20.0,"no2":23.1,"co":240.0,"o3":112.0,"so2":4.6,"mosquito_risk":0,"arthritis_risk":5,"migraine_risk":7,"frizz_risk":0,"updated_at":"2026-06-09T21:28:01.825889+05:30"},{"city":"Shimla","state":"Himachal Pradesh","latitude":31.1048,"longitude":77.1734,"temp":18.5,"humidity":44,"rain":0.0,"pressure":781.5,"uv_index":8.35,"wind_gusts":51.8,"aqi":142,"pm10":29.7,"pm2_5":19.7,"no2":14.3,"co":241.0,"o3":118.0,"so2":3.2,"mosquito_risk":0,"arthritis_risk":5,"migraine_risk":7,"frizz_risk":0,"updated_at":"2026-06-09T21:28:01.825899+05:30"},{"city":"Manali","state":"Himachal Pradesh","latitude":32.2396,"longitude":77.1887,"temp":15.3,"humidity":76,"rain":0.0,"pressure":814.2,"uv_index":9.95,"wind_gusts":34.2,"aqi":101,"pm10":13.0,"pm2_5":11.5,"no2":61.1,"co":303.0,"o3":65.0,"so2":0.5,"mosquito_risk":3,"arthritis_risk":5,"migraine_risk":7,"frizz_risk":0,"updated_at":"2026-06-09T21:28:01.825908+05:30"},{"city":"Gurgaon","state":"Haryana","latitude":28.4595,"longitude":77.0266,"temp":35.7,"humidity":28,"rain":0.0,"pressure":972.6,"uv_index":7.9,"wind_gusts":40.7,"aqi":1399,"pm10":543.9,"pm2_5":124.3,"no2":53.0,"co":1289.0,"o3":47.0,"so2":19.4,"mosquito_risk":0,"arthritis_risk":5,"migraine_risk":10,"frizz_risk":0,"updated_at":"2026-06-09T21:28:01.825915+05:30"},{"city":"Noida","state":"Uttar Pradesh","latitude":28.5355,"longitude":77.391,"temp":35.1,"humidity":35,"rain":0.0,"pressure":975.3,"uv_index":7.85,"wind_gusts":32.8,"aqi":1399,"pm10":543.9,"pm2_5":124.3,"no2":53.0,"co":718.0,"o3":47.0,"so2":19.4,"mosquito_risk":0,"arthritis_risk":5,"migraine_risk":10,"frizz_risk":1,"updated_at":"2026-06-09T21:28:01.825923+05:30"},{"city":"Ghaziabad","state":"Uttar Pradesh","latitude":28.6692,"longitude":77.4538,"temp":34.2,"humidity":33,"rain":0.0,"pressure":973.6,"uv_index":7.8,"wind_gusts":38.5,"aqi":379,"pm10":597.9,"pm2_5":129.0,"no2":45.5,"co":588.0,"o3":89.0,"so2":22.8,"mosquito_risk":0,"arthritis_risk":5,"migraine_risk":7,"frizz_risk":0,"updated_at":"2026-06-09T21:28:01.825931+05:30"},{"city":"Faridabad","state":"Haryana","latitude":28.4089,"longitude":77.3178,"temp":37.2,"humidity":22,"rain":0.0,"pressure":974.9,"uv_index":7.85,"wind_gusts":46.8,"aqi":1399,"pm10":543.9,"pm2_5":124.3,"no2":53.0,"co":919.0,"o3":47.0,"so2":19.4,"mosquito_risk":0,"arthritis_risk":5,"migraine_risk":10,"frizz_risk":0,"updated_at":"2026-06-09T21:28:01.825939+05:30"},{"city":"Meerut","state":"Uttar Pradesh","latitude":28.9845,"longitude":77.7064,"temp":34.5,"humidity":35,"rain":0.0,"pressure":972.3,"uv_index":7.75,"wind_gusts":34.9,"aqi":379,"pm10":597.9,"pm2_5":129.0,"no2":45.5,"co":437.0,"o3":89.0,"so2":22.8,"mosquito_risk":0,"arthritis_risk":5,"migraine_risk":7,"frizz_risk":1,"updated_at":"2026-06-09T21:28:01.825946+05:30"},{"city":"Agra","state":"Uttar Pradesh","latitude":27.1767,"longitude":78.0081,"temp":35.5,"humidity":31,"rain":0.0,"pressure":979.2,"uv_index":8.15,"wind_gusts":58.7,"aqi":969,"pm10":638.9,"pm2_5":127.6,"no2":41.4,"co":500.0,"o3":40.0,"so2":13.2,"mosquito_risk":0,"arthritis_risk":5,"migraine_risk":10,"frizz_risk":0,"updated_at":"2026-06-09T21:28:01.825954+05:30"},{"city":"Varanasi","state":"Uttar Pradesh","latitude":25.3176,"longitude":82.9739,"temp":35.9,"humidity":34,"rain":0.0,"pressure":989.7,"uv_index":8.8,"wind_gusts":34.2,"aqi":121,"pm10":99.2,"pm2_5":44.1,"no2":15.4,"co":473.0,"o3":98.0,"so2":12.1,"mosquito_risk":0,"arthritis_risk":5,"migraine_risk":10,"frizz_risk":1,"updated_at":"2026-06-09T21:28:01.825962+05:30"},{"city":"Prayagraj","state":"Uttar Pradesh","latitude":25.4358,"longitude":81.8463,"temp":36.0,"humidity":37,"rain":0.0,"pressure":988.0,"uv_index":8.7,"wind_gusts":43.6,"aqi":114,"pm10":111.5,"pm2_5":50.2,"no2":21.6,"co":228.0,"o3":67.0,"so2":11.2,"mosquito_risk":0,"arthritis_risk":5,"migraine_risk":10,"frizz_risk":1,"updated_at":"2026-06-09T21:28:01.825970+05:30"},{"city":"Gorakhpur","state":"Uttar Pradesh","latitude":26.7606,"longitude":83.3732,"temp":31.1,"humidity":64,"rain":0.0,"pressure":989.4,"uv_index":8.65,"wind_gusts":22.7,"aqi":164,"pm10":125.7,"pm2_5":71.9,"no2":24.9,"co":528.0,"o3":93.0,"so2":13.8,"mosquito_risk":3,"arthritis_risk":5,"migraine_risk":7,"frizz_risk":1,"updated_at":"2026-06-09T21:28:01.825979+05:30"},{"city":"Bareilly","state":"Uttar Pradesh","latitude":28.367,"longitude":79.4304,"temp":31.3,"humidity":54,"rain":0.0,"pressure":977.6,"uv_index":8.15,"wind_gusts":25.2,"aqi":191,"pm10":90.3,"pm2_5":56.0,"no2":24.3,"co":434.0,"o3":130.0,"so2":17.1,"mosquito_risk":0,"arthritis_risk":5,"migraine_risk":7,"frizz_risk":1,"updated_at":"2026-06-09T21:28:01.825987+05:30"},{"city":"Aligarh","state":"Uttar Pradesh","latitude":27.8974,"longitude":78.088,"temp":32.4,"humidity":47,"rain":0.0,"pressure":976.8,"uv_index":8.0,"wind_gusts":42.5,"aqi":792,"pm10":827.0,"pm2_5":181.6,"no2":38.3,"co":503.0,"o3":63.0,"so2":12.9,"mosquito_risk":0,"arthritis_risk":5,"migraine_risk":7,"frizz_risk":1,"updated_at":"2026-06-09T21:28:01.825995+05:30"},{"city":"Moradabad","state":"Uttar Pradesh","latitude":28.8386,"longitude":78.7733,"temp":33.9,"humidity":41,"rain":0.0,"pressure":974.5,"uv_index":7.95,"wind_gusts":41.0,"aqi":203,"pm10":115.3,"pm2_5":79.6,"no2":47.9,"co":582.0,"o3":90.0,"so2":18.7,"mosquito_risk":0,"arthritis_risk":5,"migraine_risk":7,"frizz_risk":1,"updated_at":"2026-06-09T21:28:01.826004+05:30"},{"city":"Saharanpur","state":"Uttar Pradesh","latitude":29.9637,"longitude":77.546,"temp":31.8,"humidity":37,"rain":0.0,"pressure":966.4,"uv_index":7.5,"wind_gusts":34.2,"aqi":171,"pm10":224.4,"pm2_5":65.0,"no2":22.0,"co":458.0,"o3":105.0,"so2":11.4,"mosquito_risk":0,"arthritis_risk":5,"migraine_risk":7,"frizz_risk":0,"updated_at":"2026-06-09T21:28:01.826011+05:30"},{"city":"Jhansi","state":"Uttar Pradesh","latitude":25.4484,"longitude":78.5685,"temp":34.6,"humidity":32,"rain":0.0,"pressure":970.6,"uv_index":8.5,"wind_gusts":51.5,"aqi":79,"pm10":55.4,"pm2_5":27.6,"no2":5.6,"co":178.0,"o3":82.0,"so2":3.8,"mosquito_risk":0,"arthritis_risk":5,"migraine_risk":7,"frizz_risk":0,"updated_at":"2026-06-09T21:28:05.178589+05:30"},{"city":"Surat","state":"Gujarat","latitude":21.1702,"longitude":72.8311,"temp":30.7,"humidity":77,"rain":0.0,"pressure":1002.8,"uv_index":7.6,"wind_gusts":53.6,"aqi":86,"pm10":48.3,"pm2_5":27.6,"no2":19.0,"co":196.0,"o3":39.0,"so2":32.4,"mosquito_risk":3,"arthritis_risk":5,"migraine_risk":4,"frizz_risk":1,"updated_at":"2026-06-09T21:28:05.178623+05:30"},{"city":"Vadodara","state":"Gujarat","latitude":22.3072,"longitude":73.1812,"temp":31.6,"humidity":66,"rain":0.0,"pressure":999.3,"uv_index":7.75,"wind_gusts":49.7,"aqi":86,"pm10":49.2,"pm2_5":30.0,"no2":14.4,"co":205.0,"o3":63.0,"so2":20.2,"mosquito_risk":3,"arthritis_risk":5,"migraine_risk":7,"frizz_risk":1,"updated_at":"2026-06-09T21:28:05.178634+05:30"},{"city":"Rajkot","state":"Gujarat","latitude":22.3039,"longitude":70.8022,"temp":32.5,"humidity":55,"rain":0.0,"pressure":989.6,"uv_index":7.55,"wind_gusts":51.1,"aqi":80,"pm10":39.2,"pm2_5":19.7,"no2":4.2,"co":117.0,"o3":64.0,"so2":4.7,"mosquito_risk":0,"arthritis_risk":5,"migraine_risk":7,"frizz_risk":1,"updated_at":"2026-06-09T21:28:05.178643+05:30"},{"city":"Thane","state":"Maharashtra","latitude":19.2183,"longitude":72.9781,"temp":29.9,"humidity":75,"rain":0.0,"pressure":1006.0,"uv_index":7.45,"wind_gusts":43.2,"aqi":79,"pm10":67.3,"pm2_5":25.7,"no2":6.2,"co":211.0,"o3":51.0,"so2":4.3,"mosquito_risk":7,"arthritis_risk":5,"migraine_risk":4,"frizz_risk":1,"updated_at":"2026-06-09T21:28:05.178652+05:30"},{"city":"Nagpur","state":"Maharashtra","latitude":21.1458,"longitude":79.0882,"temp":35.9,"humidity":37,"rain":0.0,"pressure":968.2,"uv_index":8.9,"wind_gusts":40.0,"aqi":98,"pm10":48.9,"pm2_5":28.6,"no2":14.9,"co":228.0,"o3":82.0,"so2":14.0,"mosquito_risk":0,"arthritis_risk":5,"migraine_risk":10,"frizz_risk":1,"updated_at":"2026-06-09T21:28:05.178660+05:30"},{"city":"Nashik","state":"Maharashtra","latitude":19.9975,"longitude":73.7898,"temp":26.3,"humidity":80,"rain":0.0,"pressure":943.7,"uv_index":7.95,"wind_gusts":51.1,"aqi":69,"pm10":61.0,"pm2_5":25.1,"no2":3.0,"co":130.0,"o3":58.0,"so2":1.4,"mosquito_risk":7,"arthritis_risk":5,"migraine_risk":7,"frizz_risk":1,"updated_at":"2026-06-09T21:28:05.178668+05:30"},{"city":"Aurangabad","state":"Maharashtra","latitude":19.8762,"longitude":75.3433,"temp":31.0,"humidity":46,"rain":0.0,"pressure":941.9,"uv_index":8.95,"wind_gusts":49.0,"aqi":71,"pm10":42.5,"pm2_5":20.9,"no2":4.4,"co":141.0,"o3":88.0,"so2":3.7,"mosquito_risk":0,"arthritis_risk":5,"migraine_risk":7,"frizz_risk":1,"updated_at":"2026-06-09T21:28:05.178677+05:30"},{"city":"Solapur","state":"Maharashtra","latitude":17.6599,"longitude":75.9064,"temp":29.0,"humidity":65,"rain":0.0,"pressure":955.5,"uv_index":7.7,"wind_gusts":36.4,"aqi":54,"pm10":10.2,"pm2_5":7.7,"no2":6.5,"co":233.0,"o3":70.0,"so2":2.0,"mosquito_risk":7,"arthritis_risk":5,"migraine_risk":7,"frizz_risk":1,"updated_at":"2026-06-09T21:28:05.178686+05:30"},{"city":"Kolhapur","state":"Maharashtra","latitude":16.705,"longitude":74.2433,"temp":24.0,"humidity":89,"rain":0.0,"pressure":947.5,"uv_index":7.4,"wind_gusts":40.0,"aqi":33,"pm10":8.3,"pm2_5":6.0,"no2":6.8,"co":167.0,"o3":47.0,"so2":2.3,"mosquito_risk":3,"arthritis_risk":5,"migraine_risk":7,"frizz_risk":1,"updated_at":"2026-06-09T21:28:05.178695+05:30"},{"city":"Goa","state":"Goa","latitude":15.2993,"longitude":74.124,"temp":25.2,"humidity":97,"rain":0.0,"pressure":998.8,"uv_index":4.9,"wind_gusts":28.8,"aqi":27,"pm10":13.0,"pm2_5":9.1,"no2":5.8,"co":206.0,"o3":50.0,"so2":1.1,"mosquito_risk":7,"arthritis_risk":5,"migraine_risk":3,"frizz_risk":1,"updated_at":"2026-06-09T21:28:05.178703+05:30"},{"city":"Jodhpur","state":"Rajasthan","latitude":26.2389,"longitude":73.0243,"temp":35.2,"humidity":42,"rain":0.0,"pressure":975.8,"uv_index":8.45,"wind_gusts":48.2,"aqi":160,"pm10":260.8,"pm2_5":59.6,"no2":5.8,"co":166.0,"o3":75.0,"so2":2.3,"mosquito_risk":0,"arthritis_risk":5,"migraine_risk":10,"frizz_risk":1,"updated_at":"2026-06-09T21:28:05.178711+05:30"},{"city":"Udaipur","state":"Rajasthan","latitude":24.5854,"longitude":73.7125,"temp":31.4,"humidity":50,"rain":0.0,"pressure":941.7,"uv_index":8.85,"wind_gusts":44.6,"aqi":84,"pm10":56.5,"pm2_5":28.5,"no2":4.5,"co":156.0,"o3":88.0,"so2":4.4,"mosquito_risk":0,"arthritis_risk":5,"migraine_risk":7,"frizz_risk":1,"updated_at":"2026-06-09T21:28:05.178719+05:30"},{"city":"Kota","state":"Rajasthan","latitude":25.2138,"longitude":75.8648,"temp":34.7,"humidity":38,"rain":0.0,"pressure":972.1,"uv_index":8.4,"wind_gusts":38.5,"aqi":78,"pm10":30.5,"pm2_5":21.1,"no2":7.6,"co":199.0,"o3":87.0,"so2":4.8,"mosquito_risk":0,"arthritis_risk":5,"migraine_risk":7,"frizz_risk":1,"updated_at":"2026-06-09T21:28:05.178727+05:30"},{"city":"Bikaner","state":"Rajasthan","latitude":28.0229,"longitude":73.3119,"temp":37.3,"humidity":30,"rain":0.0,"pressure":972.7,"uv_index":8.45,"wind_gusts":41.4,"aqi":131,"pm10":133.2,"pm2_5":49.0,"no2":2.2,"co":133.0,"o3":90.0,"so2":3.5,"mosquito_risk":0,"arthritis_risk":5,"migraine_risk":10,"frizz_risk":1,"updated_at":"2026-06-09T21:28:05.178734+05:30"},{"city":"Ajmer","state":"Rajasthan","latitude":26.4499,"longitude":74.6399,"temp":31.7,"humidity":46,"rain":0.0,"pressure":948.5,"uv_index":8.4,"wind_gusts":50.4,"aqi":77,"pm10":51.0,"pm2_5":25.1,"no2":6.3,"co":175.0,"o3":81.0,"so2":3.5,"mosquito_risk":0,"arthritis_risk":5,"migraine_risk":7,"frizz_risk":1,"updated_at":"2026-06-09T21:28:05.178742+05:30"},{"city":"Gwalior","state":"Madhya Pradesh","latitude":26.2183,"longitude":78.1828,"temp":36.0,"humidity":28,"rain":0.0,"pressure":975.2,"uv_index":8.3,"wind_gusts":55.8,"aqi":88,"pm10":72.2,"pm2_5":33.5,"no2":9.1,"co":166.0,"o3":68.0,"so2":4.0,"mosquito_risk":0,"arthritis_risk":5,"migraine_risk":10,"frizz_risk":0,"updated_at":"2026-06-09T21:28:05.178750+05:30"},{"city":"Indore","state":"Madhya Pradesh","latitude":22.7196,"longitude":75.8577,"temp":32.6,"humidity":38,"rain":0.0,"pressure":944.2,"uv_index":8.65,"wind_gusts":50.8,"aqi":81,"pm10":41.4,"pm2_5":26.7,"no2":8.9,"co":251.0,"o3":88.0,"so2":6.4,"mosquito_risk":0,"arthritis_risk":5,"migraine_risk":7,"frizz_risk":1,"updated_at":"2026-06-09T21:28:05.178757+05:30"},{"city":"Bhopal","state":"Madhya Pradesh","latitude":23.2599,"longitude":77.4126,"temp":32.3,"humidity":49,"rain":0.0,"pressure":948.8,"uv_index":8.7,"wind_gusts":39.6,"aqi":83,"pm10":44.9,"pm2_5":29.0,"no2":12.3,"co":424.0,"o3":67.0,"so2":5.4,"mosquito_risk":0,"arthritis_risk":5,"migraine_risk":7,"frizz_risk":1,"updated_at":"2026-06-09T21:28:05.178787+05:30"},{"city":"Jabalpur","state":"Madhya Pradesh","latitude":23.1815,"longitude":79.9864,"temp":32.6,"humidity":48,"rain":0.0,"pressure":956.7,"uv_index":8.85,"wind_gusts":40.3,"aqi":77,"pm10":49.8,"pm2_5":29.3,"no2":9.7,"co":279.0,"o3":83.0,"so2":4.9,"mosquito_risk":0,"arthritis_risk":5,"migraine_risk":7,"frizz_risk":1,"updated_at":"2026-06-09T21:28:05.178797+05:30"},{"city":"Ujjain","state":"Madhya Pradesh","latitude":23.1765,"longitude":75.7885,"temp":32.0,"humidity":44,"rain":0.0,"pressure":949.5,"uv_index":8.6,"wind_gusts":49.3,"aqi":80,"pm10":44.0,"pm2_5":27.9,"no2":4.3,"co":219.0,"o3":90.0,"so2":4.4,"mosquito_risk":0,"arthritis_risk":5,"migraine_risk":7,"frizz_risk":1,"updated_at":"2026-06-09T21:28:05.178805+05:30"},{"city":"Visakhapatnam","state":"Andhra Pradesh","latitude":17.6868,"longitude":83.2185,"temp":31.2,"humidity":71,"rain":0.0,"pressure":998.7,"uv_index":8.5,"wind_gusts":36.7,"aqi":152,"pm10":58.9,"pm2_5":49.6,"no2":39.8,"co":1167.0,"o3":84.0,"so2":59.0,"mosquito_risk":3,"arthritis_risk":5,"migraine_risk":7,"frizz_risk":1,"updated_at":"2026-06-09T21:28:05.178814+05:30"},{"city":"Vijayawada","state":"Andhra Pradesh","latitude":16.5062,"longitude":80.648,"temp":32.4,"humidity":58,"rain":0.0,"pressure":998.6,"uv_index":8.7,"wind_gusts":42.8,"aqi":69,"pm10":25.3,"pm2_5":21.7,"no2":9.6,"co":295.0,"o3":81.0,"so2":3.9,"mosquito_risk":0,"arthritis_risk":5,"migraine_risk":7,"frizz_risk":1,"updated_at":"2026-06-09T21:28:05.178821+05:30"},{"city":"Guntur","state":"Andhra Pradesh","latitude":16.3067,"longitude":80.4365,"temp":32.4,"humidity":58,"rain":0.0,"pressure":1000.0,"uv_index":8.3,"wind_gusts":43.9,"aqi":69,"pm10":24.2,"pm2_5":20.5,"no2":11.0,"co":285.0,"o3":73.0,"so2":4.1,"mosquito_risk":0,"arthritis_risk":5,"migraine_risk":4,"frizz_risk":1,"updated_at":"2026-06-09T21:28:05.178829+05:30"},{"city":"Nellore","state":"Andhra Pradesh","latitude":14.4426,"longitude":79.9865,"temp":32.9,"humidity":50,"rain":0.0,"pressure":1003.3,"uv_index":7.7,"wind_gusts":50.0,"aqi":48,"pm10":23.3,"pm2_5":17.9,"no2":7.6,"co":186.0,"o3":86.0,"so2":3.8,"mosquito_risk":0,"arthritis_risk":5,"migraine_risk":4,"frizz_risk":1,"updated_at":"2026-06-09T21:28:05.178838+05:30"},{"city":"Kurnool","state":"Andhra Pradesh","latitude":15.8281,"longitude":78.0373,"temp":29.4,"humidity":60,"rain":0.0,"pressure":975.2,"uv_index":8.35,"wind_gusts":44.3,"aqi":46,"pm10":11.0,"pm2_5":8.3,"no2":6.0,"co":198.0,"o3":78.0,"so2":2.7,"mosquito_risk":4,"arthritis_risk":5,"migraine_risk":7,"frizz_risk":1,"updated_at":"2026-06-09T21:28:05.178846+05:30"},{"city":"Kakinada","state":"Andhra Pradesh","latitude":16.9891,"longitude":82.2475,"temp":32.2,"humidity":62,"rain":0.0,"pressure":1002.5,"uv_index":8.5,"wind_gusts":46.1,"aqi":102,"pm10":25.1,"pm2_5":18.5,"no2":4.6,"co":368.0,"o3":103.0,"so2":3.6,"mosquito_risk":3,"arthritis_risk":5,"migraine_risk":4,"frizz_risk":1,"updated_at":"2026-06-09T21:28:05.178854+05:30"},{"city":"Tirupati","state":"Andhra Pradesh","latitude":13.6288,"longitude":79.4192,"temp":30.7,"humidity":54,"rain":0.0,"pressure":989.8,"uv_index":8.05,"wind_gusts":46.4,"aqi":38,"pm10":12.9,"pm2_5":9.7,"no2":9.9,"co":171.0,"o3":64.0,"so2":2.5,"mosquito_risk":0,"arthritis_risk":5,"migraine_risk":7,"frizz_risk":1,"updated_at":"2026-06-09T21:28:05.178861+05:30"},{"city":"Warangal","state":"Telangana","latitude":17.9689,"longitude":79.5941,"temp":30.5,"humidity":61,"rain":0.0,"pressure":975.3,"uv_index":8.7,"wind_gusts":37.8,"aqi":86,"pm10":60.8,"pm2_5":41.4,"no2":16.4,"co":200.0,"o3":66.0,"so2":5.7,"mosquito_risk":3,"arthritis_risk":5,"migraine_risk":7,"frizz_risk":1,"updated_at":"2026-06-09T21:28:05.178868+05:30"},{"city":"Nizamabad","state":"Telangana","latitude":18.6725,"longitude":78.0941,"temp":29.3,"humidity":63,"rain":0.0,"pressure":961.5,"uv_index":8.45,"wind_gusts":38.9,"aqi":85,"pm10":68.2,"pm2_5":36.9,"no2":13.8,"co":220.0,"o3":70.0,"so2":4.9,"mosquito_risk":7,"arthritis_risk":5,"migraine_risk":7,"frizz_risk":1,"updated_at":"2026-06-09T21:28:05.178876+05:30"},{"city":"Mysore","state":"Karnataka","latitude":12.2958,"longitude":76.6396,"temp":22.0,"humidity":88,"rain":0.0,"pressure":929.0,"uv_index":8.15,"wind_gusts":47.5,"aqi":29,"pm10":3.7,"pm2_5":3.1,"no2":8.5,"co":150.0,"o3":48.0,"so2":2.0,"mosquito_risk":3,"arthritis_risk":5,"migraine_risk":7,"frizz_risk":1,"updated_at":"2026-06-09T21:28:05.178883+05:30"},{"city":"Mangalore","state":"Karnataka","latitude":12.9141,"longitude":74.856,"temp":24.8,"humidity":95,"rain":0.4,"pressure":1008.9,"uv_index":4.1,"wind_gusts":38.9,"aqi":30,"pm10":12.8,"pm2_5":7.6,"no2":5.6,"co":348.0,"o3":47.0,"so2":1.6,"mosquito_risk":6,"arthritis_risk":0,"migraine_risk":0,"frizz_risk":1,"updated_at":"2026-06-09T21:28:05.178891+05:30"},{"city":"Hubli-Dharwad","state":"Karnataka","latitude":15.3647,"longitude":75.124,"temp":22.3,"humidity":97,"rain":0.0,"pressure":940.8,"uv_index":6.15,"wind_gusts":37.8,"aqi":27,"pm10":3.2,"pm2_5":2.9,"no2":8.3,"co":146.0,"o3":41.0,"so2":1.2,"mosquito_risk":3,"arthritis_risk":5,"migraine_risk":7,"frizz_risk":1,"updated_at":"2026-06-09T21:28:05.178898+05:30"},{"city":"Belgaum","state":"Karnataka","latitude":15.8497,"longitude":74.4977,"temp":21.8,"humidity":94,"rain":0.0,"pressure":925.5,"uv_index":1.55,"wind_gusts":38.9,"aqi":28,"pm10":3.8,"pm2_5":3.4,"no2":7.0,"co":124.0,"o3":46.0,"so2":1.9,"mosquito_risk":3,"arthritis_risk":5,"migraine_risk":3,"frizz_risk":1,"updated_at":"2026-06-09T21:28:08.532860+05:30"},{"city":"Coimbatore","state":"Tamil Nadu","latitude":11.0168,"longitude":76.9558,"temp":23.1,"humidity":95,"rain":0.0,"pressure":962.1,"uv_index":4.65,"wind_gusts":55.8,"aqi":24,"pm10":3.3,"pm2_5":3.1,"no2":7.7,"co":206.0,"o3":43.0,"so2":2.6,"mosquito_risk":3,"arthritis_risk":5,"migraine_risk":3,"frizz_risk":1,"updated_at":"2026-06-09T21:28:08.532901+05:30"},{"city":"Madurai","state":"Tamil Nadu","latitude":9.9252,"longitude":78.1198,"temp":29.1,"humidity":63,"rain":0.0,"pressure":993.3,"uv_index":8.45,"wind_gusts":60.1,"aqi":36,"pm10":4.8,"pm2_5":3.9,"no2":6.5,"co":139.0,"o3":54.0,"so2":2.6,"mosquito_risk":7,"arthritis_risk":5,"migraine_risk":7,"frizz_risk":1,"updated_at":"2026-06-09T21:28:08.532913+05:30"},{"city":"Trichy","state":"Tamil Nadu","latitude":10.7905,"longitude":78.7047,"temp":29.7,"humidity":62,"rain":0.0,"pressure":999.8,"uv_index":8.3,"wind_gusts":71.3,"aqi":33,"pm10":4.0,"pm2_5":3.4,"no2":6.6,"co":126.0,"o3":45.0,"so2":2.6,"mosquito_risk":7,"arthritis_risk":5,"migraine_risk":7,"frizz_risk":1,"updated_at":"2026-06-09T21:28:08.532923+05:30"},{"city":"Salem","state":"Tamil Nadu","latitude":11.6643,"longitude":78.146,"temp":27.8,"humidity":68,"rain":0.0,"pressure":978.0,"uv_index":6.5,"wind_gusts":44.6,"aqi":35,"pm10":7.5,"pm2_5":7.0,"no2":13.2,"co":229.0,"o3":51.0,"so2":7.6,"mosquito_risk":7,"arthritis_risk":5,"migraine_risk":7,"frizz_risk":1,"updated_at":"2026-06-09T21:28:08.532932+05:30"},{"city":"Tirunelveli","state":"Tamil Nadu","latitude":8.7139,"longitude":77.7567,"temp":28.9,"humidity":67,"rain":0.0,"pressure":1004.6,"uv_index":7.95,"wind_gusts":52.9,"aqi":26,"pm10":7.5,"pm2_5":5.5,"no2":6.2,"co":165.0,"o3":40.0,"so2":1.5,"mosquito_risk":7,"arthritis_risk":5,"migraine_risk":4,"frizz_risk":1,"updated_at":"2026-06-09T21:28:08.532941+05:30"},{"city":"Vellore","state":"Tamil Nadu","latitude":12.9165,"longitude":79.1325,"temp":31.6,"humidity":49,"rain":0.0,"pressure":983.4,"uv_index":7.45,"wind_gusts":58.3,"aqi":39,"pm10":8.1,"pm2_5":6.3,"no2":7.5,"co":169.0,"o3":61.0,"so2":3.4,"mosquito_risk":0,"arthritis_risk":5,"migraine_risk":7,"frizz_risk":1,"updated_at":"2026-06-09T21:28:08.532950+05:30"},{"city":"Erode","state":"Tamil Nadu","latitude":11.341,"longitude":77.7172,"temp":26.1,"humidity":79,"rain":0.0,"pressure":989.7,"uv_index":5.6,"wind_gusts":52.6,"aqi":29,"pm10":7.2,"pm2_5":6.8,"no2":14.5,"co":205.0,"o3":39.0,"so2":3.7,"mosquito_risk":7,"arthritis_risk":5,"migraine_risk":3,"frizz_risk":1,"updated_at":"2026-06-09T21:28:08.532959+05:30"},{"city":"Kochi","state":"Kerala","latitude":9.9312,"longitude":76.2673,"temp":26.5,"humidity":92,"rain":0.0,"pressure":1010.8,"uv_index":5.9,"wind_gusts":43.9,"aqi":32,"pm10":14.9,"pm2_5":12.3,"no2":21.1,"co":126.0,"o3":21.0,"so2":4.9,"mosquito_risk":7,"arthritis_risk":0,"migraine_risk":0,"frizz_risk":1,"updated_at":"2026-06-09T21:28:08.532968+05:30"},{"city":"Thiruvananthapuram","state":"Kerala","latitude":8.5241,"longitude":76.9366,"temp":25.1,"humidity":96,"rain":0.2,"pressure":1010.9,"uv_index":7.65,"wind_gusts":53.6,"aqi":32,"pm10":11.8,"pm2_5":6.3,"no2":1.8,"co":93.0,"o3":48.0,"so2":0.7,"mosquito_risk":10,"arthritis_risk":0,"migraine_risk":4,"frizz_risk":1,"updated_at":"2026-06-09T21:28:08.532976+05:30"},{"city":"Kozhikode","state":"Kerala","latitude":11.2588,"longitude":75.7804,"temp":24.4,"humidity":98,"rain":0.1,"pressure":1010.1,"uv_index":7.95,"wind_gusts":32.0,"aqi":27,"pm10":8.7,"pm2_5":5.0,"no2":2.0,"co":340.0,"o3":57.0,"so2":0.7,"mosquito_risk":6,"arthritis_risk":0,"migraine_risk":4,"frizz_risk":1,"updated_at":"2026-06-09T21:28:08.532984+05:30"},{"city":"Thrissur","state":"Kerala","latitude":10.5276,"longitude":76.2144,"temp":25.0,"humidity":98,"rain":0.1,"pressure":1009.0,"uv_index":7.85,"wind_gusts":31.0,"aqi":32,"pm10":13.5,"pm2_5":11.1,"no2":12.3,"co":217.0,"o3":33.0,"so2":3.2,"mosquito_risk":10,"arthritis_risk":0,"migraine_risk":4,"frizz_risk":1,"updated_at":"2026-06-09T21:28:08.532994+05:30"},{"city":"Kannur","state":"Kerala","latitude":11.8745,"longitude":75.3704,"temp":24.9,"humidity":97,"rain":0.2,"pressure":1009.2,"uv_index":7.35,"wind_gusts":28.1,"aqi":24,"pm10":13.1,"pm2_5":8.2,"no2":10.1,"co":454.0,"o3":42.0,"so2":1.7,"mosquito_risk":6,"arthritis_risk":0,"migraine_risk":4,"frizz_risk":1,"updated_at":"2026-06-09T21:28:08.533002+05:30"},{"city":"Patna","state":"Bihar","latitude":25.5941,"longitude":85.1376,"temp":30.2,"humidity":79,"rain":0.0,"pressure":993.1,"uv_index":8.85,"wind_gusts":24.8,"aqi":174,"pm10":186.7,"pm2_5":87.3,"no2":47.5,"co":766.0,"o3":55.0,"so2":20.0,"mosquito_risk":3,"arthritis_risk":5,"migraine_risk":7,"frizz_risk":1,"updated_at":"2026-06-09T21:28:08.533010+05:30"},{"city":"Gaya","state":"Bihar","latitude":24.7914,"longitude":85.0002,"temp":31.6,"humidity":52,"rain":0.0,"pressure":986.7,"uv_index":7.7,"wind_gusts":36.7,"aqi":156,"pm10":149.0,"pm2_5":63.3,"no2":21.8,"co":424.0,"o3":78.0,"so2":12.4,"mosquito_risk":0,"arthritis_risk":5,"migraine_risk":7,"frizz_risk":1,"updated_at":"2026-06-09T21:28:08.533018+05:30"},{"city":"Muzaffarpur","state":"Bihar","latitude":26.1209,"longitude":85.3647,"temp":30.2,"humidity":74,"rain":0.0,"pressure":993.4,"uv_index":8.8,"wind_gusts":30.6,"aqi":175,"pm10":149.5,"pm2_5":95.7,"no2":42.9,"co":579.0,"o3":100.0,"so2":23.9,"mosquito_risk":3,"arthritis_risk":5,"migraine_risk":7,"frizz_risk":1,"updated_at":"2026-06-09T21:28:08.533026+05:30"},{"city":"Bhagalpur","state":"Bihar","latitude":25.2425,"longitude":87.0117,"temp":30.9,"humidity":75,"rain":0.0,"pressure":994.4,"uv_index":8.85,"wind_gusts":25.9,"aqi":192,"pm10":82.7,"pm2_5":71.0,"no2":12.5,"co":737.0,"o3":144.0,"so2":15.7,"mosquito_risk":3,"arthritis_risk":5,"migraine_risk":7,"frizz_risk":1,"updated_at":"2026-06-09T21:28:08.533033+05:30"},{"city":"Ranchi","state":"Jharkhand","latitude":23.3441,"longitude":85.3096,"temp":27.1,"humidity":62,"rain":0.0,"pressure":932.9,"uv_index":8.75,"wind_gusts":35.6,"aqi":135,"pm10":160.7,"pm2_5":62.2,"no2":24.2,"co":349.0,"o3":71.0,"so2":8.4,"mosquito_risk":7,"arthritis_risk":5,"migraine_risk":7,"frizz_risk":1,"updated_at":"2026-06-09T21:28:08.533041+05:30"},{"city":"Jamshedpur","state":"Jharkhand","latitude":22.8046,"longitude":86.2029,"temp":29.7,"humidity":76,"rain":0.0,"pressure":985.1,"uv_index":9.1,"wind_gusts":31.0,"aqi":152,"pm10":95.2,"pm2_5":64.3,"no2":29.1,"co":710.0,"o3":85.0,"so2":19.7,"mosquito_risk":7,"arthritis_risk":5,"migraine_risk":7,"frizz_risk":1,"updated_at":"2026-06-09T21:28:08.533048+05:30"},{"city":"Dhanbad","state":"Jharkhand","latitude":23.7957,"longitude":86.4304,"temp":30.5,"humidity":61,"rain":0.0,"pressure":973.7,"uv_index":8.9,"wind_gusts":52.2,"aqi":161,"pm10":177.9,"pm2_5":109.7,"no2":66.8,"co":1010.0,"o3":57.0,"so2":168.5,"mosquito_risk":3,"arthritis_risk":5,"migraine_risk":7,"frizz_risk":1,"updated_at":"2026-06-09T21:28:08.533055+05:30"},{"city":"Bokaro","state":"Jharkhand","latitude":23.6693,"longitude":86.1511,"temp":30.4,"humidity":61,"rain":0.0,"pressure":977.6,"uv_index":8.1,"wind_gusts":54.4,"aqi":165,"pm10":204.9,"pm2_5":114.6,"no2":64.0,"co":513.0,"o3":52.0,"so2":145.7,"mosquito_risk":3,"arthritis_risk":5,"migraine_risk":7,"frizz_risk":1,"updated_at":"2026-06-09T21:28:08.533063+05:30"},{"city":"Bhubaneswar","state":"Odisha","latitude":20.2961,"longitude":85.8245,"temp":30.9,"humidity":72,"rain":0.0,"pressure":997.2,"uv_index":8.6,"wind_gusts":33.8,"aqi":127,"pm10":43.2,"pm2_5":36.9,"no2":10.6,"co":537.0,"o3":114.0,"so2":7.8,"mosquito_risk":3,"arthritis_risk":5,"migraine_risk":7,"frizz_risk":1,"updated_at":"2026-06-09T21:28:08.533070+05:30"},{"city":"Cuttack","state":"Odisha","latitude":20.4625,"longitude":85.8828,"temp":31.2,"humidity":74,"rain":0.0,"pressure":998.8,"uv_index":8.2,"wind_gusts":31.0,"aqi":127,"pm10":43.2,"pm2_5":36.9,"no2":10.6,"co":483.0,"o3":114.0,"so2":7.8,"mosquito_risk":3,"arthritis_risk":5,"migraine_risk":7,"frizz_risk":1,"updated_at":"2026-06-09T21:28:08.533077+05:30"},{"city":"Rourkela","state":"Odisha","latitude":22.2604,"longitude":84.8536,"temp":32.3,"humidity":54,"rain":0.0,"pressure":979.2,"uv_index":8.9,"wind_gusts":33.8,"aqi":124,"pm10":119.0,"pm2_5":67.5,"no2":38.6,"co":846.0,"o3":57.0,"so2":12.7,"mosquito_risk":0,"arthritis_risk":5,"migraine_risk":7,"frizz_risk":1,"updated_at":"2026-06-09T21:28:08.533084+05:30"},{"city":"Raipur","state":"Chhattisgarh","latitude":21.2514,"longitude":81.6296,"temp":34.9,"humidity":37,"rain":0.0,"pressure":969.2,"uv_index":8.65,"wind_gusts":39.2,"aqi":123,"pm10":93.6,"pm2_5":61.0,"no2":43.0,"co":369.0,"o3":71.0,"so2":56.8,"mosquito_risk":0,"arthritis_risk":5,"migraine_risk":7,"frizz_risk":1,"updated_at":"2026-06-09T21:28:08.533091+05:30"},{"city":"Bhilai","state":"Chhattisgarh","latitude":21.1938,"longitude":81.3509,"temp":34.4,"humidity":40,"rain":0.0,"pressure":969.7,"uv_index":8.55,"wind_gusts":40.7,"aqi":108,"pm10":80.1,"pm2_5":53.2,"no2":41.9,"co":698.0,"o3":64.0,"so2":52.7,"mosquito_risk":0,"arthritis_risk":5,"migraine_risk":7,"frizz_risk":1,"updated_at":"2026-06-09T21:28:08.533099+05:30"},{"city":"Guwahati","state":"Assam","latitude":26.1158,"longitude":91.7086,"temp":25.8,"humidity":96,"rain":0.0,"pressure":996.9,"uv_index":8.8,"wind_gusts":41.0,"aqi":85,"pm10":51.6,"pm2_5":46.1,"no2":20.5,"co":520.0,"o3":59.0,"so2":7.1,"mosquito_risk":7,"arthritis_risk":5,"migraine_risk":7,"frizz_risk":1,"updated_at":"2026-06-09T21:28:08.533106+05:30"},{"city":"Agartala","state":"Tripura","latitude":23.8315,"longitude":91.2868,"temp":26.9,"humidity":95,"rain":0.0,"pressure":1002.0,"uv_index":8.85,"wind_gusts":36.0,"aqi":74,"pm10":31.4,"pm2_5":26.0,"no2":11.2,"co":263.0,"o3":71.0,"so2":3.6,"mosquito_risk":7,"arthritis_risk":5,"migraine_risk":4,"frizz_risk":1,"updated_at":"2026-06-09T21:28:08.533114+05:30"},{"city":"Shillong","state":"Meghalaya","latitude":25.5788,"longitude":91.8933,"temp":19.4,"humidity":92,"rain":0.0,"pressure":854.5,"uv_index":7.3,"wind_gusts":31.0,"aqi":75,"pm10":14.1,"pm2_5":10.7,"no2":5.7,"co":287.0,"o3":101.0,"so2":3.6,"mosquito_risk":3,"arthritis_risk":10,"migraine_risk":7,"frizz_risk":1,"updated_at":"2026-06-09T21:28:08.533121+05:30"},{"city":"Imphal","state":"Manipur","latitude":24.817,"longitude":93.9368,"temp":23.3,"humidity":88,"rain":0.1,"pressure":920.5,"uv_index":8.4,"wind_gusts":32.8,"aqi":69,"pm10":52.2,"pm2_5":44.0,"no2":28.2,"co":826.0,"o3":37.0,"so2":6.5,"mosquito_risk":6,"arthritis_risk":5,"migraine_risk":7,"frizz_risk":1,"updated_at":"2026-06-09T21:28:08.533129+05:30"},{"city":"Aizawl","state":"Mizoram","latitude":23.7271,"longitude":92.7176,"temp":21.0,"humidity":83,"rain":0.0,"pressure":889.6,"uv_index":8.85,"wind_gusts":34.9,"aqi":56,"pm10":25.8,"pm2_5":18.1,"no2":7.1,"co":224.0,"o3":72.0,"so2":2.4,"mosquito_risk":3,"arthritis_risk":5,"migraine_risk":7,"frizz_risk":1,"updated_at":"2026-06-09T21:28:08.533136+05:30"},{"city":"Kohima","state":"Nagaland","latitude":25.6701,"longitude":94.1077,"temp":19.8,"humidity":89,"rain":0.0,"pressure":852.8,"uv_index":6.7,"wind_gusts":24.8,"aqi":44,"pm10":24.7,"pm2_5":20.4,"no2":13.9,"co":411.0,"o3":44.0,"so2":2.1,"mosquito_risk":3,"arthritis_risk":10,"migraine_risk":7,"frizz_risk":1,"updated_at":"2026-06-09T21:28:08.533144+05:30"},{"city":"Gangtok","state":"Sikkim","latitude":27.3314,"longitude":88.6138,"temp":17.0,"humidity":94,"rain":0.4,"pressure":834.2,"uv_index":8.95,"wind_gusts":34.6,"aqi":108,"pm10":32.2,"pm2_5":24.2,"no2":13.3,"co":413.0,"o3":116.0,"so2":4.3,"mosquito_risk":6,"arthritis_risk":10,"migraine_risk":7,"frizz_risk":0,"updated_at":"2026-06-09T21:28:08.533152+05:30"},{"city":"Siliguri","state":"West Bengal","latitude":26.7271,"longitude":88.3953,"temp":24.4,"humidity":96,"rain":0.1,"pressure":988.4,"uv_index":8.75,"wind_gusts":23.0,"aqi":135,"pm10":54.1,"pm2_5":41.6,"no2":14.8,"co":720.0,"o3":115.0,"so2":8.8,"mosquito_risk":6,"arthritis_risk":5,"migraine_risk":7,"frizz_risk":1,"updated_at":"2026-06-09T21:28:11.920151+05:30"},{"city":"Durgapur","state":"West Bengal","latitude":23.5204,"longitude":87.3119,"temp":29.3,"humidity":82,"rain":0.0,"pressure":989.0,"uv_index":8.85,"wind_gusts":33.8,"aqi":190,"pm10":117.3,"pm2_5":99.7,"no2":39.2,"co":976.0,"o3":111.0,"so2":69.9,"mosquito_risk":7,"arthritis_risk":5,"migraine_risk":7,"frizz_risk":1,"updated_at":"2026-06-09T21:28:11.920185+05:30"},{"city":"Asansol","state":"West Bengal","latitude":23.6739,"longitude":86.9524,"temp":30.1,"humidity":63,"rain":0.0,"pressure":987.3,"uv_index":8.8,"wind_gusts":43.2,"aqi":158,"pm10":116.2,"pm2_5":83.8,"no2":41.7,"co":774.0,"o3":87.0,"so2":52.5,"mosquito_risk":3,"arthritis_risk":5,"migraine_risk":7,"frizz_risk":1,"updated_at":"2026-06-09T21:28:11.920196+05:30"},{"city":"Pondicherry","state":"Puducherry","latitude":11.9139,"longitude":79.8145,"temp":32.4,"humidity":53,"rain":0.0,"pressure":1006.7,"uv_index":8.1,"wind_gusts":49.7,"aqi":50,"pm10":9.7,"pm2_5":9.3,"no2":13.7,"co":322.0,"o3":73.0,"so2":9.6,"mosquito_risk":0,"arthritis_risk":5,"migraine_risk":4,"frizz_risk":1,"updated_at":"2026-06-09T21:28:11.920205+05:30"},{"city":"Port Blair","state":"Andaman and Nicobar Islands","latitude":11.6234,"longitude":92.7265,"temp":25.0,"humidity":98,"rain":0.1,"pressure":1008.1,"uv_index":8.75,"wind_gusts":47.5,"aqi":26,"pm10":8.5,"pm2_5":4.8,"no2":0.4,"co":98.0,"o3":61.0,"so2":0.4,"mosquito_risk":10,"arthritis_risk":0,"migraine_risk":4,"frizz_risk":1,"updated_at":"2026-06-09T21:28:11.920214+05:30"},{"city":"Haridwar","state":"Uttarakhand","latitude":29.9457,"longitude":78.1642,"temp":29.8,"humidity":45,"rain":0.0,"pressure":964.6,"uv_index":7.65,"wind_gusts":33.5,"aqi":175,"pm10":102.9,"pm2_5":46.6,"no2":20.1,"co":329.0,"o3":140.0,"so2":15.2,"mosquito_risk":4,"arthritis_risk":5,"migraine_risk":7,"frizz_risk":1,"updated_at":"2026-06-09T21:28:11.920223+05:30"},{"city":"Rishikesh","state":"Uttarakhand","latitude":30.0869,"longitude":78.2676,"temp":28.0,"humidity":50,"rain":0.0,"pressure":957.3,"uv_index":7.75,"wind_gusts":23.8,"aqi":174,"pm10":45.2,"pm2_5":30.0,"no2":9.0,"co":392.0,"o3":177.0,"so2":12.3,"mosquito_risk":4,"arthritis_risk":5,"migraine_risk":7,"frizz_risk":1,"updated_at":"2026-06-09T21:28:11.920231+05:30"},{"city":"Nainital","state":"Uttarakhand","latitude":29.3919,"longitude":79.4542,"temp":18.4,"humidity":60,"rain":0.0,"pressure":801.7,"uv_index":8.6,"wind_gusts":42.1,"aqi":164,"pm10":48.8,"pm2_5":31.4,"no2":11.3,"co":345.0,"o3":140.0,"so2":8.2,"mosquito_risk":0,"arthritis_risk":5,"migraine_risk":7,"frizz_risk":0,"updated_at":"2026-06-09T21:28:11.920239+05:30"},{"city":"Mussoorie","state":"Uttarakhand","latitude":30.4599,"longitude":78.0664,"temp":18.8,"humidity":54,"rain":0.0,"pressure":799.0,"uv_index":8.15,"wind_gusts":53.6,"aqi":181,"pm10":46.1,"pm2_5":30.5,"no2":18.3,"co":327.0,"o3":148.0,"so2":13.0,"mosquito_risk":0,"arthritis_risk":5,"migraine_risk":7,"frizz_risk":0,"updated_at":"2026-06-09T21:28:11.920248+05:30"},{"city":"Dharamshala","state":"Himachal Pradesh","latitude":32.219,"longitude":76.3234,"temp":24.5,"humidity":35,"rain":0.0,"pressure":864.0,"uv_index":8.5,"wind_gusts":46.4,"aqi":128,"pm10":18.3,"pm2_5":16.1,"no2":14.9,"co":266.0,"o3":68.0,"so2":0.9,"mosquito_risk":0,"arthritis_risk":5,"migraine_risk":7,"frizz_risk":0,"updated_at":"2026-06-09T21:28:11.920255+05:30"},{"city":"Dalhousie","state":"Himachal Pradesh","latitude":32.5387,"longitude":75.971,"temp":15.2,"humidity":70,"rain":0.0,"pressure":799.0,"uv_index":8.75,"wind_gusts":38.2,"aqi":155,"pm10":38.4,"pm2_5":32.2,"no2":40.7,"co":515.0,"o3":82.0,"so2":3.6,"mosquito_risk":3,"arthritis_risk":5,"migraine_risk":7,"frizz_risk":0,"updated_at":"2026-06-09T21:28:11.920264+05:30"},{"city":"Patiala","state":"Punjab","latitude":30.3398,"longitude":76.3869,"temp":36.0,"humidity":27,"rain":0.0,"pressure":969.0,"uv_index":7.65,"wind_gusts":41.0,"aqi":352,"pm10":506.6,"pm2_5":99.7,"no2":14.9,"co":301.0,"o3":106.0,"so2":8.8,"mosquito_risk":0,"arthritis_risk":5,"migraine_risk":10,"frizz_risk":0,"updated_at":"2026-06-09T21:28:11.920272+05:30"},{"city":"Bhatinda","state":"Punjab","latitude":30.211,"longitude":74.9455,"temp":36.4,"humidity":32,"rain":0.0,"pressure":973.8,"uv_index":8.35,"wind_gusts":36.4,"aqi":115,"pm10":129.5,"pm2_5":61.9,"no2":36.5,"co":506.0,"o3":57.0,"so2":8.0,"mosquito_risk":0,"arthritis_risk":5,"migraine_risk":10,"frizz_risk":1,"updated_at":"2026-06-09T21:28:11.920280+05:30"},{"city":"Rohtak","state":"Haryana","latitude":28.8955,"longitude":76.6066,"temp":33.7,"humidity":39,"rain":0.0,"pressure":972.6,"uv_index":7.85,"wind_gusts":34.2,"aqi":614,"pm10":566.2,"pm2_5":124.8,"no2":53.7,"co":749.0,"o3":44.0,"so2":12.2,"mosquito_risk":0,"arthritis_risk":5,"migraine_risk":7,"frizz_risk":1,"updated_at":"2026-06-09T21:28:11.920288+05:30"},{"city":"Panipat","state":"Haryana","latitude":29.3909,"longitude":76.9635,"temp":33.0,"humidity":34,"rain":0.0,"pressure":970.9,"uv_index":7.7,"wind_gusts":32.8,"aqi":924,"pm10":1050.5,"pm2_5":194.6,"no2":31.2,"co":379.0,"o3":72.0,"so2":9.5,"mosquito_risk":0,"arthritis_risk":5,"migraine_risk":7,"frizz_risk":0,"updated_at":"2026-06-09T21:28:11.920295+05:30"},{"city":"Mathura","state":"Uttar Pradesh","latitude":27.4924,"longitude":77.6737,"temp":33.6,"humidity":44,"rain":0.0,"pressure":978.0,"uv_index":8.1,"wind_gusts":49.7,"aqi":664,"pm10":540.2,"pm2_5":120.1,"no2":46.7,"co":804.0,"o3":34.0,"so2":7.9,"mosquito_risk":0,"arthritis_risk":5,"migraine_risk":7,"frizz_risk":1,"updated_at":"2026-06-09T21:28:11.920303+05:30"},{"city":"Vrindavan","state":"Uttar Pradesh","latitude":27.5823,"longitude":77.7027,"temp":34.3,"humidity":45,"rain":0.0,"pressure":978.4,"uv_index":8.05,"wind_gusts":49.3,"aqi":664,"pm10":540.2,"pm2_5":120.1,"no2":46.7,"co":635.0,"o3":34.0,"so2":7.9,"mosquito_risk":0,"arthritis_risk":5,"migraine_risk":7,"frizz_risk":1,"updated_at":"2026-06-09T21:28:11.920311+05:30"},{"city":"Ayodhya","state":"Uttar Pradesh","latitude":26.7922,"longitude":82.1998,"temp":31.8,"humidity":58,"rain":0.0,"pressure":987.3,"uv_index":8.45,"wind_gusts":25.6,"aqi":155,"pm10":172.3,"pm2_5":78.7,"no2":40.8,"co":440.0,"o3":72.0,"so2":15.0,"mosquito_risk":0,"arthritis_risk":5,"migraine_risk":7,"frizz_risk":1,"updated_at":"2026-06-09T21:28:11.920319+05:30"},{"city":"Ratlam","state":"Madhya Pradesh","latitude":23.3315,"longitude":75.0367,"temp":31.7,"humidity":52,"rain":0.0,"pressure":950.5,"uv_index":8.55,"wind_gusts":44.6,"aqi":80,"pm10":48.4,"pm2_5":29.5,"no2":3.3,"co":161.0,"o3":92.0,"so2":4.4,"mosquito_risk":0,"arthritis_risk":5,"migraine_risk":7,"frizz_risk":1,"updated_at":"2026-06-09T21:28:11.920328+05:30"},{"city":"Sagar","state":"Madhya Pradesh","latitude":23.8388,"longitude":78.7378,"temp":31.9,"humidity":45,"rain":0.0,"pressure":945.2,"uv_index":8.05,"wind_gusts":41.4,"aqi":77,"pm10":50.5,"pm2_5":27.1,"no2":7.3,"co":183.0,"o3":80.0,"so2":3.8,"mosquito_risk":0,"arthritis_risk":5,"migraine_risk":7,"frizz_risk":1,"updated_at":"2026-06-09T21:28:11.920335+05:30"},{"city":"Satna","state":"Madhya Pradesh","latitude":24.6005,"longitude":80.8322,"temp":33.2,"humidity":44,"rain":0.0,"pressure":965.1,"uv_index":8.8,"wind_gusts":43.9,"aqi":75,"pm10":58.8,"pm2_5":28.9,"no2":12.9,"co":209.0,"o3":71.0,"so2":3.7,"mosquito_risk":0,"arthritis_risk":5,"migraine_risk":7,"frizz_risk":1,"updated_at":"2026-06-09T21:28:11.920343+05:30"},{"city":"Akola","state":"Maharashtra","latitude":20.7002,"longitude":77.0082,"temp":35.8,"humidity":29,"rain":0.0,"pressure":970.4,"uv_index":8.8,"wind_gusts":42.8,"aqi":78,"pm10":44.8,"pm2_5":24.9,"no2":10.3,"co":202.0,"o3":84.0,"so2":5.8,"mosquito_risk":0,"arthritis_risk":5,"migraine_risk":10,"frizz_risk":0,"updated_at":"2026-06-09T21:28:11.920353+05:30"},{"city":"Amravati","state":"Maharashtra","latitude":20.9374,"longitude":77.7796,"temp":34.4,"humidity":39,"rain":0.0,"pressure":963.1,"uv_index":8.85,"wind_gusts":43.9,"aqi":80,"pm10":44.0,"pm2_5":25.0,"no2":11.1,"co":221.0,"o3":82.0,"so2":6.4,"mosquito_risk":0,"arthritis_risk":5,"migraine_risk":7,"frizz_risk":1,"updated_at":"2026-06-09T21:28:11.920361+05:30"},{"city":"Latur","state":"Maharashtra","latitude":18.4088,"longitude":76.5604,"temp":28.1,"humidity":64,"rain":0.0,"pressure":937.7,"uv_index":7.8,"wind_gusts":36.0,"aqi":69,"pm10":48.9,"pm2_5":28.0,"no2":8.9,"co":189.0,"o3":72.0,"so2":2.7,"mosquito_risk":7,"arthritis_risk":5,"migraine_risk":7,"frizz_risk":1,"updated_at":"2026-06-09T21:28:11.920368+05:30"},{"city":"Nanded","state":"Maharashtra","latitude":19.1383,"longitude":77.3091,"temp":31.0,"humidity":55,"rain":0.0,"pressure":964.9,"uv_index":8.9,"wind_gusts":36.4,"aqi":84,"pm10":61.5,"pm2_5":32.8,"no2":16.8,"co":238.0,"o3":64.0,"so2":5.4,"mosquito_risk":0,"arthritis_risk":5,"migraine_risk":7,"frizz_risk":1,"updated_at":"2026-06-09T21:28:11.920376+05:30"},{"city":"Gulbarga","state":"Karnataka","latitude":17.3297,"longitude":76.8343,"temp":26.5,"humidity":80,"rain":0.0,"pressure":957.2,"uv_index":5.05,"wind_gusts":41.0,"aqi":52,"pm10":16.6,"pm2_5":11.0,"no2":6.2,"co":207.0,"o3":84.0,"so2":1.9,"mosquito_risk":7,"arthritis_risk":5,"migraine_risk":3,"frizz_risk":1,"updated_at":"2026-06-09T21:28:11.920384+05:30"},{"city":"Bidar","state":"Karnataka","latitude":17.9104,"longitude":77.5199,"temp":24.4,"humidity":89,"rain":0.1,"pressure":933.3,"uv_index":5.35,"wind_gusts":38.5,"aqi":72,"pm10":30.9,"pm2_5":21.8,"no2":15.2,"co":174.0,"o3":68.0,"so2":3.2,"mosquito_risk":6,"arthritis_risk":5,"migraine_risk":3,"frizz_risk":1,"updated_at":"2026-06-09T21:28:11.920391+05:30"},{"city":"Hospet","state":"Karnataka","latitude":15.2689,"longitude":76.3909,"temp":25.1,"humidity":79,"rain":0.0,"pressure":955.4,"uv_index":8.1,"wind_gusts":43.6,"aqi":33,"pm10":5.2,"pm2_5":4.3,"no2":8.8,"co":162.0,"o3":48.0,"so2":1.7,"mosquito_risk":7,"arthritis_risk":5,"migraine_risk":7,"frizz_risk":1,"updated_at":"2026-06-09T21:28:11.920398+05:30"},{"city":"Tirupur","state":"Tamil Nadu","latitude":11.1085,"longitude":77.3411,"temp":24.0,"humidity":89,"rain":0.0,"pressure":975.8,"uv_index":5.2,"wind_gusts":59.4,"aqi":28,"pm10":8.4,"pm2_5":8.1,"no2":16.5,"co":196.0,"o3":37.0,"so2":4.6,"mosquito_risk":3,"arthritis_risk":5,"migraine_risk":3,"frizz_risk":1,"updated_at":"2026-06-09T21:28:11.920405+05:30"},{"city":"Alappuzha","state":"Kerala","latitude":9.4981,"longitude":76.3388,"temp":26.7,"humidity":91,"rain":0.1,"pressure":1011.0,"uv_index":8.35,"wind_gusts":44.3,"aqi":33,"pm10":14.7,"pm2_5":9.4,"no2":7.9,"co":85.0,"o3":42.0,"so2":1.9,"mosquito_risk":10,"arthritis_risk":0,"migraine_risk":4,"frizz_risk":1,"updated_at":"2026-06-09T21:28:11.920412+05:30"},{"city":"Munnar","state":"Kerala","latitude":10.0889,"longitude":77.0595,"temp":17.4,"humidity":100,"rain":0.2,"pressure":857.5,"uv_index":2.15,"wind_gusts":52.9,"aqi":23,"pm10":3.6,"pm2_5":3.5,"no2":10.1,"co":121.0,"o3":27.0,"so2":1.8,"mosquito_risk":6,"arthritis_risk":10,"migraine_risk":3,"frizz_risk":1,"updated_at":"2026-06-09T21:28:11.920420+05:30"},{"city":"Silchar","state":"Assam","latitude":24.8333,"longitude":92.7789,"temp":26.3,"humidity":88,"rain":0.0,"pressure":1001.4,"uv_index":8.7,"wind_gusts":19.1,"aqi":75,"pm10":44.8,"pm2_5":33.2,"no2":10.2,"co":524.0,"o3":80.0,"so2":6.2,"mosquito_risk":7,"arthritis_risk":5,"migraine_risk":4,"frizz_risk":1,"updated_at":"2026-06-09T21:28:11.920427+05:30"},{"city":"Dibrugarh","state":"Assam","latitude":27.4728,"longitude":94.912,"temp":25.4,"humidity":97,"rain":0.0,"pressure":991.5,"uv_index":7.6,"wind_gusts":28.8,"aqi":88,"pm10":21.0,"pm2_5":18.6,"no2":8.8,"co":307.0,"o3":90.0,"so2":2.0,"mosquito_risk":7,"arthritis_risk":5,"migraine_risk":7,"frizz_risk":1,"updated_at":"2026-06-09T21:28:11.920436+05:30"}]