[{"city":"Delhi","state":"Delhi","latitude":28.6139,"longitude":77.209,"temp":30.6,"humidity":55,"rain":0.0,"pressure":991.3,"uv_index":6.05,"wind_gusts":22.3,"aqi":469,"pm10":362.3,"pm2_5":129.0,"mosquito_risk":0,"arthritis_risk":5,"migraine_risk":7,"frizz_risk":1,"updated_at":"2026-03-10T11:19:26.260499+05:30"},{"city":"Mumbai","state":"Maharashtra","latitude":19.076,"longitude":72.8777,"temp":30.6,"humidity":48,"rain":0.0,"pressure":1012.2,"uv_index":7.55,"wind_gusts":17.3,"aqi":110,"pm10":55.3,"pm2_5":53.0,"mosquito_risk":0,"arthritis_risk":0,"migraine_risk":4,"frizz_risk":1,"updated_at":"2026-03-10T11:19:26.260551+05:30"},{"city":"Bangalore","state":"Karnataka","latitude":12.9716,"longitude":77.5946,"temp":27.3,"humidity":30,"rain":0.0,"pressure":917.2,"uv_index":9.25,"wind_gusts":32.8,"aqi":118,"pm10":46.8,"pm2_5":32.8,"mosquito_risk":4,"arthritis_risk":5,"migraine_risk":7,"frizz_risk":0,"updated_at":"2026-03-10T11:19:26.260568+05:30"},{"city":"Hyderabad","state":"Telangana","latitude":17.385,"longitude":78.4867,"temp":31.0,"humidity":44,"rain":0.0,"pressure":960.1,"uv_index":8.6,"wind_gusts":30.6,"aqi":126,"pm10":64.0,"pm2_5":49.0,"mosquito_risk":0,"arthritis_risk":5,"migraine_risk":7,"frizz_risk":1,"updated_at":"2026-03-10T11:19:26.260578+05:30"},{"city":"Chennai","state":"Tamil Nadu","latitude":13.0827,"longitude":80.2707,"temp":30.5,"humidity":56,"rain":0.0,"pressure":1014.2,"uv_index":8.95,"wind_gusts":34.2,"aqi":96,"pm10":28.1,"pm2_5":21.6,"mosquito_risk":0,"arthritis_risk":0,"migraine_risk":4,"frizz_risk":1,"updated_at":"2026-03-10T11:19:26.260587+05:30"},{"city":"Kolkata","state":"West Bengal","latitude":22.5726,"longitude":88.3639,"temp":28.1,"humidity":73,"rain":0.0,"pressure":1014.3,"uv_index":4.85,"wind_gusts":13.7,"aqi":115,"pm10":50.8,"pm2_5":37.6,"mosquito_risk":7,"arthritis_risk":0,"migraine_risk":0,"frizz_risk":1,"updated_at":"2026-03-10T11:19:26.260596+05:30"},{"city":"Pune","state":"Maharashtra","latitude":18.5204,"longitude":73.8567,"temp":33.7,"humidity":31,"rain":0.0,"pressure":954.2,"uv_index":8.1,"wind_gusts":37.4,"aqi":62,"pm10":41.1,"pm2_5":34.2,"mosquito_risk":0,"arthritis_risk":5,"migraine_risk":7,"frizz_risk":0,"updated_at":"2026-03-10T11:19:26.260610+05:30"},{"city":"Ahmedabad","state":"Gujarat","latitude":23.0225,"longitude":72.5714,"temp":34.7,"humidity":23,"rain":0.0,"pressure":1009.1,"uv_index":7.4,"wind_gusts":15.8,"aqi":55,"pm10":19.6,"pm2_5":18.0,"mosquito_risk":0,"arthritis_risk":0,"migraine_risk":4,"frizz_risk":0,"updated_at":"2026-03-10T11:19:26.260618+05:30"},{"city":"Jaipur","state":"Rajasthan","latitude":26.9124,"longitude":75.7873,"temp":33.9,"humidity":26,"rain":0.0,"pressure":968.6,"uv_index":6.85,"wind_gusts":22.0,"aqi":80,"pm10":140.2,"pm2_5":33.8,"mosquito_risk":0,"arthritis_risk":5,"migraine_risk":7,"frizz_risk":0,"updated_at":"2026-03-10T11:19:26.260626+05:30"},{"city":"Lucknow","state":"Uttar Pradesh","latitude":26.8467,"longitude":80.9462,"temp":29.7,"humidity":63,"rain":0.0,"pressure":1002.3,"uv_index":6.55,"wind_gusts":20.2,"aqi":172,"pm10":124.8,"pm2_5":115.0,"mosquito_risk":7,"arthritis_risk":5,"migraine_risk":4,"frizz_risk":1,"updated_at":"2026-03-10T11:19:26.260635+05:30"},{"city":"Kanpur","state":"Uttar Pradesh","latitude":26.4499,"longitude":80.3319,"temp":30.0,"humidity":64,"rain":0.0,"pressure":1000.3,"uv_index":6.6,"wind_gusts":15.5,"aqi":165,"pm10":204.9,"pm2_5":122.9,"mosquito_risk":7,"arthritis_risk":5,"migraine_risk":4,"frizz_risk":1,"updated_at":"2026-03-10T11:19:26.260642+05:30"},{"city":"Chandigarh","state":"Chandigarh","latitude":30.7333,"longitude":76.7794,"temp":27.9,"humidity":69,"rain":0.0,"pressure":977.4,"uv_index":5.95,"wind_gusts":19.1,"aqi":118,"pm10":102.2,"pm2_5":52.0,"mosquito_risk":7,"arthritis_risk":5,"migraine_risk":3,"frizz_risk":1,"updated_at":"2026-03-10T11:19:26.260650+05:30"},{"city":"Srinagar","state":"Jammu and Kashmir","latitude":34.0837,"longitude":74.7973,"temp":14.7,"humidity":73,"rain":0.0,"pressure":851.1,"uv_index":3.8,"wind_gusts":22.3,"aqi":114,"pm10":48.8,"pm2_5":34.2,"mosquito_risk":3,"arthritis_risk":5,"migraine_risk":3,"frizz_risk":0,"updated_at":"2026-03-10T11:19:26.260658+05:30"},{"city":"Jammu","state":"Jammu and Kashmir","latitude":32.7266,"longitude":74.857,"temp":23.4,"humidity":69,"rain":0.0,"pressure":981.4,"uv_index":6.05,"wind_gusts":38.2,"aqi":97,"pm10":48.9,"pm2_5":38.3,"mosquito_risk":3,"arthritis_risk":5,"migraine_risk":7,"frizz_risk":1,"updated_at":"2026-03-10T11:19:26.260666+05:30"},{"city":"Amritsar","state":"Punjab","latitude":31.634,"longitude":74.8723,"temp":28.1,"humidity":72,"rain":0.0,"pressure":989.7,"uv_index":6.0,"wind_gusts":26.6,"aqi":163,"pm10":85.4,"pm2_5":67.8,"mosquito_risk":7,"arthritis_risk":5,"migraine_risk":3,"frizz_risk":1,"updated_at":"2026-03-10T11:19:26.260673+05:30"},{"city":"Ludhiana","state":"Punjab","latitude":30.901,"longitude":75.8573,"temp":29.2,"humidity":64,"rain":0.0,"pressure":987.3,"uv_index":5.6,"wind_gusts":18.4,"aqi":167,"pm10":133.6,"pm2_5":95.9,"mosquito_risk":7,"arthritis_risk":5,"migraine_risk":3,"frizz_risk":1,"updated_at":"2026-03-10T11:19:26.260679+05:30"},{"city":"Jalandhar","state":"Punjab","latitude":31.326,"longitude":75.5762,"temp":29.3,"humidity":65,"rain":0.0,"pressure":988.4,"uv_index":6.2,"wind_gusts":25.9,"aqi":166,"pm10":110.6,"pm2_5":87.5,"mosquito_risk":7,"arthritis_risk":5,"migraine_risk":7,"frizz_risk":1,"updated_at":"2026-03-10T11:19:26.260688+05:30"},{"city":"Dehradun","state":"Uttarakhand","latitude":30.6284,"longitude":78.0322,"temp":21.3,"humidity":53,"rain":0.0,"pressure":839.0,"uv_index":6.4,"wind_gusts":28.1,"aqi":73,"pm10":29.4,"pm2_5":13.0,"mosquito_risk":0,"arthritis_risk":5,"migraine_risk":7,"frizz_risk":0,"updated_at":"2026-03-10T11:19:26.260695+05:30"},{"city":"Shimla","state":"Himachal Pradesh","latitude":31.1048,"longitude":77.1734,"temp":20.9,"humidity":43,"rain":0.0,"pressure":794.2,"uv_index":6.05,"wind_gusts":34.6,"aqi":79,"pm10":41.9,"pm2_5":15.2,"mosquito_risk":0,"arthritis_risk":5,"migraine_risk":7,"frizz_risk":0,"updated_at":"2026-03-10T11:19:26.260702+05:30"},{"city":"Manali","state":"Himachal Pradesh","latitude":32.2396,"longitude":77.1887,"temp":22.4,"humidity":20,"rain":0.0,"pressure":829.3,"uv_index":7.35,"wind_gusts":41.4,"aqi":52,"pm10":28.3,"pm2_5":10.9,"mosquito_risk":0,"arthritis_risk":5,"migraine_risk":7,"frizz_risk":1,"updated_at":"2026-03-10T11:19:26.260709+05:30"},{"city":"Gurgaon","state":"Haryana","latitude":28.4595,"longitude":77.0266,"temp":30.5,"humidity":56,"rain":0.0,"pressure":989.7,"uv_index":5.7,"wind_gusts":20.5,"aqi":625,"pm10":551.3,"pm2_5":140.6,"mosquito_risk":0,"arthritis_risk":5,"migraine_risk":3,"frizz_risk":1,"updated_at":"2026-03-10T11:19:26.260716+05:30"},{"city":"Noida","state":"Uttar Pradesh","latitude":28.5355,"longitude":77.391,"temp":30.6,"humidity":56,"rain":0.0,"pressure":992.9,"uv_index":6.05,"wind_gusts":22.7,"aqi":625,"pm10":551.3,"pm2_5":140.6,"mosquito_risk":0,"arthritis_risk":5,"migraine_risk":7,"frizz_risk":1,"updated_at":"2026-03-10T11:19:26.260723+05:30"},{"city":"Ghaziabad","state":"Uttar Pradesh","latitude":28.6692,"longitude":77.4538,"temp":29.4,"humidity":65,"rain":0.0,"pressure":991.2,"uv_index":5.95,"wind_gusts":16.9,"aqi":289,"pm10":183.5,"pm2_5":106.4,"mosquito_risk":7,"arthritis_risk":5,"migraine_risk":3,"frizz_risk":1,"updated_at":"2026-03-10T11:19:26.260731+05:30"},{"city":"Faridabad","state":"Haryana","latitude":28.4089,"longitude":77.3178,"temp":30.5,"humidity":58,"rain":0.0,"pressure":992.1,"uv_index":5.95,"wind_gusts":22.3,"aqi":625,"pm10":551.3,"pm2_5":140.6,"mosquito_risk":0,"arthritis_risk":5,"migraine_risk":3,"frizz_risk":1,"updated_at":"2026-03-10T11:19:26.260737+05:30"},{"city":"Meerut","state":"Uttar Pradesh","latitude":28.9845,"longitude":77.7064,"temp":29.2,"humidity":65,"rain":0.0,"pressure":989.9,"uv_index":5.85,"wind_gusts":16.2,"aqi":289,"pm10":183.5,"pm2_5":106.4,"mosquito_risk":7,"arthritis_risk":5,"migraine_risk":3,"frizz_risk":1,"updated_at":"2026-03-10T11:19:26.260743+05:30"},{"city":"Agra","state":"Uttar Pradesh","latitude":27.1767,"longitude":78.0081,"temp":32.4,"humidity":47,"rain":0.0,"pressure":996.2,"uv_index":6.45,"wind_gusts":22.3,"aqi":190,"pm10":348.3,"pm2_5":105.9,"mosquito_risk":0,"arthritis_risk":5,"migraine_risk":7,"frizz_risk":1,"updated_at":"2026-03-10T11:19:26.260751+05:30"},{"city":"Varanasi","state":"Uttar Pradesh","latitude":25.3176,"longitude":82.9739,"temp":30.5,"humidity":63,"rain":0.0,"pressure":1005.8,"uv_index":7.25,"wind_gusts":14.8,"aqi":182,"pm10":118.0,"pm2_5":110.6,"mosquito_risk":3,"arthritis_risk":5,"migraine_risk":4,"frizz_risk":1,"updated_at":"2026-03-10T11:19:26.260760+05:30"},{"city":"Prayagraj","state":"Uttar Pradesh","latitude":25.4358,"longitude":81.8463,"temp":30.4,"humidity":62,"rain":0.0,"pressure":1004.2,"uv_index":7.1,"wind_gusts":14.4,"aqi":179,"pm10":121.5,"pm2_5":113.2,"mosquito_risk":3,"arthritis_risk":5,"migraine_risk":4,"frizz_risk":1,"updated_at":"2026-03-10T11:19:26.260768+05:30"},{"city":"Gorakhpur","state":"Uttar Pradesh","latitude":26.7606,"longitude":83.3732,"temp":29.1,"humidity":62,"rain":0.0,"pressure":1006.3,"uv_index":6.95,"wind_gusts":20.2,"aqi":195,"pm10":110.6,"pm2_5":99.4,"mosquito_risk":7,"arthritis_risk":5,"migraine_risk":4,"frizz_risk":1,"updated_at":"2026-03-10T11:19:26.260776+05:30"},{"city":"Bareilly","state":"Uttar Pradesh","latitude":28.367,"longitude":79.4304,"temp":28.3,"humidity":72,"rain":0.0,"pressure":995.8,"uv_index":5.9,"wind_gusts":18.0,"aqi":175,"pm10":170.9,"pm2_5":146.2,"mosquito_risk":7,"arthritis_risk":5,"migraine_risk":3,"frizz_risk":1,"updated_at":"2026-03-10T11:19:26.260783+05:30"},{"city":"Aligarh","state":"Uttar Pradesh","latitude":27.8974,"longitude":78.088,"temp":30.8,"humidity":57,"rain":0.0,"pressure":994.0,"uv_index":6.15,"wind_gusts":22.0,"aqi":189,"pm10":217.0,"pm2_5":109.4,"mosquito_risk":0,"arthritis_risk":5,"migraine_risk":7,"frizz_risk":1,"updated_at":"2026-03-10T11:19:26.260790+05:30"},{"city":"Moradabad","state":"Uttar Pradesh","latitude":28.8386,"longitude":78.7733,"temp":28.0,"humidity":72,"rain":0.0,"pressure":992.5,"uv_index":5.25,"wind_gusts":23.4,"aqi":175,"pm10":154.6,"pm2_5":136.0,"mosquito_risk":7,"arthritis_risk":5,"migraine_risk":3,"frizz_risk":1,"updated_at":"2026-03-10T11:19:26.260799+05:30"},{"city":"Saharanpur","state":"Uttar Pradesh","latitude":29.9637,"longitude":77.546,"temp":28.0,"humidity":69,"rain":0.0,"pressure":984.5,"uv_index":5.65,"wind_gusts":19.4,"aqi":163,"pm10":127.6,"pm2_5":89.2,"mosquito_risk":7,"arthritis_risk":5,"migraine_risk":3,"frizz_risk":1,"updated_at":"2026-03-10T11:19:26.260806+05:30"},{"city":"Jhansi","state":"Uttar Pradesh","latitude":25.4484,"longitude":78.5685,"temp":33.0,"humidity":38,"rain":0.0,"pressure":986.1,"uv_index":7.05,"wind_gusts":25.2,"aqi":87,"pm10":192.8,"pm2_5":57.5,"mosquito_risk":0,"arthritis_risk":5,"migraine_risk":7,"frizz_risk":1,"updated_at":"2026-03-10T11:19:29.521905+05:30"},{"city":"Surat","state":"Gujarat","latitude":21.1702,"longitude":72.8311,"temp":34.7,"humidity":31,"rain":0.0,"pressure":1012.1,"uv_index":7.3,"wind_gusts":23.4,"aqi":97,"pm10":43.2,"pm2_5":42.5,"mosquito_risk":0,"arthritis_risk":0,"migraine_risk":4,"frizz_risk":0,"updated_at":"2026-03-10T11:19:29.521939+05:30"},{"city":"Vadodara","state":"Gujarat","latitude":22.3072,"longitude":73.1812,"temp":36.9,"humidity":24,"rain":0.0,"pressure":1010.6,"uv_index":7.4,"wind_gusts":15.5,"aqi":68,"pm10":23.4,"pm2_5":22.2,"mosquito_risk":0,"arthritis_risk":0,"migraine_risk":7,"frizz_risk":0,"updated_at":"2026-03-10T11:19:29.521949+05:30"},{"city":"Rajkot","state":"Gujarat","latitude":22.3039,"longitude":70.8022,"temp":32.9,"humidity":34,"rain":0.0,"pressure":1001.4,"uv_index":7.25,"wind_gusts":33.1,"aqi":58,"pm10":29.8,"pm2_5":22.8,"mosquito_risk":0,"arthritis_risk":5,"migraine_risk":4,"frizz_risk":0,"updated_at":"2026-03-10T11:19:29.521958+05:30"},{"city":"Thane","state":"Maharashtra","latitude":19.2183,"longitude":72.9781,"temp":36.8,"humidity":21,"rain":0.0,"pressure":1011.9,"uv_index":7.55,"wind_gusts":32.0,"aqi":110,"pm10":55.3,"pm2_5":53.0,"mosquito_risk":0,"arthritis_risk":0,"migraine_risk":7,"frizz_risk":0,"updated_at":"2026-03-10T11:19:29.521964+05:30"},{"city":"Nagpur","state":"Maharashtra","latitude":21.1458,"longitude":79.0882,"temp":33.1,"humidity":29,"rain":0.0,"pressure":980.4,"uv_index":7.95,"wind_gusts":23.4,"aqi":72,"pm10":50.6,"pm2_5":43.0,"mosquito_risk":0,"arthritis_risk":5,"migraine_risk":7,"frizz_risk":0,"updated_at":"2026-03-10T11:19:29.521972+05:30"},{"city":"Nashik","state":"Maharashtra","latitude":19.9975,"longitude":73.7898,"temp":33.5,"humidity":19,"rain":0.0,"pressure":951.9,"uv_index":7.75,"wind_gusts":29.2,"aqi":52,"pm10":18.3,"pm2_5":14.1,"mosquito_risk":0,"arthritis_risk":5,"migraine_risk":7,"frizz_risk":0,"updated_at":"2026-03-10T11:19:29.521979+05:30"},{"city":"Aurangabad","state":"Maharashtra","latitude":19.8762,"longitude":75.3433,"temp":33.9,"humidity":22,"rain":0.0,"pressure":950.5,"uv_index":8.3,"wind_gusts":21.2,"aqi":72,"pm10":22.1,"pm2_5":16.1,"mosquito_risk":0,"arthritis_risk":5,"migraine_risk":7,"frizz_risk":0,"updated_at":"2026-03-10T11:19:29.521986+05:30"},{"city":"Solapur","state":"Maharashtra","latitude":17.6599,"longitude":75.9064,"temp":31.0,"humidity":50,"rain":0.0,"pressure":963.2,"uv_index":8.5,"wind_gusts":29.2,"aqi":87,"pm10":56.7,"pm2_5":47.3,"mosquito_risk":0,"arthritis_risk":5,"migraine_risk":7,"frizz_risk":1,"updated_at":"2026-03-10T11:19:29.521993+05:30"},{"city":"Kolhapur","state":"Maharashtra","latitude":16.705,"longitude":74.2433,"temp":30.5,"humidity":43,"rain":0.0,"pressure":953.2,"uv_index":8.6,"wind_gusts":40.7,"aqi":100,"pm10":57.2,"pm2_5":48.7,"mosquito_risk":0,"arthritis_risk":5,"migraine_risk":7,"frizz_risk":1,"updated_at":"2026-03-10T11:19:29.522000+05:30"},{"city":"Goa","state":"Goa","latitude":15.2993,"longitude":74.124,"temp":35.4,"humidity":37,"rain":0.0,"pressure":1001.6,"uv_index":8.6,"wind_gusts":37.4,"aqi":151,"pm10":60.3,"pm2_5":52.4,"mosquito_risk":0,"arthritis_risk":5,"migraine_risk":7,"frizz_risk":1,"updated_at":"2026-03-10T11:19:29.522007+05:30"},{"city":"Jodhpur","state":"Rajasthan","latitude":26.2389,"longitude":73.0243,"temp":34.0,"humidity":19,"rain":0.0,"pressure":991.7,"uv_index":7.15,"wind_gusts":23.0,"aqi":75,"pm10":102.7,"pm2_5":36.2,"mosquito_risk":0,"arthritis_risk":5,"migraine_risk":7,"frizz_risk":0,"updated_at":"2026-03-10T11:19:29.522014+05:30"},{"city":"Udaipur","state":"Rajasthan","latitude":24.5854,"longitude":73.7125,"temp":33.7,"humidity":15,"rain":0.0,"pressure":955.2,"uv_index":7.75,"wind_gusts":21.6,"aqi":37,"pm10":25.4,"pm2_5":8.6,"mosquito_risk":0,"arthritis_risk":5,"migraine_risk":7,"frizz_risk":0,"updated_at":"2026-03-10T11:19:29.522021+05:30"},{"city":"Kota","state":"Rajasthan","latitude":25.2138,"longitude":75.8648,"temp":33.8,"humidity":24,"rain":0.0,"pressure":987.3,"uv_index":7.15,"wind_gusts":13.7,"aqi":65,"pm10":67.8,"pm2_5":29.0,"mosquito_risk":0,"arthritis_risk":5,"migraine_risk":7,"frizz_risk":0,"updated_at":"2026-03-10T11:19:29.522028+05:30"},{"city":"Bikaner","state":"Rajasthan","latitude":28.0229,"longitude":73.3119,"temp":31.7,"humidity":27,"rain":0.0,"pressure":990.2,"uv_index":6.85,"wind_gusts":25.6,"aqi":59,"pm10":43.0,"pm2_5":25.1,"mosquito_risk":0,"arthritis_risk":5,"migraine_risk":7,"frizz_risk":0,"updated_at":"2026-03-10T11:19:29.522035+05:30"},{"city":"Ajmer","state":"Rajasthan","latitude":26.4499,"longitude":74.6399,"temp":33.4,"humidity":22,"rain":0.0,"pressure":963.2,"uv_index":7.1,"wind_gusts":21.6,"aqi":56,"pm10":155.1,"pm2_5":28.9,"mosquito_risk":0,"arthritis_risk":5,"migraine_risk":7,"frizz_risk":0,"updated_at":"2026-03-10T11:19:29.522041+05:30"},{"city":"Gwalior","state":"Madhya Pradesh","latitude":26.2183,"longitude":78.1828,"temp":32.1,"humidity":44,"rain":0.0,"pressure":991.5,"uv_index":6.75,"wind_gusts":24.5,"aqi":114,"pm10":281.3,"pm2_5":69.6,"mosquito_risk":0,"arthritis_risk":5,"migraine_risk":7,"frizz_risk":1,"updated_at":"2026-03-10T11:19:29.522047+05:30"},{"city":"Indore","state":"Madhya Pradesh","latitude":22.7196,"longitude":75.8577,"temp":33.9,"humidity":21,"rain":0.0,"pressure":955.7,"uv_index":7.65,"wind_gusts":26.3,"aqi":68,"pm10":14.1,"pm2_5":12.3,"mosquito_risk":0,"arthritis_risk":5,"migraine_risk":7,"frizz_risk":0,"updated_at":"2026-03-10T11:19:29.522055+05:30"},{"city":"Bhopal","state":"Madhya Pradesh","latitude":23.2599,"longitude":77.4126,"temp":34.2,"humidity":29,"rain":0.0,"pressure":961.5,"uv_index":7.55,"wind_gusts":23.8,"aqi":59,"pm10":16.5,"pm2_5":10.9,"mosquito_risk":0,"arthritis_risk":5,"migraine_risk":7,"frizz_risk":0,"updated_at":"2026-03-10T11:19:29.522061+05:30"},{"city":"Jabalpur","state":"Madhya Pradesh","latitude":23.1815,"longitude":79.9864,"temp":32.2,"humidity":35,"rain":0.0,"pressure":969.1,"uv_index":7.65,"wind_gusts":25.9,"aqi":79,"pm10":58.0,"pm2_5":28.3,"mosquito_risk":0,"arthritis_risk":5,"migraine_risk":7,"frizz_risk":0,"updated_at":"2026-03-10T11:19:29.522068+05:30"},{"city":"Ujjain","state":"Madhya Pradesh","latitude":23.1765,"longitude":75.7885,"temp":32.9,"humidity":28,"rain":0.0,"pressure":961.7,"uv_index":7.55,"wind_gusts":19.1,"aqi":87,"pm10":18.0,"pm2_5":16.3,"mosquito_risk":0,"arthritis_risk":5,"migraine_risk":7,"frizz_risk":0,"updated_at":"2026-03-10T11:19:29.522075+05:30"},{"city":"Visakhapatnam","state":"Andhra Pradesh","latitude":17.6868,"longitude":83.2185,"temp":30.8,"humidity":53,"rain":0.0,"pressure":1011.0,"uv_index":8.55,"wind_gusts":34.6,"aqi":132,"pm10":65.4,"pm2_5":49.1,"mosquito_risk":0,"arthritis_risk":0,"migraine_risk":4,"frizz_risk":1,"updated_at":"2026-03-10T11:19:29.522082+05:30"},{"city":"Vijayawada","state":"Andhra Pradesh","latitude":16.5062,"longitude":80.648,"temp":30.1,"humidity":54,"rain":0.0,"pressure":1010.3,"uv_index":8.6,"wind_gusts":21.6,"aqi":133,"pm10":49.6,"pm2_5":39.6,"mosquito_risk":0,"arthritis_risk":0,"migraine_risk":4,"frizz_risk":1,"updated_at":"2026-03-10T11:19:29.522089+05:30"},{"city":"Guntur","state":"Andhra Pradesh","latitude":16.3067,"longitude":80.4365,"temp":30.2,"humidity":53,"rain":0.0,"pressure":1011.4,"uv_index":8.65,"wind_gusts":24.8,"aqi":129,"pm10":50.2,"pm2_5":39.3,"mosquito_risk":0,"arthritis_risk":0,"migraine_risk":4,"frizz_risk":1,"updated_at":"2026-03-10T11:19:29.522095+05:30"},{"city":"Nellore","state":"Andhra Pradesh","latitude":14.4426,"longitude":79.9865,"temp":30.7,"humidity":49,"rain":0.0,"pressure":1013.2,"uv_index":8.85,"wind_gusts":29.9,"aqi":104,"pm10":35.7,"pm2_5":27.4,"mosquito_risk":0,"arthritis_risk":0,"migraine_risk":4,"frizz_risk":1,"updated_at":"2026-03-10T11:19:29.522102+05:30"},{"city":"Kurnool","state":"Andhra Pradesh","latitude":15.8281,"longitude":78.0373,"temp":32.0,"humidity":38,"rain":0.0,"pressure":983.4,"uv_index":8.65,"wind_gusts":32.4,"aqi":112,"pm10":57.3,"pm2_5":42.8,"mosquito_risk":0,"arthritis_risk":5,"migraine_risk":7,"frizz_risk":0,"updated_at":"2026-03-10T11:19:29.522110+05:30"},{"city":"Kakinada","state":"Andhra Pradesh","latitude":16.9891,"longitude":82.2475,"temp":30.5,"humidity":54,"rain":0.0,"pressure":1015.1,"uv_index":8.6,"wind_gusts":27.0,"aqi":115,"pm10":50.3,"pm2_5":36.8,"mosquito_risk":0,"arthritis_risk":0,"migraine_risk":4,"frizz_risk":1,"updated_at":"2026-03-10T11:19:29.522117+05:30"},{"city":"Tirupati","state":"Andhra Pradesh","latitude":13.6288,"longitude":79.4192,"temp":29.4,"humidity":45,"rain":0.0,"pressure":998.6,"uv_index":8.95,"wind_gusts":34.6,"aqi":145,"pm10":34.7,"pm2_5":28.1,"mosquito_risk":4,"arthritis_risk":5,"migraine_risk":7,"frizz_risk":1,"updated_at":"2026-03-10T11:19:29.522123+05:30"},{"city":"Warangal","state":"Telangana","latitude":17.9689,"longitude":79.5941,"temp":30.0,"humidity":59,"rain":0.0,"pressure":986.0,"uv_index":8.4,"wind_gusts":27.0,"aqi":133,"pm10":58.9,"pm2_5":47.7,"mosquito_risk":4,"arthritis_risk":5,"migraine_risk":7,"frizz_risk":1,"updated_at":"2026-03-10T11:19:29.522129+05:30"},{"city":"Nizamabad","state":"Telangana","latitude":18.6725,"longitude":78.0941,"temp":32.6,"humidity":44,"rain":0.0,"pressure":971.6,"uv_index":8.3,"wind_gusts":29.5,"aqi":125,"pm10":67.8,"pm2_5":58.0,"mosquito_risk":0,"arthritis_risk":5,"migraine_risk":7,"frizz_risk":1,"updated_at":"2026-03-10T11:19:29.522135+05:30"},{"city":"Mysore","state":"Karnataka","latitude":12.2958,"longitude":76.6396,"temp":28.7,"humidity":30,"rain":0.0,"pressure":933.4,"uv_index":9.25,"wind_gusts":36.7,"aqi":119,"pm10":54.4,"pm2_5":38.8,"mosquito_risk":4,"arthritis_risk":5,"migraine_risk":7,"frizz_risk":0,"updated_at":"2026-03-10T11:19:29.522141+05:30"},{"city":"Mangalore","state":"Karnataka","latitude":12.9141,"longitude":74.856,"temp":29.0,"humidity":80,"rain":0.0,"pressure":1010.5,"uv_index":8.9,"wind_gusts":33.5,"aqi":109,"pm10":46.7,"pm2_5":39.7,"mosquito_risk":7,"arthritis_risk":0,"migraine_risk":4,"frizz_risk":1,"updated_at":"2026-03-10T11:19:29.522147+05:30"},{"city":"Hubli-Dharwad","state":"Karnataka","latitude":15.3647,"longitude":75.124,"temp":31.5,"humidity":37,"rain":0.0,"pressure":946.0,"uv_index":8.8,"wind_gusts":43.9,"aqi":93,"pm10":59.3,"pm2_5":48.9,"mosquito_risk":0,"arthritis_risk":5,"migraine_risk":7,"frizz_risk":0,"updated_at":"2026-03-10T11:19:29.522153+05:30"},{"city":"Belgaum","state":"Karnataka","latitude":15.8497,"longitude":74.4977,"temp":31.1,"humidity":35,"rain":0.0,"pressure":930.9,"uv_index":8.85,"wind_gusts":45.4,"aqi":84,"pm10":55.8,"pm2_5":46.4,"mosquito_risk":0,"arthritis_risk":5,"migraine_risk":7,"frizz_risk":0,"updated_at":"2026-03-10T11:19:32.783894+05:30"},{"city":"Coimbatore","state":"Tamil Nadu","latitude":11.0168,"longitude":76.9558,"temp":29.3,"humidity":43,"rain":0.0,"pressure":967.1,"uv_index":9.25,"wind_gusts":43.2,"aqi":120,"pm10":48.9,"pm2_5":35.0,"mosquito_risk":4,"arthritis_risk":5,"migraine_risk":7,"frizz_risk":0,"updated_at":"2026-03-10T11:19:32.783929+05:30"},{"city":"Madurai","state":"Tamil Nadu","latitude":9.9252,"longitude":78.1198,"temp":31.7,"humidity":43,"rain":0.0,"pressure":998.1,"uv_index":9.2,"wind_gusts":43.6,"aqi":116,"pm10":34.8,"pm2_5":29.2,"mosquito_risk":0,"arthritis_risk":5,"migraine_risk":7,"frizz_risk":1,"updated_at":"2026-03-10T11:19:32.783939+05:30"},{"city":"Trichy","state":"Tamil Nadu","latitude":10.7905,"longitude":78.7047,"temp":30.9,"humidity":50,"rain":0.0,"pressure":1005.3,"uv_index":8.7,"wind_gusts":37.4,"aqi":117,"pm10":33.5,"pm2_5":28.9,"mosquito_risk":0,"arthritis_risk":5,"migraine_risk":4,"frizz_risk":1,"updated_at":"2026-03-10T11:19:32.783948+05:30"},{"city":"Salem","state":"Tamil Nadu","latitude":11.6643,"longitude":78.146,"temp":30.2,"humidity":43,"rain":0.0,"pressure":983.0,"uv_index":9.15,"wind_gusts":37.4,"aqi":137,"pm10":50.8,"pm2_5":38.1,"mosquito_risk":0,"arthritis_risk":5,"migraine_risk":7,"frizz_risk":1,"updated_at":"2026-03-10T11:19:32.783955+05:30"},{"city":"Tirunelveli","state":"Tamil Nadu","latitude":8.7139,"longitude":77.7567,"temp":32.0,"humidity":42,"rain":0.0,"pressure":1008.1,"uv_index":9.2,"wind_gusts":43.6,"aqi":95,"pm10":30.0,"pm2_5":24.7,"mosquito_risk":0,"arthritis_risk":0,"migraine_risk":4,"frizz_risk":1,"updated_at":"2026-03-10T11:19:32.783962+05:30"},{"city":"Vellore","state":"Tamil Nadu","latitude":12.9165,"longitude":79.1325,"temp":28.8,"humidity":48,"rain":0.0,"pressure":991.3,"uv_index":9.05,"wind_gusts":36.4,"aqi":147,"pm10":38.3,"pm2_5":31.5,"mosquito_risk":4,"arthritis_risk":5,"migraine_risk":7,"frizz_risk":1,"updated_at":"2026-03-10T11:19:32.783969+05:30"},{"city":"Erode","state":"Tamil Nadu","latitude":11.341,"longitude":77.7172,"temp":31.1,"humidity":40,"rain":0.0,"pressure":994.8,"uv_index":9.1,"wind_gusts":36.7,"aqi":121,"pm10":55.1,"pm2_5":42.1,"mosquito_risk":0,"arthritis_risk":5,"migraine_risk":7,"frizz_risk":0,"updated_at":"2026-03-10T11:19:32.783977+05:30"},{"city":"Kochi","state":"Kerala","latitude":9.9312,"longitude":76.2673,"temp":27.7,"humidity":80,"rain":0.0,"pressure":1012.7,"uv_index":9.05,"wind_gusts":40.3,"aqi":151,"pm10":61.9,"pm2_5":53.2,"mosquito_risk":7,"arthritis_risk":0,"migraine_risk":4,"frizz_risk":1,"updated_at":"2026-03-10T11:19:32.783984+05:30"},{"city":"Thiruvananthapuram","state":"Kerala","latitude":8.5241,"longitude":76.9366,"temp":28.4,"humidity":58,"rain":0.0,"pressure":1011.5,"uv_index":9.1,"wind_gusts":27.0,"aqi":124,"pm10":43.9,"pm2_5":34.8,"mosquito_risk":4,"arthritis_risk":0,"migraine_risk":4,"frizz_risk":1,"updated_at":"2026-03-10T11:19:32.783991+05:30"},{"city":"Kozhikode","state":"Kerala","latitude":11.2588,"longitude":75.7804,"temp":29.1,"humidity":68,"rain":0.0,"pressure":1011.9,"uv_index":8.95,"wind_gusts":24.1,"aqi":98,"pm10":53.8,"pm2_5":46.2,"mosquito_risk":7,"arthritis_risk":0,"migraine_risk":4,"frizz_risk":1,"updated_at":"2026-03-10T11:19:32.783997+05:30"},{"city":"Thrissur","state":"Kerala","latitude":10.5276,"longitude":76.2144,"temp":33.7,"humidity":36,"rain":0.0,"pressure":1010.7,"uv_index":9.0,"wind_gusts":36.7,"aqi":151,"pm10":49.7,"pm2_5":37.7,"mosquito_risk":0,"arthritis_risk":0,"migraine_risk":4,"frizz_risk":1,"updated_at":"2026-03-10T11:19:32.784005+05:30"},{"city":"Kannur","state":"Kerala","latitude":11.8745,"longitude":75.3704,"temp":29.3,"humidity":72,"rain":0.0,"pressure":1011.3,"uv_index":8.95,"wind_gusts":39.2,"aqi":95,"pm10":42.3,"pm2_5":36.6,"mosquito_risk":7,"arthritis_risk":0,"migraine_risk":4,"frizz_risk":1,"updated_at":"2026-03-10T11:19:32.784012+05:30"},{"city":"Patna","state":"Bihar","latitude":25.5941,"longitude":85.1376,"temp":30.5,"humidity":59,"rain":0.0,"pressure":1008.7,"uv_index":7.4,"wind_gusts":24.8,"aqi":177,"pm10":95.2,"pm2_5":87.8,"mosquito_risk":0,"arthritis_risk":0,"migraine_risk":4,"frizz_risk":1,"updated_at":"2026-03-10T11:19:32.784019+05:30"},{"city":"Gaya","state":"Bihar","latitude":24.7914,"longitude":85.0002,"temp":29.2,"humidity":70,"rain":0.0,"pressure":1001.8,"uv_index":7.5,"wind_gusts":15.8,"aqi":178,"pm10":74.3,"pm2_5":65.4,"mosquito_risk":7,"arthritis_risk":5,"migraine_risk":4,"frizz_risk":1,"updated_at":"2026-03-10T11:19:32.784025+05:30"},{"city":"Muzaffarpur","state":"Bihar","latitude":26.1209,"longitude":85.3647,"temp":31.0,"humidity":57,"rain":0.0,"pressure":1009.1,"uv_index":7.35,"wind_gusts":22.0,"aqi":177,"pm10":106.2,"pm2_5":98.5,"mosquito_risk":0,"arthritis_risk":0,"migraine_risk":4,"frizz_risk":1,"updated_at":"2026-03-10T11:19:32.784030+05:30"},{"city":"Bhagalpur","state":"Bihar","latitude":25.2425,"longitude":87.0117,"temp":30.7,"humidity":57,"rain":0.0,"pressure":1009.4,"uv_index":7.4,"wind_gusts":17.6,"aqi":167,"pm10":95.2,"pm2_5":82.9,"mosquito_risk":0,"arthritis_risk":0,"migraine_risk":4,"frizz_risk":1,"updated_at":"2026-03-10T11:19:32.784036+05:30"},{"city":"Ranchi","state":"Jharkhand","latitude":23.3441,"longitude":85.3096,"temp":29.1,"humidity":45,"rain":0.0,"pressure":944.7,"uv_index":8.15,"wind_gusts":24.1,"aqi":160,"pm10":73.6,"pm2_5":60.3,"mosquito_risk":4,"arthritis_risk":5,"migraine_risk":7,"frizz_risk":0,"updated_at":"2026-03-10T11:19:32.784042+05:30"},{"city":"Jamshedpur","state":"Jharkhand","latitude":22.8046,"longitude":86.2029,"temp":29.2,"humidity":66,"rain":0.0,"pressure":998.2,"uv_index":8.05,"wind_gusts":32.4,"aqi":143,"pm10":71.2,"pm2_5":58.4,"mosquito_risk":7,"arthritis_risk":5,"migraine_risk":7,"frizz_risk":1,"updated_at":"2026-03-10T11:19:32.784047+05:30"},{"city":"Dhanbad","state":"Jharkhand","latitude":23.7957,"longitude":86.4304,"temp":28.7,"humidity":59,"rain":0.0,"pressure":987.6,"uv_index":7.55,"wind_gusts":23.4,"aqi":171,"pm10":76.4,"pm2_5":67.5,"mosquito_risk":4,"arthritis_risk":5,"migraine_risk":7,"frizz_risk":1,"updated_at":"2026-03-10T11:19:32.784054+05:30"},{"city":"Bokaro","state":"Jharkhand","latitude":23.6693,"longitude":86.1511,"temp":28.7,"humidity":62,"rain":0.0,"pressure":991.7,"uv_index":7.95,"wind_gusts":19.4,"aqi":176,"pm10":83.1,"pm2_5":75.0,"mosquito_risk":7,"arthritis_risk":5,"migraine_risk":7,"frizz_risk":1,"updated_at":"2026-03-10T11:19:32.784060+05:30"},{"city":"Bhubaneswar","state":"Odisha","latitude":20.2961,"longitude":85.8245,"temp":31.1,"humidity":56,"rain":0.0,"pressure":1010.0,"uv_index":8.35,"wind_gusts":32.8,"aqi":102,"pm10":58.8,"pm2_5":45.1,"mosquito_risk":0,"arthritis_risk":0,"migraine_risk":4,"frizz_risk":1,"updated_at":"2026-03-10T11:19:32.784066+05:30"},{"city":"Cuttack","state":"Odisha","latitude":20.4625,"longitude":85.8828,"temp":31.8,"humidity":56,"rain":0.0,"pressure":1011.8,"uv_index":8.35,"wind_gusts":29.2,"aqi":102,"pm10":58.8,"pm2_5":45.1,"mosquito_risk":0,"arthritis_risk":0,"migraine_risk":4,"frizz_risk":1,"updated_at":"2026-03-10T11:19:32.784072+05:30"},{"city":"Rourkela","state":"Odisha","latitude":22.2604,"longitude":84.8536,"temp":31.9,"humidity":58,"rain":0.0,"pressure":992.0,"uv_index":7.95,"wind_gusts":22.3,"aqi":160,"pm10":84.5,"pm2_5":69.8,"mosquito_risk":0,"arthritis_risk":5,"migraine_risk":7,"frizz_risk":1,"updated_at":"2026-03-10T11:19:32.784078+05:30"},{"city":"Raipur","state":"Chhattisgarh","latitude":21.2514,"longitude":81.6296,"temp":32.9,"humidity":39,"rain":0.0,"pressure":981.8,"uv_index":8.05,"wind_gusts":14.8,"aqi":157,"pm10":88.2,"pm2_5":66.8,"mosquito_risk":0,"arthritis_risk":5,"migraine_risk":7,"frizz_risk":1,"updated_at":"2026-03-10T11:19:32.784084+05:30"},{"city":"Bhilai","state":"Chhattisgarh","latitude":21.1938,"longitude":81.3509,"temp":33.6,"humidity":37,"rain":0.0,"pressure":982.2,"uv_index":8.05,"wind_gusts":11.9,"aqi":152,"pm10":90.3,"pm2_5":68.0,"mosquito_risk":0,"arthritis_risk":5,"migraine_risk":7,"frizz_risk":1,"updated_at":"2026-03-10T11:19:32.784090+05:30"},{"city":"Guwahati","state":"Assam","latitude":26.1158,"longitude":91.7086,"temp":29.8,"humidity":62,"rain":0.0,"pressure":1009.6,"uv_index":7.3,"wind_gusts":11.2,"aqi":156,"pm10":86.4,"pm2_5":75.2,"mosquito_risk":7,"arthritis_risk":0,"migraine_risk":4,"frizz_risk":1,"updated_at":"2026-03-10T11:19:32.784096+05:30"},{"city":"Agartala","state":"Tripura","latitude":23.8315,"longitude":91.2868,"temp":30.1,"humidity":58,"rain":0.0,"pressure":1013.7,"uv_index":7.7,"wind_gusts":12.6,"aqi":168,"pm10":86.8,"pm2_5":75.9,"mosquito_risk":0,"arthritis_risk":0,"migraine_risk":4,"frizz_risk":1,"updated_at":"2026-03-10T11:19:32.784102+05:30"},{"city":"Shillong","state":"Meghalaya","latitude":25.5788,"longitude":91.8933,"temp":19.5,"humidity":52,"rain":0.0,"pressure":863.8,"uv_index":6.75,"wind_gusts":18.4,"aqi":154,"pm10":64.5,"pm2_5":56.5,"mosquito_risk":0,"arthritis_risk":5,"migraine_risk":7,"frizz_risk":0,"updated_at":"2026-03-10T11:19:32.784108+05:30"},{"city":"Imphal","state":"Manipur","latitude":24.817,"longitude":93.9368,"temp":24.4,"humidity":56,"rain":0.0,"pressure":930.4,"uv_index":6.35,"wind_gusts":28.8,"aqi":154,"pm10":49.7,"pm2_5":43.9,"mosquito_risk":0,"arthritis_risk":5,"migraine_risk":7,"frizz_risk":0,"updated_at":"2026-03-10T11:19:32.784115+05:30"},{"city":"Aizawl","state":"Mizoram","latitude":23.7271,"longitude":92.7176,"temp":25.7,"humidity":45,"rain":0.0,"pressure":900.2,"uv_index":7.85,"wind_gusts":28.4,"aqi":154,"pm10":57.0,"pm2_5":43.4,"mosquito_risk":4,"arthritis_risk":5,"migraine_risk":7,"frizz_risk":0,"updated_at":"2026-03-10T11:19:32.784121+05:30"},{"city":"Kohima","state":"Nagaland","latitude":25.6701,"longitude":94.1077,"temp":18.1,"humidity":82,"rain":0.0,"pressure":861.8,"uv_index":6.8,"wind_gusts":50.0,"aqi":143,"pm10":41.7,"pm2_5":36.6,"mosquito_risk":3,"arthritis_risk":10,"migraine_risk":7,"frizz_risk":0,"updated_at":"2026-03-10T11:19:32.784127+05:30"},{"city":"Gangtok","state":"Sikkim","latitude":27.3314,"longitude":88.6138,"temp":21.1,"humidity":53,"rain":0.0,"pressure":846.5,"uv_index":6.25,"wind_gusts":19.8,"aqi":153,"pm10":59.8,"pm2_5":48.7,"mosquito_risk":0,"arthritis_risk":5,"migraine_risk":7,"frizz_risk":0,"updated_at":"2026-03-10T11:19:32.784133+05:30"},{"city":"Siliguri","state":"West Bengal","latitude":26.7271,"longitude":88.3953,"temp":27.3,"humidity":54,"rain":0.0,"pressure":1002.4,"uv_index":7.35,"wind_gusts":23.4,"aqi":166,"pm10":79.2,"pm2_5":62.2,"mosquito_risk":4,"arthritis_risk":5,"migraine_risk":4,"frizz_risk":1,"updated_at":"2026-03-10T11:19:36.042129+05:30"},{"city":"Durgapur","state":"West Bengal","latitude":23.5204,"longitude":87.3119,"temp":28.8,"humidity":67,"rain":0.0,"pressure":1003.2,"uv_index":7.8,"wind_gusts":24.5,"aqi":159,"pm10":59.0,"pm2_5":50.2,"mosquito_risk":7,"arthritis_risk":5,"migraine_risk":4,"frizz_risk":1,"updated_at":"2026-03-10T11:19:36.042163+05:30"},{"city":"Asansol","state":"West Bengal","latitude":23.6739,"longitude":86.9524,"temp":29.0,"humidity":65,"rain":0.0,"pressure":1001.5,"uv_index":7.9,"wind_gusts":22.0,"aqi":163,"pm10":65.2,"pm2_5":56.6,"mosquito_risk":7,"arthritis_risk":5,"migraine_risk":4,"frizz_risk":1,"updated_at":"2026-03-10T11:19:36.042174+05:30"},{"city":"Pondicherry","state":"Puducherry","latitude":11.9139,"longitude":79.8145,"temp":29.9,"humidity":62,"rain":0.0,"pressure":1014.9,"uv_index":8.95,"wind_gusts":36.0,"aqi":90,"pm10":28.8,"pm2_5":21.8,"mosquito_risk":7,"arthritis_risk":0,"migraine_risk":4,"frizz_risk":1,"updated_at":"2026-03-10T11:19:36.042210+05:30"},{"city":"Port Blair","state":"Andaman and Nicobar Islands","latitude":11.6234,"longitude":92.7265,"temp":28.7,"humidity":73,"rain":0.0,"pressure":1010.9,"uv_index":8.95,"wind_gusts":29.5,"aqi":80,"pm10":26.4,"pm2_5":22.6,"mosquito_risk":7,"arthritis_risk":0,"migraine_risk":4,"frizz_risk":1,"updated_at":"2026-03-10T11:19:36.042218+05:30"},{"city":"Haridwar","state":"Uttarakhand","latitude":29.9457,"longitude":78.1642,"temp":28.3,"humidity":65,"rain":0.0,"pressure":983.2,"uv_index":5.85,"wind_gusts":21.2,"aqi":153,"pm10":118.7,"pm2_5":85.7,"mosquito_risk":7,"arthritis_risk":5,"migraine_risk":3,"frizz_risk":1,"updated_at":"2026-03-10T11:19:36.042225+05:30"},{"city":"Rishikesh","state":"Uttarakhand","latitude":30.0869,"longitude":78.2676,"temp":27.8,"humidity":66,"rain":0.0,"pressure":975.7,"uv_index":5.9,"wind_gusts":23.0,"aqi":150,"pm10":119.7,"pm2_5":73.1,"mosquito_risk":7,"arthritis_risk":5,"migraine_risk":3,"frizz_risk":1,"updated_at":"2026-03-10T11:19:36.042233+05:30"},{"city":"Nainital","state":"Uttarakhand","latitude":29.3919,"longitude":79.4542,"temp":20.8,"humidity":72,"rain":0.0,"pressure":814.2,"uv_index":6.75,"wind_gusts":51.5,"aqi":169,"pm10":149.5,"pm2_5":113.4,"mosquito_risk":3,"arthritis_risk":5,"migraine_risk":7,"frizz_risk":0,"updated_at":"2026-03-10T11:19:36.042240+05:30"},{"city":"Mussoorie","state":"Uttarakhand","latitude":30.4599,"longitude":78.0664,"temp":20.6,"humidity":71,"rain":0.0,"pressure":811.4,"uv_index":6.25,"wind_gusts":37.1,"aqi":138,"pm10":116.9,"pm2_5":63.1,"mosquito_risk":3,"arthritis_risk":5,"migraine_risk":7,"frizz_risk":0,"updated_at":"2026-03-10T11:19:36.042248+05:30"},{"city":"Dharamshala","state":"Himachal Pradesh","latitude":32.219,"longitude":76.3234,"temp":24.0,"humidity":43,"rain":0.0,"pressure":877.5,"uv_index":6.45,"wind_gusts":20.5,"aqi":57,"pm10":32.9,"pm2_5":10.6,"mosquito_risk":0,"arthritis_risk":5,"migraine_risk":7,"frizz_risk":0,"updated_at":"2026-03-10T11:19:36.042255+05:30"},{"city":"Dalhousie","state":"Himachal Pradesh","latitude":32.5387,"longitude":75.971,"temp":22.5,"humidity":34,"rain":0.0,"pressure":812.5,"uv_index":6.1,"wind_gusts":19.4,"aqi":89,"pm10":56.9,"pm2_5":21.6,"mosquito_risk":0,"arthritis_risk":5,"migraine_risk":7,"frizz_risk":0,"updated_at":"2026-03-10T11:19:36.042262+05:30"},{"city":"Patiala","state":"Punjab","latitude":30.3398,"longitude":76.3869,"temp":29.0,"humidity":66,"rain":0.0,"pressure":986.9,"uv_index":5.9,"wind_gusts":18.4,"aqi":168,"pm10":162.1,"pm2_5":87.3,"mosquito_risk":7,"arthritis_risk":5,"migraine_risk":3,"frizz_risk":1,"updated_at":"2026-03-10T11:19:36.042270+05:30"},{"city":"Bhatinda","state":"Punjab","latitude":30.211,"longitude":74.9455,"temp":30.3,"humidity":56,"rain":0.0,"pressure":992.1,"uv_index":6.45,"wind_gusts":15.5,"aqi":156,"pm10":99.9,"pm2_5":54.4,"mosquito_risk":0,"arthritis_risk":5,"migraine_risk":7,"frizz_risk":1,"updated_at":"2026-03-10T11:19:36.042277+05:30"},{"city":"Rohtak","state":"Haryana","latitude":28.8955,"longitude":76.6066,"temp":30.1,"humidity":59,"rain":0.0,"pressure":990.0,"uv_index":5.35,"wind_gusts":19.8,"aqi":491,"pm10":437.7,"pm2_5":130.4,"mosquito_risk":0,"arthritis_risk":5,"migraine_risk":3,"frizz_risk":1,"updated_at":"2026-03-10T11:19:36.042285+05:30"},{"city":"Panipat","state":"Haryana","latitude":29.3909,"longitude":76.9635,"temp":29.4,"humidity":64,"rain":0.0,"pressure":988.8,"uv_index":5.9,"wind_gusts":16.6,"aqi":574,"pm10":363.2,"pm2_5":118.3,"mosquito_risk":7,"arthritis_risk":5,"migraine_risk":3,"frizz_risk":1,"updated_at":"2026-03-10T11:19:36.042292+05:30"},{"city":"Mathura","state":"Uttar Pradesh","latitude":27.4924,"longitude":77.6737,"temp":32.2,"humidity":46,"rain":0.0,"pressure":995.2,"uv_index":6.35,"wind_gusts":23.8,"aqi":335,"pm10":510.4,"pm2_5":129.9,"mosquito_risk":0,"arthritis_risk":5,"migraine_risk":7,"frizz_risk":1,"updated_at":"2026-03-10T11:19:36.042299+05:30"},{"city":"Vrindavan","state":"Uttar Pradesh","latitude":27.5823,"longitude":77.7027,"temp":31.7,"humidity":50,"rain":0.0,"pressure":995.6,"uv_index":6.3,"wind_gusts":24.8,"aqi":335,"pm10":510.4,"pm2_5":129.9,"mosquito_risk":0,"arthritis_risk":5,"migraine_risk":7,"frizz_risk":1,"updated_at":"2026-03-10T11:19:36.042305+05:30"},{"city":"Ayodhya","state":"Uttar Pradesh","latitude":26.7922,"longitude":82.1998,"temp":29.6,"humidity":61,"rain":0.0,"pressure":1004.2,"uv_index":6.75,"wind_gusts":19.4,"aqi":191,"pm10":116.2,"pm2_5":106.4,"mosquito_risk":7,"arthritis_risk":5,"migraine_risk":4,"frizz_risk":1,"updated_at":"2026-03-10T11:19:36.042311+05:30"},{"city":"Ratlam","state":"Madhya Pradesh","latitude":23.3315,"longitude":75.0367,"temp":33.2,"humidity":27,"rain":0.0,"pressure":962.4,"uv_index":7.55,"wind_gusts":18.4,"aqi":72,"pm10":15.2,"pm2_5":11.9,"mosquito_risk":0,"arthritis_risk":5,"migraine_risk":7,"frizz_risk":0,"updated_at":"2026-03-10T11:19:36.042318+05:30"},{"city":"Sagar","state":"Madhya Pradesh","latitude":23.8388,"longitude":78.7378,"temp":34.0,"humidity":27,"rain":0.0,"pressure":958.1,"uv_index":7.5,"wind_gusts":19.8,"aqi":44,"pm10":66.4,"pm2_5":21.5,"mosquito_risk":0,"arthritis_risk":5,"migraine_risk":7,"frizz_risk":0,"updated_at":"2026-03-10T11:19:36.042325+05:30"},{"city":"Satna","state":"Madhya Pradesh","latitude":24.6005,"longitude":80.8322,"temp":32.3,"humidity":41,"rain":0.0,"pressure":979.3,"uv_index":7.5,"wind_gusts":20.2,"aqi":121,"pm10":124.3,"pm2_5":77.1,"mosquito_risk":0,"arthritis_risk":5,"migraine_risk":7,"frizz_risk":1,"updated_at":"2026-03-10T11:19:36.042331+05:30"},{"city":"Akola","state":"Maharashtra","latitude":20.7002,"longitude":77.0082,"temp":35.4,"humidity":25,"rain":0.0,"pressure":981.9,"uv_index":8.0,"wind_gusts":18.4,"aqi":68,"pm10":19.1,"pm2_5":13.0,"mosquito_risk":0,"arthritis_risk":5,"migraine_risk":10,"frizz_risk":0,"updated_at":"2026-03-10T11:19:36.042338+05:30"},{"city":"Amravati","state":"Maharashtra","latitude":20.9374,"longitude":77.7796,"temp":36.0,"humidity":21,"rain":0.0,"pressure":974.3,"uv_index":7.95,"wind_gusts":19.4,"aqi":71,"pm10":19.8,"pm2_5":12.9,"mosquito_risk":0,"arthritis_risk":5,"migraine_risk":10,"frizz_risk":0,"updated_at":"2026-03-10T11:19:36.042345+05:30"},{"city":"Latur","state":"Maharashtra","latitude":18.4088,"longitude":76.5604,"temp":31.4,"humidity":41,"rain":0.0,"pressure":946.4,"uv_index":8.4,"wind_gusts":26.6,"aqi":93,"pm10":53.0,"pm2_5":43.8,"mosquito_risk":0,"arthritis_risk":5,"migraine_risk":7,"frizz_risk":1,"updated_at":"2026-03-10T11:19:36.042353+05:30"},{"city":"Nanded","state":"Maharashtra","latitude":19.1383,"longitude":77.3091,"temp":33.8,"humidity":36,"rain":0.0,"pressure":975.3,"uv_index":8.2,"wind_gusts":19.8,"aqi":115,"pm10":50.2,"pm2_5":42.3,"mosquito_risk":0,"arthritis_risk":5,"migraine_risk":7,"frizz_risk":1,"updated_at":"2026-03-10T11:19:36.042359+05:30"},{"city":"Gulbarga","state":"Karnataka","latitude":17.3297,"longitude":76.8343,"temp":32.0,"humidity":47,"rain":0.0,"pressure":965.0,"uv_index":8.5,"wind_gusts":30.6,"aqi":104,"pm10":58.1,"pm2_5":47.4,"mosquito_risk":0,"arthritis_risk":5,"migraine_risk":7,"frizz_risk":1,"updated_at":"2026-03-10T11:19:36.042366+05:30"},{"city":"Bidar","state":"Karnataka","latitude":17.9104,"longitude":77.5199,"temp":31.4,"humidity":44,"rain":0.0,"pressure":942.1,"uv_index":8.45,"wind_gusts":31.0,"aqi":116,"pm10":63.3,"pm2_5":52.4,"mosquito_risk":0,"arthritis_risk":5,"migraine_risk":7,"frizz_risk":1,"updated_at":"2026-03-10T11:19:36.042372+05:30"},{"city":"Hospet","state":"Karnataka","latitude":15.2689,"longitude":76.3909,"temp":30.6,"humidity":42,"rain":0.0,"pressure":961.4,"uv_index":8.8,"wind_gusts":36.4,"aqi":110,"pm10":61.7,"pm2_5":49.0,"mosquito_risk":0,"arthritis_risk":5,"migraine_risk":7,"frizz_risk":1,"updated_at":"2026-03-10T11:19:36.042378+05:30"},{"city":"Tirupur","state":"Tamil Nadu","latitude":11.1085,"longitude":77.3411,"temp":30.5,"humidity":42,"rain":0.0,"pressure":980.8,"uv_index":9.25,"wind_gusts":43.9,"aqi":124,"pm10":57.5,"pm2_5":43.4,"mosquito_risk":0,"arthritis_risk":5,"migraine_risk":7,"frizz_risk":1,"updated_at":"2026-03-10T11:19:36.042384+05:30"},{"city":"Alappuzha","state":"Kerala","latitude":9.4981,"longitude":76.3388,"temp":28.2,"humidity":73,"rain":0.0,"pressure":1012.6,"uv_index":9.05,"wind_gusts":33.5,"aqi":150,"pm10":66.1,"pm2_5":58.1,"mosquito_risk":7,"arthritis_risk":0,"migraine_risk":4,"frizz_risk":1,"updated_at":"2026-03-10T11:19:36.042391+05:30"},{"city":"Munnar","state":"Kerala","latitude":10.0889,"longitude":77.0595,"temp":28.3,"humidity":32,"rain":0.0,"pressure":862.3,"uv_index":9.55,"wind_gusts":27.4,"aqi":116,"pm10":31.5,"pm2_5":22.9,"mosquito_risk":4,"arthritis_risk":5,"migraine_risk":7,"frizz_risk":0,"updated_at":"2026-03-10T11:19:36.042398+05:30"},{"city":"Silchar","state":"Assam","latitude":24.8333,"longitude":92.7789,"temp":29.9,"humidity":60,"rain":0.0,"pressure":1012.4,"uv_index":7.65,"wind_gusts":13.3,"aqi":170,"pm10":95.9,"pm2_5":84.3,"mosquito_risk":4,"arthritis_risk":0,"migraine_risk":4,"frizz_risk":1,"updated_at":"2026-03-10T11:19:36.042404+05:30"},{"city":"Dibrugarh","state":"Assam","latitude":27.4728,"longitude":94.912,"temp":28.2,"humidity":65,"rain":0.0,"pressure":1002.8,"uv_index":7.4,"wind_gusts":15.5,"aqi":166,"pm10":91.3,"pm2_5":78.7,"mosquito_risk":7,"arthritis_risk":5,"migraine_risk":4,"frizz_risk":1,"updated_at":"2026-03-10T11:19:36.042411+05:30"}]