[{"city":"Delhi","state":"Delhi","latitude":28.6139,"longitude":77.209,"temp":28.3,"humidity":38,"rain":0.0,"pressure":980.9,"uv_index":7.3,"wind_gusts":25.6,"aqi":167,"pm10":465.7,"pm2_5":82.0,"mosquito_risk":4,"arthritis_risk":5,"migraine_risk":7,"frizz_risk":0,"updated_at":"2026-04-15T00:51:10.553947+05:30"},{"city":"Mumbai","state":"Maharashtra","latitude":19.076,"longitude":72.8777,"temp":30.0,"humidity":74,"rain":0.0,"pressure":1007.0,"uv_index":8.0,"wind_gusts":20.5,"aqi":127,"pm10":69.2,"pm2_5":24.3,"mosquito_risk":7,"arthritis_risk":5,"migraine_risk":4,"frizz_risk":1,"updated_at":"2026-04-15T00:51:10.553993+05:30"},{"city":"Bangalore","state":"Karnataka","latitude":12.9716,"longitude":77.5946,"temp":25.0,"humidity":50,"rain":0.0,"pressure":911.4,"uv_index":9.65,"wind_gusts":26.6,"aqi":81,"pm10":26.8,"pm2_5":21.9,"mosquito_risk":4,"arthritis_risk":5,"migraine_risk":7,"frizz_risk":0,"updated_at":"2026-04-15T00:51:10.554008+05:30"},{"city":"Hyderabad","state":"Telangana","latitude":17.385,"longitude":78.4867,"temp":29.2,"humidity":48,"rain":0.0,"pressure":952.1,"uv_index":9.25,"wind_gusts":27.0,"aqi":96,"pm10":38.0,"pm2_5":33.2,"mosquito_risk":4,"arthritis_risk":5,"migraine_risk":7,"frizz_risk":1,"updated_at":"2026-04-15T00:51:10.554018+05:30"},{"city":"Chennai","state":"Tamil Nadu","latitude":13.0827,"longitude":80.2707,"temp":27.9,"humidity":86,"rain":0.0,"pressure":1006.8,"uv_index":9.35,"wind_gusts":36.0,"aqi":39,"pm10":10.3,"pm2_5":7.2,"mosquito_risk":7,"arthritis_risk":5,"migraine_risk":4,"frizz_risk":1,"updated_at":"2026-04-15T00:51:10.554026+05:30"},{"city":"Kolkata","state":"West Bengal","latitude":22.5726,"longitude":88.3639,"temp":27.2,"humidity":93,"rain":0.0,"pressure":1004.2,"uv_index":8.85,"wind_gusts":30.2,"aqi":95,"pm10":30.5,"pm2_5":23.7,"mosquito_risk":7,"arthritis_risk":5,"migraine_risk":4,"frizz_risk":1,"updated_at":"2026-04-15T00:51:10.554035+05:30"},{"city":"Pune","state":"Maharashtra","latitude":18.5204,"longitude":73.8567,"temp":26.5,"humidity":62,"rain":0.0,"pressure":947.6,"uv_index":8.6,"wind_gusts":39.6,"aqi":120,"pm10":51.8,"pm2_5":28.2,"mosquito_risk":7,"arthritis_risk":5,"migraine_risk":7,"frizz_risk":1,"updated_at":"2026-04-15T00:51:10.554046+05:30"},{"city":"Ahmedabad","state":"Gujarat","latitude":23.0225,"longitude":72.5714,"temp":28.9,"humidity":39,"rain":0.0,"pressure":1000.5,"uv_index":8.15,"wind_gusts":20.9,"aqi":63,"pm10":66.8,"pm2_5":20.4,"mosquito_risk":4,"arthritis_risk":5,"migraine_risk":4,"frizz_risk":0,"updated_at":"2026-04-15T00:51:10.554054+05:30"},{"city":"Jaipur","state":"Rajasthan","latitude":26.9124,"longitude":75.7873,"temp":28.2,"humidity":33,"rain":0.0,"pressure":957.6,"uv_index":7.95,"wind_gusts":25.9,"aqi":88,"pm10":380.0,"pm2_5":59.4,"mosquito_risk":4,"arthritis_risk":5,"migraine_risk":7,"frizz_risk":0,"updated_at":"2026-04-15T00:51:10.554061+05:30"},{"city":"Lucknow","state":"Uttar Pradesh","latitude":26.8467,"longitude":80.9462,"temp":27.0,"humidity":45,"rain":0.0,"pressure":990.9,"uv_index":7.8,"wind_gusts":26.3,"aqi":128,"pm10":223.1,"pm2_5":44.0,"mosquito_risk":4,"arthritis_risk":5,"migraine_risk":7,"frizz_risk":0,"updated_at":"2026-04-15T00:51:10.554069+05:30"},{"city":"Kanpur","state":"Uttar Pradesh","latitude":26.4499,"longitude":80.3319,"temp":26.6,"humidity":48,"rain":0.0,"pressure":989.3,"uv_index":7.8,"wind_gusts":21.2,"aqi":183,"pm10":285.0,"pm2_5":50.5,"mosquito_risk":4,"arthritis_risk":5,"migraine_risk":7,"frizz_risk":0,"updated_at":"2026-04-15T00:51:10.554076+05:30"},{"city":"Chandigarh","state":"Chandigarh","latitude":30.7333,"longitude":76.7794,"temp":22.7,"humidity":52,"rain":0.0,"pressure":967.2,"uv_index":7.25,"wind_gusts":29.2,"aqi":81,"pm10":23.8,"pm2_5":21.3,"mosquito_risk":0,"arthritis_risk":5,"migraine_risk":7,"frizz_risk":0,"updated_at":"2026-04-15T00:51:10.554084+05:30"},{"city":"Srinagar","state":"Jammu and Kashmir","latitude":34.0837,"longitude":74.7973,"temp":10.0,"humidity":77,"rain":0.0,"pressure":839.5,"uv_index":7.95,"wind_gusts":15.5,"aqi":82,"pm10":55.4,"pm2_5":44.6,"mosquito_risk":3,"arthritis_risk":5,"migraine_risk":7,"frizz_risk":0,"updated_at":"2026-04-15T00:51:10.554091+05:30"},{"city":"Jammu","state":"Jammu and Kashmir","latitude":32.7266,"longitude":74.857,"temp":20.3,"humidity":68,"rain":0.0,"pressure":971.8,"uv_index":7.95,"wind_gusts":29.5,"aqi":67,"pm10":33.3,"pm2_5":30.6,"mosquito_risk":3,"arthritis_risk":5,"migraine_risk":7,"frizz_risk":0,"updated_at":"2026-04-15T00:51:10.554097+05:30"},{"city":"Amritsar","state":"Punjab","latitude":31.634,"longitude":74.8723,"temp":22.1,"humidity":60,"rain":0.0,"pressure":979.6,"uv_index":7.75,"wind_gusts":25.9,"aqi":81,"pm10":59.1,"pm2_5":53.9,"mosquito_risk":0,"arthritis_risk":5,"migraine_risk":7,"frizz_risk":0,"updated_at":"2026-04-15T00:51:10.554104+05:30"},{"city":"Ludhiana","state":"Punjab","latitude":30.901,"longitude":75.8573,"temp":23.7,"humidity":49,"rain":0.0,"pressure":977.3,"uv_index":7.3,"wind_gusts":25.2,"aqi":70,"pm10":34.5,"pm2_5":32.7,"mosquito_risk":0,"arthritis_risk":5,"migraine_risk":7,"frizz_risk":0,"updated_at":"2026-04-15T00:51:10.554110+05:30"},{"city":"Jalandhar","state":"Punjab","latitude":31.326,"longitude":75.5762,"temp":21.6,"humidity":60,"rain":0.0,"pressure":978.6,"uv_index":7.6,"wind_gusts":24.5,"aqi":91,"pm10":27.5,"pm2_5":23.4,"mosquito_risk":0,"arthritis_risk":5,"migraine_risk":7,"frizz_risk":0,"updated_at":"2026-04-15T00:51:10.554119+05:30"},{"city":"Dehradun","state":"Uttarakhand","latitude":30.6284,"longitude":78.0322,"temp":14.5,"humidity":68,"rain":0.0,"pressure":829.0,"uv_index":7.7,"wind_gusts":27.4,"aqi":91,"pm10":21.7,"pm2_5":16.2,"mosquito_risk":3,"arthritis_risk":5,"migraine_risk":7,"frizz_risk":0,"updated_at":"2026-04-15T00:51:10.554125+05:30"},{"city":"Shimla","state":"Himachal Pradesh","latitude":31.1048,"longitude":77.1734,"temp":12.2,"humidity":63,"rain":0.0,"pressure":782.6,"uv_index":7.75,"wind_gusts":45.0,"aqi":95,"pm10":24.2,"pm2_5":17.2,"mosquito_risk":3,"arthritis_risk":5,"migraine_risk":7,"frizz_risk":0,"updated_at":"2026-04-15T00:51:10.554132+05:30"},{"city":"Manali","state":"Himachal Pradesh","latitude":32.2396,"longitude":77.1887,"temp":14.8,"humidity":59,"rain":0.0,"pressure":819.5,"uv_index":9.0,"wind_gusts":34.2,"aqi":96,"pm10":25.8,"pm2_5":13.3,"mosquito_risk":0,"arthritis_risk":5,"migraine_risk":7,"frizz_risk":0,"updated_at":"2026-04-15T00:51:10.554139+05:30"},{"city":"Gurgaon","state":"Haryana","latitude":28.4595,"longitude":77.0266,"temp":25.2,"humidity":50,"rain":0.0,"pressure":979.2,"uv_index":7.4,"wind_gusts":23.4,"aqi":478,"pm10":817.7,"pm2_5":110.8,"mosquito_risk":4,"arthritis_risk":5,"migraine_risk":7,"frizz_risk":0,"updated_at":"2026-04-15T00:51:10.554145+05:30"},{"city":"Noida","state":"Uttar Pradesh","latitude":28.5355,"longitude":77.391,"temp":27.8,"humidity":40,"rain":0.0,"pressure":982.3,"uv_index":7.35,"wind_gusts":25.9,"aqi":478,"pm10":817.7,"pm2_5":110.8,"mosquito_risk":4,"arthritis_risk":5,"migraine_risk":7,"frizz_risk":0,"updated_at":"2026-04-15T00:51:10.554151+05:30"},{"city":"Ghaziabad","state":"Uttar Pradesh","latitude":28.6692,"longitude":77.4538,"temp":25.0,"humidity":48,"rain":0.0,"pressure":980.4,"uv_index":7.3,"wind_gusts":24.8,"aqi":134,"pm10":324.1,"pm2_5":64.0,"mosquito_risk":4,"arthritis_risk":5,"migraine_risk":7,"frizz_risk":0,"updated_at":"2026-04-15T00:51:10.554158+05:30"},{"city":"Faridabad","state":"Haryana","latitude":28.4089,"longitude":77.3178,"temp":27.2,"humidity":42,"rain":0.0,"pressure":981.6,"uv_index":7.35,"wind_gusts":25.6,"aqi":478,"pm10":817.7,"pm2_5":110.8,"mosquito_risk":4,"arthritis_risk":5,"migraine_risk":7,"frizz_risk":0,"updated_at":"2026-04-15T00:51:10.554164+05:30"},{"city":"Meerut","state":"Uttar Pradesh","latitude":28.9845,"longitude":77.7064,"temp":22.7,"humidity":55,"rain":0.0,"pressure":979.2,"uv_index":7.2,"wind_gusts":30.2,"aqi":134,"pm10":324.1,"pm2_5":64.0,"mosquito_risk":0,"arthritis_risk":5,"migraine_risk":7,"frizz_risk":0,"updated_at":"2026-04-15T00:51:10.554171+05:30"},{"city":"Agra","state":"Uttar Pradesh","latitude":27.1767,"longitude":78.0081,"temp":26.4,"humidity":44,"rain":0.0,"pressure":985.1,"uv_index":7.65,"wind_gusts":19.8,"aqi":434,"pm10":368.8,"pm2_5":86.1,"mosquito_risk":4,"arthritis_risk":5,"migraine_risk":7,"frizz_risk":0,"updated_at":"2026-04-15T00:51:10.554177+05:30"},{"city":"Varanasi","state":"Uttar Pradesh","latitude":25.3176,"longitude":82.9739,"temp":25.4,"humidity":41,"rain":0.0,"pressure":995.2,"uv_index":8.4,"wind_gusts":26.6,"aqi":101,"pm10":109.9,"pm2_5":40.4,"mosquito_risk":4,"arthritis_risk":5,"migraine_risk":7,"frizz_risk":0,"updated_at":"2026-04-15T00:51:10.554186+05:30"},{"city":"Prayagraj","state":"Uttar Pradesh","latitude":25.4358,"longitude":81.8463,"temp":27.2,"humidity":42,"rain":0.0,"pressure":993.8,"uv_index":8.25,"wind_gusts":22.3,"aqi":107,"pm10":104.5,"pm2_5":40.3,"mosquito_risk":4,"arthritis_risk":5,"migraine_risk":7,"frizz_risk":0,"updated_at":"2026-04-15T00:51:10.554193+05:30"},{"city":"Gorakhpur","state":"Uttar Pradesh","latitude":26.7606,"longitude":83.3732,"temp":23.3,"humidity":43,"rain":0.0,"pressure":994.6,"uv_index":8.2,"wind_gusts":26.6,"aqi":89,"pm10":75.2,"pm2_5":25.1,"mosquito_risk":0,"arthritis_risk":5,"migraine_risk":7,"frizz_risk":0,"updated_at":"2026-04-15T00:51:10.554199+05:30"},{"city":"Bareilly","state":"Uttar Pradesh","latitude":28.367,"longitude":79.4304,"temp":24.4,"humidity":56,"rain":0.0,"pressure":984.4,"uv_index":7.55,"wind_gusts":27.4,"aqi":101,"pm10":96.6,"pm2_5":37.4,"mosquito_risk":0,"arthritis_risk":5,"migraine_risk":7,"frizz_risk":0,"updated_at":"2026-04-15T00:51:10.554206+05:30"},{"city":"Aligarh","state":"Uttar Pradesh","latitude":27.8974,"longitude":78.088,"temp":25.7,"humidity":44,"rain":0.0,"pressure":982.9,"uv_index":7.45,"wind_gusts":32.0,"aqi":265,"pm10":452.6,"pm2_5":81.5,"mosquito_risk":4,"arthritis_risk":5,"migraine_risk":7,"frizz_risk":0,"updated_at":"2026-04-15T00:51:10.554212+05:30"},{"city":"Moradabad","state":"Uttar Pradesh","latitude":28.8386,"longitude":78.7733,"temp":24.0,"humidity":51,"rain":0.0,"pressure":981.4,"uv_index":7.4,"wind_gusts":29.5,"aqi":86,"pm10":106.4,"pm2_5":43.3,"mosquito_risk":0,"arthritis_risk":5,"migraine_risk":7,"frizz_risk":0,"updated_at":"2026-04-15T00:51:10.554220+05:30"},{"city":"Saharanpur","state":"Uttar Pradesh","latitude":29.9637,"longitude":77.546,"temp":20.1,"humidity":62,"rain":0.0,"pressure":973.7,"uv_index":7.0,"wind_gusts":30.2,"aqi":81,"pm10":36.2,"pm2_5":35.5,"mosquito_risk":3,"arthritis_risk":5,"migraine_risk":7,"frizz_risk":0,"updated_at":"2026-04-15T00:51:10.554227+05:30"},{"city":"Jhansi","state":"Uttar Pradesh","latitude":25.4484,"longitude":78.5685,"temp":28.9,"humidity":33,"rain":0.0,"pressure":975.4,"uv_index":8.2,"wind_gusts":26.6,"aqi":66,"pm10":76.1,"pm2_5":21.7,"mosquito_risk":4,"arthritis_risk":5,"migraine_risk":7,"frizz_risk":0,"updated_at":"2026-04-15T00:51:13.779603+05:30"},{"city":"Surat","state":"Gujarat","latitude":21.1702,"longitude":72.8311,"temp":28.1,"humidity":76,"rain":0.0,"pressure":1005.0,"uv_index":7.85,"wind_gusts":27.0,"aqi":109,"pm10":42.8,"pm2_5":26.3,"mosquito_risk":7,"arthritis_risk":5,"migraine_risk":4,"frizz_risk":1,"updated_at":"2026-04-15T00:51:13.779636+05:30"},{"city":"Vadodara","state":"Gujarat","latitude":22.3072,"longitude":73.1812,"temp":28.1,"humidity":69,"rain":0.0,"pressure":1002.3,"uv_index":8.1,"wind_gusts":27.7,"aqi":83,"pm10":39.5,"pm2_5":26.1,"mosquito_risk":7,"arthritis_risk":5,"migraine_risk":4,"frizz_risk":1,"updated_at":"2026-04-15T00:51:13.779648+05:30"},{"city":"Rajkot","state":"Gujarat","latitude":22.3039,"longitude":70.8022,"temp":25.6,"humidity":76,"rain":0.0,"pressure":993.6,"uv_index":7.85,"wind_gusts":29.5,"aqi":62,"pm10":57.9,"pm2_5":20.9,"mosquito_risk":7,"arthritis_risk":5,"migraine_risk":7,"frizz_risk":1,"updated_at":"2026-04-15T00:51:13.779658+05:30"},{"city":"Thane","state":"Maharashtra","latitude":19.2183,"longitude":72.9781,"temp":27.8,"humidity":81,"rain":0.0,"pressure":1006.5,"uv_index":8.0,"wind_gusts":32.8,"aqi":127,"pm10":69.2,"pm2_5":24.3,"mosquito_risk":7,"arthritis_risk":5,"migraine_risk":4,"frizz_risk":1,"updated_at":"2026-04-15T00:51:13.779666+05:30"},{"city":"Nagpur","state":"Maharashtra","latitude":21.1458,"longitude":79.0882,"temp":27.0,"humidity":53,"rain":0.0,"pressure":970.6,"uv_index":8.85,"wind_gusts":26.3,"aqi":87,"pm10":37.1,"pm2_5":26.0,"mosquito_risk":4,"arthritis_risk":5,"migraine_risk":7,"frizz_risk":1,"updated_at":"2026-04-15T00:51:13.779674+05:30"},{"city":"Nashik","state":"Maharashtra","latitude":19.9975,"longitude":73.7898,"temp":25.9,"humidity":41,"rain":0.0,"pressure":944.7,"uv_index":8.3,"wind_gusts":34.2,"aqi":75,"pm10":86.6,"pm2_5":25.4,"mosquito_risk":4,"arthritis_risk":5,"migraine_risk":7,"frizz_risk":0,"updated_at":"2026-04-15T00:51:13.779682+05:30"},{"city":"Aurangabad","state":"Maharashtra","latitude":19.8762,"longitude":75.3433,"temp":29.8,"humidity":36,"rain":0.0,"pressure":942.9,"uv_index":8.95,"wind_gusts":30.6,"aqi":67,"pm10":39.9,"pm2_5":21.5,"mosquito_risk":4,"arthritis_risk":5,"migraine_risk":7,"frizz_risk":0,"updated_at":"2026-04-15T00:51:13.779689+05:30"},{"city":"Solapur","state":"Maharashtra","latitude":17.6599,"longitude":75.9064,"temp":31.5,"humidity":38,"rain":0.0,"pressure":955.1,"uv_index":9.05,"wind_gusts":28.8,"aqi":90,"pm10":15.9,"pm2_5":14.3,"mosquito_risk":0,"arthritis_risk":5,"migraine_risk":7,"frizz_risk":0,"updated_at":"2026-04-15T00:51:13.779697+05:30"},{"city":"Kolhapur","state":"Maharashtra","latitude":16.705,"longitude":74.2433,"temp":23.1,"humidity":87,"rain":0.0,"pressure":946.8,"uv_index":9.05,"wind_gusts":42.1,"aqi":85,"pm10":42.0,"pm2_5":32.2,"mosquito_risk":3,"arthritis_risk":5,"migraine_risk":7,"frizz_risk":1,"updated_at":"2026-04-15T00:51:13.779705+05:30"},{"city":"Goa","state":"Goa","latitude":15.2993,"longitude":74.124,"temp":28.7,"humidity":80,"rain":0.0,"pressure":997.3,"uv_index":9.0,"wind_gusts":31.0,"aqi":85,"pm10":63.3,"pm2_5":38.8,"mosquito_risk":7,"arthritis_risk":5,"migraine_risk":7,"frizz_risk":1,"updated_at":"2026-04-15T00:51:13.779713+05:30"},{"city":"Jodhpur","state":"Rajasthan","latitude":26.2389,"longitude":73.0243,"temp":28.1,"humidity":44,"rain":0.0,"pressure":980.2,"uv_index":8.15,"wind_gusts":23.4,"aqi":68,"pm10":122.5,"pm2_5":27.5,"mosquito_risk":4,"arthritis_risk":5,"migraine_risk":7,"frizz_risk":0,"updated_at":"2026-04-15T00:51:13.779721+05:30"},{"city":"Udaipur","state":"Rajasthan","latitude":24.5854,"longitude":73.7125,"temp":25.4,"humidity":38,"rain":0.0,"pressure":945.3,"uv_index":8.7,"wind_gusts":32.0,"aqi":57,"pm10":107.6,"pm2_5":26.1,"mosquito_risk":4,"arthritis_risk":5,"migraine_risk":7,"frizz_risk":0,"updated_at":"2026-04-15T00:51:13.779729+05:30"},{"city":"Kota","state":"Rajasthan","latitude":25.2138,"longitude":75.8648,"temp":28.3,"humidity":38,"rain":0.0,"pressure":976.2,"uv_index":8.2,"wind_gusts":22.3,"aqi":72,"pm10":31.3,"pm2_5":21.1,"mosquito_risk":4,"arthritis_risk":5,"migraine_risk":7,"frizz_risk":0,"updated_at":"2026-04-15T00:51:13.779736+05:30"},{"city":"Bikaner","state":"Rajasthan","latitude":28.0229,"longitude":73.3119,"temp":30.1,"humidity":29,"rain":0.0,"pressure":980.0,"uv_index":7.95,"wind_gusts":15.1,"aqi":65,"pm10":61.5,"pm2_5":20.1,"mosquito_risk":0,"arthritis_risk":5,"migraine_risk":7,"frizz_risk":0,"updated_at":"2026-04-15T00:51:13.779743+05:30"},{"city":"Ajmer","state":"Rajasthan","latitude":26.4499,"longitude":74.6399,"temp":25.6,"humidity":41,"rain":0.0,"pressure":952.1,"uv_index":8.15,"wind_gusts":25.6,"aqi":59,"pm10":51.0,"pm2_5":21.5,"mosquito_risk":4,"arthritis_risk":5,"migraine_risk":7,"frizz_risk":0,"updated_at":"2026-04-15T00:51:13.779751+05:30"},{"city":"Gwalior","state":"Madhya Pradesh","latitude":26.2183,"longitude":78.1828,"temp":29.6,"humidity":38,"rain":0.0,"pressure":980.7,"uv_index":7.95,"wind_gusts":29.5,"aqi":112,"pm10":152.7,"pm2_5":34.3,"mosquito_risk":4,"arthritis_risk":5,"migraine_risk":7,"frizz_risk":0,"updated_at":"2026-04-15T00:51:13.779759+05:30"},{"city":"Indore","state":"Madhya Pradesh","latitude":22.7196,"longitude":75.8577,"temp":25.7,"humidity":50,"rain":0.0,"pressure":946.8,"uv_index":8.55,"wind_gusts":31.3,"aqi":77,"pm10":21.9,"pm2_5":14.9,"mosquito_risk":4,"arthritis_risk":5,"migraine_risk":7,"frizz_risk":0,"updated_at":"2026-04-15T00:51:13.779766+05:30"},{"city":"Bhopal","state":"Madhya Pradesh","latitude":23.2599,"longitude":77.4126,"temp":27.6,"humidity":38,"rain":0.0,"pressure":952.3,"uv_index":8.55,"wind_gusts":31.7,"aqi":71,"pm10":39.3,"pm2_5":28.3,"mosquito_risk":4,"arthritis_risk":5,"migraine_risk":7,"frizz_risk":0,"updated_at":"2026-04-15T00:51:13.779774+05:30"},{"city":"Jabalpur","state":"Madhya Pradesh","latitude":23.1815,"longitude":79.9864,"temp":28.0,"humidity":45,"rain":0.0,"pressure":959.0,"uv_index":8.7,"wind_gusts":35.6,"aqi":77,"pm10":80.1,"pm2_5":31.5,"mosquito_risk":4,"arthritis_risk":5,"migraine_risk":7,"frizz_risk":0,"updated_at":"2026-04-15T00:51:13.779782+05:30"},{"city":"Ujjain","state":"Madhya Pradesh","latitude":23.1765,"longitude":75.7885,"temp":26.4,"humidity":51,"rain":0.0,"pressure":952.4,"uv_index":8.45,"wind_gusts":29.5,"aqi":81,"pm10":24.8,"pm2_5":17.9,"mosquito_risk":4,"arthritis_risk":5,"migraine_risk":7,"frizz_risk":0,"updated_at":"2026-04-15T00:51:13.779789+05:30"},{"city":"Visakhapatnam","state":"Andhra Pradesh","latitude":17.6868,"longitude":83.2185,"temp":27.5,"humidity":87,"rain":0.0,"pressure":1002.5,"uv_index":9.15,"wind_gusts":44.3,"aqi":65,"pm10":22.1,"pm2_5":16.1,"mosquito_risk":7,"arthritis_risk":5,"migraine_risk":4,"frizz_risk":1,"updated_at":"2026-04-15T00:51:13.779798+05:30"},{"city":"Vijayawada","state":"Andhra Pradesh","latitude":16.5062,"longitude":80.648,"temp":26.4,"humidity":91,"rain":0.0,"pressure":1001.6,"uv_index":9.2,"wind_gusts":28.8,"aqi":54,"pm10":14.1,"pm2_5":10.7,"mosquito_risk":7,"arthritis_risk":5,"migraine_risk":4,"frizz_risk":1,"updated_at":"2026-04-15T00:51:13.779806+05:30"},{"city":"Guntur","state":"Andhra Pradesh","latitude":16.3067,"longitude":80.4365,"temp":26.9,"humidity":90,"rain":0.0,"pressure":1002.7,"uv_index":9.2,"wind_gusts":31.0,"aqi":56,"pm10":13.9,"pm2_5":10.5,"mosquito_risk":7,"arthritis_risk":5,"migraine_risk":4,"frizz_risk":1,"updated_at":"2026-04-15T00:51:13.779858+05:30"},{"city":"Nellore","state":"Andhra Pradesh","latitude":14.4426,"longitude":79.9865,"temp":27.2,"humidity":86,"rain":0.0,"pressure":1004.7,"uv_index":9.3,"wind_gusts":35.6,"aqi":52,"pm10":10.4,"pm2_5":8.5,"mosquito_risk":7,"arthritis_risk":5,"migraine_risk":4,"frizz_risk":1,"updated_at":"2026-04-15T00:51:13.779869+05:30"},{"city":"Kurnool","state":"Andhra Pradesh","latitude":15.8281,"longitude":78.0373,"temp":33.1,"humidity":30,"rain":0.0,"pressure":974.6,"uv_index":9.2,"wind_gusts":25.6,"aqi":84,"pm10":28.3,"pm2_5":25.2,"mosquito_risk":0,"arthritis_risk":5,"migraine_risk":7,"frizz_risk":0,"updated_at":"2026-04-15T00:51:13.779878+05:30"},{"city":"Kakinada","state":"Andhra Pradesh","latitude":16.9891,"longitude":82.2475,"temp":26.4,"humidity":91,"rain":0.0,"pressure":1006.6,"uv_index":9.15,"wind_gusts":31.0,"aqi":55,"pm10":20.1,"pm2_5":13.0,"mosquito_risk":7,"arthritis_risk":5,"migraine_risk":4,"frizz_risk":1,"updated_at":"2026-04-15T00:51:13.779886+05:30"},{"city":"Tirupati","state":"Andhra Pradesh","latitude":13.6288,"longitude":79.4192,"temp":26.9,"humidity":73,"rain":0.0,"pressure":991.4,"uv_index":9.4,"wind_gusts":32.0,"aqi":68,"pm10":27.8,"pm2_5":26.2,"mosquito_risk":7,"arthritis_risk":5,"migraine_risk":7,"frizz_risk":1,"updated_at":"2026-04-15T00:51:13.779894+05:30"},{"city":"Warangal","state":"Telangana","latitude":17.9689,"longitude":79.5941,"temp":29.7,"humidity":59,"rain":0.0,"pressure":976.8,"uv_index":9.1,"wind_gusts":28.8,"aqi":80,"pm10":22.4,"pm2_5":19.2,"mosquito_risk":4,"arthritis_risk":5,"migraine_risk":7,"frizz_risk":1,"updated_at":"2026-04-15T00:51:13.779901+05:30"},{"city":"Nizamabad","state":"Telangana","latitude":18.6725,"longitude":78.0941,"temp":29.9,"humidity":47,"rain":0.0,"pressure":962.8,"uv_index":9.05,"wind_gusts":27.0,"aqi":92,"pm10":41.4,"pm2_5":33.5,"mosquito_risk":4,"arthritis_risk":5,"migraine_risk":7,"frizz_risk":1,"updated_at":"2026-04-15T00:51:13.779908+05:30"},{"city":"Mysore","state":"Karnataka","latitude":12.2958,"longitude":76.6396,"temp":24.7,"humidity":85,"rain":0.0,"pressure":928.7,"uv_index":9.55,"wind_gusts":45.4,"aqi":90,"pm10":27.2,"pm2_5":23.1,"mosquito_risk":3,"arthritis_risk":5,"migraine_risk":7,"frizz_risk":1,"updated_at":"2026-04-15T00:51:13.779916+05:30"},{"city":"Mangalore","state":"Karnataka","latitude":12.9141,"longitude":74.856,"temp":30.0,"humidity":78,"rain":0.0,"pressure":1006.4,"uv_index":9.15,"wind_gusts":23.0,"aqi":83,"pm10":37.3,"pm2_5":21.7,"mosquito_risk":7,"arthritis_risk":5,"migraine_risk":4,"frizz_risk":1,"updated_at":"2026-04-15T00:51:13.779923+05:30"},{"city":"Hubli-Dharwad","state":"Karnataka","latitude":15.3647,"longitude":75.124,"temp":25.4,"humidity":82,"rain":0.0,"pressure":940.2,"uv_index":9.2,"wind_gusts":32.4,"aqi":69,"pm10":26.6,"pm2_5":19.4,"mosquito_risk":7,"arthritis_risk":5,"migraine_risk":7,"frizz_risk":1,"updated_at":"2026-04-15T00:51:13.779931+05:30"},{"city":"Belgaum","state":"Karnataka","latitude":15.8497,"longitude":74.4977,"temp":23.4,"humidity":86,"rain":0.0,"pressure":924.8,"uv_index":9.25,"wind_gusts":38.9,"aqi":75,"pm10":39.3,"pm2_5":27.3,"mosquito_risk":3,"arthritis_risk":5,"migraine_risk":7,"frizz_risk":1,"updated_at":"2026-04-15T00:51:17.003628+05:30"},{"city":"Coimbatore","state":"Tamil Nadu","latitude":11.0168,"longitude":76.9558,"temp":26.2,"humidity":83,"rain":0.0,"pressure":962.0,"uv_index":9.5,"wind_gusts":49.3,"aqi":89,"pm10":43.5,"pm2_5":37.8,"mosquito_risk":7,"arthritis_risk":5,"migraine_risk":7,"frizz_risk":1,"updated_at":"2026-04-15T00:51:17.003656+05:30"},{"city":"Madurai","state":"Tamil Nadu","latitude":9.9252,"longitude":78.1198,"temp":28.0,"humidity":81,"rain":0.0,"pressure":993.4,"uv_index":9.35,"wind_gusts":39.6,"aqi":67,"pm10":21.0,"pm2_5":18.7,"mosquito_risk":7,"arthritis_risk":5,"migraine_risk":7,"frizz_risk":1,"updated_at":"2026-04-15T00:51:17.003666+05:30"},{"city":"Trichy","state":"Tamil Nadu","latitude":10.7905,"longitude":78.7047,"temp":27.3,"humidity":87,"rain":0.0,"pressure":999.9,"uv_index":9.4,"wind_gusts":19.8,"aqi":57,"pm10":13.8,"pm2_5":12.9,"mosquito_risk":7,"arthritis_risk":5,"migraine_risk":7,"frizz_risk":1,"updated_at":"2026-04-15T00:51:17.003674+05:30"},{"city":"Salem","state":"Tamil Nadu","latitude":11.6643,"longitude":78.146,"temp":26.3,"humidity":71,"rain":0.0,"pressure":976.9,"uv_index":9.45,"wind_gusts":15.8,"aqi":70,"pm10":26.3,"pm2_5":23.1,"mosquito_risk":7,"arthritis_risk":5,"migraine_risk":7,"frizz_risk":1,"updated_at":"2026-04-15T00:51:17.003682+05:30"},{"city":"Tirunelveli","state":"Tamil Nadu","latitude":8.7139,"longitude":77.7567,"temp":28.1,"humidity":77,"rain":0.0,"pressure":1003.3,"uv_index":9.2,"wind_gusts":49.0,"aqi":73,"pm10":25.1,"pm2_5":20.0,"mosquito_risk":7,"arthritis_risk":5,"migraine_risk":4,"frizz_risk":1,"updated_at":"2026-04-15T00:51:17.003688+05:30"},{"city":"Vellore","state":"Tamil Nadu","latitude":12.9165,"longitude":79.1325,"temp":25.5,"humidity":81,"rain":0.0,"pressure":984.4,"uv_index":9.45,"wind_gusts":27.7,"aqi":91,"pm10":52.7,"pm2_5":50.4,"mosquito_risk":7,"arthritis_risk":5,"migraine_risk":7,"frizz_risk":1,"updated_at":"2026-04-15T00:51:17.003695+05:30"},{"city":"Erode","state":"Tamil Nadu","latitude":11.341,"longitude":77.7172,"temp":29.0,"humidity":67,"rain":0.0,"pressure":989.0,"uv_index":9.4,"wind_gusts":25.2,"aqi":58,"pm10":14.3,"pm2_5":13.3,"mosquito_risk":7,"arthritis_risk":5,"migraine_risk":7,"frizz_risk":1,"updated_at":"2026-04-15T00:51:17.003702+05:30"},{"city":"Kochi","state":"Kerala","latitude":9.9312,"longitude":76.2673,"temp":28.7,"humidity":83,"rain":0.0,"pressure":1008.9,"uv_index":9.2,"wind_gusts":32.0,"aqi":98,"pm10":47.0,"pm2_5":39.6,"mosquito_risk":7,"arthritis_risk":0,"migraine_risk":4,"frizz_risk":1,"updated_at":"2026-04-15T00:51:17.003709+05:30"},{"city":"Thiruvananthapuram","state":"Kerala","latitude":8.5241,"longitude":76.9366,"temp":28.7,"humidity":82,"rain":0.0,"pressure":1008.1,"uv_index":9.15,"wind_gusts":33.8,"aqi":69,"pm10":27.5,"pm2_5":16.8,"mosquito_risk":7,"arthritis_risk":0,"migraine_risk":4,"frizz_risk":1,"updated_at":"2026-04-15T00:51:17.003717+05:30"},{"city":"Kozhikode","state":"Kerala","latitude":11.2588,"longitude":75.7804,"temp":29.5,"humidity":81,"rain":0.0,"pressure":1008.0,"uv_index":9.15,"wind_gusts":29.5,"aqi":90,"pm10":47.4,"pm2_5":30.9,"mosquito_risk":7,"arthritis_risk":0,"migraine_risk":4,"frizz_risk":1,"updated_at":"2026-04-15T00:51:17.003723+05:30"},{"city":"Thrissur","state":"Kerala","latitude":10.5276,"longitude":76.2144,"temp":28.6,"humidity":83,"rain":0.0,"pressure":1007.1,"uv_index":9.2,"wind_gusts":35.3,"aqi":97,"pm10":61.7,"pm2_5":49.9,"mosquito_risk":7,"arthritis_risk":5,"migraine_risk":4,"frizz_risk":1,"updated_at":"2026-04-15T00:51:17.003731+05:30"},{"city":"Kannur","state":"Kerala","latitude":11.8745,"longitude":75.3704,"temp":29.2,"humidity":80,"rain":0.0,"pressure":1007.2,"uv_index":9.15,"wind_gusts":32.4,"aqi":91,"pm10":47.5,"pm2_5":31.1,"mosquito_risk":7,"arthritis_risk":5,"migraine_risk":4,"frizz_risk":1,"updated_at":"2026-04-15T00:51:17.003738+05:30"},{"city":"Patna","state":"Bihar","latitude":25.5941,"longitude":85.1376,"temp":25.7,"humidity":67,"rain":0.0,"pressure":998.2,"uv_index":8.55,"wind_gusts":18.0,"aqi":110,"pm10":145.8,"pm2_5":75.2,"mosquito_risk":7,"arthritis_risk":5,"migraine_risk":7,"frizz_risk":1,"updated_at":"2026-04-15T00:51:17.003744+05:30"},{"city":"Gaya","state":"Bihar","latitude":24.7914,"longitude":85.0002,"temp":25.7,"humidity":43,"rain":0.0,"pressure":991.7,"uv_index":8.6,"wind_gusts":20.2,"aqi":96,"pm10":89.9,"pm2_5":32.6,"mosquito_risk":4,"arthritis_risk":5,"migraine_risk":7,"frizz_risk":0,"updated_at":"2026-04-15T00:51:17.003751+05:30"},{"city":"Muzaffarpur","state":"Bihar","latitude":26.1209,"longitude":85.3647,"temp":23.7,"humidity":77,"rain":0.0,"pressure":998.4,"uv_index":8.55,"wind_gusts":23.0,"aqi":139,"pm10":132.2,"pm2_5":76.6,"mosquito_risk":3,"arthritis_risk":5,"migraine_risk":7,"frizz_risk":1,"updated_at":"2026-04-15T00:51:17.003757+05:30"},{"city":"Bhagalpur","state":"Bihar","latitude":25.2425,"longitude":87.0117,"temp":26.2,"humidity":60,"rain":0.0,"pressure":999.0,"uv_index":8.55,"wind_gusts":19.4,"aqi":135,"pm10":64.0,"pm2_5":49.2,"mosquito_risk":4,"arthritis_risk":5,"migraine_risk":7,"frizz_risk":1,"updated_at":"2026-04-15T00:51:17.003764+05:30"},{"city":"Ranchi","state":"Jharkhand","latitude":23.3441,"longitude":85.3096,"temp":23.5,"humidity":35,"rain":0.0,"pressure":936.6,"uv_index":9.15,"wind_gusts":34.2,"aqi":71,"pm10":112.9,"pm2_5":28.8,"mosquito_risk":0,"arthritis_risk":5,"migraine_risk":7,"frizz_risk":0,"updated_at":"2026-04-15T00:51:17.003770+05:30"},{"city":"Jamshedpur","state":"Jharkhand","latitude":22.8046,"longitude":86.2029,"temp":26.3,"humidity":68,"rain":0.0,"pressure":989.2,"uv_index":8.95,"wind_gusts":41.0,"aqi":134,"pm10":84.8,"pm2_5":40.7,"mosquito_risk":7,"arthritis_risk":5,"migraine_risk":7,"frizz_risk":1,"updated_at":"2026-04-15T00:51:17.003777+05:30"},{"city":"Dhanbad","state":"Jharkhand","latitude":23.7957,"longitude":86.4304,"temp":23.6,"humidity":61,"rain":0.0,"pressure":978.0,"uv_index":8.9,"wind_gusts":30.6,"aqi":136,"pm10":193.7,"pm2_5":89.4,"mosquito_risk":3,"arthritis_risk":5,"migraine_risk":7,"frizz_risk":0,"updated_at":"2026-04-15T00:51:17.003784+05:30"},{"city":"Bokaro","state":"Jharkhand","latitude":23.6693,"longitude":86.1511,"temp":25.0,"humidity":44,"rain":0.0,"pressure":982.4,"uv_index":8.9,"wind_gusts":35.6,"aqi":132,"pm10":158.8,"pm2_5":78.9,"mosquito_risk":4,"arthritis_risk":5,"migraine_risk":7,"frizz_risk":0,"updated_at":"2026-04-15T00:51:17.003791+05:30"},{"city":"Bhubaneswar","state":"Odisha","latitude":20.2961,"longitude":85.8245,"temp":27.4,"humidity":87,"rain":0.0,"pressure":1001.3,"uv_index":9.1,"wind_gusts":34.6,"aqi":78,"pm10":22.8,"pm2_5":17.1,"mosquito_risk":7,"arthritis_risk":5,"migraine_risk":4,"frizz_risk":1,"updated_at":"2026-04-15T00:51:17.003798+05:30"},{"city":"Cuttack","state":"Odisha","latitude":20.4625,"longitude":85.8828,"temp":27.3,"humidity":90,"rain":0.0,"pressure":1003.2,"uv_index":9.15,"wind_gusts":30.2,"aqi":78,"pm10":22.8,"pm2_5":17.1,"mosquito_risk":7,"arthritis_risk":5,"migraine_risk":4,"frizz_risk":1,"updated_at":"2026-04-15T00:51:17.003805+05:30"},{"city":"Rourkela","state":"Odisha","latitude":22.2604,"longitude":84.8536,"temp":25.8,"humidity":72,"rain":0.0,"pressure":983.4,"uv_index":8.9,"wind_gusts":38.2,"aqi":86,"pm10":95.0,"pm2_5":41.7,"mosquito_risk":7,"arthritis_risk":5,"migraine_risk":7,"frizz_risk":1,"updated_at":"2026-04-15T00:51:17.003833+05:30"},{"city":"Raipur","state":"Chhattisgarh","latitude":21.2514,"longitude":81.6296,"temp":28.8,"humidity":42,"rain":0.0,"pressure":972.1,"uv_index":8.95,"wind_gusts":43.6,"aqi":143,"pm10":92.0,"pm2_5":52.7,"mosquito_risk":4,"arthritis_risk":5,"migraine_risk":7,"frizz_risk":0,"updated_at":"2026-04-15T00:51:17.003841+05:30"},{"city":"Bhilai","state":"Chhattisgarh","latitude":21.1938,"longitude":81.3509,"temp":27.3,"humidity":45,"rain":0.0,"pressure":972.4,"uv_index":8.95,"wind_gusts":43.2,"aqi":131,"pm10":102.4,"pm2_5":70.5,"mosquito_risk":4,"arthritis_risk":5,"migraine_risk":7,"frizz_risk":0,"updated_at":"2026-04-15T00:51:17.003848+05:30"},{"city":"Guwahati","state":"Assam","latitude":26.1158,"longitude":91.7086,"temp":24.1,"humidity":85,"rain":0.0,"pressure":1000.0,"uv_index":8.45,"wind_gusts":34.6,"aqi":119,"pm10":72.2,"pm2_5":57.0,"mosquito_risk":3,"arthritis_risk":5,"migraine_risk":4,"frizz_risk":1,"updated_at":"2026-04-15T00:51:17.003855+05:30"},{"city":"Agartala","state":"Tripura","latitude":23.8315,"longitude":91.2868,"temp":23.7,"humidity":91,"rain":0.0,"pressure":1005.3,"uv_index":8.7,"wind_gusts":34.2,"aqi":105,"pm10":35.5,"pm2_5":31.8,"mosquito_risk":3,"arthritis_risk":5,"migraine_risk":4,"frizz_risk":1,"updated_at":"2026-04-15T00:51:17.003862+05:30"},{"city":"Shillong","state":"Meghalaya","latitude":25.5788,"longitude":91.8933,"temp":14.5,"humidity":87,"rain":0.0,"pressure":854.5,"uv_index":7.7,"wind_gusts":58.7,"aqi":95,"pm10":50.4,"pm2_5":41.4,"mosquito_risk":3,"arthritis_risk":10,"migraine_risk":7,"frizz_risk":0,"updated_at":"2026-04-15T00:51:17.003869+05:30"},{"city":"Imphal","state":"Manipur","latitude":24.817,"longitude":93.9368,"temp":18.2,"humidity":93,"rain":0.0,"pressure":922.6,"uv_index":9.05,"wind_gusts":72.7,"aqi":129,"pm10":62.9,"pm2_5":50.3,"mosquito_risk":3,"arthritis_risk":10,"migraine_risk":7,"frizz_risk":1,"updated_at":"2026-04-15T00:51:17.003876+05:30"},{"city":"Aizawl","state":"Mizoram","latitude":23.7271,"longitude":92.7176,"temp":19.6,"humidity":86,"rain":0.0,"pressure":892.1,"uv_index":8.9,"wind_gusts":51.1,"aqi":110,"pm10":50.5,"pm2_5":40.0,"mosquito_risk":3,"arthritis_risk":10,"migraine_risk":7,"frizz_risk":1,"updated_at":"2026-04-15T00:51:17.003883+05:30"},{"city":"Kohima","state":"Nagaland","latitude":25.6701,"longitude":94.1077,"temp":15.5,"humidity":85,"rain":0.0,"pressure":853.5,"uv_index":8.95,"wind_gusts":72.0,"aqi":112,"pm10":65.4,"pm2_5":46.3,"mosquito_risk":3,"arthritis_risk":10,"migraine_risk":7,"frizz_risk":0,"updated_at":"2026-04-15T00:51:17.003889+05:30"},{"city":"Gangtok","state":"Sikkim","latitude":27.3314,"longitude":88.6138,"temp":13.7,"humidity":89,"rain":0.1,"pressure":835.1,"uv_index":8.75,"wind_gusts":19.4,"aqi":110,"pm10":52.7,"pm2_5":34.2,"mosquito_risk":6,"arthritis_risk":10,"migraine_risk":7,"frizz_risk":0,"updated_at":"2026-04-15T00:51:17.003896+05:30"},{"city":"Siliguri","state":"West Bengal","latitude":26.7271,"longitude":88.3953,"temp":21.0,"humidity":73,"rain":0.0,"pressure":992.5,"uv_index":8.4,"wind_gusts":31.7,"aqi":154,"pm10":119.2,"pm2_5":74.7,"mosquito_risk":3,"arthritis_risk":5,"migraine_risk":7,"frizz_risk":0,"updated_at":"2026-04-15T00:51:20.243767+05:30"},{"city":"Durgapur","state":"West Bengal","latitude":23.5204,"longitude":87.3119,"temp":26.0,"humidity":78,"rain":0.0,"pressure":993.2,"uv_index":8.85,"wind_gusts":25.2,"aqi":153,"pm10":112.0,"pm2_5":68.9,"mosquito_risk":7,"arthritis_risk":5,"migraine_risk":7,"frizz_risk":1,"updated_at":"2026-04-15T00:51:20.243796+05:30"},{"city":"Asansol","state":"West Bengal","latitude":23.6739,"longitude":86.9524,"temp":27.3,"humidity":52,"rain":0.0,"pressure":991.8,"uv_index":8.85,"wind_gusts":23.8,"aqi":118,"pm10":135.5,"pm2_5":56.7,"mosquito_risk":4,"arthritis_risk":5,"migraine_risk":7,"frizz_risk":1,"updated_at":"2026-04-15T00:51:20.243840+05:30"},{"city":"Pondicherry","state":"Puducherry","latitude":11.9139,"longitude":79.8145,"temp":26.8,"humidity":96,"rain":0.0,"pressure":1008.3,"uv_index":9.3,"wind_gusts":26.6,"aqi":36,"pm10":8.0,"pm2_5":5.4,"mosquito_risk":7,"arthritis_risk":0,"migraine_risk":4,"frizz_risk":1,"updated_at":"2026-04-15T00:51:20.243854+05:30"},{"city":"Port Blair","state":"Andaman and Nicobar Islands","latitude":11.6234,"longitude":92.7265,"temp":29.2,"humidity":72,"rain":0.0,"pressure":1006.3,"uv_index":9.2,"wind_gusts":18.4,"aqi":64,"pm10":31.5,"pm2_5":21.1,"mosquito_risk":7,"arthritis_risk":5,"migraine_risk":4,"frizz_risk":1,"updated_at":"2026-04-15T00:51:20.243862+05:30"},{"city":"Haridwar","state":"Uttarakhand","latitude":29.9457,"longitude":78.1642,"temp":20.3,"humidity":58,"rain":0.0,"pressure":972.6,"uv_index":7.05,"wind_gusts":29.2,"aqi":64,"pm10":32.1,"pm2_5":27.9,"mosquito_risk":0,"arthritis_risk":5,"migraine_risk":7,"frizz_risk":0,"updated_at":"2026-04-15T00:51:20.243870+05:30"},{"city":"Rishikesh","state":"Uttarakhand","latitude":30.0869,"longitude":78.2676,"temp":20.2,"humidity":66,"rain":0.0,"pressure":965.7,"uv_index":7.2,"wind_gusts":30.6,"aqi":93,"pm10":32.1,"pm2_5":19.5,"mosquito_risk":3,"arthritis_risk":5,"migraine_risk":7,"frizz_risk":0,"updated_at":"2026-04-15T00:51:20.243877+05:30"},{"city":"Nainital","state":"Uttarakhand","latitude":29.3919,"longitude":79.4542,"temp":20.1,"humidity":28,"rain":0.0,"pressure":805.7,"uv_index":8.0,"wind_gusts":53.6,"aqi":90,"pm10":52.3,"pm2_5":15.5,"mosquito_risk":0,"arthritis_risk":5,"migraine_risk":7,"frizz_risk":0,"updated_at":"2026-04-15T00:51:20.243884+05:30"},{"city":"Mussoorie","state":"Uttarakhand","latitude":30.4599,"longitude":78.0664,"temp":16.9,"humidity":55,"rain":0.0,"pressure":801.9,"uv_index":7.55,"wind_gusts":33.8,"aqi":84,"pm10":32.6,"pm2_5":27.9,"mosquito_risk":0,"arthritis_risk":5,"migraine_risk":7,"frizz_risk":0,"updated_at":"2026-04-15T00:51:20.243891+05:30"},{"city":"Dharamshala","state":"Himachal Pradesh","latitude":32.219,"longitude":76.3234,"temp":20.3,"humidity":40,"rain":0.0,"pressure":868.7,"uv_index":7.8,"wind_gusts":22.7,"aqi":82,"pm10":19.5,"pm2_5":12.3,"mosquito_risk":0,"arthritis_risk":5,"migraine_risk":7,"frizz_risk":0,"updated_at":"2026-04-15T00:51:20.243898+05:30"},{"city":"Dalhousie","state":"Himachal Pradesh","latitude":32.5387,"longitude":75.971,"temp":16.7,"humidity":44,"rain":0.0,"pressure":803.1,"uv_index":7.95,"wind_gusts":22.0,"aqi":60,"pm10":32.2,"pm2_5":27.8,"mosquito_risk":0,"arthritis_risk":5,"migraine_risk":7,"frizz_risk":0,"updated_at":"2026-04-15T00:51:20.243905+05:30"},{"city":"Patiala","state":"Punjab","latitude":30.3398,"longitude":76.3869,"temp":21.5,"humidity":53,"rain":0.0,"pressure":976.4,"uv_index":7.15,"wind_gusts":26.3,"aqi":186,"pm10":97.3,"pm2_5":45.9,"mosquito_risk":0,"arthritis_risk":5,"migraine_risk":7,"frizz_risk":0,"updated_at":"2026-04-15T00:51:20.243912+05:30"},{"city":"Bhatinda","state":"Punjab","latitude":30.211,"longitude":74.9455,"temp":24.0,"humidity":51,"rain":0.0,"pressure":982.2,"uv_index":7.85,"wind_gusts":29.9,"aqi":76,"pm10":38.3,"pm2_5":23.2,"mosquito_risk":0,"arthritis_risk":5,"migraine_risk":7,"frizz_risk":0,"updated_at":"2026-04-15T00:51:20.243919+05:30"},{"city":"Rohtak","state":"Haryana","latitude":28.8955,"longitude":76.6066,"temp":23.2,"humidity":51,"rain":0.0,"pressure":979.7,"uv_index":7.35,"wind_gusts":28.4,"aqi":207,"pm10":581.1,"pm2_5":93.8,"mosquito_risk":0,"arthritis_risk":5,"migraine_risk":7,"frizz_risk":0,"updated_at":"2026-04-15T00:51:20.243925+05:30"},{"city":"Panipat","state":"Haryana","latitude":29.3909,"longitude":76.9635,"temp":22.2,"humidity":55,"rain":0.0,"pressure":978.4,"uv_index":7.15,"wind_gusts":29.2,"aqi":541,"pm10":486.2,"pm2_5":88.2,"mosquito_risk":0,"arthritis_risk":5,"migraine_risk":7,"frizz_risk":0,"updated_at":"2026-04-15T00:51:20.243931+05:30"},{"city":"Mathura","state":"Uttar Pradesh","latitude":27.4924,"longitude":77.6737,"temp":25.2,"humidity":49,"rain":0.0,"pressure":984.1,"uv_index":7.6,"wind_gusts":24.1,"aqi":340,"pm10":381.8,"pm2_5":83.4,"mosquito_risk":4,"arthritis_risk":5,"migraine_risk":7,"frizz_risk":0,"updated_at":"2026-04-15T00:51:20.243938+05:30"},{"city":"Vrindavan","state":"Uttar Pradesh","latitude":27.5823,"longitude":77.7027,"temp":25.5,"humidity":47,"rain":0.0,"pressure":984.5,"uv_index":7.6,"wind_gusts":25.2,"aqi":340,"pm10":381.8,"pm2_5":83.4,"mosquito_risk":4,"arthritis_risk":5,"migraine_risk":7,"frizz_risk":0,"updated_at":"2026-04-15T00:51:20.243944+05:30"},{"city":"Ayodhya","state":"Uttar Pradesh","latitude":26.7922,"longitude":82.1998,"temp":25.6,"humidity":39,"rain":0.0,"pressure":992.7,"uv_index":7.95,"wind_gusts":31.7,"aqi":91,"pm10":131.3,"pm2_5":30.3,"mosquito_risk":4,"arthritis_risk":5,"migraine_risk":7,"frizz_risk":0,"updated_at":"2026-04-15T00:51:20.243950+05:30"},{"city":"Ratlam","state":"Madhya Pradesh","latitude":23.3315,"longitude":75.0367,"temp":26.2,"humidity":55,"rain":0.0,"pressure":953.1,"uv_index":8.4,"wind_gusts":28.8,"aqi":59,"pm10":26.7,"pm2_5":17.2,"mosquito_risk":4,"arthritis_risk":5,"migraine_risk":7,"frizz_risk":1,"updated_at":"2026-04-15T00:51:20.243956+05:30"},{"city":"Sagar","state":"Madhya Pradesh","latitude":23.8388,"longitude":78.7378,"temp":28.6,"humidity":42,"rain":0.0,"pressure":948.0,"uv_index":8.6,"wind_gusts":31.0,"aqi":70,"pm10":37.7,"pm2_5":20.1,"mosquito_risk":4,"arthritis_risk":5,"migraine_risk":7,"frizz_risk":0,"updated_at":"2026-04-15T00:51:20.243963+05:30"},{"city":"Satna","state":"Madhya Pradesh","latitude":24.6005,"longitude":80.8322,"temp":27.0,"humidity":44,"rain":0.0,"pressure":969.6,"uv_index":8.6,"wind_gusts":25.2,"aqi":67,"pm10":101.5,"pm2_5":23.5,"mosquito_risk":4,"arthritis_risk":5,"migraine_risk":7,"frizz_risk":0,"updated_at":"2026-04-15T00:51:20.243969+05:30"},{"city":"Akola","state":"Maharashtra","latitude":20.7002,"longitude":77.0082,"temp":27.8,"humidity":49,"rain":0.0,"pressure":973.1,"uv_index":8.8,"wind_gusts":27.7,"aqi":71,"pm10":21.5,"pm2_5":16.2,"mosquito_risk":4,"arthritis_risk":5,"migraine_risk":7,"frizz_risk":1,"updated_at":"2026-04-15T00:51:20.243976+05:30"},{"city":"Amravati","state":"Maharashtra","latitude":20.9374,"longitude":77.7796,"temp":28.2,"humidity":48,"rain":0.0,"pressure":965.2,"uv_index":8.8,"wind_gusts":25.9,"aqi":67,"pm10":20.0,"pm2_5":16.1,"mosquito_risk":4,"arthritis_risk":5,"migraine_risk":7,"frizz_risk":1,"updated_at":"2026-04-15T00:51:20.243982+05:30"},{"city":"Latur","state":"Maharashtra","latitude":18.4088,"longitude":76.5604,"temp":28.0,"humidity":46,"rain":0.0,"pressure":937.9,"uv_index":9.05,"wind_gusts":29.9,"aqi":81,"pm10":27.7,"pm2_5":22.2,"mosquito_risk":4,"arthritis_risk":5,"migraine_risk":7,"frizz_risk":0,"updated_at":"2026-04-15T00:51:20.243989+05:30"},{"city":"Nanded","state":"Maharashtra","latitude":19.1383,"longitude":77.3091,"temp":26.9,"humidity":57,"rain":0.0,"pressure":966.3,"uv_index":8.95,"wind_gusts":17.3,"aqi":65,"pm10":33.5,"pm2_5":29.5,"mosquito_risk":4,"arthritis_risk":5,"migraine_risk":7,"frizz_risk":1,"updated_at":"2026-04-15T00:51:20.243995+05:30"},{"city":"Gulbarga","state":"Karnataka","latitude":17.3297,"longitude":76.8343,"temp":31.8,"humidity":37,"rain":0.0,"pressure":956.7,"uv_index":9.1,"wind_gusts":33.8,"aqi":112,"pm10":41.4,"pm2_5":35.9,"mosquito_risk":0,"arthritis_risk":5,"migraine_risk":7,"frizz_risk":0,"updated_at":"2026-04-15T00:51:20.244001+05:30"},{"city":"Bidar","state":"Karnataka","latitude":17.9104,"longitude":77.5199,"temp":29.6,"humidity":43,"rain":0.0,"pressure":934.2,"uv_index":9.1,"wind_gusts":20.9,"aqi":93,"pm10":32.1,"pm2_5":24.9,"mosquito_risk":4,"arthritis_risk":5,"migraine_risk":7,"frizz_risk":0,"updated_at":"2026-04-15T00:51:20.244007+05:30"},{"city":"Hospet","state":"Karnataka","latitude":15.2689,"longitude":76.3909,"temp":28.9,"humidity":72,"rain":0.0,"pressure":955.5,"uv_index":9.3,"wind_gusts":29.5,"aqi":104,"pm10":60.1,"pm2_5":51.7,"mosquito_risk":7,"arthritis_risk":5,"migraine_risk":7,"frizz_risk":1,"updated_at":"2026-04-15T00:51:20.244013+05:30"},{"city":"Tirupur","state":"Tamil Nadu","latitude":11.1085,"longitude":77.3411,"temp":28.1,"humidity":74,"rain":0.0,"pressure":975.2,"uv_index":9.5,"wind_gusts":33.5,"aqi":75,"pm10":30.5,"pm2_5":26.5,"mosquito_risk":7,"arthritis_risk":5,"migraine_risk":7,"frizz_risk":1,"updated_at":"2026-04-15T00:51:20.244019+05:30"},{"city":"Alappuzha","state":"Kerala","latitude":9.4981,"longitude":76.3388,"temp":28.7,"humidity":82,"rain":0.0,"pressure":1009.1,"uv_index":9.15,"wind_gusts":30.6,"aqi":97,"pm10":49.9,"pm2_5":35.5,"mosquito_risk":7,"arthritis_risk":0,"migraine_risk":4,"frizz_risk":1,"updated_at":"2026-04-15T00:51:20.244025+05:30"},{"city":"Munnar","state":"Kerala","latitude":10.0889,"longitude":77.0595,"temp":21.4,"humidity":98,"rain":0.0,"pressure":857.2,"uv_index":9.75,"wind_gusts":37.8,"aqi":77,"pm10":41.3,"pm2_5":35.6,"mosquito_risk":3,"arthritis_risk":5,"migraine_risk":7,"frizz_risk":1,"updated_at":"2026-04-15T00:51:20.244032+05:30"},{"city":"Silchar","state":"Assam","latitude":24.8333,"longitude":92.7789,"temp":22.9,"humidity":89,"rain":0.0,"pressure":1005.5,"uv_index":8.7,"wind_gusts":31.0,"aqi":145,"pm10":66.1,"pm2_5":50.5,"mosquito_risk":3,"arthritis_risk":5,"migraine_risk":4,"frizz_risk":1,"updated_at":"2026-04-15T00:51:20.244038+05:30"},{"city":"Dibrugarh","state":"Assam","latitude":27.4728,"longitude":94.912,"temp":21.6,"humidity":88,"rain":0.0,"pressure":995.4,"uv_index":6.5,"wind_gusts":24.1,"aqi":87,"pm10":32.5,"pm2_5":17.7,"mosquito_risk":3,"arthritis_risk":5,"migraine_risk":7,"frizz_risk":1,"updated_at":"2026-04-15T00:51:20.244044+05:30"}]