[{"city":"Delhi","state":"Delhi","latitude":28.6139,"longitude":77.209,"temp":37.4,"humidity":17,"rain":0.0,"pressure":978.8,"uv_index":7.25,"wind_gusts":31.7,"aqi":365,"pm10":635.2,"pm2_5":69.4,"mosquito_risk":0,"arthritis_risk":5,"migraine_risk":10,"frizz_risk":0,"updated_at":"2026-04-20T17:36:38.432739+05:30"},{"city":"Mumbai","state":"Maharashtra","latitude":19.076,"longitude":72.8777,"temp":28.6,"humidity":80,"rain":0.0,"pressure":1005.2,"uv_index":8.05,"wind_gusts":22.3,"aqi":125,"pm10":32.9,"pm2_5":21.0,"mosquito_risk":7,"arthritis_risk":5,"migraine_risk":4,"frizz_risk":1,"updated_at":"2026-04-20T17:36:38.432780+05:30"},{"city":"Bangalore","state":"Karnataka","latitude":12.9716,"longitude":77.5946,"temp":33.9,"humidity":26,"rain":0.0,"pressure":909.2,"uv_index":9.55,"wind_gusts":22.0,"aqi":183,"pm10":27.4,"pm2_5":22.3,"mosquito_risk":0,"arthritis_risk":5,"migraine_risk":7,"frizz_risk":0,"updated_at":"2026-04-20T17:36:38.432795+05:30"},{"city":"Hyderabad","state":"Telangana","latitude":17.385,"longitude":78.4867,"temp":37.3,"humidity":25,"rain":0.0,"pressure":950.1,"uv_index":9.3,"wind_gusts":47.2,"aqi":180,"pm10":49.2,"pm2_5":40.9,"mosquito_risk":0,"arthritis_risk":5,"migraine_risk":10,"frizz_risk":0,"updated_at":"2026-04-20T17:36:38.432805+05:30"},{"city":"Chennai","state":"Tamil Nadu","latitude":13.0827,"longitude":80.2707,"temp":31.9,"humidity":63,"rain":0.0,"pressure":1004.2,"uv_index":9.25,"wind_gusts":35.6,"aqi":38,"pm10":13.9,"pm2_5":9.7,"mosquito_risk":3,"arthritis_risk":5,"migraine_risk":4,"frizz_risk":1,"updated_at":"2026-04-20T17:36:38.432814+05:30"},{"city":"Kolkata","state":"West Bengal","latitude":22.5726,"longitude":88.3639,"temp":30.8,"humidity":77,"rain":0.0,"pressure":1001.2,"uv_index":8.9,"wind_gusts":32.4,"aqi":131,"pm10":31.0,"pm2_5":26.8,"mosquito_risk":3,"arthritis_risk":5,"migraine_risk":4,"frizz_risk":1,"updated_at":"2026-04-20T17:36:38.432826+05:30"},{"city":"Pune","state":"Maharashtra","latitude":18.5204,"longitude":73.8567,"temp":35.7,"humidity":29,"rain":0.0,"pressure":946.3,"uv_index":8.55,"wind_gusts":43.9,"aqi":152,"pm10":42.7,"pm2_5":37.1,"mosquito_risk":0,"arthritis_risk":5,"migraine_risk":10,"frizz_risk":0,"updated_at":"2026-04-20T17:36:38.432834+05:30"},{"city":"Ahmedabad","state":"Gujarat","latitude":23.0225,"longitude":72.5714,"temp":38.8,"humidity":22,"rain":0.0,"pressure":998.7,"uv_index":8.15,"wind_gusts":24.8,"aqi":90,"pm10":35.3,"pm2_5":11.5,"mosquito_risk":0,"arthritis_risk":5,"migraine_risk":10,"frizz_risk":0,"updated_at":"2026-04-20T17:36:38.432841+05:30"},{"city":"Jaipur","state":"Rajasthan","latitude":26.9124,"longitude":75.7873,"temp":38.4,"humidity":13,"rain":0.0,"pressure":956.3,"uv_index":7.95,"wind_gusts":30.6,"aqi":142,"pm10":175.1,"pm2_5":22.9,"mosquito_risk":0,"arthritis_risk":5,"migraine_risk":10,"frizz_risk":0,"updated_at":"2026-04-20T17:36:38.432848+05:30"},{"city":"Lucknow","state":"Uttar Pradesh","latitude":26.8467,"longitude":80.9462,"temp":39.4,"humidity":16,"rain":0.0,"pressure":987.6,"uv_index":7.9,"wind_gusts":38.5,"aqi":149,"pm10":153.2,"pm2_5":28.1,"mosquito_risk":0,"arthritis_risk":5,"migraine_risk":10,"frizz_risk":0,"updated_at":"2026-04-20T17:36:38.432856+05:30"},{"city":"Kanpur","state":"Uttar Pradesh","latitude":26.4499,"longitude":80.3319,"temp":38.0,"humidity":17,"rain":0.0,"pressure":986.4,"uv_index":7.9,"wind_gusts":32.8,"aqi":188,"pm10":459.1,"pm2_5":53.2,"mosquito_risk":0,"arthritis_risk":5,"migraine_risk":10,"frizz_risk":0,"updated_at":"2026-04-20T17:36:38.432863+05:30"},{"city":"Chandigarh","state":"Chandigarh","latitude":30.7333,"longitude":76.7794,"temp":36.3,"humidity":16,"rain":0.0,"pressure":965.5,"uv_index":7.25,"wind_gusts":32.8,"aqi":123,"pm10":32.1,"pm2_5":12.7,"mosquito_risk":0,"arthritis_risk":5,"migraine_risk":10,"frizz_risk":0,"updated_at":"2026-04-20T17:36:38.432869+05:30"},{"city":"Srinagar","state":"Jammu and Kashmir","latitude":34.0837,"longitude":74.7973,"temp":19.6,"humidity":49,"rain":0.0,"pressure":843.0,"uv_index":8.25,"wind_gusts":26.6,"aqi":97,"pm10":35.6,"pm2_5":15.5,"mosquito_risk":0,"arthritis_risk":5,"migraine_risk":7,"frizz_risk":0,"updated_at":"2026-04-20T17:36:38.432876+05:30"},{"city":"Jammu","state":"Jammu and Kashmir","latitude":32.7266,"longitude":74.857,"temp":35.6,"humidity":16,"rain":0.0,"pressure":970.2,"uv_index":7.9,"wind_gusts":27.4,"aqi":86,"pm10":25.0,"pm2_5":11.1,"mosquito_risk":0,"arthritis_risk":5,"migraine_risk":10,"frizz_risk":0,"updated_at":"2026-04-20T17:36:38.432902+05:30"},{"city":"Amritsar","state":"Punjab","latitude":31.634,"longitude":74.8723,"temp":35.0,"humidity":20,"rain":0.0,"pressure":978.1,"uv_index":7.9,"wind_gusts":31.0,"aqi":111,"pm10":28.1,"pm2_5":11.6,"mosquito_risk":0,"arthritis_risk":5,"migraine_risk":7,"frizz_risk":0,"updated_at":"2026-04-20T17:36:38.432912+05:30"},{"city":"Ludhiana","state":"Punjab","latitude":30.901,"longitude":75.8573,"temp":36.9,"humidity":13,"rain":0.0,"pressure":975.5,"uv_index":7.5,"wind_gusts":32.8,"aqi":105,"pm10":48.1,"pm2_5":13.6,"mosquito_risk":0,"arthritis_risk":5,"migraine_risk":10,"frizz_risk":0,"updated_at":"2026-04-20T17:36:38.432922+05:30"},{"city":"Jalandhar","state":"Punjab","latitude":31.326,"longitude":75.5762,"temp":36.2,"humidity":12,"rain":0.0,"pressure":976.9,"uv_index":7.65,"wind_gusts":31.3,"aqi":107,"pm10":51.5,"pm2_5":12.6,"mosquito_risk":0,"arthritis_risk":5,"migraine_risk":10,"frizz_risk":0,"updated_at":"2026-04-20T17:36:38.432929+05:30"},{"city":"Dehradun","state":"Uttarakhand","latitude":30.6284,"longitude":78.0322,"temp":24.7,"humidity":29,"rain":0.0,"pressure":831.2,"uv_index":7.7,"wind_gusts":42.8,"aqi":104,"pm10":27.8,"pm2_5":9.7,"mosquito_risk":0,"arthritis_risk":5,"migraine_risk":7,"frizz_risk":0,"updated_at":"2026-04-20T17:36:38.432935+05:30"},{"city":"Shimla","state":"Himachal Pradesh","latitude":31.1048,"longitude":77.1734,"temp":23.0,"humidity":22,"rain":0.0,"pressure":787.2,"uv_index":7.75,"wind_gusts":46.8,"aqi":113,"pm10":31.3,"pm2_5":11.9,"mosquito_risk":0,"arthritis_risk":5,"migraine_risk":7,"frizz_risk":0,"updated_at":"2026-04-20T17:36:38.432942+05:30"},{"city":"Manali","state":"Himachal Pradesh","latitude":32.2396,"longitude":77.1887,"temp":21.9,"humidity":35,"rain":0.0,"pressure":822.1,"uv_index":9.85,"wind_gusts":29.2,"aqi":111,"pm10":19.6,"pm2_5":6.4,"mosquito_risk":0,"arthritis_risk":5,"migraine_risk":7,"frizz_risk":0,"updated_at":"2026-04-20T17:36:38.432948+05:30"},{"city":"Gurgaon","state":"Haryana","latitude":28.4595,"longitude":77.0266,"temp":37.8,"humidity":16,"rain":0.0,"pressure":977.4,"uv_index":7.4,"wind_gusts":30.6,"aqi":1111,"pm10":2130.9,"pm2_5":202.1,"mosquito_risk":0,"arthritis_risk":5,"migraine_risk":10,"frizz_risk":0,"updated_at":"2026-04-20T17:36:38.432955+05:30"},{"city":"Noida","state":"Uttar Pradesh","latitude":28.5355,"longitude":77.391,"temp":37.7,"humidity":16,"rain":0.0,"pressure":980.3,"uv_index":7.3,"wind_gusts":31.3,"aqi":1111,"pm10":2130.9,"pm2_5":202.1,"mosquito_risk":0,"arthritis_risk":5,"migraine_risk":10,"frizz_risk":0,"updated_at":"2026-04-20T17:36:38.432964+05:30"},{"city":"Ghaziabad","state":"Uttar Pradesh","latitude":28.6692,"longitude":77.4538,"temp":37.4,"humidity":17,"rain":0.0,"pressure":978.5,"uv_index":7.3,"wind_gusts":31.0,"aqi":175,"pm10":476.8,"pm2_5":56.8,"mosquito_risk":0,"arthritis_risk":5,"migraine_risk":10,"frizz_risk":0,"updated_at":"2026-04-20T17:36:38.432971+05:30"},{"city":"Faridabad","state":"Haryana","latitude":28.4089,"longitude":77.3178,"temp":37.8,"humidity":16,"rain":0.0,"pressure":979.5,"uv_index":7.35,"wind_gusts":32.8,"aqi":1111,"pm10":2130.9,"pm2_5":202.1,"mosquito_risk":0,"arthritis_risk":5,"migraine_risk":10,"frizz_risk":0,"updated_at":"2026-04-20T17:36:38.432978+05:30"},{"city":"Meerut","state":"Uttar Pradesh","latitude":28.9845,"longitude":77.7064,"temp":37.3,"humidity":15,"rain":0.0,"pressure":977.1,"uv_index":7.2,"wind_gusts":34.2,"aqi":175,"pm10":476.8,"pm2_5":56.8,"mosquito_risk":0,"arthritis_risk":5,"migraine_risk":10,"frizz_risk":0,"updated_at":"2026-04-20T17:36:38.432984+05:30"},{"city":"Agra","state":"Uttar Pradesh","latitude":27.1767,"longitude":78.0081,"temp":38.9,"humidity":15,"rain":0.0,"pressure":983.2,"uv_index":7.7,"wind_gusts":26.3,"aqi":658,"pm10":886.6,"pm2_5":92.7,"mosquito_risk":0,"arthritis_risk":5,"migraine_risk":10,"frizz_risk":0,"updated_at":"2026-04-20T17:36:38.432992+05:30"},{"city":"Varanasi","state":"Uttar Pradesh","latitude":25.3176,"longitude":82.9739,"temp":40.2,"humidity":15,"rain":0.0,"pressure":991.3,"uv_index":8.4,"wind_gusts":31.7,"aqi":149,"pm10":21.9,"pm2_5":12.1,"mosquito_risk":0,"arthritis_risk":5,"migraine_risk":10,"frizz_risk":0,"updated_at":"2026-04-20T17:36:38.432999+05:30"},{"city":"Prayagraj","state":"Uttar Pradesh","latitude":25.4358,"longitude":81.8463,"temp":39.5,"humidity":18,"rain":0.0,"pressure":989.9,"uv_index":7.85,"wind_gusts":25.9,"aqi":139,"pm10":41.3,"pm2_5":13.8,"mosquito_risk":0,"arthritis_risk":5,"migraine_risk":10,"frizz_risk":0,"updated_at":"2026-04-20T17:36:38.433006+05:30"},{"city":"Gorakhpur","state":"Uttar Pradesh","latitude":26.7606,"longitude":83.3732,"temp":40.0,"humidity":13,"rain":0.0,"pressure":990.5,"uv_index":8.35,"wind_gusts":36.0,"aqi":170,"pm10":133.6,"pm2_5":29.7,"mosquito_risk":0,"arthritis_risk":5,"migraine_risk":10,"frizz_risk":0,"updated_at":"2026-04-20T17:36:38.433012+05:30"},{"city":"Bareilly","state":"Uttar Pradesh","latitude":28.367,"longitude":79.4304,"temp":38.4,"humidity":15,"rain":0.0,"pressure":981.5,"uv_index":7.55,"wind_gusts":34.6,"aqi":140,"pm10":39.7,"pm2_5":15.2,"mosquito_risk":0,"arthritis_risk":5,"migraine_risk":10,"frizz_risk":0,"updated_at":"2026-04-20T17:36:38.433018+05:30"},{"city":"Aligarh","state":"Uttar Pradesh","latitude":27.8974,"longitude":78.088,"temp":38.9,"humidity":15,"rain":0.0,"pressure":980.7,"uv_index":7.45,"wind_gusts":34.9,"aqi":529,"pm10":1046.8,"pm2_5":110.4,"mosquito_risk":0,"arthritis_risk":5,"migraine_risk":10,"frizz_risk":0,"updated_at":"2026-04-20T17:36:38.433024+05:30"},{"city":"Moradabad","state":"Uttar Pradesh","latitude":28.8386,"longitude":78.7733,"temp":37.7,"humidity":16,"rain":0.0,"pressure":978.8,"uv_index":7.4,"wind_gusts":38.9,"aqi":128,"pm10":72.4,"pm2_5":23.7,"mosquito_risk":0,"arthritis_risk":5,"migraine_risk":10,"frizz_risk":0,"updated_at":"2026-04-20T17:36:38.433033+05:30"},{"city":"Saharanpur","state":"Uttar Pradesh","latitude":29.9637,"longitude":77.546,"temp":36.2,"humidity":17,"rain":0.0,"pressure":971.9,"uv_index":6.95,"wind_gusts":29.5,"aqi":118,"pm10":121.1,"pm2_5":26.3,"mosquito_risk":0,"arthritis_risk":5,"migraine_risk":10,"frizz_risk":0,"updated_at":"2026-04-20T17:36:38.433039+05:30"},{"city":"Jhansi","state":"Uttar Pradesh","latitude":25.4484,"longitude":78.5685,"temp":40.8,"humidity":10,"rain":0.0,"pressure":972.9,"uv_index":8.2,"wind_gusts":32.4,"aqi":131,"pm10":47.3,"pm2_5":14.0,"mosquito_risk":0,"arthritis_risk":5,"migraine_risk":10,"frizz_risk":0,"updated_at":"2026-04-20T17:36:41.689210+05:30"},{"city":"Surat","state":"Gujarat","latitude":21.1702,"longitude":72.8311,"temp":31.8,"humidity":49,"rain":0.0,"pressure":1003.9,"uv_index":7.85,"wind_gusts":24.5,"aqi":97,"pm10":37.1,"pm2_5":33.4,"mosquito_risk":0,"arthritis_risk":5,"migraine_risk":4,"frizz_risk":1,"updated_at":"2026-04-20T17:36:41.689240+05:30"},{"city":"Vadodara","state":"Gujarat","latitude":22.3072,"longitude":73.1812,"temp":38.7,"humidity":19,"rain":0.0,"pressure":1000.9,"uv_index":8.1,"wind_gusts":27.7,"aqi":132,"pm10":21.0,"pm2_5":12.0,"mosquito_risk":0,"arthritis_risk":5,"migraine_risk":7,"frizz_risk":0,"updated_at":"2026-04-20T17:36:41.689251+05:30"},{"city":"Rajkot","state":"Gujarat","latitude":22.3039,"longitude":70.8022,"temp":36.9,"humidity":24,"rain":0.0,"pressure":991.7,"uv_index":7.85,"wind_gusts":31.3,"aqi":84,"pm10":22.2,"pm2_5":11.1,"mosquito_risk":0,"arthritis_risk":5,"migraine_risk":10,"frizz_risk":0,"updated_at":"2026-04-20T17:36:41.689259+05:30"},{"city":"Thane","state":"Maharashtra","latitude":19.2183,"longitude":72.9781,"temp":30.0,"humidity":71,"rain":0.0,"pressure":1004.8,"uv_index":8.05,"wind_gusts":33.8,"aqi":125,"pm10":32.9,"pm2_5":21.0,"mosquito_risk":7,"arthritis_risk":5,"migraine_risk":4,"frizz_risk":1,"updated_at":"2026-04-20T17:36:41.689267+05:30"},{"city":"Nagpur","state":"Maharashtra","latitude":21.1458,"longitude":79.0882,"temp":38.1,"humidity":20,"rain":0.0,"pressure":969.7,"uv_index":8.5,"wind_gusts":37.4,"aqi":131,"pm10":27.0,"pm2_5":23.3,"mosquito_risk":0,"arthritis_risk":5,"migraine_risk":10,"frizz_risk":0,"updated_at":"2026-04-20T17:36:41.689275+05:30"},{"city":"Nashik","state":"Maharashtra","latitude":19.9975,"longitude":73.7898,"temp":34.0,"humidity":32,"rain":0.0,"pressure":943.8,"uv_index":8.3,"wind_gusts":34.9,"aqi":133,"pm10":22.2,"pm2_5":15.9,"mosquito_risk":0,"arthritis_risk":5,"migraine_risk":7,"frizz_risk":0,"updated_at":"2026-04-20T17:36:41.689282+05:30"},{"city":"Aurangabad","state":"Maharashtra","latitude":19.8762,"longitude":75.3433,"temp":37.2,"humidity":19,"rain":0.0,"pressure":941.7,"uv_index":8.95,"wind_gusts":23.8,"aqi":129,"pm10":30.5,"pm2_5":25.6,"mosquito_risk":0,"arthritis_risk":5,"migraine_risk":10,"frizz_risk":0,"updated_at":"2026-04-20T17:36:41.689290+05:30"},{"city":"Solapur","state":"Maharashtra","latitude":17.6599,"longitude":75.9064,"temp":37.0,"humidity":24,"rain":0.0,"pressure":954.0,"uv_index":8.7,"wind_gusts":20.2,"aqi":156,"pm10":38.0,"pm2_5":30.3,"mosquito_risk":0,"arthritis_risk":5,"migraine_risk":10,"frizz_risk":0,"updated_at":"2026-04-20T17:36:41.689298+05:30"},{"city":"Kolhapur","state":"Maharashtra","latitude":16.705,"longitude":74.2433,"temp":30.8,"humidity":53,"rain":0.0,"pressure":945.9,"uv_index":9.05,"wind_gusts":39.2,"aqi":152,"pm10":43.8,"pm2_5":39.8,"mosquito_risk":0,"arthritis_risk":5,"migraine_risk":7,"frizz_risk":1,"updated_at":"2026-04-20T17:36:41.689305+05:30"},{"city":"Goa","state":"Goa","latitude":15.2993,"longitude":74.124,"temp":30.8,"humidity":68,"rain":0.0,"pressure":994.9,"uv_index":9.0,"wind_gusts":30.2,"aqi":86,"pm10":36.1,"pm2_5":24.6,"mosquito_risk":3,"arthritis_risk":5,"migraine_risk":7,"frizz_risk":1,"updated_at":"2026-04-20T17:36:41.689313+05:30"},{"city":"Jodhpur","state":"Rajasthan","latitude":26.2389,"longitude":73.0243,"temp":38.2,"humidity":18,"rain":0.0,"pressure":979.9,"uv_index":8.15,"wind_gusts":27.0,"aqi":115,"pm10":230.0,"pm2_5":29.4,"mosquito_risk":0,"arthritis_risk":5,"migraine_risk":10,"frizz_risk":0,"updated_at":"2026-04-20T17:36:41.689320+05:30"},{"city":"Udaipur","state":"Rajasthan","latitude":24.5854,"longitude":73.7125,"temp":35.2,"humidity":18,"rain":0.0,"pressure":945.0,"uv_index":8.7,"wind_gusts":31.3,"aqi":67,"pm10":19.6,"pm2_5":7.5,"mosquito_risk":0,"arthritis_risk":5,"migraine_risk":10,"frizz_risk":0,"updated_at":"2026-04-20T17:36:41.689327+05:30"},{"city":"Kota","state":"Rajasthan","latitude":25.2138,"longitude":75.8648,"temp":39.8,"humidity":12,"rain":0.0,"pressure":974.5,"uv_index":8.25,"wind_gusts":28.8,"aqi":99,"pm10":28.4,"pm2_5":8.0,"mosquito_risk":0,"arthritis_risk":5,"migraine_risk":10,"frizz_risk":0,"updated_at":"2026-04-20T17:36:41.689335+05:30"},{"city":"Bikaner","state":"Rajasthan","latitude":28.0229,"longitude":73.3119,"temp":37.2,"humidity":18,"rain":0.0,"pressure":979.1,"uv_index":7.95,"wind_gusts":35.3,"aqi":115,"pm10":46.7,"pm2_5":12.0,"mosquito_risk":0,"arthritis_risk":5,"migraine_risk":10,"frizz_risk":0,"updated_at":"2026-04-20T17:36:41.689341+05:30"},{"city":"Ajmer","state":"Rajasthan","latitude":26.4499,"longitude":74.6399,"temp":36.6,"humidity":16,"rain":0.0,"pressure":952.3,"uv_index":8.1,"wind_gusts":26.3,"aqi":104,"pm10":81.7,"pm2_5":13.9,"mosquito_risk":0,"arthritis_risk":5,"migraine_risk":10,"frizz_risk":0,"updated_at":"2026-04-20T17:36:41.689349+05:30"},{"city":"Gwalior","state":"Madhya Pradesh","latitude":26.2183,"longitude":78.1828,"temp":38.3,"humidity":14,"rain":0.0,"pressure":978.8,"uv_index":8.0,"wind_gusts":38.2,"aqi":135,"pm10":87.3,"pm2_5":20.8,"mosquito_risk":0,"arthritis_risk":5,"migraine_risk":10,"frizz_risk":0,"updated_at":"2026-04-20T17:36:41.689356+05:30"},{"city":"Indore","state":"Madhya Pradesh","latitude":22.7196,"longitude":75.8577,"temp":36.0,"humidity":16,"rain":0.0,"pressure":946.1,"uv_index":8.6,"wind_gusts":37.8,"aqi":114,"pm10":18.6,"pm2_5":13.6,"mosquito_risk":0,"arthritis_risk":5,"migraine_risk":10,"frizz_risk":0,"updated_at":"2026-04-20T17:36:41.689363+05:30"},{"city":"Bhopal","state":"Madhya Pradesh","latitude":23.2599,"longitude":77.4126,"temp":38.4,"humidity":14,"rain":0.0,"pressure":950.6,"uv_index":7.5,"wind_gusts":34.9,"aqi":113,"pm10":16.4,"pm2_5":13.5,"mosquito_risk":0,"arthritis_risk":5,"migraine_risk":10,"frizz_risk":0,"updated_at":"2026-04-20T17:36:41.689370+05:30"},{"city":"Jabalpur","state":"Madhya Pradesh","latitude":23.1815,"longitude":79.9864,"temp":36.8,"humidity":22,"rain":0.0,"pressure":958.2,"uv_index":8.15,"wind_gusts":35.6,"aqi":113,"pm10":17.3,"pm2_5":14.9,"mosquito_risk":0,"arthritis_risk":5,"migraine_risk":10,"frizz_risk":0,"updated_at":"2026-04-20T17:36:41.689377+05:30"},{"city":"Ujjain","state":"Madhya Pradesh","latitude":23.1765,"longitude":75.7885,"temp":36.0,"humidity":18,"rain":0.0,"pressure":951.9,"uv_index":8.55,"wind_gusts":36.0,"aqi":101,"pm10":16.4,"pm2_5":12.5,"mosquito_risk":0,"arthritis_risk":5,"migraine_risk":10,"frizz_risk":0,"updated_at":"2026-04-20T17:36:41.689385+05:30"},{"city":"Visakhapatnam","state":"Andhra Pradesh","latitude":17.6868,"longitude":83.2185,"temp":30.4,"humidity":71,"rain":0.0,"pressure":1001.0,"uv_index":9.2,"wind_gusts":41.8,"aqi":53,"pm10":19.2,"pm2_5":14.4,"mosquito_risk":3,"arthritis_risk":5,"migraine_risk":4,"frizz_risk":1,"updated_at":"2026-04-20T17:36:41.689392+05:30"},{"city":"Vijayawada","state":"Andhra Pradesh","latitude":16.5062,"longitude":80.648,"temp":35.8,"humidity":47,"rain":0.0,"pressure":998.5,"uv_index":9.2,"wind_gusts":27.0,"aqi":63,"pm10":25.4,"pm2_5":22.1,"mosquito_risk":0,"arthritis_risk":5,"migraine_risk":10,"frizz_risk":1,"updated_at":"2026-04-20T17:36:41.689399+05:30"},{"city":"Guntur","state":"Andhra Pradesh","latitude":16.3067,"longitude":80.4365,"temp":33.7,"humidity":56,"rain":0.0,"pressure":1000.0,"uv_index":9.25,"wind_gusts":30.2,"aqi":88,"pm10":28.2,"pm2_5":24.3,"mosquito_risk":0,"arthritis_risk":5,"migraine_risk":4,"frizz_risk":1,"updated_at":"2026-04-20T17:36:41.689405+05:30"},{"city":"Nellore","state":"Andhra Pradesh","latitude":14.4426,"longitude":79.9865,"temp":32.8,"humidity":61,"rain":0.0,"pressure":1002.1,"uv_index":9.25,"wind_gusts":38.9,"aqi":84,"pm10":21.4,"pm2_5":17.0,"mosquito_risk":3,"arthritis_risk":5,"migraine_risk":4,"frizz_risk":1,"updated_at":"2026-04-20T17:36:41.689413+05:30"},{"city":"Kurnool","state":"Andhra Pradesh","latitude":15.8281,"longitude":78.0373,"temp":39.2,"humidity":24,"rain":0.0,"pressure":972.5,"uv_index":9.2,"wind_gusts":43.2,"aqi":151,"pm10":47.0,"pm2_5":36.9,"mosquito_risk":0,"arthritis_risk":5,"migraine_risk":10,"frizz_risk":0,"updated_at":"2026-04-20T17:36:41.689421+05:30"},{"city":"Kakinada","state":"Andhra Pradesh","latitude":16.9891,"longitude":82.2475,"temp":33.4,"humidity":57,"rain":0.0,"pressure":1003.9,"uv_index":9.2,"wind_gusts":33.1,"aqi":38,"pm10":18.8,"pm2_5":12.8,"mosquito_risk":0,"arthritis_risk":5,"migraine_risk":4,"frizz_risk":1,"updated_at":"2026-04-20T17:36:41.689427+05:30"},{"city":"Tirupati","state":"Andhra Pradesh","latitude":13.6288,"longitude":79.4192,"temp":36.0,"humidity":34,"rain":0.0,"pressure":987.8,"uv_index":9.3,"wind_gusts":32.4,"aqi":99,"pm10":22.5,"pm2_5":19.7,"mosquito_risk":0,"arthritis_risk":5,"migraine_risk":10,"frizz_risk":1,"updated_at":"2026-04-20T17:36:41.689434+05:30"},{"city":"Warangal","state":"Telangana","latitude":17.9689,"longitude":79.5941,"temp":38.7,"humidity":26,"rain":0.0,"pressure":974.6,"uv_index":9.15,"wind_gusts":27.7,"aqi":174,"pm10":50.8,"pm2_5":44.2,"mosquito_risk":0,"arthritis_risk":5,"migraine_risk":10,"frizz_risk":0,"updated_at":"2026-04-20T17:36:41.689441+05:30"},{"city":"Nizamabad","state":"Telangana","latitude":18.6725,"longitude":78.0941,"temp":37.4,"humidity":26,"rain":0.0,"pressure":961.7,"uv_index":9.1,"wind_gusts":33.8,"aqi":135,"pm10":41.2,"pm2_5":34.2,"mosquito_risk":0,"arthritis_risk":5,"migraine_risk":10,"frizz_risk":0,"updated_at":"2026-04-20T17:36:41.689447+05:30"},{"city":"Mysore","state":"Karnataka","latitude":12.2958,"longitude":76.6396,"temp":34.1,"humidity":26,"rain":0.0,"pressure":925.5,"uv_index":9.45,"wind_gusts":40.7,"aqi":164,"pm10":29.0,"pm2_5":24.0,"mosquito_risk":0,"arthritis_risk":5,"migraine_risk":7,"frizz_risk":0,"updated_at":"2026-04-20T17:36:41.689454+05:30"},{"city":"Mangalore","state":"Karnataka","latitude":12.9141,"longitude":74.856,"temp":30.2,"humidity":80,"rain":0.0,"pressure":1003.5,"uv_index":9.1,"wind_gusts":23.8,"aqi":85,"pm10":37.4,"pm2_5":22.3,"mosquito_risk":3,"arthritis_risk":5,"migraine_risk":4,"frizz_risk":1,"updated_at":"2026-04-20T17:36:41.689461+05:30"},{"city":"Hubli-Dharwad","state":"Karnataka","latitude":15.3647,"longitude":75.124,"temp":30.7,"humidity":58,"rain":0.0,"pressure":938.4,"uv_index":9.2,"wind_gusts":33.8,"aqi":169,"pm10":49.9,"pm2_5":39.3,"mosquito_risk":0,"arthritis_risk":5,"migraine_risk":7,"frizz_risk":1,"updated_at":"2026-04-20T17:36:41.689468+05:30"},{"city":"Belgaum","state":"Karnataka","latitude":15.8497,"longitude":74.4977,"temp":29.3,"humidity":61,"rain":0.0,"pressure":923.9,"uv_index":9.25,"wind_gusts":30.2,"aqi":176,"pm10":38.8,"pm2_5":33.1,"mosquito_risk":7,"arthritis_risk":5,"migraine_risk":7,"frizz_risk":1,"updated_at":"2026-04-20T17:36:44.954411+05:30"},{"city":"Coimbatore","state":"Tamil Nadu","latitude":11.0168,"longitude":76.9558,"temp":35.2,"humidity":29,"rain":0.0,"pressure":958.2,"uv_index":9.4,"wind_gusts":47.2,"aqi":156,"pm10":27.7,"pm2_5":24.8,"mosquito_risk":0,"arthritis_risk":5,"migraine_risk":10,"frizz_risk":0,"updated_at":"2026-04-20T17:36:44.954441+05:30"},{"city":"Madurai","state":"Tamil Nadu","latitude":9.9252,"longitude":78.1198,"temp":34.1,"humidity":50,"rain":0.0,"pressure":989.4,"uv_index":9.3,"wind_gusts":45.0,"aqi":121,"pm10":15.5,"pm2_5":12.9,"mosquito_risk":0,"arthritis_risk":5,"migraine_risk":7,"frizz_risk":1,"updated_at":"2026-04-20T17:36:44.954451+05:30"},{"city":"Trichy","state":"Tamil Nadu","latitude":10.7905,"longitude":78.7047,"temp":36.8,"humidity":34,"rain":0.0,"pressure":995.4,"uv_index":9.3,"wind_gusts":29.2,"aqi":89,"pm10":15.1,"pm2_5":12.8,"mosquito_risk":0,"arthritis_risk":5,"migraine_risk":10,"frizz_risk":1,"updated_at":"2026-04-20T17:36:44.954459+05:30"},{"city":"Salem","state":"Tamil Nadu","latitude":11.6643,"longitude":78.146,"temp":37.4,"humidity":26,"rain":0.0,"pressure":973.1,"uv_index":9.35,"wind_gusts":21.2,"aqi":124,"pm10":18.2,"pm2_5":15.1,"mosquito_risk":0,"arthritis_risk":5,"migraine_risk":10,"frizz_risk":0,"updated_at":"2026-04-20T17:36:44.954466+05:30"},{"city":"Tirunelveli","state":"Tamil Nadu","latitude":8.7139,"longitude":77.7567,"temp":34.3,"humidity":47,"rain":0.0,"pressure":999.5,"uv_index":9.2,"wind_gusts":56.2,"aqi":93,"pm10":18.7,"pm2_5":16.1,"mosquito_risk":0,"arthritis_risk":5,"migraine_risk":7,"frizz_risk":1,"updated_at":"2026-04-20T17:36:44.954474+05:30"},{"city":"Vellore","state":"Tamil Nadu","latitude":12.9165,"longitude":79.1325,"temp":35.1,"humidity":37,"rain":0.0,"pressure":980.9,"uv_index":9.35,"wind_gusts":34.2,"aqi":102,"pm10":21.6,"pm2_5":19.1,"mosquito_risk":0,"arthritis_risk":5,"migraine_risk":10,"frizz_risk":1,"updated_at":"2026-04-20T17:36:44.954481+05:30"},{"city":"Erode","state":"Tamil Nadu","latitude":11.341,"longitude":77.7172,"temp":38.1,"humidity":29,"rain":0.0,"pressure":984.3,"uv_index":9.35,"wind_gusts":31.7,"aqi":140,"pm10":17.6,"pm2_5":14.8,"mosquito_risk":0,"arthritis_risk":5,"migraine_risk":10,"frizz_risk":1,"updated_at":"2026-04-20T17:36:44.954489+05:30"},{"city":"Kochi","state":"Kerala","latitude":9.9312,"longitude":76.2673,"temp":29.7,"humidity":82,"rain":0.0,"pressure":1005.1,"uv_index":9.05,"wind_gusts":31.3,"aqi":74,"pm10":21.3,"pm2_5":16.6,"mosquito_risk":7,"arthritis_risk":5,"migraine_risk":4,"frizz_risk":1,"updated_at":"2026-04-20T17:36:44.954496+05:30"},{"city":"Thiruvananthapuram","state":"Kerala","latitude":8.5241,"longitude":76.9366,"temp":29.1,"humidity":81,"rain":0.0,"pressure":1005.3,"uv_index":8.9,"wind_gusts":31.7,"aqi":65,"pm10":21.9,"pm2_5":14.9,"mosquito_risk":7,"arthritis_risk":5,"migraine_risk":4,"frizz_risk":1,"updated_at":"2026-04-20T17:36:44.954504+05:30"},{"city":"Kozhikode","state":"Kerala","latitude":11.2588,"longitude":75.7804,"temp":30.7,"humidity":76,"rain":0.0,"pressure":1004.4,"uv_index":9.1,"wind_gusts":30.6,"aqi":64,"pm10":34.3,"pm2_5":21.8,"mosquito_risk":3,"arthritis_risk":5,"migraine_risk":4,"frizz_risk":1,"updated_at":"2026-04-20T17:36:44.954510+05:30"},{"city":"Thrissur","state":"Kerala","latitude":10.5276,"longitude":76.2144,"temp":31.5,"humidity":71,"rain":0.0,"pressure":1003.4,"uv_index":9.05,"wind_gusts":36.4,"aqi":77,"pm10":22.8,"pm2_5":18.2,"mosquito_risk":3,"arthritis_risk":5,"migraine_risk":4,"frizz_risk":1,"updated_at":"2026-04-20T17:36:44.954517+05:30"},{"city":"Kannur","state":"Kerala","latitude":11.8745,"longitude":75.3704,"temp":31.2,"humidity":67,"rain":0.0,"pressure":1004.2,"uv_index":9.1,"wind_gusts":31.3,"aqi":73,"pm10":32.4,"pm2_5":20.9,"mosquito_risk":3,"arthritis_risk":5,"migraine_risk":4,"frizz_risk":1,"updated_at":"2026-04-20T17:36:44.954524+05:30"},{"city":"Patna","state":"Bihar","latitude":25.5941,"longitude":85.1376,"temp":38.6,"humidity":25,"rain":0.0,"pressure":993.4,"uv_index":8.05,"wind_gusts":28.8,"aqi":190,"pm10":69.8,"pm2_5":25.9,"mosquito_risk":0,"arthritis_risk":5,"migraine_risk":10,"frizz_risk":0,"updated_at":"2026-04-20T17:36:44.954530+05:30"},{"city":"Gaya","state":"Bihar","latitude":24.7914,"longitude":85.0002,"temp":39.4,"humidity":15,"rain":0.0,"pressure":987.5,"uv_index":8.5,"wind_gusts":34.2,"aqi":169,"pm10":56.8,"pm2_5":21.8,"mosquito_risk":0,"arthritis_risk":5,"migraine_risk":10,"frizz_risk":0,"updated_at":"2026-04-20T17:36:44.954536+05:30"},{"city":"Muzaffarpur","state":"Bihar","latitude":26.1209,"longitude":85.3647,"temp":36.2,"humidity":44,"rain":0.0,"pressure":993.6,"uv_index":8.25,"wind_gusts":27.4,"aqi":181,"pm10":78.5,"pm2_5":34.2,"mosquito_risk":0,"arthritis_risk":5,"migraine_risk":10,"frizz_risk":1,"updated_at":"2026-04-20T17:36:44.954542+05:30"},{"city":"Bhagalpur","state":"Bihar","latitude":25.2425,"longitude":87.0117,"temp":35.0,"humidity":59,"rain":0.0,"pressure":994.9,"uv_index":8.65,"wind_gusts":19.1,"aqi":199,"pm10":82.4,"pm2_5":46.4,"mosquito_risk":0,"arthritis_risk":5,"migraine_risk":7,"frizz_risk":1,"updated_at":"2026-04-20T17:36:44.954549+05:30"},{"city":"Ranchi","state":"Jharkhand","latitude":23.3441,"longitude":85.3096,"temp":32.9,"humidity":37,"rain":0.0,"pressure":934.7,"uv_index":9.25,"wind_gusts":35.3,"aqi":147,"pm10":37.8,"pm2_5":13.9,"mosquito_risk":0,"arthritis_risk":5,"migraine_risk":7,"frizz_risk":1,"updated_at":"2026-04-20T17:36:44.954555+05:30"},{"city":"Jamshedpur","state":"Jharkhand","latitude":22.8046,"longitude":86.2029,"temp":30.9,"humidity":64,"rain":0.0,"pressure":986.9,"uv_index":9.05,"wind_gusts":42.8,"aqi":200,"pm10":64.7,"pm2_5":31.4,"mosquito_risk":3,"arthritis_risk":5,"migraine_risk":7,"frizz_risk":1,"updated_at":"2026-04-20T17:36:44.954561+05:30"},{"city":"Dhanbad","state":"Jharkhand","latitude":23.7957,"longitude":86.4304,"temp":39.6,"humidity":16,"rain":0.0,"pressure":974.5,"uv_index":9.0,"wind_gusts":29.5,"aqi":166,"pm10":68.7,"pm2_5":33.1,"mosquito_risk":0,"arthritis_risk":5,"migraine_risk":10,"frizz_risk":0,"updated_at":"2026-04-20T17:36:44.954567+05:30"},{"city":"Bokaro","state":"Jharkhand","latitude":23.6693,"longitude":86.1511,"temp":34.1,"humidity":43,"rain":0.0,"pressure":978.9,"uv_index":8.8,"wind_gusts":36.7,"aqi":162,"pm10":63.8,"pm2_5":30.9,"mosquito_risk":0,"arthritis_risk":5,"migraine_risk":7,"frizz_risk":1,"updated_at":"2026-04-20T17:36:44.954573+05:30"},{"city":"Bhubaneswar","state":"Odisha","latitude":20.2961,"longitude":85.8245,"temp":30.3,"humidity":72,"rain":0.0,"pressure":999.3,"uv_index":9.1,"wind_gusts":34.9,"aqi":118,"pm10":20.5,"pm2_5":17.1,"mosquito_risk":3,"arthritis_risk":5,"migraine_risk":7,"frizz_risk":1,"updated_at":"2026-04-20T17:36:44.954579+05:30"},{"city":"Cuttack","state":"Odisha","latitude":20.4625,"longitude":85.8828,"temp":33.3,"humidity":63,"rain":0.0,"pressure":1000.9,"uv_index":9.15,"wind_gusts":32.4,"aqi":118,"pm10":20.5,"pm2_5":17.1,"mosquito_risk":3,"arthritis_risk":5,"migraine_risk":4,"frizz_risk":1,"updated_at":"2026-04-20T17:36:44.954586+05:30"},{"city":"Rourkela","state":"Odisha","latitude":22.2604,"longitude":84.8536,"temp":34.8,"humidity":46,"rain":0.0,"pressure":980.9,"uv_index":8.85,"wind_gusts":52.2,"aqi":204,"pm10":50.4,"pm2_5":28.3,"mosquito_risk":0,"arthritis_risk":5,"migraine_risk":7,"frizz_risk":1,"updated_at":"2026-04-20T17:36:44.954592+05:30"},{"city":"Raipur","state":"Chhattisgarh","latitude":21.2514,"longitude":81.6296,"temp":39.6,"humidity":19,"rain":0.0,"pressure":970.1,"uv_index":8.65,"wind_gusts":40.3,"aqi":165,"pm10":31.8,"pm2_5":23.2,"mosquito_risk":0,"arthritis_risk":5,"migraine_risk":10,"frizz_risk":0,"updated_at":"2026-04-20T17:36:44.954598+05:30"},{"city":"Bhilai","state":"Chhattisgarh","latitude":21.1938,"longitude":81.3509,"temp":39.3,"humidity":19,"rain":0.0,"pressure":970.4,"uv_index":8.25,"wind_gusts":38.2,"aqi":156,"pm10":24.9,"pm2_5":21.4,"mosquito_risk":0,"arthritis_risk":5,"migraine_risk":10,"frizz_risk":0,"updated_at":"2026-04-20T17:36:44.954603+05:30"},{"city":"Guwahati","state":"Assam","latitude":26.1158,"longitude":91.7086,"temp":28.7,"humidity":79,"rain":0.0,"pressure":996.3,"uv_index":8.5,"wind_gusts":36.4,"aqi":89,"pm10":23.6,"pm2_5":17.9,"mosquito_risk":7,"arthritis_risk":5,"migraine_risk":7,"frizz_risk":1,"updated_at":"2026-04-20T17:36:44.954609+05:30"},{"city":"Agartala","state":"Tripura","latitude":23.8315,"longitude":91.2868,"temp":32.0,"humidity":64,"rain":0.0,"pressure":1001.5,"uv_index":8.6,"wind_gusts":33.1,"aqi":107,"pm10":43.2,"pm2_5":38.3,"mosquito_risk":3,"arthritis_risk":5,"migraine_risk":4,"frizz_risk":1,"updated_at":"2026-04-20T17:36:44.954615+05:30"},{"city":"Shillong","state":"Meghalaya","latitude":25.5788,"longitude":91.8933,"temp":18.5,"humidity":83,"rain":0.0,"pressure":854.0,"uv_index":6.8,"wind_gusts":72.0,"aqi":66,"pm10":29.0,"pm2_5":22.5,"mosquito_risk":3,"arthritis_risk":10,"migraine_risk":7,"frizz_risk":0,"updated_at":"2026-04-20T17:36:44.954621+05:30"},{"city":"Imphal","state":"Manipur","latitude":24.817,"longitude":93.9368,"temp":21.8,"humidity":83,"rain":0.0,"pressure":920.5,"uv_index":9.15,"wind_gusts":68.4,"aqi":104,"pm10":45.2,"pm2_5":36.6,"mosquito_risk":3,"arthritis_risk":5,"migraine_risk":7,"frizz_risk":1,"updated_at":"2026-04-20T17:36:44.954627+05:30"},{"city":"Aizawl","state":"Mizoram","latitude":23.7271,"longitude":92.7176,"temp":23.8,"humidity":75,"rain":0.0,"pressure":891.1,"uv_index":8.95,"wind_gusts":69.8,"aqi":127,"pm10":52.7,"pm2_5":44.9,"mosquito_risk":3,"arthritis_risk":5,"migraine_risk":7,"frizz_risk":1,"updated_at":"2026-04-20T17:36:44.954633+05:30"},{"city":"Kohima","state":"Nagaland","latitude":25.6701,"longitude":94.1077,"temp":19.5,"humidity":74,"rain":0.0,"pressure":852.9,"uv_index":8.2,"wind_gusts":102.6,"aqi":79,"pm10":37.6,"pm2_5":25.5,"mosquito_risk":3,"arthritis_risk":5,"migraine_risk":7,"frizz_risk":0,"updated_at":"2026-04-20T17:36:44.954639+05:30"},{"city":"Gangtok","state":"Sikkim","latitude":27.3314,"longitude":88.6138,"temp":19.7,"humidity":83,"rain":0.0,"pressure":835.7,"uv_index":8.8,"wind_gusts":19.1,"aqi":105,"pm10":16.7,"pm2_5":13.2,"mosquito_risk":3,"arthritis_risk":10,"migraine_risk":7,"frizz_risk":1,"updated_at":"2026-04-20T17:36:44.954645+05:30"},{"city":"Siliguri","state":"West Bengal","latitude":26.7271,"longitude":88.3953,"temp":26.7,"humidity":79,"rain":0.0,"pressure":988.9,"uv_index":8.45,"wind_gusts":23.0,"aqi":112,"pm10":34.6,"pm2_5":29.2,"mosquito_risk":7,"arthritis_risk":5,"migraine_risk":7,"frizz_risk":1,"updated_at":"2026-04-20T17:36:48.221793+05:30"},{"city":"Durgapur","state":"West Bengal","latitude":23.5204,"longitude":87.3119,"temp":29.0,"humidity":74,"rain":0.0,"pressure":990.7,"uv_index":8.9,"wind_gusts":44.3,"aqi":209,"pm10":81.3,"pm2_5":43.4,"mosquito_risk":7,"arthritis_risk":5,"migraine_risk":7,"frizz_risk":1,"updated_at":"2026-04-20T17:36:48.221824+05:30"},{"city":"Asansol","state":"West Bengal","latitude":23.6739,"longitude":86.9524,"temp":30.7,"humidity":63,"rain":0.0,"pressure":988.7,"uv_index":8.95,"wind_gusts":48.2,"aqi":178,"pm10":64.3,"pm2_5":30.2,"mosquito_risk":3,"arthritis_risk":5,"migraine_risk":7,"frizz_risk":1,"updated_at":"2026-04-20T17:36:48.221833+05:30"},{"city":"Pondicherry","state":"Puducherry","latitude":11.9139,"longitude":79.8145,"temp":32.7,"humidity":57,"rain":0.0,"pressure":1005.1,"uv_index":9.25,"wind_gusts":33.1,"aqi":33,"pm10":11.3,"pm2_5":7.6,"mosquito_risk":0,"arthritis_risk":5,"migraine_risk":4,"frizz_risk":1,"updated_at":"2026-04-20T17:36:48.221841+05:30"},{"city":"Port Blair","state":"Andaman and Nicobar Islands","latitude":11.6234,"longitude":92.7265,"temp":29.8,"humidity":72,"rain":0.0,"pressure":1005.7,"uv_index":9.05,"wind_gusts":17.3,"aqi":64,"pm10":19.0,"pm2_5":15.5,"mosquito_risk":7,"arthritis_risk":5,"migraine_risk":4,"frizz_risk":1,"updated_at":"2026-04-20T17:36:48.221849+05:30"},{"city":"Haridwar","state":"Uttarakhand","latitude":29.9457,"longitude":78.1642,"temp":36.0,"humidity":18,"rain":0.0,"pressure":970.5,"uv_index":7.05,"wind_gusts":33.8,"aqi":105,"pm10":55.5,"pm2_5":16.5,"mosquito_risk":0,"arthritis_risk":5,"migraine_risk":10,"frizz_risk":0,"updated_at":"2026-04-20T17:36:48.221856+05:30"},{"city":"Rishikesh","state":"Uttarakhand","latitude":30.0869,"longitude":78.2676,"temp":33.8,"humidity":24,"rain":0.0,"pressure":963.6,"uv_index":7.2,"wind_gusts":36.7,"aqi":95,"pm10":42.4,"pm2_5":13.0,"mosquito_risk":0,"arthritis_risk":5,"migraine_risk":7,"frizz_risk":0,"updated_at":"2026-04-20T17:36:48.221864+05:30"},{"city":"Nainital","state":"Uttarakhand","latitude":29.3919,"longitude":79.4542,"temp":27.5,"humidity":18,"rain":0.0,"pressure":807.5,"uv_index":8.05,"wind_gusts":60.1,"aqi":119,"pm10":31.3,"pm2_5":12.0,"mosquito_risk":4,"arthritis_risk":5,"migraine_risk":7,"frizz_risk":0,"updated_at":"2026-04-20T17:36:48.221872+05:30"},{"city":"Mussoorie","state":"Uttarakhand","latitude":30.4599,"longitude":78.0664,"temp":25.0,"humidity":27,"rain":0.0,"pressure":804.2,"uv_index":7.55,"wind_gusts":46.4,"aqi":98,"pm10":33.6,"pm2_5":12.0,"mosquito_risk":4,"arthritis_risk":5,"migraine_risk":7,"frizz_risk":0,"updated_at":"2026-04-20T17:36:48.221880+05:30"},{"city":"Dharamshala","state":"Himachal Pradesh","latitude":32.219,"longitude":76.3234,"temp":27.8,"humidity":25,"rain":0.0,"pressure":869.3,"uv_index":7.8,"wind_gusts":31.7,"aqi":92,"pm10":29.5,"pm2_5":8.8,"mosquito_risk":4,"arthritis_risk":5,"migraine_risk":7,"frizz_risk":0,"updated_at":"2026-04-20T17:36:48.221923+05:30"},{"city":"Dalhousie","state":"Himachal Pradesh","latitude":32.5387,"longitude":75.971,"temp":26.6,"humidity":17,"rain":0.0,"pressure":805.8,"uv_index":8.1,"wind_gusts":31.0,"aqi":92,"pm10":32.8,"pm2_5":10.0,"mosquito_risk":4,"arthritis_risk":5,"migraine_risk":7,"frizz_risk":1,"updated_at":"2026-04-20T17:36:48.221939+05:30"},{"city":"Patiala","state":"Punjab","latitude":30.3398,"longitude":76.3869,"temp":37.3,"humidity":12,"rain":0.0,"pressure":974.6,"uv_index":7.15,"wind_gusts":28.4,"aqi":353,"pm10":570.0,"pm2_5":55.5,"mosquito_risk":0,"arthritis_risk":5,"migraine_risk":10,"frizz_risk":0,"updated_at":"2026-04-20T17:36:48.221949+05:30"},{"city":"Bhatinda","state":"Punjab","latitude":30.211,"longitude":74.9455,"temp":37.9,"humidity":14,"rain":0.0,"pressure":980.3,"uv_index":7.8,"wind_gusts":31.3,"aqi":122,"pm10":43.0,"pm2_5":12.3,"mosquito_risk":0,"arthritis_risk":5,"migraine_risk":10,"frizz_risk":0,"updated_at":"2026-04-20T17:36:48.221956+05:30"},{"city":"Rohtak","state":"Haryana","latitude":28.8955,"longitude":76.6066,"temp":37.3,"humidity":16,"rain":0.0,"pressure":978.0,"uv_index":7.3,"wind_gusts":32.0,"aqi":674,"pm10":949.9,"pm2_5":92.9,"mosquito_risk":0,"arthritis_risk":5,"migraine_risk":10,"frizz_risk":0,"updated_at":"2026-04-20T17:36:48.221963+05:30"},{"city":"Panipat","state":"Haryana","latitude":29.3909,"longitude":76.9635,"temp":37.4,"humidity":17,"rain":0.0,"pressure":976.5,"uv_index":7.1,"wind_gusts":26.6,"aqi":1211,"pm10":1676.4,"pm2_5":155.5,"mosquito_risk":0,"arthritis_risk":5,"migraine_risk":10,"frizz_risk":0,"updated_at":"2026-04-20T17:36:48.221969+05:30"},{"city":"Mathura","state":"Uttar Pradesh","latitude":27.4924,"longitude":77.6737,"temp":38.7,"humidity":16,"rain":0.0,"pressure":982.3,"uv_index":7.6,"wind_gusts":26.6,"aqi":734,"pm10":1039.4,"pm2_5":101.0,"mosquito_risk":0,"arthritis_risk":5,"migraine_risk":10,"frizz_risk":0,"updated_at":"2026-04-20T17:36:48.221976+05:30"},{"city":"Vrindavan","state":"Uttar Pradesh","latitude":27.5823,"longitude":77.7027,"temp":39.1,"humidity":16,"rain":0.0,"pressure":982.5,"uv_index":7.55,"wind_gusts":26.3,"aqi":734,"pm10":1039.4,"pm2_5":101.0,"mosquito_risk":0,"arthritis_risk":5,"migraine_risk":10,"frizz_risk":0,"updated_at":"2026-04-20T17:36:48.221982+05:30"},{"city":"Ayodhya","state":"Uttar Pradesh","latitude":26.7922,"longitude":82.1998,"temp":40.0,"humidity":12,"rain":0.0,"pressure":989.0,"uv_index":8.1,"wind_gusts":37.1,"aqi":160,"pm10":111.3,"pm2_5":26.8,"mosquito_risk":0,"arthritis_risk":5,"migraine_risk":10,"frizz_risk":0,"updated_at":"2026-04-20T17:36:48.221988+05:30"},{"city":"Ratlam","state":"Madhya Pradesh","latitude":23.3315,"longitude":75.0367,"temp":33.8,"humidity":29,"rain":0.0,"pressure":952.7,"uv_index":8.45,"wind_gusts":29.9,"aqi":107,"pm10":16.2,"pm2_5":11.8,"mosquito_risk":0,"arthritis_risk":5,"migraine_risk":7,"frizz_risk":0,"updated_at":"2026-04-20T17:36:48.221995+05:30"},{"city":"Sagar","state":"Madhya Pradesh","latitude":23.8388,"longitude":78.7378,"temp":38.4,"humidity":15,"rain":0.0,"pressure":946.9,"uv_index":7.95,"wind_gusts":36.0,"aqi":109,"pm10":13.2,"pm2_5":10.8,"mosquito_risk":0,"arthritis_risk":5,"migraine_risk":10,"frizz_risk":0,"updated_at":"2026-04-20T17:36:48.222001+05:30"},{"city":"Satna","state":"Madhya Pradesh","latitude":24.6005,"longitude":80.8322,"temp":38.5,"humidity":17,"rain":0.0,"pressure":967.3,"uv_index":7.65,"wind_gusts":41.8,"aqi":126,"pm10":15.4,"pm2_5":10.5,"mosquito_risk":0,"arthritis_risk":5,"migraine_risk":10,"frizz_risk":0,"updated_at":"2026-04-20T17:36:48.222007+05:30"},{"city":"Akola","state":"Maharashtra","latitude":20.7002,"longitude":77.0082,"temp":39.5,"humidity":19,"rain":0.0,"pressure":971.3,"uv_index":8.9,"wind_gusts":29.5,"aqi":138,"pm10":26.8,"pm2_5":22.6,"mosquito_risk":0,"arthritis_risk":5,"migraine_risk":10,"frizz_risk":0,"updated_at":"2026-04-20T17:36:48.222014+05:30"},{"city":"Amravati","state":"Maharashtra","latitude":20.9374,"longitude":77.7796,"temp":37.3,"humidity":24,"rain":0.0,"pressure":964.0,"uv_index":8.8,"wind_gusts":27.0,"aqi":138,"pm10":21.5,"pm2_5":18.4,"mosquito_risk":0,"arthritis_risk":5,"migraine_risk":10,"frizz_risk":0,"updated_at":"2026-04-20T17:36:48.222022+05:30"},{"city":"Latur","state":"Maharashtra","latitude":18.4088,"longitude":76.5604,"temp":33.6,"humidity":32,"rain":0.0,"pressure":937.9,"uv_index":8.65,"wind_gusts":24.5,"aqi":145,"pm10":43.5,"pm2_5":34.6,"mosquito_risk":0,"arthritis_risk":5,"migraine_risk":7,"frizz_risk":0,"updated_at":"2026-04-20T17:36:48.222028+05:30"},{"city":"Nanded","state":"Maharashtra","latitude":19.1383,"longitude":77.3091,"temp":37.7,"humidity":24,"rain":0.0,"pressure":965.3,"uv_index":8.75,"wind_gusts":21.2,"aqi":139,"pm10":39.9,"pm2_5":31.1,"mosquito_risk":0,"arthritis_risk":5,"migraine_risk":10,"frizz_risk":0,"updated_at":"2026-04-20T17:36:48.222034+05:30"},{"city":"Gulbarga","state":"Karnataka","latitude":17.3297,"longitude":76.8343,"temp":36.3,"humidity":27,"rain":0.0,"pressure":955.5,"uv_index":9.1,"wind_gusts":39.2,"aqi":167,"pm10":44.9,"pm2_5":34.9,"mosquito_risk":0,"arthritis_risk":5,"migraine_risk":10,"frizz_risk":0,"updated_at":"2026-04-20T17:36:48.222040+05:30"},{"city":"Bidar","state":"Karnataka","latitude":17.9104,"longitude":77.5199,"temp":32.2,"humidity":40,"rain":0.0,"pressure":933.9,"uv_index":9.15,"wind_gusts":42.5,"aqi":141,"pm10":45.2,"pm2_5":34.0,"mosquito_risk":0,"arthritis_risk":5,"migraine_risk":7,"frizz_risk":1,"updated_at":"2026-04-20T17:36:48.222046+05:30"},{"city":"Hospet","state":"Karnataka","latitude":15.2689,"longitude":76.3909,"temp":36.9,"humidity":27,"rain":0.0,"pressure":952.3,"uv_index":9.25,"wind_gusts":22.7,"aqi":182,"pm10":53.6,"pm2_5":42.5,"mosquito_risk":0,"arthritis_risk":5,"migraine_risk":10,"frizz_risk":0,"updated_at":"2026-04-20T17:36:48.222053+05:30"},{"city":"Tirupur","state":"Tamil Nadu","latitude":11.1085,"longitude":77.3411,"temp":37.4,"humidity":26,"rain":0.0,"pressure":971.0,"uv_index":9.4,"wind_gusts":29.2,"aqi":159,"pm10":19.9,"pm2_5":16.7,"mosquito_risk":0,"arthritis_risk":5,"migraine_risk":10,"frizz_risk":0,"updated_at":"2026-04-20T17:36:48.222059+05:30"},{"city":"Alappuzha","state":"Kerala","latitude":9.4981,"longitude":76.3388,"temp":29.7,"humidity":82,"rain":0.0,"pressure":1004.9,"uv_index":9.0,"wind_gusts":29.2,"aqi":73,"pm10":22.9,"pm2_5":16.3,"mosquito_risk":7,"arthritis_risk":5,"migraine_risk":4,"frizz_risk":1,"updated_at":"2026-04-20T17:36:48.222066+05:30"},{"city":"Munnar","state":"Kerala","latitude":10.0889,"longitude":77.0595,"temp":26.5,"humidity":73,"rain":0.0,"pressure":856.0,"uv_index":9.65,"wind_gusts":32.0,"aqi":96,"pm10":15.1,"pm2_5":12.5,"mosquito_risk":7,"arthritis_risk":5,"migraine_risk":7,"frizz_risk":1,"updated_at":"2026-04-20T17:36:48.222073+05:30"},{"city":"Silchar","state":"Assam","latitude":24.8333,"longitude":92.7789,"temp":28.6,"humidity":77,"rain":0.0,"pressure":1001.1,"uv_index":8.6,"wind_gusts":42.5,"aqi":115,"pm10":47.7,"pm2_5":37.7,"mosquito_risk":7,"arthritis_risk":5,"migraine_risk":4,"frizz_risk":1,"updated_at":"2026-04-20T17:36:48.222080+05:30"},{"city":"Dibrugarh","state":"Assam","latitude":27.4728,"longitude":94.912,"temp":26.4,"humidity":81,"rain":0.0,"pressure":991.6,"uv_index":8.75,"wind_gusts":16.6,"aqi":110,"pm10":23.2,"pm2_5":20.3,"mosquito_risk":7,"arthritis_risk":5,"migraine_risk":7,"frizz_risk":1,"updated_at":"2026-04-20T17:36:48.222086+05:30"}]