[{"city":"Delhi","state":"Delhi","latitude":28.6139,"longitude":77.209,"temp":18.4,"humidity":72,"rain":0.0,"pressure":983.0,"uv_index":5.65,"aqi":161,"mosquito_risk":3,"arthritis_risk":5,"migraine_risk":3,"frizz_risk":0,"updated_at":"2026-02-28T07:37:15.487080+05:30"},{"city":"Mumbai","state":"Maharashtra","latitude":19.076,"longitude":72.8777,"temp":25.5,"humidity":64,"rain":0.0,"pressure":1008.9,"uv_index":7.4,"aqi":70,"mosquito_risk":7,"arthritis_risk":0,"migraine_risk":4,"frizz_risk":1,"updated_at":"2026-02-28T07:37:15.487114+05:30"},{"city":"Bangalore","state":"Karnataka","latitude":12.9716,"longitude":77.5946,"temp":20.1,"humidity":84,"rain":0.0,"pressure":910.8,"uv_index":9.0,"aqi":113,"mosquito_risk":3,"arthritis_risk":5,"migraine_risk":7,"frizz_risk":1,"updated_at":"2026-02-28T07:37:15.487129+05:30"},{"city":"Hyderabad","state":"Telangana","latitude":17.385,"longitude":78.4867,"temp":21.2,"humidity":78,"rain":0.0,"pressure":952.3,"uv_index":8.2,"aqi":122,"mosquito_risk":3,"arthritis_risk":5,"migraine_risk":7,"frizz_risk":1,"updated_at":"2026-02-28T07:37:15.487138+05:30"},{"city":"Chennai","state":"Tamil Nadu","latitude":13.0827,"longitude":80.2707,"temp":24.3,"humidity":86,"rain":0.0,"pressure":1008.2,"uv_index":8.75,"aqi":115,"mosquito_risk":3,"arthritis_risk":0,"migraine_risk":4,"frizz_risk":1,"updated_at":"2026-02-28T07:37:15.487145+05:30"},{"city":"Kolkata","state":"West Bengal","latitude":22.5726,"longitude":88.3639,"temp":21.3,"humidity":97,"rain":0.0,"pressure":1007.6,"uv_index":7.55,"aqi":158,"mosquito_risk":3,"arthritis_risk":5,"migraine_risk":4,"frizz_risk":1,"updated_at":"2026-02-28T07:37:15.487153+05:30"},{"city":"Pune","state":"Maharashtra","latitude":18.5204,"longitude":73.8567,"temp":13.4,"humidity":69,"rain":0.0,"pressure":946.9,"uv_index":7.9,"aqi":60,"mosquito_risk":3,"arthritis_risk":5,"migraine_risk":7,"frizz_risk":0,"updated_at":"2026-02-28T07:37:15.487160+05:30"},{"city":"Ahmedabad","state":"Gujarat","latitude":23.0225,"longitude":72.5714,"temp":19.6,"humidity":86,"rain":0.0,"pressure":1002.9,"uv_index":7.15,"aqi":68,"mosquito_risk":3,"arthritis_risk":10,"migraine_risk":4,"frizz_risk":1,"updated_at":"2026-02-28T07:37:15.487167+05:30"},{"city":"Jaipur","state":"Rajasthan","latitude":26.9124,"longitude":75.7873,"temp":20.2,"humidity":57,"rain":0.0,"pressure":959.2,"uv_index":6.45,"aqi":84,"mosquito_risk":0,"arthritis_risk":5,"migraine_risk":7,"frizz_risk":0,"updated_at":"2026-02-28T07:37:15.487178+05:30"},{"city":"Lucknow","state":"Uttar Pradesh","latitude":26.8467,"longitude":80.9462,"temp":16.4,"humidity":78,"rain":0.0,"pressure":993.8,"uv_index":6.1,"aqi":151,"mosquito_risk":3,"arthritis_risk":5,"migraine_risk":7,"frizz_risk":0,"updated_at":"2026-02-28T07:37:15.487185+05:30"},{"city":"Kanpur","state":"Uttar Pradesh","latitude":26.4499,"longitude":80.3319,"temp":16.3,"humidity":82,"rain":0.0,"pressure":992.1,"uv_index":6.1,"aqi":144,"mosquito_risk":3,"arthritis_risk":10,"migraine_risk":7,"frizz_risk":0,"updated_at":"2026-02-28T07:37:15.487192+05:30"},{"city":"Chandigarh","state":"Chandigarh","latitude":30.7333,"longitude":76.7794,"temp":14.3,"humidity":68,"rain":0.0,"pressure":968.8,"uv_index":5.5,"aqi":106,"mosquito_risk":3,"arthritis_risk":5,"migraine_risk":3,"frizz_risk":0,"updated_at":"2026-02-28T07:37:15.487201+05:30"},{"city":"Srinagar","state":"Jammu and Kashmir","latitude":34.0837,"longitude":74.7973,"temp":3.2,"humidity":79,"rain":0.0,"pressure":837.3,"uv_index":6.4,"aqi":113,"mosquito_risk":3,"arthritis_risk":5,"migraine_risk":7,"frizz_risk":1,"updated_at":"2026-02-28T07:37:15.487208+05:30"},{"city":"Jammu","state":"Jammu and Kashmir","latitude":32.7266,"longitude":74.857,"temp":14.2,"humidity":75,"rain":0.0,"pressure":972.9,"uv_index":6.1,"aqi":113,"mosquito_risk":3,"arthritis_risk":5,"migraine_risk":7,"frizz_risk":0,"updated_at":"2026-02-28T07:37:15.487215+05:30"},{"city":"Amritsar","state":"Punjab","latitude":31.634,"longitude":74.8723,"temp":14.6,"humidity":94,"rain":0.0,"pressure":981.1,"uv_index":6.1,"aqi":164,"mosquito_risk":3,"arthritis_risk":10,"migraine_risk":7,"frizz_risk":0,"updated_at":"2026-02-28T07:37:15.487221+05:30"},{"city":"Ludhiana","state":"Punjab","latitude":30.901,"longitude":75.8573,"temp":15.8,"humidity":83,"rain":0.0,"pressure":979.0,"uv_index":5.75,"aqi":169,"mosquito_risk":3,"arthritis_risk":10,"migraine_risk":3,"frizz_risk":0,"updated_at":"2026-02-28T07:37:15.487228+05:30"},{"city":"Jalandhar","state":"Punjab","latitude":31.326,"longitude":75.5762,"temp":15.1,"humidity":91,"rain":0.0,"pressure":980.0,"uv_index":5.95,"aqi":160,"mosquito_risk":3,"arthritis_risk":10,"migraine_risk":3,"frizz_risk":0,"updated_at":"2026-02-28T07:37:15.487234+05:30"},{"city":"Dehradun","state":"Uttarakhand","latitude":30.6284,"longitude":78.0322,"temp":8.5,"humidity":52,"rain":0.0,"pressure":825.7,"uv_index":5.85,"aqi":69,"mosquito_risk":0,"arthritis_risk":5,"migraine_risk":3,"frizz_risk":1,"updated_at":"2026-02-28T07:37:15.487241+05:30"},{"city":"Shimla","state":"Himachal Pradesh","latitude":31.1048,"longitude":77.1734,"temp":7.9,"humidity":58,"rain":0.0,"pressure":779.6,"uv_index":5.9,"aqi":74,"mosquito_risk":0,"arthritis_risk":5,"migraine_risk":3,"frizz_risk":0,"updated_at":"2026-02-28T07:37:15.487250+05:30"},{"city":"Manali","state":"Himachal Pradesh","latitude":32.2396,"longitude":77.1887,"temp":9.1,"humidity":39,"rain":0.0,"pressure":815.1,"uv_index":7.55,"aqi":65,"mosquito_risk":0,"arthritis_risk":5,"migraine_risk":7,"frizz_risk":1,"updated_at":"2026-02-28T07:37:15.487256+05:30"},{"city":"Gurgaon","state":"Haryana","latitude":28.4595,"longitude":77.0266,"temp":17.5,"humidity":74,"rain":0.0,"pressure":981.3,"uv_index":5.75,"aqi":163,"mosquito_risk":3,"arthritis_risk":5,"migraine_risk":3,"frizz_risk":0,"updated_at":"2026-02-28T07:37:15.487262+05:30"},{"city":"Noida","state":"Uttar Pradesh","latitude":28.5355,"longitude":77.391,"temp":18.0,"humidity":74,"rain":0.0,"pressure":984.7,"uv_index":5.65,"aqi":163,"mosquito_risk":3,"arthritis_risk":5,"migraine_risk":3,"frizz_risk":0,"updated_at":"2026-02-28T07:37:15.487269+05:30"},{"city":"Ghaziabad","state":"Uttar Pradesh","latitude":28.6692,"longitude":77.4538,"temp":16.9,"humidity":82,"rain":0.0,"pressure":982.7,"uv_index":5.6,"aqi":160,"mosquito_risk":3,"arthritis_risk":10,"migraine_risk":3,"frizz_risk":0,"updated_at":"2026-02-28T07:37:15.487275+05:30"},{"city":"Faridabad","state":"Haryana","latitude":28.4089,"longitude":77.3178,"temp":19.2,"humidity":65,"rain":0.0,"pressure":983.8,"uv_index":5.65,"aqi":163,"mosquito_risk":3,"arthritis_risk":5,"migraine_risk":3,"frizz_risk":0,"updated_at":"2026-02-28T07:37:15.487281+05:30"},{"city":"Meerut","state":"Uttar Pradesh","latitude":28.9845,"longitude":77.7064,"temp":15.9,"humidity":82,"rain":0.0,"pressure":981.5,"uv_index":5.5,"aqi":160,"mosquito_risk":3,"arthritis_risk":10,"migraine_risk":3,"frizz_risk":0,"updated_at":"2026-02-28T07:37:15.487287+05:30"},{"city":"Agra","state":"Uttar Pradesh","latitude":27.1767,"longitude":78.0081,"temp":18.1,"humidity":77,"rain":0.0,"pressure":988.1,"uv_index":5.95,"aqi":145,"mosquito_risk":3,"arthritis_risk":5,"migraine_risk":3,"frizz_risk":0,"updated_at":"2026-02-28T07:37:15.487293+05:30"},{"city":"Varanasi","state":"Uttar Pradesh","latitude":25.3176,"longitude":82.9739,"temp":16.6,"humidity":84,"rain":0.0,"pressure":998.2,"uv_index":6.8,"aqi":102,"mosquito_risk":3,"arthritis_risk":10,"migraine_risk":7,"frizz_risk":0,"updated_at":"2026-02-28T07:37:15.487300+05:30"},{"city":"Prayagraj","state":"Uttar Pradesh","latitude":25.4358,"longitude":81.8463,"temp":18.0,"humidity":80,"rain":0.0,"pressure":996.4,"uv_index":6.65,"aqi":128,"mosquito_risk":3,"arthritis_risk":5,"migraine_risk":7,"frizz_risk":0,"updated_at":"2026-02-28T07:37:15.487306+05:30"},{"city":"Gorakhpur","state":"Uttar Pradesh","latitude":26.7606,"longitude":83.3732,"temp":14.9,"humidity":89,"rain":0.0,"pressure":997.4,"uv_index":6.5,"aqi":145,"mosquito_risk":3,"arthritis_risk":10,"migraine_risk":7,"frizz_risk":0,"updated_at":"2026-02-28T07:37:15.487315+05:30"},{"city":"Bareilly","state":"Uttar Pradesh","latitude":28.367,"longitude":79.4304,"temp":14.8,"humidity":87,"rain":0.0,"pressure":987.0,"uv_index":5.8,"aqi":155,"mosquito_risk":3,"arthritis_risk":10,"migraine_risk":3,"frizz_risk":0,"updated_at":"2026-02-28T07:37:15.487321+05:30"},{"city":"Aligarh","state":"Uttar Pradesh","latitude":27.8974,"longitude":78.088,"temp":16.6,"humidity":80,"rain":0.0,"pressure":986.0,"uv_index":5.75,"aqi":157,"mosquito_risk":3,"arthritis_risk":5,"migraine_risk":3,"frizz_risk":0,"updated_at":"2026-02-28T07:37:15.487327+05:30"},{"city":"Moradabad","state":"Uttar Pradesh","latitude":28.8386,"longitude":78.7733,"temp":14.4,"humidity":90,"rain":0.0,"pressure":983.9,"uv_index":5.6,"aqi":157,"mosquito_risk":3,"arthritis_risk":10,"migraine_risk":3,"frizz_risk":0,"updated_at":"2026-02-28T07:37:15.487333+05:30"},{"city":"Saharanpur","state":"Uttar Pradesh","latitude":29.9637,"longitude":77.546,"temp":15.0,"humidity":87,"rain":0.0,"pressure":975.4,"uv_index":5.25,"aqi":153,"mosquito_risk":3,"arthritis_risk":10,"migraine_risk":3,"frizz_risk":0,"updated_at":"2026-02-28T07:37:15.487338+05:30"},{"city":"Jhansi","state":"Uttar Pradesh","latitude":25.4484,"longitude":78.5685,"temp":18.7,"humidity":71,"rain":0.0,"pressure":978.1,"uv_index":6.6,"aqi":96,"mosquito_risk":3,"arthritis_risk":5,"migraine_risk":7,"frizz_risk":0,"updated_at":"2026-02-28T07:37:18.822289+05:30"},{"city":"Surat","state":"Gujarat","latitude":21.1702,"longitude":72.8311,"temp":22.8,"humidity":85,"rain":0.0,"pressure":1007.5,"uv_index":7.1,"aqi":80,"mosquito_risk":3,"arthritis_risk":5,"migraine_risk":4,"frizz_risk":1,"updated_at":"2026-02-28T07:37:18.822315+05:30"},{"city":"Vadodara","state":"Gujarat","latitude":22.3072,"longitude":73.1812,"temp":19.8,"humidity":94,"rain":0.0,"pressure":1005.2,"uv_index":7.15,"aqi":68,"mosquito_risk":3,"arthritis_risk":10,"migraine_risk":4,"frizz_risk":1,"updated_at":"2026-02-28T07:37:18.822324+05:30"},{"city":"Rajkot","state":"Gujarat","latitude":22.3039,"longitude":70.8022,"temp":19.3,"humidity":92,"rain":0.0,"pressure":994.7,"uv_index":7.1,"aqi":59,"mosquito_risk":3,"arthritis_risk":10,"migraine_risk":7,"frizz_risk":1,"updated_at":"2026-02-28T07:37:18.822331+05:30"},{"city":"Thane","state":"Maharashtra","latitude":19.2183,"longitude":72.9781,"temp":19.8,"humidity":92,"rain":0.0,"pressure":1008.5,"uv_index":7.4,"aqi":70,"mosquito_risk":3,"arthritis_risk":5,"migraine_risk":4,"frizz_risk":1,"updated_at":"2026-02-28T07:37:18.822336+05:30"},{"city":"Nagpur","state":"Maharashtra","latitude":21.1458,"longitude":79.0882,"temp":21.9,"humidity":68,"rain":0.0,"pressure":973.3,"uv_index":7.55,"aqi":151,"mosquito_risk":3,"arthritis_risk":5,"migraine_risk":7,"frizz_risk":0,"updated_at":"2026-02-28T07:37:18.822342+05:30"},{"city":"Nashik","state":"Maharashtra","latitude":19.9975,"longitude":73.7898,"temp":15.6,"humidity":86,"rain":0.0,"pressure":944.6,"uv_index":7.55,"aqi":55,"mosquito_risk":3,"arthritis_risk":10,"migraine_risk":7,"frizz_risk":0,"updated_at":"2026-02-28T07:37:18.822348+05:30"},{"city":"Aurangabad","state":"Maharashtra","latitude":19.8762,"longitude":75.3433,"temp":17.8,"humidity":65,"rain":0.0,"pressure":943.1,"uv_index":7.9,"aqi":46,"mosquito_risk":3,"arthritis_risk":5,"migraine_risk":7,"frizz_risk":0,"updated_at":"2026-02-28T07:37:18.822353+05:30"},{"city":"Solapur","state":"Maharashtra","latitude":17.6599,"longitude":75.9064,"temp":18.4,"humidity":72,"rain":0.0,"pressure":956.1,"uv_index":8.15,"aqi":55,"mosquito_risk":3,"arthritis_risk":5,"migraine_risk":7,"frizz_risk":0,"updated_at":"2026-02-28T07:37:18.822359+05:30"},{"city":"Kolhapur","state":"Maharashtra","latitude":16.705,"longitude":74.2433,"temp":14.2,"humidity":72,"rain":0.0,"pressure":946.1,"uv_index":8.35,"aqi":45,"mosquito_risk":3,"arthritis_risk":5,"migraine_risk":7,"frizz_risk":0,"updated_at":"2026-02-28T07:37:18.822364+05:30"},{"city":"Goa","state":"Goa","latitude":15.2993,"longitude":74.124,"temp":20.8,"humidity":88,"rain":0.0,"pressure":997.8,"uv_index":8.35,"aqi":38,"mosquito_risk":3,"arthritis_risk":5,"migraine_risk":7,"frizz_risk":1,"updated_at":"2026-02-28T07:37:18.822370+05:30"},{"city":"Jodhpur","state":"Rajasthan","latitude":26.2389,"longitude":73.0243,"temp":18.1,"humidity":68,"rain":0.0,"pressure":982.5,"uv_index":6.7,"aqi":57,"mosquito_risk":3,"arthritis_risk":5,"migraine_risk":7,"frizz_risk":0,"updated_at":"2026-02-28T07:37:18.822376+05:30"},{"city":"Udaipur","state":"Rajasthan","latitude":24.5854,"longitude":73.7125,"temp":15.6,"humidity":73,"rain":0.0,"pressure":945.5,"uv_index":7.4,"aqi":60,"mosquito_risk":3,"arthritis_risk":5,"migraine_risk":7,"frizz_risk":0,"updated_at":"2026-02-28T07:37:18.822382+05:30"},{"city":"Kota","state":"Rajasthan","latitude":25.2138,"longitude":75.8648,"temp":17.0,"humidity":72,"rain":0.0,"pressure":978.7,"uv_index":6.8,"aqi":91,"mosquito_risk":3,"arthritis_risk":5,"migraine_risk":7,"frizz_risk":0,"updated_at":"2026-02-28T07:37:18.822387+05:30"},{"city":"Bikaner","state":"Rajasthan","latitude":28.0229,"longitude":73.3119,"temp":21.9,"humidity":49,"rain":0.0,"pressure":980.7,"uv_index":6.4,"aqi":62,"mosquito_risk":0,"arthritis_risk":5,"migraine_risk":7,"frizz_risk":0,"updated_at":"2026-02-28T07:37:18.822392+05:30"},{"city":"Ajmer","state":"Rajasthan","latitude":26.4499,"longitude":74.6399,"temp":16.9,"humidity":64,"rain":0.0,"pressure":953.6,"uv_index":6.75,"aqi":62,"mosquito_risk":3,"arthritis_risk":5,"migraine_risk":7,"frizz_risk":0,"updated_at":"2026-02-28T07:37:18.822398+05:30"},{"city":"Gwalior","state":"Madhya Pradesh","latitude":26.2183,"longitude":78.1828,"temp":19.5,"humidity":85,"rain":0.0,"pressure":983.6,"uv_index":6.3,"aqi":72,"mosquito_risk":3,"arthritis_risk":10,"migraine_risk":7,"frizz_risk":1,"updated_at":"2026-02-28T07:37:18.822404+05:30"},{"city":"Indore","state":"Madhya Pradesh","latitude":22.7196,"longitude":75.8577,"temp":16.1,"humidity":83,"rain":0.0,"pressure":947.4,"uv_index":7.3,"aqi":69,"mosquito_risk":3,"arthritis_risk":10,"migraine_risk":7,"frizz_risk":0,"updated_at":"2026-02-28T07:37:18.822409+05:30"},{"city":"Bhopal","state":"Madhya Pradesh","latitude":23.2599,"longitude":77.4126,"temp":18.3,"humidity":82,"rain":0.0,"pressure":953.3,"uv_index":7.15,"aqi":115,"mosquito_risk":3,"arthritis_risk":10,"migraine_risk":7,"frizz_risk":0,"updated_at":"2026-02-28T07:37:18.822414+05:30"},{"city":"Jabalpur","state":"Madhya Pradesh","latitude":23.1815,"longitude":79.9864,"temp":20.7,"humidity":61,"rain":0.0,"pressure":961.3,"uv_index":7.2,"aqi":93,"mosquito_risk":3,"arthritis_risk":5,"migraine_risk":7,"frizz_risk":0,"updated_at":"2026-02-28T07:37:18.822419+05:30"},{"city":"Ujjain","state":"Madhya Pradesh","latitude":23.1765,"longitude":75.7885,"temp":16.5,"humidity":83,"rain":0.0,"pressure":953.4,"uv_index":7.2,"aqi":65,"mosquito_risk":3,"arthritis_risk":10,"migraine_risk":7,"frizz_risk":0,"updated_at":"2026-02-28T07:37:18.822425+05:30"},{"city":"Visakhapatnam","state":"Andhra Pradesh","latitude":17.6868,"longitude":83.2185,"temp":24.1,"humidity":91,"rain":0.0,"pressure":1005.2,"uv_index":8.25,"aqi":79,"mosquito_risk":3,"arthritis_risk":5,"migraine_risk":4,"frizz_risk":1,"updated_at":"2026-02-28T07:37:18.822430+05:30"},{"city":"Vijayawada","state":"Andhra Pradesh","latitude":16.5062,"longitude":80.648,"temp":24.2,"humidity":93,"rain":0.0,"pressure":1003.4,"uv_index":8.3,"aqi":100,"mosquito_risk":3,"arthritis_risk":5,"migraine_risk":4,"frizz_risk":1,"updated_at":"2026-02-28T07:37:18.822436+05:30"},{"city":"Guntur","state":"Andhra Pradesh","latitude":16.3067,"longitude":80.4365,"temp":24.3,"humidity":88,"rain":0.0,"pressure":1004.4,"uv_index":8.3,"aqi":98,"mosquito_risk":3,"arthritis_risk":5,"migraine_risk":4,"frizz_risk":1,"updated_at":"2026-02-28T07:37:18.822442+05:30"},{"city":"Nellore","state":"Andhra Pradesh","latitude":14.4426,"longitude":79.9865,"temp":23.7,"humidity":88,"rain":0.0,"pressure":1006.5,"uv_index":8.55,"aqi":102,"mosquito_risk":3,"arthritis_risk":5,"migraine_risk":4,"frizz_risk":1,"updated_at":"2026-02-28T07:37:18.822448+05:30"},{"city":"Kurnool","state":"Andhra Pradesh","latitude":15.8281,"longitude":78.0373,"temp":23.9,"humidity":65,"rain":0.0,"pressure":976.7,"uv_index":8.3,"aqi":104,"mosquito_risk":3,"arthritis_risk":5,"migraine_risk":7,"frizz_risk":1,"updated_at":"2026-02-28T07:37:18.822454+05:30"},{"city":"Kakinada","state":"Andhra Pradesh","latitude":16.9891,"longitude":82.2475,"temp":24.0,"humidity":91,"rain":0.0,"pressure":1008.8,"uv_index":8.25,"aqi":77,"mosquito_risk":3,"arthritis_risk":0,"migraine_risk":4,"frizz_risk":1,"updated_at":"2026-02-28T07:37:18.822459+05:30"},{"city":"Tirupati","state":"Andhra Pradesh","latitude":13.6288,"longitude":79.4192,"temp":19.7,"humidity":94,"rain":0.0,"pressure":992.5,"uv_index":8.7,"aqi":105,"mosquito_risk":3,"arthritis_risk":10,"migraine_risk":7,"frizz_risk":1,"updated_at":"2026-02-28T07:37:18.822465+05:30"},{"city":"Warangal","state":"Telangana","latitude":17.9689,"longitude":79.5941,"temp":21.7,"humidity":88,"rain":0.0,"pressure":978.5,"uv_index":8.05,"aqi":147,"mosquito_risk":3,"arthritis_risk":5,"migraine_risk":7,"frizz_risk":1,"updated_at":"2026-02-28T07:37:18.822470+05:30"},{"city":"Nizamabad","state":"Telangana","latitude":18.6725,"longitude":78.0941,"temp":23.4,"humidity":72,"rain":0.0,"pressure":964.5,"uv_index":7.95,"aqi":129,"mosquito_risk":3,"arthritis_risk":5,"migraine_risk":7,"frizz_risk":1,"updated_at":"2026-02-28T07:37:18.822475+05:30"},{"city":"Mysore","state":"Karnataka","latitude":12.2958,"longitude":76.6396,"temp":20.7,"humidity":92,"rain":0.0,"pressure":927.5,"uv_index":8.25,"aqi":141,"mosquito_risk":3,"arthritis_risk":5,"migraine_risk":7,"frizz_risk":1,"updated_at":"2026-02-28T07:37:18.822481+05:30"},{"city":"Mangalore","state":"Karnataka","latitude":12.9141,"longitude":74.856,"temp":28.2,"humidity":73,"rain":0.0,"pressure":1006.3,"uv_index":8.6,"aqi":51,"mosquito_risk":7,"arthritis_risk":5,"migraine_risk":4,"frizz_risk":1,"updated_at":"2026-02-28T07:37:18.822487+05:30"},{"city":"Hubli-Dharwad","state":"Karnataka","latitude":15.3647,"longitude":75.124,"temp":18.1,"humidity":63,"rain":0.0,"pressure":939.3,"uv_index":8.5,"aqi":45,"mosquito_risk":3,"arthritis_risk":5,"migraine_risk":7,"frizz_risk":0,"updated_at":"2026-02-28T07:37:18.822492+05:30"},{"city":"Belgaum","state":"Karnataka","latitude":15.8497,"longitude":74.4977,"temp":18.0,"humidity":47,"rain":0.0,"pressure":923.7,"uv_index":8.6,"aqi":33,"mosquito_risk":0,"arthritis_risk":5,"migraine_risk":7,"frizz_risk":0,"updated_at":"2026-02-28T07:37:22.156329+05:30"},{"city":"Coimbatore","state":"Tamil Nadu","latitude":11.0168,"longitude":76.9558,"temp":22.2,"humidity":86,"rain":0.0,"pressure":962.1,"uv_index":9.05,"aqi":146,"mosquito_risk":3,"arthritis_risk":5,"migraine_risk":7,"frizz_risk":1,"updated_at":"2026-02-28T07:37:22.156360+05:30"},{"city":"Madurai","state":"Tamil Nadu","latitude":9.9252,"longitude":78.1198,"temp":23.9,"humidity":93,"rain":0.0,"pressure":994.0,"uv_index":9.0,"aqi":137,"mosquito_risk":3,"arthritis_risk":5,"migraine_risk":7,"frizz_risk":1,"updated_at":"2026-02-28T07:37:22.156369+05:30"},{"city":"Trichy","state":"Tamil Nadu","latitude":10.7905,"longitude":78.7047,"temp":23.3,"humidity":93,"rain":0.0,"pressure":1001.0,"uv_index":8.9,"aqi":122,"mosquito_risk":3,"arthritis_risk":5,"migraine_risk":4,"frizz_risk":1,"updated_at":"2026-02-28T07:37:22.156376+05:30"},{"city":"Salem","state":"Tamil Nadu","latitude":11.6643,"longitude":78.146,"temp":23.0,"humidity":90,"rain":0.0,"pressure":978.0,"uv_index":8.9,"aqi":114,"mosquito_risk":3,"arthritis_risk":5,"migraine_risk":7,"frizz_risk":1,"updated_at":"2026-02-28T07:37:22.156382+05:30"},{"city":"Tirunelveli","state":"Tamil Nadu","latitude":8.7139,"longitude":77.7567,"temp":24.1,"humidity":95,"rain":0.0,"pressure":1004.2,"uv_index":9.05,"aqi":140,"mosquito_risk":3,"arthritis_risk":5,"migraine_risk":4,"frizz_risk":1,"updated_at":"2026-02-28T07:37:22.156388+05:30"},{"city":"Vellore","state":"Tamil Nadu","latitude":12.9165,"longitude":79.1325,"temp":19.8,"humidity":93,"rain":0.0,"pressure":985.6,"uv_index":8.8,"aqi":104,"mosquito_risk":3,"arthritis_risk":10,"migraine_risk":7,"frizz_risk":1,"updated_at":"2026-02-28T07:37:22.156395+05:30"},{"city":"Erode","state":"Tamil Nadu","latitude":11.341,"longitude":77.7172,"temp":23.2,"humidity":91,"rain":0.0,"pressure":990.0,"uv_index":8.9,"aqi":116,"mosquito_risk":3,"arthritis_risk":5,"migraine_risk":7,"frizz_risk":1,"updated_at":"2026-02-28T07:37:22.156400+05:30"},{"city":"Kochi","state":"Kerala","latitude":9.9312,"longitude":76.2673,"temp":27.2,"humidity":81,"rain":0.0,"pressure":1008.3,"uv_index":8.75,"aqi":115,"mosquito_risk":7,"arthritis_risk":0,"migraine_risk":4,"frizz_risk":1,"updated_at":"2026-02-28T07:37:22.156407+05:30"},{"city":"Thiruvananthapuram","state":"Kerala","latitude":8.5241,"longitude":76.9366,"temp":27.5,"humidity":81,"rain":0.0,"pressure":1007.6,"uv_index":8.85,"aqi":86,"mosquito_risk":7,"arthritis_risk":5,"migraine_risk":4,"frizz_risk":1,"updated_at":"2026-02-28T07:37:22.156412+05:30"},{"city":"Kozhikode","state":"Kerala","latitude":11.2588,"longitude":75.7804,"temp":27.4,"humidity":80,"rain":0.0,"pressure":1007.5,"uv_index":8.75,"aqi":64,"mosquito_risk":7,"arthritis_risk":5,"migraine_risk":4,"frizz_risk":1,"updated_at":"2026-02-28T07:37:22.156418+05:30"},{"city":"Thrissur","state":"Kerala","latitude":10.5276,"longitude":76.2144,"temp":24.3,"humidity":93,"rain":0.0,"pressure":1006.9,"uv_index":8.8,"aqi":118,"mosquito_risk":3,"arthritis_risk":5,"migraine_risk":4,"frizz_risk":1,"updated_at":"2026-02-28T07:37:22.156425+05:30"},{"city":"Kannur","state":"Kerala","latitude":11.8745,"longitude":75.3704,"temp":27.1,"humidity":75,"rain":0.0,"pressure":1006.6,"uv_index":8.7,"aqi":57,"mosquito_risk":7,"arthritis_risk":5,"migraine_risk":4,"frizz_risk":1,"updated_at":"2026-02-28T07:37:22.156431+05:30"},{"city":"Patna","state":"Bihar","latitude":25.5941,"longitude":85.1376,"temp":17.4,"humidity":80,"rain":0.0,"pressure":1001.2,"uv_index":6.95,"aqi":144,"mosquito_risk":3,"arthritis_risk":5,"migraine_risk":4,"frizz_risk":0,"updated_at":"2026-02-28T07:37:22.156437+05:30"},{"city":"Gaya","state":"Bihar","latitude":24.7914,"longitude":85.0002,"temp":17.4,"humidity":74,"rain":0.0,"pressure":994.8,"uv_index":7.05,"aqi":91,"mosquito_risk":3,"arthritis_risk":5,"migraine_risk":7,"frizz_risk":0,"updated_at":"2026-02-28T07:37:22.156444+05:30"},{"city":"Muzaffarpur","state":"Bihar","latitude":26.1209,"longitude":85.3647,"temp":16.4,"humidity":84,"rain":0.0,"pressure":1000.9,"uv_index":6.9,"aqi":153,"mosquito_risk":3,"arthritis_risk":10,"migraine_risk":4,"frizz_risk":0,"updated_at":"2026-02-28T07:37:22.156450+05:30"},{"city":"Bhagalpur","state":"Bihar","latitude":25.2425,"longitude":87.0117,"temp":17.1,"humidity":81,"rain":0.0,"pressure":1001.9,"uv_index":7.0,"aqi":126,"mosquito_risk":3,"arthritis_risk":10,"migraine_risk":4,"frizz_risk":0,"updated_at":"2026-02-28T07:37:22.156455+05:30"},{"city":"Ranchi","state":"Jharkhand","latitude":23.3441,"longitude":85.3096,"temp":18.8,"humidity":40,"rain":0.0,"pressure":937.6,"uv_index":7.65,"aqi":59,"mosquito_risk":0,"arthritis_risk":5,"migraine_risk":7,"frizz_risk":0,"updated_at":"2026-02-28T07:37:22.156461+05:30"},{"city":"Jamshedpur","state":"Jharkhand","latitude":22.8046,"longitude":86.2029,"temp":15.7,"humidity":87,"rain":0.0,"pressure":992.3,"uv_index":7.6,"aqi":111,"mosquito_risk":3,"arthritis_risk":10,"migraine_risk":7,"frizz_risk":0,"updated_at":"2026-02-28T07:37:22.156467+05:30"},{"city":"Dhanbad","state":"Jharkhand","latitude":23.7957,"longitude":86.4304,"temp":17.5,"humidity":64,"rain":0.0,"pressure":980.7,"uv_index":7.45,"aqi":123,"mosquito_risk":3,"arthritis_risk":5,"migraine_risk":7,"frizz_risk":0,"updated_at":"2026-02-28T07:37:22.156473+05:30"},{"city":"Bokaro","state":"Jharkhand","latitude":23.6693,"longitude":86.1511,"temp":17.6,"humidity":64,"rain":0.0,"pressure":985.0,"uv_index":7.45,"aqi":115,"mosquito_risk":3,"arthritis_risk":5,"migraine_risk":7,"frizz_risk":0,"updated_at":"2026-02-28T07:37:22.156479+05:30"},{"city":"Bhubaneswar","state":"Odisha","latitude":20.2961,"longitude":85.8245,"temp":22.8,"humidity":95,"rain":0.0,"pressure":1004.2,"uv_index":7.95,"aqi":96,"mosquito_risk":3,"arthritis_risk":5,"migraine_risk":4,"frizz_risk":1,"updated_at":"2026-02-28T07:37:22.156485+05:30"},{"city":"Cuttack","state":"Odisha","latitude":20.4625,"longitude":85.8828,"temp":22.4,"humidity":93,"rain":0.0,"pressure":1006.2,"uv_index":7.95,"aqi":96,"mosquito_risk":3,"arthritis_risk":5,"migraine_risk":4,"frizz_risk":1,"updated_at":"2026-02-28T07:37:22.156491+05:30"},{"city":"Rourkela","state":"Odisha","latitude":22.2604,"longitude":84.8536,"temp":18.2,"humidity":68,"rain":0.0,"pressure":986.4,"uv_index":7.5,"aqi":81,"mosquito_risk":3,"arthritis_risk":5,"migraine_risk":7,"frizz_risk":0,"updated_at":"2026-02-28T07:37:22.156496+05:30"},{"city":"Raipur","state":"Chhattisgarh","latitude":21.2514,"longitude":81.6296,"temp":20.6,"humidity":60,"rain":0.0,"pressure":975.0,"uv_index":7.65,"aqi":151,"mosquito_risk":0,"arthritis_risk":5,"migraine_risk":7,"frizz_risk":0,"updated_at":"2026-02-28T07:37:22.156501+05:30"},{"city":"Bhilai","state":"Chhattisgarh","latitude":21.1938,"longitude":81.3509,"temp":19.5,"humidity":68,"rain":0.0,"pressure":975.3,"uv_index":7.65,"aqi":138,"mosquito_risk":3,"arthritis_risk":5,"migraine_risk":7,"frizz_risk":0,"updated_at":"2026-02-28T07:37:22.156507+05:30"},{"city":"Guwahati","state":"Assam","latitude":26.1158,"longitude":91.7086,"temp":20.6,"humidity":76,"rain":0.0,"pressure":1002.6,"uv_index":6.95,"aqi":156,"mosquito_risk":3,"arthritis_risk":5,"migraine_risk":4,"frizz_risk":1,"updated_at":"2026-02-28T07:37:22.156512+05:30"},{"city":"Agartala","state":"Tripura","latitude":23.8315,"longitude":91.2868,"temp":19.9,"humidity":69,"rain":0.0,"pressure":1007.4,"uv_index":7.3,"aqi":164,"mosquito_risk":3,"arthritis_risk":5,"migraine_risk":4,"frizz_risk":0,"updated_at":"2026-02-28T07:37:22.156518+05:30"},{"city":"Shillong","state":"Meghalaya","latitude":25.5788,"longitude":91.8933,"temp":10.9,"humidity":78,"rain":0.0,"pressure":853.7,"uv_index":7.3,"aqi":149,"mosquito_risk":3,"arthritis_risk":5,"migraine_risk":7,"frizz_risk":0,"updated_at":"2026-02-28T07:37:22.156524+05:30"},{"city":"Imphal","state":"Manipur","latitude":24.817,"longitude":93.9368,"temp":16.6,"humidity":66,"rain":0.0,"pressure":922.7,"uv_index":7.5,"aqi":154,"mosquito_risk":3,"arthritis_risk":5,"migraine_risk":7,"frizz_risk":0,"updated_at":"2026-02-28T07:37:22.156529+05:30"},{"city":"Aizawl","state":"Mizoram","latitude":23.7271,"longitude":92.7176,"temp":15.3,"humidity":72,"rain":0.0,"pressure":891.8,"uv_index":7.45,"aqi":155,"mosquito_risk":3,"arthritis_risk":5,"migraine_risk":7,"frizz_risk":0,"updated_at":"2026-02-28T07:37:22.156535+05:30"},{"city":"Kohima","state":"Nagaland","latitude":25.6701,"longitude":94.1077,"temp":12.7,"humidity":66,"rain":0.0,"pressure":852.8,"uv_index":6.95,"aqi":152,"mosquito_risk":3,"arthritis_risk":5,"migraine_risk":7,"frizz_risk":0,"updated_at":"2026-02-28T07:37:22.156541+05:30"},{"city":"Gangtok","state":"Sikkim","latitude":27.3314,"longitude":88.6138,"temp":9.6,"humidity":90,"rain":0.2,"pressure":833.1,"uv_index":5.2,"aqi":147,"mosquito_risk":6,"arthritis_risk":10,"migraine_risk":3,"frizz_risk":0,"updated_at":"2026-02-28T07:37:22.156547+05:30"},{"city":"Siliguri","state":"West Bengal","latitude":26.7271,"longitude":88.3953,"temp":18.0,"humidity":70,"rain":0.0,"pressure":994.2,"uv_index":6.9,"aqi":163,"mosquito_risk":3,"arthritis_risk":5,"migraine_risk":7,"frizz_risk":0,"updated_at":"2026-02-28T07:37:25.497500+05:30"},{"city":"Durgapur","state":"West Bengal","latitude":23.5204,"longitude":87.3119,"temp":19.3,"humidity":55,"rain":0.0,"pressure":996.3,"uv_index":7.45,"aqi":116,"mosquito_risk":0,"arthritis_risk":5,"migraine_risk":7,"frizz_risk":0,"updated_at":"2026-02-28T07:37:25.497537+05:30"},{"city":"Asansol","state":"West Bengal","latitude":23.6739,"longitude":86.9524,"temp":20.2,"humidity":48,"rain":0.0,"pressure":994.8,"uv_index":7.4,"aqi":104,"mosquito_risk":0,"arthritis_risk":5,"migraine_risk":7,"frizz_risk":0,"updated_at":"2026-02-28T07:37:25.497551+05:30"},{"city":"Pondicherry","state":"Puducherry","latitude":11.9139,"longitude":79.8145,"temp":23.5,"humidity":95,"rain":0.0,"pressure":1009.7,"uv_index":8.75,"aqi":102,"mosquito_risk":3,"arthritis_risk":0,"migraine_risk":4,"frizz_risk":1,"updated_at":"2026-02-28T07:37:25.497559+05:30"},{"city":"Port Blair","state":"Andaman and Nicobar Islands","latitude":11.6234,"longitude":92.7265,"temp":26.5,"humidity":79,"rain":0.0,"pressure":1006.9,"uv_index":7.65,"aqi":83,"mosquito_risk":7,"arthritis_risk":5,"migraine_risk":4,"frizz_risk":1,"updated_at":"2026-02-28T07:37:25.497565+05:30"},{"city":"Haridwar","state":"Uttarakhand","latitude":29.9457,"longitude":78.1642,"temp":15.6,"humidity":79,"rain":0.0,"pressure":974.1,"uv_index":5.3,"aqi":118,"mosquito_risk":3,"arthritis_risk":5,"migraine_risk":3,"frizz_risk":0,"updated_at":"2026-02-28T07:37:25.497571+05:30"},{"city":"Rishikesh","state":"Uttarakhand","latitude":30.0869,"longitude":78.2676,"temp":15.2,"humidity":67,"rain":0.0,"pressure":966.8,"uv_index":5.4,"aqi":99,"mosquito_risk":3,"arthritis_risk":5,"migraine_risk":3,"frizz_risk":0,"updated_at":"2026-02-28T07:37:25.497576+05:30"},{"city":"Nainital","state":"Uttarakhand","latitude":29.3919,"longitude":79.4542,"temp":13.1,"humidity":53,"rain":0.0,"pressure":802.5,"uv_index":6.25,"aqi":108,"mosquito_risk":0,"arthritis_risk":5,"migraine_risk":7,"frizz_risk":0,"updated_at":"2026-02-28T07:37:25.497582+05:30"},{"city":"Mussoorie","state":"Uttarakhand","latitude":30.4599,"longitude":78.0664,"temp":11.4,"humidity":42,"rain":0.0,"pressure":798.9,"uv_index":5.75,"aqi":99,"mosquito_risk":0,"arthritis_risk":5,"migraine_risk":3,"frizz_risk":1,"updated_at":"2026-02-28T07:37:25.497588+05:30"},{"city":"Dharamshala","state":"Himachal Pradesh","latitude":32.219,"longitude":76.3234,"temp":15.2,"humidity":34,"rain":0.0,"pressure":866.6,"uv_index":6.0,"aqi":61,"mosquito_risk":0,"arthritis_risk":5,"migraine_risk":3,"frizz_risk":1,"updated_at":"2026-02-28T07:37:25.497593+05:30"},{"city":"Dalhousie","state":"Himachal Pradesh","latitude":32.5387,"longitude":75.971,"temp":12.2,"humidity":35,"rain":0.0,"pressure":800.5,"uv_index":6.25,"aqi":93,"mosquito_risk":0,"arthritis_risk":5,"migraine_risk":7,"frizz_risk":1,"updated_at":"2026-02-28T07:37:25.497599+05:30"},{"city":"Patiala","state":"Punjab","latitude":30.3398,"longitude":76.3869,"temp":14.8,"humidity":88,"rain":0.0,"pressure":978.3,"uv_index":5.45,"aqi":161,"mosquito_risk":3,"arthritis_risk":10,"migraine_risk":3,"frizz_risk":0,"updated_at":"2026-02-28T07:37:25.497605+05:30"},{"city":"Bhatinda","state":"Punjab","latitude":30.211,"longitude":74.9455,"temp":14.8,"humidity":91,"rain":0.0,"pressure":983.8,"uv_index":6.15,"aqi":152,"mosquito_risk":3,"arthritis_risk":10,"migraine_risk":7,"frizz_risk":0,"updated_at":"2026-02-28T07:37:25.497611+05:30"},{"city":"Rohtak","state":"Haryana","latitude":28.8955,"longitude":76.6066,"temp":15.9,"humidity":89,"rain":0.0,"pressure":982.4,"uv_index":5.65,"aqi":159,"mosquito_risk":3,"arthritis_risk":10,"migraine_risk":3,"frizz_risk":0,"updated_at":"2026-02-28T07:37:25.497616+05:30"},{"city":"Panipat","state":"Haryana","latitude":29.3909,"longitude":76.9635,"temp":15.7,"humidity":87,"rain":0.0,"pressure":980.6,"uv_index":5.4,"aqi":164,"mosquito_risk":3,"arthritis_risk":10,"migraine_risk":3,"frizz_risk":0,"updated_at":"2026-02-28T07:37:25.497621+05:30"},{"city":"Mathura","state":"Uttar Pradesh","latitude":27.4924,"longitude":77.6737,"temp":17.0,"humidity":81,"rain":0.0,"pressure":987.1,"uv_index":5.85,"aqi":127,"mosquito_risk":3,"arthritis_risk":10,"migraine_risk":3,"frizz_risk":0,"updated_at":"2026-02-28T07:37:25.497626+05:30"},{"city":"Vrindavan","state":"Uttar Pradesh","latitude":27.5823,"longitude":77.7027,"temp":16.5,"humidity":77,"rain":0.0,"pressure":987.5,"uv_index":5.85,"aqi":127,"mosquito_risk":3,"arthritis_risk":5,"migraine_risk":3,"frizz_risk":0,"updated_at":"2026-02-28T07:37:25.497632+05:30"},{"city":"Ayodhya","state":"Uttar Pradesh","latitude":26.7922,"longitude":82.1998,"temp":15.2,"humidity":85,"rain":0.0,"pressure":995.3,"uv_index":6.25,"aqi":142,"mosquito_risk":3,"arthritis_risk":10,"migraine_risk":7,"frizz_risk":0,"updated_at":"2026-02-28T07:37:25.497637+05:30"},{"city":"Ratlam","state":"Madhya Pradesh","latitude":23.3315,"longitude":75.0367,"temp":17.4,"humidity":76,"rain":0.0,"pressure":954.3,"uv_index":7.2,"aqi":57,"mosquito_risk":3,"arthritis_risk":5,"migraine_risk":7,"frizz_risk":0,"updated_at":"2026-02-28T07:37:25.497642+05:30"},{"city":"Sagar","state":"Madhya Pradesh","latitude":23.8388,"longitude":78.7378,"temp":21.8,"humidity":54,"rain":0.0,"pressure":949.6,"uv_index":7.1,"aqi":81,"mosquito_risk":0,"arthritis_risk":5,"migraine_risk":7,"frizz_risk":0,"updated_at":"2026-02-28T07:37:25.497648+05:30"},{"city":"Satna","state":"Madhya Pradesh","latitude":24.6005,"longitude":80.8322,"temp":17.5,"humidity":65,"rain":0.0,"pressure":971.3,"uv_index":7.0,"aqi":69,"mosquito_risk":3,"arthritis_risk":5,"migraine_risk":7,"frizz_risk":0,"updated_at":"2026-02-28T07:37:25.497653+05:30"},{"city":"Akola","state":"Maharashtra","latitude":20.7002,"longitude":77.0082,"temp":20.5,"humidity":78,"rain":0.0,"pressure":975.5,"uv_index":7.6,"aqi":139,"mosquito_risk":3,"arthritis_risk":5,"migraine_risk":7,"frizz_risk":1,"updated_at":"2026-02-28T07:37:25.497659+05:30"},{"city":"Amravati","state":"Maharashtra","latitude":20.9374,"longitude":77.7796,"temp":20.0,"humidity":83,"rain":0.0,"pressure":967.1,"uv_index":7.55,"aqi":152,"mosquito_risk":3,"arthritis_risk":5,"migraine_risk":7,"frizz_risk":1,"updated_at":"2026-02-28T07:37:25.497665+05:30"},{"city":"Latur","state":"Maharashtra","latitude":18.4088,"longitude":76.5604,"temp":18.2,"humidity":70,"rain":0.0,"pressure":938.4,"uv_index":8.05,"aqi":79,"mosquito_risk":3,"arthritis_risk":5,"migraine_risk":7,"frizz_risk":0,"updated_at":"2026-02-28T07:37:25.497670+05:30"},{"city":"Nanded","state":"Maharashtra","latitude":19.1383,"longitude":77.3091,"temp":19.9,"humidity":71,"rain":0.0,"pressure":968.4,"uv_index":7.85,"aqi":138,"mosquito_risk":3,"arthritis_risk":5,"migraine_risk":7,"frizz_risk":0,"updated_at":"2026-02-28T07:37:25.497676+05:30"},{"city":"Gulbarga","state":"Karnataka","latitude":17.3297,"longitude":76.8343,"temp":19.8,"humidity":75,"rain":0.0,"pressure":958.3,"uv_index":8.15,"aqi":76,"mosquito_risk":3,"arthritis_risk":5,"migraine_risk":7,"frizz_risk":0,"updated_at":"2026-02-28T07:37:25.497681+05:30"},{"city":"Bidar","state":"Karnataka","latitude":17.9104,"longitude":77.5199,"temp":21.3,"humidity":73,"rain":0.0,"pressure":934.9,"uv_index":8.1,"aqi":106,"mosquito_risk":3,"arthritis_risk":5,"migraine_risk":7,"frizz_risk":1,"updated_at":"2026-02-28T07:37:25.497686+05:30"},{"city":"Hospet","state":"Karnataka","latitude":15.2689,"longitude":76.3909,"temp":23.1,"humidity":67,"rain":0.0,"pressure":954.8,"uv_index":8.5,"aqi":92,"mosquito_risk":3,"arthritis_risk":5,"migraine_risk":7,"frizz_risk":1,"updated_at":"2026-02-28T07:37:25.497692+05:30"},{"city":"Tirupur","state":"Tamil Nadu","latitude":11.1085,"longitude":77.3411,"temp":22.8,"humidity":85,"rain":0.0,"pressure":976.1,"uv_index":9.05,"aqi":153,"mosquito_risk":3,"arthritis_risk":5,"migraine_risk":7,"frizz_risk":1,"updated_at":"2026-02-28T07:37:25.497697+05:30"},{"city":"Alappuzha","state":"Kerala","latitude":9.4981,"longitude":76.3388,"temp":27.0,"humidity":83,"rain":0.0,"pressure":1008.4,"uv_index":8.25,"aqi":119,"mosquito_risk":7,"arthritis_risk":0,"migraine_risk":4,"frizz_risk":1,"updated_at":"2026-02-28T07:37:25.497703+05:30"},{"city":"Munnar","state":"Kerala","latitude":10.0889,"longitude":77.0595,"temp":19.4,"humidity":72,"rain":0.0,"pressure":855.5,"uv_index":8.15,"aqi":116,"mosquito_risk":3,"arthritis_risk":5,"migraine_risk":7,"frizz_risk":0,"updated_at":"2026-02-28T07:37:25.497709+05:30"},{"city":"Silchar","state":"Assam","latitude":24.8333,"longitude":92.7789,"temp":19.2,"humidity":82,"rain":0.0,"pressure":1006.5,"uv_index":7.25,"aqi":161,"mosquito_risk":3,"arthritis_risk":10,"migraine_risk":4,"frizz_risk":0,"updated_at":"2026-02-28T07:37:25.497715+05:30"},{"city":"Dibrugarh","state":"Assam","latitude":27.4728,"longitude":94.912,"temp":17.6,"humidity":91,"rain":0.0,"pressure":997.6,"uv_index":6.75,"aqi":150,"mosquito_risk":3,"arthritis_risk":10,"migraine_risk":7,"frizz_risk":1,"updated_at":"2026-02-28T07:37:25.497720+05:30"}]