[{"city":"Delhi","state":"Delhi","latitude":28.6139,"longitude":77.209,"temp":32.9,"humidity":27,"rain":0.0,"pressure":979.4,"uv_index":7.45,"wind_gusts":34.9,"aqi":169,"pm10":373.5,"pm2_5":66.1,"mosquito_risk":0,"arthritis_risk":5,"migraine_risk":7,"frizz_risk":0,"updated_at":"2026-04-30T19:33:31.734787+05:30"},{"city":"Mumbai","state":"Maharashtra","latitude":19.076,"longitude":72.8777,"temp":29.4,"humidity":78,"rain":0.0,"pressure":1007.3,"uv_index":8.05,"wind_gusts":41.8,"aqi":70,"pm10":42.8,"pm2_5":17.5,"mosquito_risk":7,"arthritis_risk":5,"migraine_risk":4,"frizz_risk":1,"updated_at":"2026-04-30T19:33:31.734841+05:30"},{"city":"Bangalore","state":"Karnataka","latitude":12.9716,"longitude":77.5946,"temp":24.0,"humidity":73,"rain":0.0,"pressure":913.0,"uv_index":9.55,"wind_gusts":36.4,"aqi":161,"pm10":46.9,"pm2_5":39.5,"mosquito_risk":3,"arthritis_risk":5,"migraine_risk":7,"frizz_risk":1,"updated_at":"2026-04-30T19:33:31.734857+05:30"},{"city":"Hyderabad","state":"Telangana","latitude":17.385,"longitude":78.4867,"temp":36.8,"humidity":20,"rain":0.0,"pressure":951.5,"uv_index":9.25,"wind_gusts":35.3,"aqi":153,"pm10":42.4,"pm2_5":36.1,"mosquito_risk":0,"arthritis_risk":5,"migraine_risk":10,"frizz_risk":0,"updated_at":"2026-04-30T19:33:31.734868+05:30"},{"city":"Chennai","state":"Tamil Nadu","latitude":13.0827,"longitude":80.2707,"temp":30.9,"humidity":80,"rain":0.0,"pressure":1005.6,"uv_index":9.25,"wind_gusts":53.6,"aqi":47,"pm10":14.2,"pm2_5":9.9,"mosquito_risk":3,"arthritis_risk":5,"migraine_risk":4,"frizz_risk":1,"updated_at":"2026-04-30T19:33:31.734877+05:30"},{"city":"Kolkata","state":"West Bengal","latitude":22.5726,"longitude":88.3639,"temp":24.5,"humidity":92,"rain":0.2,"pressure":1008.4,"uv_index":8.75,"wind_gusts":30.2,"aqi":61,"pm10":19.7,"pm2_5":16.5,"mosquito_risk":6,"arthritis_risk":0,"migraine_risk":4,"frizz_risk":1,"updated_at":"2026-04-30T19:33:31.734887+05:30"},{"city":"Pune","state":"Maharashtra","latitude":18.5204,"longitude":73.8567,"temp":29.2,"humidity":51,"rain":0.0,"pressure":947.5,"uv_index":8.6,"wind_gusts":49.3,"aqi":68,"pm10":27.7,"pm2_5":12.2,"mosquito_risk":4,"arthritis_risk":5,"migraine_risk":7,"frizz_risk":1,"updated_at":"2026-04-30T19:33:31.734905+05:30"},{"city":"Ahmedabad","state":"Gujarat","latitude":23.0225,"longitude":72.5714,"temp":34.5,"humidity":46,"rain":0.0,"pressure":997.7,"uv_index":8.2,"wind_gusts":41.0,"aqi":72,"pm10":50.2,"pm2_5":20.1,"mosquito_risk":0,"arthritis_risk":5,"migraine_risk":7,"frizz_risk":1,"updated_at":"2026-04-30T19:33:31.734913+05:30"},{"city":"Jaipur","state":"Rajasthan","latitude":26.9124,"longitude":75.7873,"temp":34.2,"humidity":19,"rain":0.0,"pressure":955.4,"uv_index":8.05,"wind_gusts":46.4,"aqi":172,"pm10":351.1,"pm2_5":53.3,"mosquito_risk":0,"arthritis_risk":5,"migraine_risk":7,"frizz_risk":0,"updated_at":"2026-04-30T19:33:31.734921+05:30"},{"city":"Lucknow","state":"Uttar Pradesh","latitude":26.8467,"longitude":80.9462,"temp":29.0,"humidity":52,"rain":0.0,"pressure":992.0,"uv_index":7.6,"wind_gusts":41.8,"aqi":177,"pm10":61.2,"pm2_5":36.8,"mosquito_risk":4,"arthritis_risk":5,"migraine_risk":7,"frizz_risk":1,"updated_at":"2026-04-30T19:33:31.734929+05:30"},{"city":"Kanpur","state":"Uttar Pradesh","latitude":26.4499,"longitude":80.3319,"temp":29.5,"humidity":57,"rain":0.0,"pressure":989.7,"uv_index":7.55,"wind_gusts":45.7,"aqi":186,"pm10":160.7,"pm2_5":48.0,"mosquito_risk":4,"arthritis_risk":5,"migraine_risk":7,"frizz_risk":1,"updated_at":"2026-04-30T19:33:31.734936+05:30"},{"city":"Chandigarh","state":"Chandigarh","latitude":30.7333,"longitude":76.7794,"temp":27.5,"humidity":39,"rain":0.0,"pressure":965.9,"uv_index":7.35,"wind_gusts":37.1,"aqi":129,"pm10":144.8,"pm2_5":36.1,"mosquito_risk":4,"arthritis_risk":5,"migraine_risk":7,"frizz_risk":0,"updated_at":"2026-04-30T19:33:31.734943+05:30"},{"city":"Srinagar","state":"Jammu and Kashmir","latitude":34.0837,"longitude":74.7973,"temp":15.0,"humidity":84,"rain":0.0,"pressure":840.0,"uv_index":6.85,"wind_gusts":24.1,"aqi":71,"pm10":21.4,"pm2_5":20.0,"mosquito_risk":3,"arthritis_risk":10,"migraine_risk":7,"frizz_risk":0,"updated_at":"2026-04-30T19:33:31.734952+05:30"},{"city":"Jammu","state":"Jammu and Kashmir","latitude":32.7266,"longitude":74.857,"temp":25.4,"humidity":54,"rain":0.0,"pressure":969.1,"uv_index":8.3,"wind_gusts":36.7,"aqi":112,"pm10":21.9,"pm2_5":14.6,"mosquito_risk":4,"arthritis_risk":5,"migraine_risk":7,"frizz_risk":0,"updated_at":"2026-04-30T19:33:31.734959+05:30"},{"city":"Amritsar","state":"Punjab","latitude":31.634,"longitude":74.8723,"temp":26.9,"humidity":51,"rain":0.0,"pressure":977.1,"uv_index":8.05,"wind_gusts":38.2,"aqi":133,"pm10":33.2,"pm2_5":21.1,"mosquito_risk":4,"arthritis_risk":5,"migraine_risk":7,"frizz_risk":0,"updated_at":"2026-04-30T19:33:31.734967+05:30"},{"city":"Ludhiana","state":"Punjab","latitude":30.901,"longitude":75.8573,"temp":30.9,"humidity":29,"rain":0.0,"pressure":975.2,"uv_index":7.45,"wind_gusts":32.4,"aqi":121,"pm10":73.1,"pm2_5":28.5,"mosquito_risk":0,"arthritis_risk":5,"migraine_risk":7,"frizz_risk":0,"updated_at":"2026-04-30T19:33:31.734975+05:30"},{"city":"Jalandhar","state":"Punjab","latitude":31.326,"longitude":75.5762,"temp":28.0,"humidity":47,"rain":0.0,"pressure":975.9,"uv_index":7.85,"wind_gusts":26.6,"aqi":122,"pm10":41.4,"pm2_5":23.9,"mosquito_risk":4,"arthritis_risk":5,"migraine_risk":7,"frizz_risk":0,"updated_at":"2026-04-30T19:33:31.734985+05:30"},{"city":"Dehradun","state":"Uttarakhand","latitude":30.6284,"longitude":78.0322,"temp":13.1,"humidity":87,"rain":0.0,"pressure":827.7,"uv_index":7.7,"wind_gusts":46.8,"aqi":74,"pm10":22.6,"pm2_5":17.3,"mosquito_risk":3,"arthritis_risk":10,"migraine_risk":7,"frizz_risk":0,"updated_at":"2026-04-30T19:33:31.734994+05:30"},{"city":"Shimla","state":"Himachal Pradesh","latitude":31.1048,"longitude":77.1734,"temp":11.1,"humidity":77,"rain":0.0,"pressure":780.9,"uv_index":7.4,"wind_gusts":46.4,"aqi":106,"pm10":26.1,"pm2_5":16.9,"mosquito_risk":3,"arthritis_risk":5,"migraine_risk":7,"frizz_risk":0,"updated_at":"2026-04-30T19:33:31.735002+05:30"},{"city":"Manali","state":"Himachal Pradesh","latitude":32.2396,"longitude":77.1887,"temp":10.5,"humidity":86,"rain":0.0,"pressure":814.5,"uv_index":10.15,"wind_gusts":29.5,"aqi":110,"pm10":5.7,"pm2_5":5.0,"mosquito_risk":3,"arthritis_risk":10,"migraine_risk":7,"frizz_risk":0,"updated_at":"2026-04-30T19:33:31.735010+05:30"},{"city":"Gurgaon","state":"Haryana","latitude":28.4595,"longitude":77.0266,"temp":32.2,"humidity":25,"rain":0.0,"pressure":977.5,"uv_index":7.55,"wind_gusts":41.4,"aqi":779,"pm10":1683.8,"pm2_5":184.9,"mosquito_risk":0,"arthritis_risk":5,"migraine_risk":7,"frizz_risk":0,"updated_at":"2026-04-30T19:33:31.735017+05:30"},{"city":"Noida","state":"Uttar Pradesh","latitude":28.5355,"longitude":77.391,"temp":30.1,"humidity":38,"rain":0.0,"pressure":980.9,"uv_index":7.45,"wind_gusts":42.5,"aqi":779,"pm10":1683.8,"pm2_5":184.9,"mosquito_risk":0,"arthritis_risk":5,"migraine_risk":7,"frizz_risk":0,"updated_at":"2026-04-30T19:33:31.735024+05:30"},{"city":"Ghaziabad","state":"Uttar Pradesh","latitude":28.6692,"longitude":77.4538,"temp":30.7,"humidity":34,"rain":0.0,"pressure":979.4,"uv_index":7.45,"wind_gusts":56.2,"aqi":148,"pm10":290.6,"pm2_5":56.3,"mosquito_risk":0,"arthritis_risk":5,"migraine_risk":7,"frizz_risk":0,"updated_at":"2026-04-30T19:33:31.735032+05:30"},{"city":"Faridabad","state":"Haryana","latitude":28.4089,"longitude":77.3178,"temp":31.2,"humidity":35,"rain":0.0,"pressure":980.1,"uv_index":7.5,"wind_gusts":43.2,"aqi":779,"pm10":1683.8,"pm2_5":184.9,"mosquito_risk":0,"arthritis_risk":5,"migraine_risk":7,"frizz_risk":0,"updated_at":"2026-04-30T19:33:31.735039+05:30"},{"city":"Meerut","state":"Uttar Pradesh","latitude":28.9845,"longitude":77.7064,"temp":28.6,"humidity":41,"rain":0.0,"pressure":978.7,"uv_index":7.2,"wind_gusts":56.5,"aqi":148,"pm10":290.6,"pm2_5":56.3,"mosquito_risk":4,"arthritis_risk":5,"migraine_risk":7,"frizz_risk":0,"updated_at":"2026-04-30T19:33:31.735045+05:30"},{"city":"Agra","state":"Uttar Pradesh","latitude":27.1767,"longitude":78.0081,"temp":31.2,"humidity":37,"rain":0.0,"pressure":984.7,"uv_index":7.8,"wind_gusts":53.3,"aqi":526,"pm10":254.3,"pm2_5":51.7,"mosquito_risk":0,"arthritis_risk":5,"migraine_risk":7,"frizz_risk":0,"updated_at":"2026-04-30T19:33:31.735052+05:30"},{"city":"Varanasi","state":"Uttar Pradesh","latitude":25.3176,"longitude":82.9739,"temp":28.5,"humidity":55,"rain":0.0,"pressure":996.9,"uv_index":8.5,"wind_gusts":36.0,"aqi":185,"pm10":56.5,"pm2_5":38.4,"mosquito_risk":4,"arthritis_risk":5,"migraine_risk":7,"frizz_risk":1,"updated_at":"2026-04-30T19:33:31.735063+05:30"},{"city":"Prayagraj","state":"Uttar Pradesh","latitude":25.4358,"longitude":81.8463,"temp":28.9,"humidity":52,"rain":0.0,"pressure":994.3,"uv_index":7.55,"wind_gusts":34.9,"aqi":169,"pm10":64.3,"pm2_5":35.5,"mosquito_risk":4,"arthritis_risk":5,"migraine_risk":7,"frizz_risk":1,"updated_at":"2026-04-30T19:33:31.735071+05:30"},{"city":"Gorakhpur","state":"Uttar Pradesh","latitude":26.7606,"longitude":83.3732,"temp":27.0,"humidity":58,"rain":0.0,"pressure":997.0,"uv_index":8.25,"wind_gusts":45.7,"aqi":116,"pm10":42.8,"pm2_5":24.4,"mosquito_risk":4,"arthritis_risk":5,"migraine_risk":7,"frizz_risk":1,"updated_at":"2026-04-30T19:33:31.735077+05:30"},{"city":"Bareilly","state":"Uttar Pradesh","latitude":28.367,"longitude":79.4304,"temp":28.6,"humidity":45,"rain":0.0,"pressure":984.9,"uv_index":7.7,"wind_gusts":48.2,"aqi":159,"pm10":106.9,"pm2_5":43.3,"mosquito_risk":4,"arthritis_risk":5,"migraine_risk":7,"frizz_risk":0,"updated_at":"2026-04-30T19:33:31.735083+05:30"},{"city":"Aligarh","state":"Uttar Pradesh","latitude":27.8974,"longitude":78.088,"temp":31.0,"humidity":36,"rain":0.0,"pressure":982.5,"uv_index":7.6,"wind_gusts":40.3,"aqi":266,"pm10":309.2,"pm2_5":61.2,"mosquito_risk":0,"arthritis_risk":5,"migraine_risk":7,"frizz_risk":0,"updated_at":"2026-04-30T19:33:31.735090+05:30"},{"city":"Moradabad","state":"Uttar Pradesh","latitude":28.8386,"longitude":78.7733,"temp":28.4,"humidity":43,"rain":0.0,"pressure":981.6,"uv_index":7.55,"wind_gusts":50.0,"aqi":179,"pm10":134.6,"pm2_5":54.9,"mosquito_risk":4,"arthritis_risk":5,"migraine_risk":7,"frizz_risk":0,"updated_at":"2026-04-30T19:33:31.735096+05:30"},{"city":"Saharanpur","state":"Uttar Pradesh","latitude":29.9637,"longitude":77.546,"temp":26.7,"humidity":53,"rain":0.0,"pressure":973.3,"uv_index":6.2,"wind_gusts":66.2,"aqi":124,"pm10":101.7,"pm2_5":37.6,"mosquito_risk":4,"arthritis_risk":5,"migraine_risk":7,"frizz_risk":1,"updated_at":"2026-04-30T19:33:31.735102+05:30"},{"city":"Jhansi","state":"Uttar Pradesh","latitude":25.4484,"longitude":78.5685,"temp":30.7,"humidity":41,"rain":0.0,"pressure":975.4,"uv_index":8.3,"wind_gusts":54.4,"aqi":89,"pm10":75.0,"pm2_5":24.6,"mosquito_risk":0,"arthritis_risk":5,"migraine_risk":7,"frizz_risk":0,"updated_at":"2026-04-30T19:33:35.018172+05:30"},{"city":"Surat","state":"Gujarat","latitude":21.1702,"longitude":72.8311,"temp":29.2,"humidity":80,"rain":0.0,"pressure":1004.3,"uv_index":7.8,"wind_gusts":51.1,"aqi":64,"pm10":36.1,"pm2_5":18.9,"mosquito_risk":7,"arthritis_risk":5,"migraine_risk":4,"frizz_risk":1,"updated_at":"2026-04-30T19:33:35.018207+05:30"},{"city":"Vadodara","state":"Gujarat","latitude":22.3072,"longitude":73.1812,"temp":32.7,"humidity":55,"rain":0.0,"pressure":1000.9,"uv_index":8.15,"wind_gusts":45.7,"aqi":72,"pm10":28.6,"pm2_5":16.4,"mosquito_risk":0,"arthritis_risk":5,"migraine_risk":4,"frizz_risk":1,"updated_at":"2026-04-30T19:33:35.018262+05:30"},{"city":"Rajkot","state":"Gujarat","latitude":22.3039,"longitude":70.8022,"temp":35.0,"humidity":34,"rain":0.0,"pressure":990.7,"uv_index":7.9,"wind_gusts":46.1,"aqi":61,"pm10":33.1,"pm2_5":14.2,"mosquito_risk":0,"arthritis_risk":5,"migraine_risk":7,"frizz_risk":1,"updated_at":"2026-04-30T19:33:35.018270+05:30"},{"city":"Thane","state":"Maharashtra","latitude":19.2183,"longitude":72.9781,"temp":29.9,"humidity":73,"rain":0.0,"pressure":1006.6,"uv_index":8.05,"wind_gusts":38.9,"aqi":70,"pm10":42.8,"pm2_5":17.5,"mosquito_risk":7,"arthritis_risk":5,"migraine_risk":4,"frizz_risk":1,"updated_at":"2026-04-30T19:33:35.018277+05:30"},{"city":"Nagpur","state":"Maharashtra","latitude":21.1458,"longitude":79.0882,"temp":37.5,"humidity":16,"rain":0.0,"pressure":969.6,"uv_index":8.9,"wind_gusts":53.6,"aqi":91,"pm10":39.6,"pm2_5":20.6,"mosquito_risk":0,"arthritis_risk":5,"migraine_risk":10,"frizz_risk":0,"updated_at":"2026-04-30T19:33:35.018284+05:30"},{"city":"Nashik","state":"Maharashtra","latitude":19.9975,"longitude":73.7898,"temp":28.7,"humidity":48,"rain":0.0,"pressure":944.7,"uv_index":8.3,"wind_gusts":53.3,"aqi":64,"pm10":39.0,"pm2_5":13.9,"mosquito_risk":4,"arthritis_risk":5,"migraine_risk":7,"frizz_risk":1,"updated_at":"2026-04-30T19:33:35.018292+05:30"},{"city":"Aurangabad","state":"Maharashtra","latitude":19.8762,"longitude":75.3433,"temp":34.2,"humidity":19,"rain":0.0,"pressure":942.6,"uv_index":9.05,"wind_gusts":53.3,"aqi":85,"pm10":35.5,"pm2_5":15.3,"mosquito_risk":0,"arthritis_risk":5,"migraine_risk":7,"frizz_risk":0,"updated_at":"2026-04-30T19:33:35.018298+05:30"},{"city":"Solapur","state":"Maharashtra","latitude":17.6599,"longitude":75.9064,"temp":36.4,"humidity":18,"rain":0.0,"pressure":954.3,"uv_index":9.1,"wind_gusts":40.3,"aqi":100,"pm10":26.1,"pm2_5":19.4,"mosquito_risk":0,"arthritis_risk":5,"migraine_risk":10,"frizz_risk":0,"updated_at":"2026-04-30T19:33:35.018305+05:30"},{"city":"Kolhapur","state":"Maharashtra","latitude":16.705,"longitude":74.2433,"temp":29.0,"humidity":43,"rain":0.0,"pressure":947.7,"uv_index":9.0,"wind_gusts":43.6,"aqi":57,"pm10":18.1,"pm2_5":11.7,"mosquito_risk":4,"arthritis_risk":5,"migraine_risk":7,"frizz_risk":0,"updated_at":"2026-04-30T19:33:35.018312+05:30"},{"city":"Goa","state":"Goa","latitude":15.2993,"longitude":74.124,"temp":30.1,"humidity":75,"rain":0.0,"pressure":997.3,"uv_index":8.95,"wind_gusts":36.4,"aqi":57,"pm10":25.8,"pm2_5":13.8,"mosquito_risk":3,"arthritis_risk":5,"migraine_risk":7,"frizz_risk":1,"updated_at":"2026-04-30T19:33:35.018319+05:30"},{"city":"Jodhpur","state":"Rajasthan","latitude":26.2389,"longitude":73.0243,"temp":36.2,"humidity":25,"rain":0.0,"pressure":977.2,"uv_index":8.3,"wind_gusts":39.2,"aqi":128,"pm10":284.1,"pm2_5":46.8,"mosquito_risk":0,"arthritis_risk":5,"migraine_risk":10,"frizz_risk":0,"updated_at":"2026-04-30T19:33:35.018326+05:30"},{"city":"Udaipur","state":"Rajasthan","latitude":24.5854,"longitude":73.7125,"temp":33.2,"humidity":24,"rain":0.0,"pressure":943.3,"uv_index":8.8,"wind_gusts":46.8,"aqi":68,"pm10":53.2,"pm2_5":18.4,"mosquito_risk":0,"arthritis_risk":5,"migraine_risk":7,"frizz_risk":0,"updated_at":"2026-04-30T19:33:35.018334+05:30"},{"city":"Kota","state":"Rajasthan","latitude":25.2138,"longitude":75.8648,"temp":35.2,"humidity":17,"rain":0.0,"pressure":973.8,"uv_index":8.3,"wind_gusts":43.9,"aqi":83,"pm10":98.3,"pm2_5":32.1,"mosquito_risk":0,"arthritis_risk":5,"migraine_risk":10,"frizz_risk":0,"updated_at":"2026-04-30T19:33:35.018340+05:30"},{"city":"Bikaner","state":"Rajasthan","latitude":28.0229,"longitude":73.3119,"temp":37.0,"humidity":13,"rain":0.0,"pressure":975.2,"uv_index":8.2,"wind_gusts":47.2,"aqi":83,"pm10":82.2,"pm2_5":17.3,"mosquito_risk":0,"arthritis_risk":5,"migraine_risk":10,"frizz_risk":0,"updated_at":"2026-04-30T19:33:35.018347+05:30"},{"city":"Ajmer","state":"Rajasthan","latitude":26.4499,"longitude":74.6399,"temp":33.3,"humidity":24,"rain":0.0,"pressure":950.8,"uv_index":8.25,"wind_gusts":50.4,"aqi":82,"pm10":106.2,"pm2_5":25.3,"mosquito_risk":0,"arthritis_risk":5,"migraine_risk":7,"frizz_risk":0,"updated_at":"2026-04-30T19:33:35.018353+05:30"},{"city":"Gwalior","state":"Madhya Pradesh","latitude":26.2183,"longitude":78.1828,"temp":32.4,"humidity":31,"rain":0.0,"pressure":980.2,"uv_index":8.05,"wind_gusts":38.2,"aqi":110,"pm10":118.3,"pm2_5":31.0,"mosquito_risk":0,"arthritis_risk":5,"migraine_risk":7,"frizz_risk":0,"updated_at":"2026-04-30T19:33:35.018359+05:30"},{"city":"Indore","state":"Madhya Pradesh","latitude":22.7196,"longitude":75.8577,"temp":34.8,"humidity":21,"rain":0.0,"pressure":945.9,"uv_index":8.6,"wind_gusts":45.0,"aqi":77,"pm10":49.0,"pm2_5":20.7,"mosquito_risk":0,"arthritis_risk":5,"migraine_risk":7,"frizz_risk":0,"updated_at":"2026-04-30T19:33:35.018366+05:30"},{"city":"Bhopal","state":"Madhya Pradesh","latitude":23.2599,"longitude":77.4126,"temp":33.5,"humidity":26,"rain":0.0,"pressure":950.7,"uv_index":8.6,"wind_gusts":59.0,"aqi":72,"pm10":47.0,"pm2_5":18.6,"mosquito_risk":0,"arthritis_risk":5,"migraine_risk":7,"frizz_risk":0,"updated_at":"2026-04-30T19:33:35.018373+05:30"},{"city":"Jabalpur","state":"Madhya Pradesh","latitude":23.1815,"longitude":79.9864,"temp":30.2,"humidity":36,"rain":0.0,"pressure":960.1,"uv_index":8.7,"wind_gusts":43.6,"aqi":93,"pm10":66.8,"pm2_5":24.7,"mosquito_risk":0,"arthritis_risk":5,"migraine_risk":7,"frizz_risk":0,"updated_at":"2026-04-30T19:33:35.018379+05:30"},{"city":"Ujjain","state":"Madhya Pradesh","latitude":23.1765,"longitude":75.7885,"temp":35.0,"humidity":21,"rain":0.0,"pressure":951.2,"uv_index":8.55,"wind_gusts":48.6,"aqi":73,"pm10":49.6,"pm2_5":21.1,"mosquito_risk":0,"arthritis_risk":5,"migraine_risk":7,"frizz_risk":0,"updated_at":"2026-04-30T19:33:35.018387+05:30"},{"city":"Visakhapatnam","state":"Andhra Pradesh","latitude":17.6868,"longitude":83.2185,"temp":29.5,"humidity":83,"rain":0.0,"pressure":1002.2,"uv_index":9.1,"wind_gusts":55.8,"aqi":59,"pm10":20.0,"pm2_5":15.9,"mosquito_risk":7,"arthritis_risk":5,"migraine_risk":4,"frizz_risk":1,"updated_at":"2026-04-30T19:33:35.018393+05:30"},{"city":"Vijayawada","state":"Andhra Pradesh","latitude":16.5062,"longitude":80.648,"temp":31.4,"humidity":74,"rain":0.0,"pressure":1000.7,"uv_index":9.2,"wind_gusts":50.4,"aqi":106,"pm10":23.3,"pm2_5":21.3,"mosquito_risk":3,"arthritis_risk":5,"migraine_risk":4,"frizz_risk":1,"updated_at":"2026-04-30T19:33:35.018399+05:30"},{"city":"Guntur","state":"Andhra Pradesh","latitude":16.3067,"longitude":80.4365,"temp":32.6,"humidity":67,"rain":0.0,"pressure":1001.7,"uv_index":9.2,"wind_gusts":39.2,"aqi":135,"pm10":31.3,"pm2_5":28.6,"mosquito_risk":3,"arthritis_risk":5,"migraine_risk":4,"frizz_risk":1,"updated_at":"2026-04-30T19:33:35.018405+05:30"},{"city":"Nellore","state":"Andhra Pradesh","latitude":14.4426,"longitude":79.9865,"temp":30.8,"humidity":79,"rain":0.0,"pressure":1004.0,"uv_index":9.2,"wind_gusts":42.5,"aqi":106,"pm10":18.5,"pm2_5":15.0,"mosquito_risk":3,"arthritis_risk":5,"migraine_risk":4,"frizz_risk":1,"updated_at":"2026-04-30T19:33:35.018412+05:30"},{"city":"Kurnool","state":"Andhra Pradesh","latitude":15.8281,"longitude":78.0373,"temp":35.7,"humidity":28,"rain":0.0,"pressure":974.8,"uv_index":9.2,"wind_gusts":35.3,"aqi":160,"pm10":43.5,"pm2_5":35.5,"mosquito_risk":0,"arthritis_risk":5,"migraine_risk":10,"frizz_risk":0,"updated_at":"2026-04-30T19:33:35.018419+05:30"},{"city":"Kakinada","state":"Andhra Pradesh","latitude":16.9891,"longitude":82.2475,"temp":29.6,"humidity":71,"rain":0.0,"pressure":1006.0,"uv_index":9.15,"wind_gusts":40.0,"aqi":51,"pm10":16.4,"pm2_5":12.0,"mosquito_risk":7,"arthritis_risk":5,"migraine_risk":4,"frizz_risk":1,"updated_at":"2026-04-30T19:33:35.018425+05:30"},{"city":"Tirupati","state":"Andhra Pradesh","latitude":13.6288,"longitude":79.4192,"temp":34.1,"humidity":39,"rain":0.0,"pressure":989.4,"uv_index":9.3,"wind_gusts":39.6,"aqi":127,"pm10":40.7,"pm2_5":36.2,"mosquito_risk":0,"arthritis_risk":5,"migraine_risk":7,"frizz_risk":1,"updated_at":"2026-04-30T19:33:35.018431+05:30"},{"city":"Warangal","state":"Telangana","latitude":17.9689,"longitude":79.5941,"temp":35.3,"humidity":23,"rain":0.0,"pressure":975.5,"uv_index":9.15,"wind_gusts":37.1,"aqi":148,"pm10":38.9,"pm2_5":35.0,"mosquito_risk":0,"arthritis_risk":5,"migraine_risk":10,"frizz_risk":0,"updated_at":"2026-04-30T19:33:35.018437+05:30"},{"city":"Nizamabad","state":"Telangana","latitude":18.6725,"longitude":78.0941,"temp":35.4,"humidity":16,"rain":0.0,"pressure":960.8,"uv_index":9.1,"wind_gusts":42.8,"aqi":92,"pm10":37.8,"pm2_5":28.3,"mosquito_risk":0,"arthritis_risk":5,"migraine_risk":10,"frizz_risk":0,"updated_at":"2026-04-30T19:33:35.018443+05:30"},{"city":"Mysore","state":"Karnataka","latitude":12.2958,"longitude":76.6396,"temp":26.0,"humidity":68,"rain":0.0,"pressure":929.4,"uv_index":9.4,"wind_gusts":60.1,"aqi":114,"pm10":25.8,"pm2_5":22.2,"mosquito_risk":7,"arthritis_risk":5,"migraine_risk":7,"frizz_risk":1,"updated_at":"2026-04-30T19:33:35.018449+05:30"},{"city":"Mangalore","state":"Karnataka","latitude":12.9141,"longitude":74.856,"temp":30.7,"humidity":69,"rain":0.0,"pressure":1006.5,"uv_index":9.05,"wind_gusts":41.4,"aqi":66,"pm10":34.2,"pm2_5":18.3,"mosquito_risk":3,"arthritis_risk":5,"migraine_risk":4,"frizz_risk":1,"updated_at":"2026-04-30T19:33:35.018455+05:30"},{"city":"Hubli-Dharwad","state":"Karnataka","latitude":15.3647,"longitude":75.124,"temp":28.5,"humidity":63,"rain":0.0,"pressure":940.4,"uv_index":9.2,"wind_gusts":37.4,"aqi":83,"pm10":16.6,"pm2_5":13.6,"mosquito_risk":7,"arthritis_risk":5,"migraine_risk":7,"frizz_risk":1,"updated_at":"2026-04-30T19:33:35.018462+05:30"},{"city":"Belgaum","state":"Karnataka","latitude":15.8497,"longitude":74.4977,"temp":26.3,"humidity":72,"rain":0.0,"pressure":925.7,"uv_index":9.2,"wind_gusts":38.9,"aqi":57,"pm10":16.4,"pm2_5":11.6,"mosquito_risk":7,"arthritis_risk":5,"migraine_risk":7,"frizz_risk":1,"updated_at":"2026-04-30T19:33:38.385106+05:30"},{"city":"Coimbatore","state":"Tamil Nadu","latitude":11.0168,"longitude":76.9558,"temp":28.1,"humidity":69,"rain":0.0,"pressure":961.6,"uv_index":9.35,"wind_gusts":55.4,"aqi":81,"pm10":22.3,"pm2_5":17.8,"mosquito_risk":7,"arthritis_risk":5,"migraine_risk":7,"frizz_risk":1,"updated_at":"2026-04-30T19:33:38.385142+05:30"},{"city":"Madurai","state":"Tamil Nadu","latitude":9.9252,"longitude":78.1198,"temp":32.5,"humidity":51,"rain":0.0,"pressure":992.5,"uv_index":9.2,"wind_gusts":46.4,"aqi":101,"pm10":12.0,"pm2_5":11.6,"mosquito_risk":0,"arthritis_risk":5,"migraine_risk":7,"frizz_risk":1,"updated_at":"2026-04-30T19:33:38.385154+05:30"},{"city":"Trichy","state":"Tamil Nadu","latitude":10.7905,"longitude":78.7047,"temp":34.2,"humidity":51,"rain":0.0,"pressure":998.3,"uv_index":9.25,"wind_gusts":37.8,"aqi":83,"pm10":5.6,"pm2_5":5.2,"mosquito_risk":0,"arthritis_risk":5,"migraine_risk":7,"frizz_risk":1,"updated_at":"2026-04-30T19:33:38.385162+05:30"},{"city":"Salem","state":"Tamil Nadu","latitude":11.6643,"longitude":78.146,"temp":32.3,"humidity":45,"rain":0.0,"pressure":976.2,"uv_index":9.3,"wind_gusts":37.1,"aqi":154,"pm10":38.8,"pm2_5":29.7,"mosquito_risk":0,"arthritis_risk":5,"migraine_risk":7,"frizz_risk":1,"updated_at":"2026-04-30T19:33:38.385170+05:30"},{"city":"Tirunelveli","state":"Tamil Nadu","latitude":8.7139,"longitude":77.7567,"temp":32.5,"humidity":53,"rain":0.0,"pressure":1002.6,"uv_index":9.1,"wind_gusts":43.9,"aqi":50,"pm10":12.5,"pm2_5":12.0,"mosquito_risk":0,"arthritis_risk":5,"migraine_risk":4,"frizz_risk":1,"updated_at":"2026-04-30T19:33:38.385178+05:30"},{"city":"Vellore","state":"Tamil Nadu","latitude":12.9165,"longitude":79.1325,"temp":34.2,"humidity":39,"rain":0.0,"pressure":983.1,"uv_index":9.3,"wind_gusts":39.6,"aqi":132,"pm10":30.4,"pm2_5":27.0,"mosquito_risk":0,"arthritis_risk":5,"migraine_risk":7,"frizz_risk":1,"updated_at":"2026-04-30T19:33:38.385185+05:30"},{"city":"Erode","state":"Tamil Nadu","latitude":11.341,"longitude":77.7172,"temp":31.9,"humidity":43,"rain":0.0,"pressure":988.2,"uv_index":9.25,"wind_gusts":38.9,"aqi":115,"pm10":34.2,"pm2_5":25.4,"mosquito_risk":0,"arthritis_risk":5,"migraine_risk":7,"frizz_risk":1,"updated_at":"2026-04-30T19:33:38.385193+05:30"},{"city":"Kochi","state":"Kerala","latitude":9.9312,"longitude":76.2673,"temp":27.1,"humidity":90,"rain":0.0,"pressure":1009.3,"uv_index":8.85,"wind_gusts":32.4,"aqi":64,"pm10":23.4,"pm2_5":18.9,"mosquito_risk":7,"arthritis_risk":0,"migraine_risk":4,"frizz_risk":1,"updated_at":"2026-04-30T19:33:38.385200+05:30"},{"city":"Thiruvananthapuram","state":"Kerala","latitude":8.5241,"longitude":76.9366,"temp":25.1,"humidity":96,"rain":0.0,"pressure":1009.6,"uv_index":8.95,"wind_gusts":30.2,"aqi":46,"pm10":6.5,"pm2_5":4.5,"mosquito_risk":7,"arthritis_risk":0,"migraine_risk":4,"frizz_risk":1,"updated_at":"2026-04-30T19:33:38.385225+05:30"},{"city":"Kozhikode","state":"Kerala","latitude":11.2588,"longitude":75.7804,"temp":27.3,"humidity":90,"rain":0.0,"pressure":1008.0,"uv_index":8.9,"wind_gusts":40.3,"aqi":55,"pm10":27.9,"pm2_5":16.2,"mosquito_risk":7,"arthritis_risk":0,"migraine_risk":4,"frizz_risk":1,"updated_at":"2026-04-30T19:33:38.385232+05:30"},{"city":"Thrissur","state":"Kerala","latitude":10.5276,"longitude":76.2144,"temp":26.4,"humidity":94,"rain":0.0,"pressure":1007.6,"uv_index":8.8,"wind_gusts":40.3,"aqi":71,"pm10":22.3,"pm2_5":19.4,"mosquito_risk":7,"arthritis_risk":5,"migraine_risk":4,"frizz_risk":1,"updated_at":"2026-04-30T19:33:38.385240+05:30"},{"city":"Kannur","state":"Kerala","latitude":11.8745,"longitude":75.3704,"temp":28.3,"humidity":82,"rain":0.0,"pressure":1007.7,"uv_index":9.0,"wind_gusts":42.1,"aqi":65,"pm10":42.3,"pm2_5":21.2,"mosquito_risk":7,"arthritis_risk":5,"migraine_risk":4,"frizz_risk":1,"updated_at":"2026-04-30T19:33:38.385248+05:30"},{"city":"Patna","state":"Bihar","latitude":25.5941,"longitude":85.1376,"temp":27.0,"humidity":62,"rain":0.0,"pressure":1000.6,"uv_index":8.55,"wind_gusts":42.8,"aqi":155,"pm10":56.6,"pm2_5":38.9,"mosquito_risk":7,"arthritis_risk":5,"migraine_risk":4,"frizz_risk":1,"updated_at":"2026-04-30T19:33:38.385255+05:30"},{"city":"Gaya","state":"Bihar","latitude":24.7914,"longitude":85.0002,"temp":25.7,"humidity":72,"rain":0.0,"pressure":993.2,"uv_index":8.65,"wind_gusts":43.9,"aqi":181,"pm10":59.0,"pm2_5":43.7,"mosquito_risk":7,"arthritis_risk":5,"migraine_risk":7,"frizz_risk":1,"updated_at":"2026-04-30T19:33:38.385261+05:30"},{"city":"Muzaffarpur","state":"Bihar","latitude":26.1209,"longitude":85.3647,"temp":25.3,"humidity":71,"rain":0.0,"pressure":1001.1,"uv_index":8.55,"wind_gusts":43.2,"aqi":115,"pm10":64.3,"pm2_5":37.6,"mosquito_risk":7,"arthritis_risk":5,"migraine_risk":4,"frizz_risk":1,"updated_at":"2026-04-30T19:33:38.385268+05:30"},{"city":"Bhagalpur","state":"Bihar","latitude":25.2425,"longitude":87.0117,"temp":26.6,"humidity":63,"rain":0.0,"pressure":1001.8,"uv_index":8.55,"wind_gusts":38.2,"aqi":140,"pm10":68.5,"pm2_5":46.3,"mosquito_risk":7,"arthritis_risk":5,"migraine_risk":4,"frizz_risk":1,"updated_at":"2026-04-30T19:33:38.385274+05:30"},{"city":"Ranchi","state":"Jharkhand","latitude":23.3441,"longitude":85.3096,"temp":22.8,"humidity":75,"rain":0.0,"pressure":937.0,"uv_index":9.15,"wind_gusts":45.4,"aqi":172,"pm10":46.0,"pm2_5":36.7,"mosquito_risk":3,"arthritis_risk":5,"migraine_risk":7,"frizz_risk":1,"updated_at":"2026-04-30T19:33:38.385281+05:30"},{"city":"Jamshedpur","state":"Jharkhand","latitude":22.8046,"longitude":86.2029,"temp":23.8,"humidity":92,"rain":0.0,"pressure":990.6,"uv_index":8.95,"wind_gusts":36.7,"aqi":174,"pm10":39.9,"pm2_5":36.1,"mosquito_risk":3,"arthritis_risk":5,"migraine_risk":7,"frizz_risk":1,"updated_at":"2026-04-30T19:33:38.385287+05:30"},{"city":"Dhanbad","state":"Jharkhand","latitude":23.7957,"longitude":86.4304,"temp":23.9,"humidity":89,"rain":0.0,"pressure":979.1,"uv_index":8.9,"wind_gusts":40.3,"aqi":172,"pm10":67.5,"pm2_5":61.5,"mosquito_risk":3,"arthritis_risk":5,"migraine_risk":7,"frizz_risk":1,"updated_at":"2026-04-30T19:33:38.385295+05:30"},{"city":"Bokaro","state":"Jharkhand","latitude":23.6693,"longitude":86.1511,"temp":24.1,"humidity":85,"rain":0.0,"pressure":983.1,"uv_index":8.9,"wind_gusts":42.8,"aqi":180,"pm10":60.8,"pm2_5":53.8,"mosquito_risk":3,"arthritis_risk":5,"migraine_risk":7,"frizz_risk":1,"updated_at":"2026-04-30T19:33:38.385302+05:30"},{"city":"Bhubaneswar","state":"Odisha","latitude":20.2961,"longitude":85.8245,"temp":28.6,"humidity":84,"rain":0.0,"pressure":1000.9,"uv_index":9.05,"wind_gusts":45.0,"aqi":79,"pm10":12.5,"pm2_5":10.1,"mosquito_risk":7,"arthritis_risk":5,"migraine_risk":4,"frizz_risk":1,"updated_at":"2026-04-30T19:33:38.385309+05:30"},{"city":"Cuttack","state":"Odisha","latitude":20.4625,"longitude":85.8828,"temp":29.1,"humidity":82,"rain":0.0,"pressure":1002.7,"uv_index":9.1,"wind_gusts":40.3,"aqi":79,"pm10":12.5,"pm2_5":10.1,"mosquito_risk":7,"arthritis_risk":5,"migraine_risk":4,"frizz_risk":1,"updated_at":"2026-04-30T19:33:38.385316+05:30"},{"city":"Rourkela","state":"Odisha","latitude":22.2604,"longitude":84.8536,"temp":25.3,"humidity":83,"rain":0.0,"pressure":984.6,"uv_index":8.9,"wind_gusts":48.6,"aqi":156,"pm10":56.9,"pm2_5":44.7,"mosquito_risk":7,"arthritis_risk":5,"migraine_risk":7,"frizz_risk":1,"updated_at":"2026-04-30T19:33:38.385323+05:30"},{"city":"Raipur","state":"Chhattisgarh","latitude":21.2514,"longitude":81.6296,"temp":35.7,"humidity":23,"rain":0.0,"pressure":971.8,"uv_index":8.95,"wind_gusts":53.6,"aqi":153,"pm10":35.9,"pm2_5":28.2,"mosquito_risk":0,"arthritis_risk":5,"migraine_risk":10,"frizz_risk":0,"updated_at":"2026-04-30T19:33:38.385329+05:30"},{"city":"Bhilai","state":"Chhattisgarh","latitude":21.1938,"longitude":81.3509,"temp":34.5,"humidity":26,"rain":0.0,"pressure":971.9,"uv_index":8.95,"wind_gusts":55.4,"aqi":137,"pm10":36.2,"pm2_5":27.1,"mosquito_risk":0,"arthritis_risk":5,"migraine_risk":7,"frizz_risk":0,"updated_at":"2026-04-30T19:33:38.385335+05:30"},{"city":"Guwahati","state":"Assam","latitude":26.1158,"longitude":91.7086,"temp":21.4,"humidity":91,"rain":0.0,"pressure":1003.0,"uv_index":7.45,"wind_gusts":24.5,"aqi":65,"pm10":33.8,"pm2_5":20.7,"mosquito_risk":3,"arthritis_risk":5,"migraine_risk":4,"frizz_risk":1,"updated_at":"2026-04-30T19:33:38.385341+05:30"},{"city":"Agartala","state":"Tripura","latitude":23.8315,"longitude":91.2868,"temp":24.2,"humidity":86,"rain":0.0,"pressure":1007.2,"uv_index":5.5,"wind_gusts":37.8,"aqi":104,"pm10":41.6,"pm2_5":38.3,"mosquito_risk":3,"arthritis_risk":5,"migraine_risk":0,"frizz_risk":1,"updated_at":"2026-04-30T19:33:38.385348+05:30"},{"city":"Shillong","state":"Meghalaya","latitude":25.5788,"longitude":91.8933,"temp":14.6,"humidity":93,"rain":0.0,"pressure":855.8,"uv_index":7.65,"wind_gusts":32.8,"aqi":57,"pm10":25.8,"pm2_5":19.3,"mosquito_risk":3,"arthritis_risk":10,"migraine_risk":7,"frizz_risk":0,"updated_at":"2026-04-30T19:33:38.385354+05:30"},{"city":"Imphal","state":"Manipur","latitude":24.817,"longitude":93.9368,"temp":18.0,"humidity":95,"rain":0.0,"pressure":923.5,"uv_index":9.05,"wind_gusts":31.7,"aqi":92,"pm10":27.5,"pm2_5":23.3,"mosquito_risk":3,"arthritis_risk":10,"migraine_risk":7,"frizz_risk":1,"updated_at":"2026-04-30T19:33:38.385360+05:30"},{"city":"Aizawl","state":"Mizoram","latitude":23.7271,"longitude":92.7176,"temp":17.2,"humidity":89,"rain":0.0,"pressure":892.4,"uv_index":8.3,"wind_gusts":41.4,"aqi":65,"pm10":18.6,"pm2_5":15.0,"mosquito_risk":3,"arthritis_risk":10,"migraine_risk":7,"frizz_risk":0,"updated_at":"2026-04-30T19:33:38.385367+05:30"},{"city":"Kohima","state":"Nagaland","latitude":25.6701,"longitude":94.1077,"temp":15.4,"humidity":97,"rain":0.0,"pressure":854.2,"uv_index":5.0,"wind_gusts":31.0,"aqi":60,"pm10":22.6,"pm2_5":15.1,"mosquito_risk":3,"arthritis_risk":10,"migraine_risk":3,"frizz_risk":0,"updated_at":"2026-04-30T19:33:38.385374+05:30"},{"city":"Gangtok","state":"Sikkim","latitude":27.3314,"longitude":88.6138,"temp":11.7,"humidity":99,"rain":0.2,"pressure":835.7,"uv_index":5.5,"wind_gusts":31.7,"aqi":72,"pm10":14.1,"pm2_5":9.8,"mosquito_risk":6,"arthritis_risk":10,"migraine_risk":3,"frizz_risk":0,"updated_at":"2026-04-30T19:33:38.385381+05:30"},{"city":"Siliguri","state":"West Bengal","latitude":26.7271,"longitude":88.3953,"temp":22.2,"humidity":80,"rain":0.0,"pressure":994.4,"uv_index":8.4,"wind_gusts":36.0,"aqi":81,"pm10":32.7,"pm2_5":19.7,"mosquito_risk":3,"arthritis_risk":5,"migraine_risk":7,"frizz_risk":1,"updated_at":"2026-04-30T19:33:41.728316+05:30"},{"city":"Durgapur","state":"West Bengal","latitude":23.5204,"longitude":87.3119,"temp":23.1,"humidity":95,"rain":1.0,"pressure":993.0,"uv_index":8.85,"wind_gusts":46.4,"aqi":138,"pm10":40.7,"pm2_5":36.3,"mosquito_risk":6,"arthritis_risk":5,"migraine_risk":7,"frizz_risk":1,"updated_at":"2026-04-30T19:33:41.728351+05:30"},{"city":"Asansol","state":"West Bengal","latitude":23.6739,"longitude":86.9524,"temp":23.6,"humidity":92,"rain":0.1,"pressure":993.9,"uv_index":8.2,"wind_gusts":40.0,"aqi":140,"pm10":43.2,"pm2_5":38.4,"mosquito_risk":6,"arthritis_risk":5,"migraine_risk":7,"frizz_risk":1,"updated_at":"2026-04-30T19:33:41.728361+05:30"},{"city":"Pondicherry","state":"Puducherry","latitude":11.9139,"longitude":79.8145,"temp":30.5,"humidity":82,"rain":0.0,"pressure":1007.2,"uv_index":9.2,"wind_gusts":47.5,"aqi":43,"pm10":12.1,"pm2_5":8.4,"mosquito_risk":3,"arthritis_risk":5,"migraine_risk":4,"frizz_risk":1,"updated_at":"2026-04-30T19:33:41.728370+05:30"},{"city":"Port Blair","state":"Andaman and Nicobar Islands","latitude":11.6234,"longitude":92.7265,"temp":29.0,"humidity":76,"rain":0.0,"pressure":1008.2,"uv_index":8.9,"wind_gusts":28.8,"aqi":35,"pm10":8.4,"pm2_5":7.8,"mosquito_risk":7,"arthritis_risk":0,"migraine_risk":4,"frizz_risk":1,"updated_at":"2026-04-30T19:33:41.728378+05:30"},{"city":"Haridwar","state":"Uttarakhand","latitude":29.9457,"longitude":78.1642,"temp":24.8,"humidity":64,"rain":0.0,"pressure":971.7,"uv_index":7.2,"wind_gusts":38.2,"aqi":126,"pm10":90.8,"pm2_5":32.7,"mosquito_risk":3,"arthritis_risk":5,"migraine_risk":7,"frizz_risk":1,"updated_at":"2026-04-30T19:33:41.728385+05:30"},{"city":"Rishikesh","state":"Uttarakhand","latitude":30.0869,"longitude":78.2676,"temp":23.5,"humidity":63,"rain":0.0,"pressure":964.3,"uv_index":7.35,"wind_gusts":44.3,"aqi":122,"pm10":68.5,"pm2_5":24.6,"mosquito_risk":3,"arthritis_risk":5,"migraine_risk":7,"frizz_risk":1,"updated_at":"2026-04-30T19:33:41.728393+05:30"},{"city":"Nainital","state":"Uttarakhand","latitude":29.3919,"longitude":79.4542,"temp":11.1,"humidity":90,"rain":0.0,"pressure":802.0,"uv_index":7.95,"wind_gusts":36.0,"aqi":119,"pm10":70.8,"pm2_5":28.8,"mosquito_risk":3,"arthritis_risk":10,"migraine_risk":7,"frizz_risk":0,"updated_at":"2026-04-30T19:33:41.728401+05:30"},{"city":"Mussoorie","state":"Uttarakhand","latitude":30.4599,"longitude":78.0664,"temp":10.3,"humidity":98,"rain":0.0,"pressure":798.7,"uv_index":7.7,"wind_gusts":44.6,"aqi":101,"pm10":43.0,"pm2_5":24.9,"mosquito_risk":3,"arthritis_risk":10,"migraine_risk":7,"frizz_risk":0,"updated_at":"2026-04-30T19:33:41.728408+05:30"},{"city":"Dharamshala","state":"Himachal Pradesh","latitude":32.219,"longitude":76.3234,"temp":17.6,"humidity":60,"rain":0.0,"pressure":865.3,"uv_index":8.15,"wind_gusts":46.4,"aqi":87,"pm10":22.8,"pm2_5":13.5,"mosquito_risk":0,"arthritis_risk":5,"migraine_risk":7,"frizz_risk":0,"updated_at":"2026-04-30T19:33:41.728415+05:30"},{"city":"Dalhousie","state":"Himachal Pradesh","latitude":32.5387,"longitude":75.971,"temp":12.0,"humidity":89,"rain":0.0,"pressure":800.6,"uv_index":6.35,"wind_gusts":29.5,"aqi":105,"pm10":35.4,"pm2_5":19.3,"mosquito_risk":3,"arthritis_risk":10,"migraine_risk":7,"frizz_risk":0,"updated_at":"2026-04-30T19:33:41.728422+05:30"},{"city":"Patiala","state":"Punjab","latitude":30.3398,"longitude":76.3869,"temp":29.0,"humidity":42,"rain":0.0,"pressure":974.6,"uv_index":7.25,"wind_gusts":42.8,"aqi":173,"pm10":459.1,"pm2_5":66.1,"mosquito_risk":4,"arthritis_risk":5,"migraine_risk":7,"frizz_risk":0,"updated_at":"2026-04-30T19:33:41.728430+05:30"},{"city":"Bhatinda","state":"Punjab","latitude":30.211,"longitude":74.9455,"temp":31.1,"humidity":31,"rain":0.0,"pressure":979.6,"uv_index":8.05,"wind_gusts":40.0,"aqi":148,"pm10":43.7,"pm2_5":21.5,"mosquito_risk":0,"arthritis_risk":5,"migraine_risk":7,"frizz_risk":0,"updated_at":"2026-04-30T19:33:41.728436+05:30"},{"city":"Rohtak","state":"Haryana","latitude":28.8955,"longitude":76.6066,"temp":31.2,"humidity":27,"rain":0.0,"pressure":978.0,"uv_index":7.5,"wind_gusts":40.7,"aqi":323,"pm10":476.8,"pm2_5":78.0,"mosquito_risk":0,"arthritis_risk":5,"migraine_risk":7,"frizz_risk":0,"updated_at":"2026-04-30T19:33:41.728443+05:30"},{"city":"Panipat","state":"Haryana","latitude":29.3909,"longitude":76.9635,"temp":29.3,"humidity":39,"rain":0.0,"pressure":977.2,"uv_index":7.3,"wind_gusts":49.7,"aqi":721,"pm10":309.2,"pm2_5":62.2,"mosquito_risk":4,"arthritis_risk":5,"migraine_risk":7,"frizz_risk":0,"updated_at":"2026-04-30T19:33:41.728450+05:30"},{"city":"Mathura","state":"Uttar Pradesh","latitude":27.4924,"longitude":77.6737,"temp":31.4,"humidity":35,"rain":0.0,"pressure":983.1,"uv_index":7.7,"wind_gusts":60.8,"aqi":534,"pm10":430.3,"pm2_5":66.6,"mosquito_risk":0,"arthritis_risk":5,"migraine_risk":7,"frizz_risk":0,"updated_at":"2026-04-30T19:33:41.728456+05:30"},{"city":"Vrindavan","state":"Uttar Pradesh","latitude":27.5823,"longitude":77.7027,"temp":31.4,"humidity":34,"rain":0.0,"pressure":983.5,"uv_index":7.65,"wind_gusts":56.9,"aqi":534,"pm10":430.3,"pm2_5":66.6,"mosquito_risk":0,"arthritis_risk":5,"migraine_risk":7,"frizz_risk":0,"updated_at":"2026-04-30T19:33:41.728463+05:30"},{"city":"Ayodhya","state":"Uttar Pradesh","latitude":26.7922,"longitude":82.1998,"temp":28.0,"humidity":53,"rain":0.0,"pressure":994.5,"uv_index":7.7,"wind_gusts":38.2,"aqi":149,"pm10":47.7,"pm2_5":30.0,"mosquito_risk":4,"arthritis_risk":5,"migraine_risk":7,"frizz_risk":1,"updated_at":"2026-04-30T19:33:41.728469+05:30"},{"city":"Ratlam","state":"Madhya Pradesh","latitude":23.3315,"longitude":75.0367,"temp":33.8,"humidity":24,"rain":0.0,"pressure":952.1,"uv_index":8.5,"wind_gusts":43.9,"aqi":77,"pm10":51.0,"pm2_5":20.3,"mosquito_risk":0,"arthritis_risk":5,"migraine_risk":7,"frizz_risk":0,"updated_at":"2026-04-30T19:33:41.728475+05:30"},{"city":"Sagar","state":"Madhya Pradesh","latitude":23.8388,"longitude":78.7378,"temp":28.9,"humidity":37,"rain":0.0,"pressure":947.4,"uv_index":8.65,"wind_gusts":63.4,"aqi":89,"pm10":65.4,"pm2_5":20.5,"mosquito_risk":4,"arthritis_risk":5,"migraine_risk":7,"frizz_risk":0,"updated_at":"2026-04-30T19:33:41.728482+05:30"},{"city":"Satna","state":"Madhya Pradesh","latitude":24.6005,"longitude":80.8322,"temp":29.6,"humidity":40,"rain":0.0,"pressure":968.7,"uv_index":7.2,"wind_gusts":41.8,"aqi":92,"pm10":78.5,"pm2_5":27.7,"mosquito_risk":4,"arthritis_risk":5,"migraine_risk":7,"frizz_risk":0,"updated_at":"2026-04-30T19:33:41.728488+05:30"},{"city":"Akola","state":"Maharashtra","latitude":20.7002,"longitude":77.0082,"temp":36.2,"humidity":16,"rain":0.0,"pressure":971.7,"uv_index":8.85,"wind_gusts":45.7,"aqi":58,"pm10":41.6,"pm2_5":16.8,"mosquito_risk":0,"arthritis_risk":5,"migraine_risk":10,"frizz_risk":0,"updated_at":"2026-04-30T19:33:41.728495+05:30"},{"city":"Amravati","state":"Maharashtra","latitude":20.9374,"longitude":77.7796,"temp":36.4,"humidity":14,"rain":0.0,"pressure":964.1,"uv_index":8.85,"wind_gusts":49.3,"aqi":62,"pm10":36.8,"pm2_5":15.2,"mosquito_risk":0,"arthritis_risk":5,"migraine_risk":10,"frizz_risk":0,"updated_at":"2026-04-30T19:33:41.728502+05:30"},{"city":"Latur","state":"Maharashtra","latitude":18.4088,"longitude":76.5604,"temp":35.9,"humidity":16,"rain":0.0,"pressure":937.3,"uv_index":9.05,"wind_gusts":42.8,"aqi":86,"pm10":26.8,"pm2_5":20.0,"mosquito_risk":0,"arthritis_risk":5,"migraine_risk":10,"frizz_risk":0,"updated_at":"2026-04-30T19:33:41.728508+05:30"},{"city":"Nanded","state":"Maharashtra","latitude":19.1383,"longitude":77.3091,"temp":37.2,"humidity":12,"rain":0.0,"pressure":964.5,"uv_index":9.0,"wind_gusts":47.9,"aqi":82,"pm10":29.6,"pm2_5":20.5,"mosquito_risk":0,"arthritis_risk":5,"migraine_risk":10,"frizz_risk":0,"updated_at":"2026-04-30T19:33:41.728514+05:30"},{"city":"Gulbarga","state":"Karnataka","latitude":17.3297,"longitude":76.8343,"temp":36.0,"humidity":20,"rain":0.0,"pressure":956.5,"uv_index":9.1,"wind_gusts":46.8,"aqi":119,"pm10":29.2,"pm2_5":21.9,"mosquito_risk":0,"arthritis_risk":5,"migraine_risk":10,"frizz_risk":0,"updated_at":"2026-04-30T19:33:41.728520+05:30"},{"city":"Bidar","state":"Karnataka","latitude":17.9104,"longitude":77.5199,"temp":34.0,"humidity":20,"rain":0.0,"pressure":933.1,"uv_index":9.1,"wind_gusts":38.2,"aqi":111,"pm10":42.8,"pm2_5":34.3,"mosquito_risk":0,"arthritis_risk":5,"migraine_risk":7,"frizz_risk":0,"updated_at":"2026-04-30T19:33:41.728526+05:30"},{"city":"Hospet","state":"Karnataka","latitude":15.2689,"longitude":76.3909,"temp":28.9,"humidity":57,"rain":0.0,"pressure":954.3,"uv_index":9.25,"wind_gusts":56.5,"aqi":128,"pm10":28.4,"pm2_5":24.3,"mosquito_risk":4,"arthritis_risk":5,"migraine_risk":7,"frizz_risk":1,"updated_at":"2026-04-30T19:33:41.728532+05:30"},{"city":"Tirupur","state":"Tamil Nadu","latitude":11.1085,"longitude":77.3411,"temp":30.1,"humidity":62,"rain":0.0,"pressure":974.6,"uv_index":9.35,"wind_gusts":52.9,"aqi":122,"pm10":35.9,"pm2_5":27.6,"mosquito_risk":3,"arthritis_risk":5,"migraine_risk":7,"frizz_risk":1,"updated_at":"2026-04-30T19:33:41.728538+05:30"},{"city":"Alappuzha","state":"Kerala","latitude":9.4981,"longitude":76.3388,"temp":26.5,"humidity":94,"rain":0.0,"pressure":1009.5,"uv_index":9.0,"wind_gusts":34.2,"aqi":59,"pm10":21.9,"pm2_5":17.2,"mosquito_risk":7,"arthritis_risk":0,"migraine_risk":4,"frizz_risk":1,"updated_at":"2026-04-30T19:33:41.728544+05:30"},{"city":"Munnar","state":"Kerala","latitude":10.0889,"longitude":77.0595,"temp":18.4,"humidity":99,"rain":0.0,"pressure":857.4,"uv_index":8.95,"wind_gusts":25.2,"aqi":78,"pm10":20.9,"pm2_5":18.9,"mosquito_risk":3,"arthritis_risk":10,"migraine_risk":7,"frizz_risk":1,"updated_at":"2026-04-30T19:33:41.728549+05:30"},{"city":"Silchar","state":"Assam","latitude":24.8333,"longitude":92.7789,"temp":22.5,"humidity":88,"rain":0.0,"pressure":1006.5,"uv_index":5.05,"wind_gusts":26.6,"aqi":108,"pm10":47.6,"pm2_5":37.1,"mosquito_risk":3,"arthritis_risk":5,"migraine_risk":0,"frizz_risk":1,"updated_at":"2026-04-30T19:33:41.728555+05:30"},{"city":"Dibrugarh","state":"Assam","latitude":27.4728,"longitude":94.912,"temp":22.0,"humidity":96,"rain":0.0,"pressure":997.0,"uv_index":7.9,"wind_gusts":27.7,"aqi":70,"pm10":33.4,"pm2_5":24.1,"mosquito_risk":3,"arthritis_risk":5,"migraine_risk":7,"frizz_risk":1,"updated_at":"2026-04-30T19:33:41.728561+05:30"}]