[{"city":"Delhi","state":"Delhi","latitude":28.6139,"longitude":77.209,"temp":18.2,"humidity":59,"rain":0.0,"pressure":987.0,"uv_index":5.6,"aqi":161,"mosquito_risk":0,"arthritis_risk":5,"migraine_risk":3,"frizz_risk":0,"updated_at":"2026-02-26T02:09:08.762834+05:30"},{"city":"Mumbai","state":"Maharashtra","latitude":19.076,"longitude":72.8777,"temp":25.7,"humidity":87,"rain":0.0,"pressure":1010.6,"uv_index":7.3,"aqi":86,"mosquito_risk":7,"arthritis_risk":0,"migraine_risk":4,"frizz_risk":1,"updated_at":"2026-02-26T02:09:08.762870+05:30"},{"city":"Bangalore","state":"Karnataka","latitude":12.9716,"longitude":77.5946,"temp":20.4,"humidity":76,"rain":0.0,"pressure":912.1,"uv_index":8.8,"aqi":113,"mosquito_risk":3,"arthritis_risk":5,"migraine_risk":7,"frizz_risk":1,"updated_at":"2026-02-26T02:09:08.762884+05:30"},{"city":"Hyderabad","state":"Telangana","latitude":17.385,"longitude":78.4867,"temp":21.4,"humidity":87,"rain":0.0,"pressure":954.7,"uv_index":8.1,"aqi":152,"mosquito_risk":3,"arthritis_risk":5,"migraine_risk":7,"frizz_risk":1,"updated_at":"2026-02-26T02:09:08.762894+05:30"},{"city":"Chennai","state":"Tamil Nadu","latitude":13.0827,"longitude":80.2707,"temp":24.8,"humidity":84,"rain":0.0,"pressure":1009.1,"uv_index":8.6,"aqi":69,"mosquito_risk":3,"arthritis_risk":0,"migraine_risk":4,"frizz_risk":1,"updated_at":"2026-02-26T02:09:08.762902+05:30"},{"city":"Kolkata","state":"West Bengal","latitude":22.5726,"longitude":88.3639,"temp":19.6,"humidity":82,"rain":0.0,"pressure":1009.3,"uv_index":7.45,"aqi":175,"mosquito_risk":3,"arthritis_risk":5,"migraine_risk":4,"frizz_risk":1,"updated_at":"2026-02-26T02:09:08.762913+05:30"},{"city":"Pune","state":"Maharashtra","latitude":18.5204,"longitude":73.8567,"temp":17.0,"humidity":76,"rain":0.0,"pressure":949.2,"uv_index":7.8,"aqi":109,"mosquito_risk":3,"arthritis_risk":5,"migraine_risk":7,"frizz_risk":0,"updated_at":"2026-02-26T02:09:08.762921+05:30"},{"city":"Ahmedabad","state":"Gujarat","latitude":23.0225,"longitude":72.5714,"temp":21.9,"humidity":53,"rain":0.0,"pressure":1004.5,"uv_index":7.1,"aqi":98,"mosquito_risk":0,"arthritis_risk":5,"migraine_risk":4,"frizz_risk":0,"updated_at":"2026-02-26T02:09:08.762928+05:30"},{"city":"Jaipur","state":"Rajasthan","latitude":26.9124,"longitude":75.7873,"temp":18.9,"humidity":40,"rain":0.0,"pressure":963.0,"uv_index":6.35,"aqi":115,"mosquito_risk":0,"arthritis_risk":5,"migraine_risk":7,"frizz_risk":0,"updated_at":"2026-02-26T02:09:08.762937+05:30"},{"city":"Lucknow","state":"Uttar Pradesh","latitude":26.8467,"longitude":80.9462,"temp":16.8,"humidity":71,"rain":0.0,"pressure":997.2,"uv_index":6.0,"aqi":157,"mosquito_risk":3,"arthritis_risk":5,"migraine_risk":3,"frizz_risk":0,"updated_at":"2026-02-26T02:09:08.762944+05:30"},{"city":"Kanpur","state":"Uttar Pradesh","latitude":26.4499,"longitude":80.3319,"temp":16.7,"humidity":67,"rain":0.0,"pressure":995.5,"uv_index":6.0,"aqi":157,"mosquito_risk":3,"arthritis_risk":5,"migraine_risk":3,"frizz_risk":0,"updated_at":"2026-02-26T02:09:08.762951+05:30"},{"city":"Chandigarh","state":"Chandigarh","latitude":30.7333,"longitude":76.7794,"temp":15.9,"humidity":82,"rain":0.0,"pressure":972.2,"uv_index":5.45,"aqi":152,"mosquito_risk":3,"arthritis_risk":10,"migraine_risk":3,"frizz_risk":0,"updated_at":"2026-02-26T02:09:08.762958+05:30"},{"city":"Srinagar","state":"Jammu and Kashmir","latitude":34.0837,"longitude":74.7973,"temp":4.9,"humidity":89,"rain":0.0,"pressure":839.5,"uv_index":6.35,"aqi":151,"mosquito_risk":3,"arthritis_risk":10,"migraine_risk":7,"frizz_risk":0,"updated_at":"2026-02-26T02:09:08.762965+05:30"},{"city":"Jammu","state":"Jammu and Kashmir","latitude":32.7266,"longitude":74.857,"temp":16.3,"humidity":89,"rain":0.0,"pressure":976.7,"uv_index":6.05,"aqi":150,"mosquito_risk":3,"arthritis_risk":10,"migraine_risk":7,"frizz_risk":0,"updated_at":"2026-02-26T02:09:08.762972+05:30"},{"city":"Amritsar","state":"Punjab","latitude":31.634,"longitude":74.8723,"temp":16.0,"humidity":86,"rain":0.0,"pressure":984.9,"uv_index":6.0,"aqi":183,"mosquito_risk":3,"arthritis_risk":10,"migraine_risk":3,"frizz_risk":0,"updated_at":"2026-02-26T02:09:08.762977+05:30"},{"city":"Ludhiana","state":"Punjab","latitude":30.901,"longitude":75.8573,"temp":17.0,"humidity":81,"rain":0.0,"pressure":982.9,"uv_index":5.7,"aqi":179,"mosquito_risk":3,"arthritis_risk":10,"migraine_risk":3,"frizz_risk":0,"updated_at":"2026-02-26T02:09:08.762983+05:30"},{"city":"Jalandhar","state":"Punjab","latitude":31.326,"longitude":75.5762,"temp":16.4,"humidity":81,"rain":0.0,"pressure":984.0,"uv_index":5.85,"aqi":185,"mosquito_risk":3,"arthritis_risk":10,"migraine_risk":3,"frizz_risk":0,"updated_at":"2026-02-26T02:09:08.762989+05:30"},{"city":"Dehradun","state":"Uttarakhand","latitude":30.6284,"longitude":78.0322,"temp":9.0,"humidity":94,"rain":0.0,"pressure":828.5,"uv_index":5.8,"aqi":89,"mosquito_risk":3,"arthritis_risk":10,"migraine_risk":3,"frizz_risk":0,"updated_at":"2026-02-26T02:09:08.762996+05:30"},{"city":"Shimla","state":"Himachal Pradesh","latitude":31.1048,"longitude":77.1734,"temp":7.3,"humidity":86,"rain":0.0,"pressure":782.1,"uv_index":5.85,"aqi":100,"mosquito_risk":3,"arthritis_risk":10,"migraine_risk":3,"frizz_risk":0,"updated_at":"2026-02-26T02:09:08.763004+05:30"},{"city":"Manali","state":"Himachal Pradesh","latitude":32.2396,"longitude":77.1887,"temp":11.6,"humidity":35,"rain":0.0,"pressure":817.4,"uv_index":7.3,"aqi":51,"mosquito_risk":0,"arthritis_risk":5,"migraine_risk":7,"frizz_risk":1,"updated_at":"2026-02-26T02:09:08.763011+05:30"},{"city":"Gurgaon","state":"Haryana","latitude":28.4595,"longitude":77.0266,"temp":13.8,"humidity":73,"rain":0.0,"pressure":985.1,"uv_index":5.7,"aqi":165,"mosquito_risk":3,"arthritis_risk":5,"migraine_risk":3,"frizz_risk":0,"updated_at":"2026-02-26T02:09:08.763017+05:30"},{"city":"Noida","state":"Uttar Pradesh","latitude":28.5355,"longitude":77.391,"temp":17.1,"humidity":64,"rain":0.0,"pressure":988.5,"uv_index":5.6,"aqi":165,"mosquito_risk":3,"arthritis_risk":5,"migraine_risk":3,"frizz_risk":0,"updated_at":"2026-02-26T02:09:08.763023+05:30"},{"city":"Ghaziabad","state":"Uttar Pradesh","latitude":28.6692,"longitude":77.4538,"temp":16.2,"humidity":70,"rain":0.0,"pressure":986.6,"uv_index":5.55,"aqi":158,"mosquito_risk":3,"arthritis_risk":5,"migraine_risk":3,"frizz_risk":0,"updated_at":"2026-02-26T02:09:08.763029+05:30"},{"city":"Faridabad","state":"Haryana","latitude":28.4089,"longitude":77.3178,"temp":15.2,"humidity":64,"rain":0.0,"pressure":987.6,"uv_index":5.6,"aqi":165,"mosquito_risk":3,"arthritis_risk":5,"migraine_risk":3,"frizz_risk":0,"updated_at":"2026-02-26T02:09:08.763035+05:30"},{"city":"Meerut","state":"Uttar Pradesh","latitude":28.9845,"longitude":77.7064,"temp":13.9,"humidity":78,"rain":0.0,"pressure":985.2,"uv_index":5.4,"aqi":158,"mosquito_risk":3,"arthritis_risk":5,"migraine_risk":3,"frizz_risk":0,"updated_at":"2026-02-26T02:09:08.763041+05:30"},{"city":"Agra","state":"Uttar Pradesh","latitude":27.1767,"longitude":78.0081,"temp":15.1,"humidity":70,"rain":0.0,"pressure":992.0,"uv_index":5.9,"aqi":169,"mosquito_risk":3,"arthritis_risk":5,"migraine_risk":3,"frizz_risk":0,"updated_at":"2026-02-26T02:09:08.763046+05:30"},{"city":"Varanasi","state":"Uttar Pradesh","latitude":25.3176,"longitude":82.9739,"temp":17.2,"humidity":64,"rain":0.0,"pressure":1001.0,"uv_index":6.7,"aqi":142,"mosquito_risk":3,"arthritis_risk":5,"migraine_risk":4,"frizz_risk":0,"updated_at":"2026-02-26T02:09:08.763053+05:30"},{"city":"Prayagraj","state":"Uttar Pradesh","latitude":25.4358,"longitude":81.8463,"temp":16.4,"humidity":66,"rain":0.0,"pressure":999.6,"uv_index":6.55,"aqi":156,"mosquito_risk":3,"arthritis_risk":5,"migraine_risk":7,"frizz_risk":0,"updated_at":"2026-02-26T02:09:08.763060+05:30"},{"city":"Gorakhpur","state":"Uttar Pradesh","latitude":26.7606,"longitude":83.3732,"temp":15.3,"humidity":84,"rain":0.0,"pressure":1000.2,"uv_index":6.4,"aqi":165,"mosquito_risk":3,"arthritis_risk":10,"migraine_risk":4,"frizz_risk":0,"updated_at":"2026-02-26T02:09:08.763068+05:30"},{"city":"Bareilly","state":"Uttar Pradesh","latitude":28.367,"longitude":79.4304,"temp":13.4,"humidity":76,"rain":0.0,"pressure":990.3,"uv_index":5.7,"aqi":163,"mosquito_risk":3,"arthritis_risk":5,"migraine_risk":3,"frizz_risk":0,"updated_at":"2026-02-26T02:09:08.763074+05:30"},{"city":"Aligarh","state":"Uttar Pradesh","latitude":27.8974,"longitude":78.088,"temp":13.8,"humidity":68,"rain":0.0,"pressure":989.6,"uv_index":5.65,"aqi":159,"mosquito_risk":3,"arthritis_risk":5,"migraine_risk":3,"frizz_risk":0,"updated_at":"2026-02-26T02:09:08.763080+05:30"},{"city":"Moradabad","state":"Uttar Pradesh","latitude":28.8386,"longitude":78.7733,"temp":14.0,"humidity":74,"rain":0.0,"pressure":987.1,"uv_index":5.55,"aqi":162,"mosquito_risk":3,"arthritis_risk":5,"migraine_risk":3,"frizz_risk":0,"updated_at":"2026-02-26T02:09:08.763086+05:30"},{"city":"Saharanpur","state":"Uttar Pradesh","latitude":29.9637,"longitude":77.546,"temp":15.4,"humidity":83,"rain":0.0,"pressure":979.1,"uv_index":5.2,"aqi":165,"mosquito_risk":3,"arthritis_risk":10,"migraine_risk":3,"frizz_risk":0,"updated_at":"2026-02-26T02:09:08.763092+05:30"},{"city":"Jhansi","state":"Uttar Pradesh","latitude":25.4484,"longitude":78.5685,"temp":17.1,"humidity":61,"rain":0.0,"pressure":981.3,"uv_index":6.5,"aqi":110,"mosquito_risk":3,"arthritis_risk":5,"migraine_risk":7,"frizz_risk":0,"updated_at":"2026-02-26T02:09:11.980281+05:30"},{"city":"Surat","state":"Gujarat","latitude":21.1702,"longitude":72.8311,"temp":23.5,"humidity":90,"rain":0.0,"pressure":1009.2,"uv_index":7.0,"aqi":124,"mosquito_risk":3,"arthritis_risk":0,"migraine_risk":4,"frizz_risk":1,"updated_at":"2026-02-26T02:09:11.980312+05:30"},{"city":"Vadodara","state":"Gujarat","latitude":22.3072,"longitude":73.1812,"temp":21.7,"humidity":73,"rain":0.0,"pressure":1006.8,"uv_index":7.1,"aqi":100,"mosquito_risk":3,"arthritis_risk":5,"migraine_risk":4,"frizz_risk":1,"updated_at":"2026-02-26T02:09:11.980324+05:30"},{"city":"Rajkot","state":"Gujarat","latitude":22.3039,"longitude":70.8022,"temp":21.3,"humidity":85,"rain":0.0,"pressure":997.2,"uv_index":7.0,"aqi":57,"mosquito_risk":3,"arthritis_risk":5,"migraine_risk":7,"frizz_risk":1,"updated_at":"2026-02-26T02:09:11.980333+05:30"},{"city":"Thane","state":"Maharashtra","latitude":19.2183,"longitude":72.9781,"temp":22.7,"humidity":94,"rain":0.0,"pressure":1010.2,"uv_index":7.3,"aqi":86,"mosquito_risk":3,"arthritis_risk":0,"migraine_risk":4,"frizz_risk":1,"updated_at":"2026-02-26T02:09:11.980340+05:30"},{"city":"Nagpur","state":"Maharashtra","latitude":21.1458,"longitude":79.0882,"temp":20.9,"humidity":79,"rain":0.0,"pressure":975.5,"uv_index":7.45,"aqi":115,"mosquito_risk":3,"arthritis_risk":5,"migraine_risk":7,"frizz_risk":1,"updated_at":"2026-02-26T02:09:11.980348+05:30"},{"city":"Nashik","state":"Maharashtra","latitude":19.9975,"longitude":73.7898,"temp":20.9,"humidity":56,"rain":0.0,"pressure":947.1,"uv_index":7.5,"aqi":89,"mosquito_risk":0,"arthritis_risk":5,"migraine_risk":7,"frizz_risk":0,"updated_at":"2026-02-26T02:09:11.980356+05:30"},{"city":"Aurangabad","state":"Maharashtra","latitude":19.8762,"longitude":75.3433,"temp":20.6,"humidity":57,"rain":0.0,"pressure":945.2,"uv_index":7.8,"aqi":119,"mosquito_risk":0,"arthritis_risk":5,"migraine_risk":7,"frizz_risk":0,"updated_at":"2026-02-26T02:09:11.980364+05:30"},{"city":"Solapur","state":"Maharashtra","latitude":17.6599,"longitude":75.9064,"temp":21.9,"humidity":76,"rain":0.0,"pressure":958.6,"uv_index":8.0,"aqi":124,"mosquito_risk":3,"arthritis_risk":5,"migraine_risk":7,"frizz_risk":1,"updated_at":"2026-02-26T02:09:11.980372+05:30"},{"city":"Kolhapur","state":"Maharashtra","latitude":16.705,"longitude":74.2433,"temp":15.6,"humidity":77,"rain":0.0,"pressure":948.2,"uv_index":8.25,"aqi":144,"mosquito_risk":3,"arthritis_risk":5,"migraine_risk":7,"frizz_risk":0,"updated_at":"2026-02-26T02:09:11.980379+05:30"},{"city":"Goa","state":"Goa","latitude":15.2993,"longitude":74.124,"temp":24.3,"humidity":91,"rain":0.0,"pressure":998.9,"uv_index":8.25,"aqi":121,"mosquito_risk":3,"arthritis_risk":5,"migraine_risk":7,"frizz_risk":1,"updated_at":"2026-02-26T02:09:11.980386+05:30"},{"city":"Jodhpur","state":"Rajasthan","latitude":26.2389,"longitude":73.0243,"temp":20.4,"humidity":44,"rain":0.0,"pressure":985.4,"uv_index":6.65,"aqi":65,"mosquito_risk":0,"arthritis_risk":5,"migraine_risk":7,"frizz_risk":0,"updated_at":"2026-02-26T02:09:11.980393+05:30"},{"city":"Udaipur","state":"Rajasthan","latitude":24.5854,"longitude":73.7125,"temp":16.1,"humidity":61,"rain":0.0,"pressure":948.3,"uv_index":7.3,"aqi":64,"mosquito_risk":3,"arthritis_risk":5,"migraine_risk":7,"frizz_risk":0,"updated_at":"2026-02-26T02:09:11.980400+05:30"},{"city":"Kota","state":"Rajasthan","latitude":25.2138,"longitude":75.8648,"temp":12.8,"humidity":99,"rain":0.0,"pressure":981.6,"uv_index":6.7,"aqi":92,"mosquito_risk":3,"arthritis_risk":10,"migraine_risk":7,"frizz_risk":0,"updated_at":"2026-02-26T02:09:11.980408+05:30"},{"city":"Bikaner","state":"Rajasthan","latitude":28.0229,"longitude":73.3119,"temp":20.7,"humidity":42,"rain":0.0,"pressure":985.2,"uv_index":6.3,"aqi":60,"mosquito_risk":0,"arthritis_risk":5,"migraine_risk":7,"frizz_risk":0,"updated_at":"2026-02-26T02:09:11.980415+05:30"},{"city":"Ajmer","state":"Rajasthan","latitude":26.4499,"longitude":74.6399,"temp":19.8,"humidity":40,"rain":0.0,"pressure":957.0,"uv_index":6.65,"aqi":88,"mosquito_risk":0,"arthritis_risk":5,"migraine_risk":7,"frizz_risk":0,"updated_at":"2026-02-26T02:09:11.980422+05:30"},{"city":"Gwalior","state":"Madhya Pradesh","latitude":26.2183,"longitude":78.1828,"temp":18.7,"humidity":64,"rain":0.0,"pressure":987.1,"uv_index":6.25,"aqi":141,"mosquito_risk":3,"arthritis_risk":5,"migraine_risk":7,"frizz_risk":0,"updated_at":"2026-02-26T02:09:11.980429+05:30"},{"city":"Indore","state":"Madhya Pradesh","latitude":22.7196,"longitude":75.8577,"temp":17.4,"humidity":57,"rain":0.0,"pressure":949.5,"uv_index":7.25,"aqi":86,"mosquito_risk":0,"arthritis_risk":5,"migraine_risk":7,"frizz_risk":0,"updated_at":"2026-02-26T02:09:11.980437+05:30"},{"city":"Bhopal","state":"Madhya Pradesh","latitude":23.2599,"longitude":77.4126,"temp":19.1,"humidity":46,"rain":0.0,"pressure":955.6,"uv_index":7.1,"aqi":70,"mosquito_risk":0,"arthritis_risk":5,"migraine_risk":7,"frizz_risk":0,"updated_at":"2026-02-26T02:09:11.980444+05:30"},{"city":"Jabalpur","state":"Madhya Pradesh","latitude":23.1815,"longitude":79.9864,"temp":19.9,"humidity":46,"rain":0.0,"pressure":964.1,"uv_index":7.15,"aqi":77,"mosquito_risk":0,"arthritis_risk":5,"migraine_risk":7,"frizz_risk":0,"updated_at":"2026-02-26T02:09:11.980451+05:30"},{"city":"Ujjain","state":"Madhya Pradesh","latitude":23.1765,"longitude":75.7885,"temp":18.7,"humidity":51,"rain":0.0,"pressure":955.6,"uv_index":7.15,"aqi":96,"mosquito_risk":0,"arthritis_risk":5,"migraine_risk":7,"frizz_risk":0,"updated_at":"2026-02-26T02:09:11.980458+05:30"},{"city":"Visakhapatnam","state":"Andhra Pradesh","latitude":17.6868,"longitude":83.2185,"temp":23.0,"humidity":93,"rain":0.0,"pressure":1006.6,"uv_index":8.1,"aqi":149,"mosquito_risk":3,"arthritis_risk":5,"migraine_risk":4,"frizz_risk":1,"updated_at":"2026-02-26T02:09:11.980465+05:30"},{"city":"Vijayawada","state":"Andhra Pradesh","latitude":16.5062,"longitude":80.648,"temp":24.3,"humidity":89,"rain":0.0,"pressure":1004.8,"uv_index":8.2,"aqi":94,"mosquito_risk":3,"arthritis_risk":5,"migraine_risk":4,"frizz_risk":1,"updated_at":"2026-02-26T02:09:11.980472+05:30"},{"city":"Guntur","state":"Andhra Pradesh","latitude":16.3067,"longitude":80.4365,"temp":24.4,"humidity":89,"rain":0.0,"pressure":1006.0,"uv_index":8.2,"aqi":98,"mosquito_risk":3,"arthritis_risk":5,"migraine_risk":4,"frizz_risk":1,"updated_at":"2026-02-26T02:09:11.980515+05:30"},{"city":"Nellore","state":"Andhra Pradesh","latitude":14.4426,"longitude":79.9865,"temp":23.0,"humidity":94,"rain":0.0,"pressure":1007.8,"uv_index":8.4,"aqi":66,"mosquito_risk":3,"arthritis_risk":5,"migraine_risk":4,"frizz_risk":1,"updated_at":"2026-02-26T02:09:11.980525+05:30"},{"city":"Kurnool","state":"Andhra Pradesh","latitude":15.8281,"longitude":78.0373,"temp":24.0,"humidity":76,"rain":0.0,"pressure":978.1,"uv_index":8.2,"aqi":112,"mosquito_risk":3,"arthritis_risk":5,"migraine_risk":7,"frizz_risk":1,"updated_at":"2026-02-26T02:09:11.980534+05:30"},{"city":"Kakinada","state":"Andhra Pradesh","latitude":16.9891,"longitude":82.2475,"temp":23.0,"humidity":97,"rain":0.0,"pressure":1009.9,"uv_index":8.1,"aqi":66,"mosquito_risk":3,"arthritis_risk":0,"migraine_risk":4,"frizz_risk":1,"updated_at":"2026-02-26T02:09:11.980542+05:30"},{"city":"Tirupati","state":"Andhra Pradesh","latitude":13.6288,"longitude":79.4192,"temp":21.6,"humidity":87,"rain":0.0,"pressure":993.7,"uv_index":8.55,"aqi":86,"mosquito_risk":3,"arthritis_risk":5,"migraine_risk":7,"frizz_risk":1,"updated_at":"2026-02-26T02:09:11.980549+05:30"},{"city":"Warangal","state":"Telangana","latitude":17.9689,"longitude":79.5941,"temp":22.9,"humidity":80,"rain":0.0,"pressure":980.3,"uv_index":7.9,"aqi":152,"mosquito_risk":3,"arthritis_risk":5,"migraine_risk":7,"frizz_risk":1,"updated_at":"2026-02-26T02:09:11.980555+05:30"},{"city":"Nizamabad","state":"Telangana","latitude":18.6725,"longitude":78.0941,"temp":23.5,"humidity":65,"rain":0.0,"pressure":966.5,"uv_index":7.8,"aqi":155,"mosquito_risk":3,"arthritis_risk":5,"migraine_risk":7,"frizz_risk":1,"updated_at":"2026-02-26T02:09:11.980562+05:30"},{"city":"Mysore","state":"Karnataka","latitude":12.2958,"longitude":76.6396,"temp":21.3,"humidity":88,"rain":0.0,"pressure":928.7,"uv_index":8.95,"aqi":114,"mosquito_risk":3,"arthritis_risk":5,"migraine_risk":7,"frizz_risk":1,"updated_at":"2026-02-26T02:09:11.980569+05:30"},{"city":"Mangalore","state":"Karnataka","latitude":12.9141,"longitude":74.856,"temp":28.5,"humidity":79,"rain":0.0,"pressure":1007.7,"uv_index":8.5,"aqi":122,"mosquito_risk":7,"arthritis_risk":5,"migraine_risk":4,"frizz_risk":1,"updated_at":"2026-02-26T02:09:11.980577+05:30"},{"city":"Hubli-Dharwad","state":"Karnataka","latitude":15.3647,"longitude":75.124,"temp":20.5,"humidity":77,"rain":0.0,"pressure":941.5,"uv_index":8.4,"aqi":122,"mosquito_risk":3,"arthritis_risk":5,"migraine_risk":7,"frizz_risk":1,"updated_at":"2026-02-26T02:09:11.980588+05:30"},{"city":"Belgaum","state":"Karnataka","latitude":15.8497,"longitude":74.4977,"temp":21.1,"humidity":51,"rain":0.0,"pressure":926.0,"uv_index":8.45,"aqi":120,"mosquito_risk":0,"arthritis_risk":5,"migraine_risk":7,"frizz_risk":0,"updated_at":"2026-02-26T02:09:15.195774+05:30"},{"city":"Coimbatore","state":"Tamil Nadu","latitude":11.0168,"longitude":76.9558,"temp":21.6,"humidity":94,"rain":0.0,"pressure":963.2,"uv_index":8.95,"aqi":91,"mosquito_risk":3,"arthritis_risk":5,"migraine_risk":7,"frizz_risk":1,"updated_at":"2026-02-26T02:09:15.195801+05:30"},{"city":"Madurai","state":"Tamil Nadu","latitude":9.9252,"longitude":78.1198,"temp":23.9,"humidity":91,"rain":0.0,"pressure":995.3,"uv_index":7.9,"aqi":100,"mosquito_risk":3,"arthritis_risk":5,"migraine_risk":7,"frizz_risk":1,"updated_at":"2026-02-26T02:09:15.195811+05:30"},{"city":"Trichy","state":"Tamil Nadu","latitude":10.7905,"longitude":78.7047,"temp":25.0,"humidity":93,"rain":0.0,"pressure":1001.8,"uv_index":7.8,"aqi":77,"mosquito_risk":7,"arthritis_risk":5,"migraine_risk":4,"frizz_risk":1,"updated_at":"2026-02-26T02:09:15.195818+05:30"},{"city":"Salem","state":"Tamil Nadu","latitude":11.6643,"longitude":78.146,"temp":23.5,"humidity":86,"rain":0.0,"pressure":979.2,"uv_index":8.8,"aqi":100,"mosquito_risk":3,"arthritis_risk":5,"migraine_risk":7,"frizz_risk":1,"updated_at":"2026-02-26T02:09:15.195825+05:30"},{"city":"Tirunelveli","state":"Tamil Nadu","latitude":8.7139,"longitude":77.7567,"temp":23.2,"humidity":96,"rain":0.0,"pressure":1005.1,"uv_index":8.95,"aqi":85,"mosquito_risk":3,"arthritis_risk":5,"migraine_risk":4,"frizz_risk":1,"updated_at":"2026-02-26T02:09:15.195831+05:30"},{"city":"Vellore","state":"Tamil Nadu","latitude":12.9165,"longitude":79.1325,"temp":22.5,"humidity":95,"rain":0.0,"pressure":986.6,"uv_index":8.65,"aqi":100,"mosquito_risk":3,"arthritis_risk":5,"migraine_risk":7,"frizz_risk":1,"updated_at":"2026-02-26T02:09:15.195837+05:30"},{"city":"Erode","state":"Tamil Nadu","latitude":11.341,"longitude":77.7172,"temp":24.5,"humidity":84,"rain":0.0,"pressure":991.3,"uv_index":8.85,"aqi":98,"mosquito_risk":3,"arthritis_risk":5,"migraine_risk":7,"frizz_risk":1,"updated_at":"2026-02-26T02:09:15.195843+05:30"},{"city":"Kochi","state":"Kerala","latitude":9.9312,"longitude":76.2673,"temp":26.6,"humidity":84,"rain":0.0,"pressure":1010.1,"uv_index":8.75,"aqi":85,"mosquito_risk":7,"arthritis_risk":0,"migraine_risk":4,"frizz_risk":1,"updated_at":"2026-02-26T02:09:15.195849+05:30"},{"city":"Thiruvananthapuram","state":"Kerala","latitude":8.5241,"longitude":76.9366,"temp":26.9,"humidity":83,"rain":0.0,"pressure":1009.3,"uv_index":8.75,"aqi":74,"mosquito_risk":7,"arthritis_risk":0,"migraine_risk":4,"frizz_risk":1,"updated_at":"2026-02-26T02:09:15.195855+05:30"},{"city":"Kozhikode","state":"Kerala","latitude":11.2588,"longitude":75.7804,"temp":27.3,"humidity":85,"rain":0.0,"pressure":1008.9,"uv_index":8.6,"aqi":76,"mosquito_risk":7,"arthritis_risk":0,"migraine_risk":4,"frizz_risk":1,"updated_at":"2026-02-26T02:09:15.195861+05:30"},{"city":"Thrissur","state":"Kerala","latitude":10.5276,"longitude":76.2144,"temp":24.9,"humidity":90,"rain":0.0,"pressure":1008.5,"uv_index":8.75,"aqi":85,"mosquito_risk":3,"arthritis_risk":0,"migraine_risk":4,"frizz_risk":1,"updated_at":"2026-02-26T02:09:15.195868+05:30"},{"city":"Kannur","state":"Kerala","latitude":11.8745,"longitude":75.3704,"temp":26.9,"humidity":84,"rain":0.0,"pressure":1008.0,"uv_index":8.6,"aqi":94,"mosquito_risk":7,"arthritis_risk":0,"migraine_risk":4,"frizz_risk":1,"updated_at":"2026-02-26T02:09:15.195873+05:30"},{"city":"Patna","state":"Bihar","latitude":25.5941,"longitude":85.1376,"temp":18.3,"humidity":78,"rain":0.0,"pressure":1003.8,"uv_index":6.85,"aqi":162,"mosquito_risk":3,"arthritis_risk":5,"migraine_risk":4,"frizz_risk":0,"updated_at":"2026-02-26T02:09:15.195879+05:30"},{"city":"Gaya","state":"Bihar","latitude":24.7914,"longitude":85.0002,"temp":18.8,"humidity":63,"rain":0.0,"pressure":997.7,"uv_index":6.95,"aqi":152,"mosquito_risk":3,"arthritis_risk":5,"migraine_risk":7,"frizz_risk":0,"updated_at":"2026-02-26T02:09:15.195885+05:30"},{"city":"Muzaffarpur","state":"Bihar","latitude":26.1209,"longitude":85.3647,"temp":17.4,"humidity":80,"rain":0.0,"pressure":1003.6,"uv_index":6.8,"aqi":167,"mosquito_risk":3,"arthritis_risk":5,"migraine_risk":4,"frizz_risk":0,"updated_at":"2026-02-26T02:09:15.195891+05:30"},{"city":"Bhagalpur","state":"Bihar","latitude":25.2425,"longitude":87.0117,"temp":17.4,"humidity":78,"rain":0.0,"pressure":1004.4,"uv_index":6.9,"aqi":156,"mosquito_risk":3,"arthritis_risk":5,"migraine_risk":4,"frizz_risk":0,"updated_at":"2026-02-26T02:09:15.195896+05:30"},{"city":"Ranchi","state":"Jharkhand","latitude":23.3441,"longitude":85.3096,"temp":14.6,"humidity":66,"rain":0.0,"pressure":939.7,"uv_index":7.6,"aqi":95,"mosquito_risk":3,"arthritis_risk":5,"migraine_risk":7,"frizz_risk":0,"updated_at":"2026-02-26T02:09:15.195902+05:30"},{"city":"Jamshedpur","state":"Jharkhand","latitude":22.8046,"longitude":86.2029,"temp":19.2,"humidity":68,"rain":0.0,"pressure":994.3,"uv_index":7.5,"aqi":145,"mosquito_risk":3,"arthritis_risk":5,"migraine_risk":7,"frizz_risk":0,"updated_at":"2026-02-26T02:09:15.195909+05:30"},{"city":"Dhanbad","state":"Jharkhand","latitude":23.7957,"longitude":86.4304,"temp":18.1,"humidity":61,"rain":0.0,"pressure":983.1,"uv_index":7.4,"aqi":150,"mosquito_risk":3,"arthritis_risk":5,"migraine_risk":7,"frizz_risk":0,"updated_at":"2026-02-26T02:09:15.195914+05:30"},{"city":"Bokaro","state":"Jharkhand","latitude":23.6693,"longitude":86.1511,"temp":16.5,"humidity":67,"rain":0.0,"pressure":987.6,"uv_index":7.4,"aqi":147,"mosquito_risk":3,"arthritis_risk":5,"migraine_risk":7,"frizz_risk":0,"updated_at":"2026-02-26T02:09:15.195920+05:30"},{"city":"Bhubaneswar","state":"Odisha","latitude":20.2961,"longitude":85.8245,"temp":23.0,"humidity":97,"rain":0.0,"pressure":1005.3,"uv_index":7.85,"aqi":152,"mosquito_risk":3,"arthritis_risk":5,"migraine_risk":4,"frizz_risk":1,"updated_at":"2026-02-26T02:09:15.195926+05:30"},{"city":"Cuttack","state":"Odisha","latitude":20.4625,"longitude":85.8828,"temp":22.5,"humidity":94,"rain":0.0,"pressure":1007.4,"uv_index":7.9,"aqi":152,"mosquito_risk":3,"arthritis_risk":5,"migraine_risk":4,"frizz_risk":1,"updated_at":"2026-02-26T02:09:15.195932+05:30"},{"city":"Rourkela","state":"Odisha","latitude":22.2604,"longitude":84.8536,"temp":18.3,"humidity":56,"rain":0.0,"pressure":988.4,"uv_index":7.4,"aqi":88,"mosquito_risk":0,"arthritis_risk":5,"migraine_risk":7,"frizz_risk":0,"updated_at":"2026-02-26T02:09:15.195937+05:30"},{"city":"Raipur","state":"Chhattisgarh","latitude":21.2514,"longitude":81.6296,"temp":20.0,"humidity":64,"rain":0.0,"pressure":977.1,"uv_index":7.55,"aqi":154,"mosquito_risk":3,"arthritis_risk":5,"migraine_risk":7,"frizz_risk":0,"updated_at":"2026-02-26T02:09:15.195943+05:30"},{"city":"Bhilai","state":"Chhattisgarh","latitude":21.1938,"longitude":81.3509,"temp":18.6,"humidity":70,"rain":0.0,"pressure":977.4,"uv_index":7.55,"aqi":153,"mosquito_risk":3,"arthritis_risk":5,"migraine_risk":7,"frizz_risk":0,"updated_at":"2026-02-26T02:09:15.195948+05:30"},{"city":"Guwahati","state":"Assam","latitude":26.1158,"longitude":91.7086,"temp":20.2,"humidity":80,"rain":0.0,"pressure":1003.2,"uv_index":6.85,"aqi":153,"mosquito_risk":3,"arthritis_risk":5,"migraine_risk":4,"frizz_risk":1,"updated_at":"2026-02-26T02:09:15.195955+05:30"},{"city":"Agartala","state":"Tripura","latitude":23.8315,"longitude":91.2868,"temp":19.1,"humidity":72,"rain":0.0,"pressure":1008.3,"uv_index":7.2,"aqi":161,"mosquito_risk":3,"arthritis_risk":0,"migraine_risk":4,"frizz_risk":0,"updated_at":"2026-02-26T02:09:15.195961+05:30"},{"city":"Shillong","state":"Meghalaya","latitude":25.5788,"longitude":91.8933,"temp":7.2,"humidity":90,"rain":0.0,"pressure":853.1,"uv_index":5.55,"aqi":115,"mosquito_risk":3,"arthritis_risk":10,"migraine_risk":3,"frizz_risk":0,"updated_at":"2026-02-26T02:09:15.195967+05:30"},{"city":"Imphal","state":"Manipur","latitude":24.817,"longitude":93.9368,"temp":13.7,"humidity":72,"rain":0.0,"pressure":923.0,"uv_index":7.4,"aqi":160,"mosquito_risk":3,"arthritis_risk":5,"migraine_risk":7,"frizz_risk":0,"updated_at":"2026-02-26T02:09:15.195973+05:30"},{"city":"Aizawl","state":"Mizoram","latitude":23.7271,"longitude":92.7176,"temp":13.5,"humidity":68,"rain":0.0,"pressure":892.0,"uv_index":7.35,"aqi":153,"mosquito_risk":3,"arthritis_risk":5,"migraine_risk":7,"frizz_risk":0,"updated_at":"2026-02-26T02:09:15.195979+05:30"},{"city":"Kohima","state":"Nagaland","latitude":25.6701,"longitude":94.1077,"temp":11.1,"humidity":81,"rain":0.0,"pressure":853.0,"uv_index":7.25,"aqi":154,"mosquito_risk":3,"arthritis_risk":10,"migraine_risk":7,"frizz_risk":0,"updated_at":"2026-02-26T02:09:15.195985+05:30"},{"city":"Gangtok","state":"Sikkim","latitude":27.3314,"longitude":88.6138,"temp":9.7,"humidity":77,"rain":0.0,"pressure":834.5,"uv_index":4.5,"aqi":117,"mosquito_risk":3,"arthritis_risk":5,"migraine_risk":3,"frizz_risk":0,"updated_at":"2026-02-26T02:09:15.195991+05:30"},{"city":"Siliguri","state":"West Bengal","latitude":26.7271,"longitude":88.3953,"temp":17.7,"humidity":62,"rain":0.0,"pressure":995.5,"uv_index":6.85,"aqi":162,"mosquito_risk":3,"arthritis_risk":5,"migraine_risk":7,"frizz_risk":0,"updated_at":"2026-02-26T02:09:18.414262+05:30"},{"city":"Durgapur","state":"West Bengal","latitude":23.5204,"longitude":87.3119,"temp":19.8,"humidity":59,"rain":0.0,"pressure":998.7,"uv_index":7.4,"aqi":146,"mosquito_risk":0,"arthritis_risk":5,"migraine_risk":7,"frizz_risk":0,"updated_at":"2026-02-26T02:09:18.414292+05:30"},{"city":"Asansol","state":"West Bengal","latitude":23.6739,"longitude":86.9524,"temp":19.6,"humidity":59,"rain":0.0,"pressure":997.3,"uv_index":7.4,"aqi":134,"mosquito_risk":0,"arthritis_risk":5,"migraine_risk":7,"frizz_risk":0,"updated_at":"2026-02-26T02:09:18.414303+05:30"},{"city":"Pondicherry","state":"Puducherry","latitude":11.9139,"longitude":79.8145,"temp":24.6,"humidity":95,"rain":0.0,"pressure":1010.4,"uv_index":8.6,"aqi":60,"mosquito_risk":3,"arthritis_risk":0,"migraine_risk":4,"frizz_risk":1,"updated_at":"2026-02-26T02:09:18.414312+05:30"},{"city":"Port Blair","state":"Andaman and Nicobar Islands","latitude":11.6234,"longitude":92.7265,"temp":26.3,"humidity":85,"rain":0.0,"pressure":1006.7,"uv_index":8.65,"aqi":26,"mosquito_risk":7,"arthritis_risk":5,"migraine_risk":4,"frizz_risk":1,"updated_at":"2026-02-26T02:09:18.414320+05:30"},{"city":"Haridwar","state":"Uttarakhand","latitude":29.9457,"longitude":78.1642,"temp":15.0,"humidity":93,"rain":0.0,"pressure":977.5,"uv_index":5.3,"aqi":151,"mosquito_risk":3,"arthritis_risk":10,"migraine_risk":3,"frizz_risk":0,"updated_at":"2026-02-26T02:09:18.414328+05:30"},{"city":"Rishikesh","state":"Uttarakhand","latitude":30.0869,"longitude":78.2676,"temp":16.1,"humidity":78,"rain":0.0,"pressure":970.0,"uv_index":5.35,"aqi":127,"mosquito_risk":3,"arthritis_risk":5,"migraine_risk":3,"frizz_risk":0,"updated_at":"2026-02-26T02:09:18.414336+05:30"},{"city":"Nainital","state":"Uttarakhand","latitude":29.3919,"longitude":79.4542,"temp":12.6,"humidity":64,"rain":0.0,"pressure":804.7,"uv_index":6.15,"aqi":117,"mosquito_risk":3,"arthritis_risk":5,"migraine_risk":7,"frizz_risk":0,"updated_at":"2026-02-26T02:09:18.414343+05:30"},{"city":"Mussoorie","state":"Uttarakhand","latitude":30.4599,"longitude":78.0664,"temp":10.7,"humidity":80,"rain":0.0,"pressure":801.2,"uv_index":5.7,"aqi":138,"mosquito_risk":3,"arthritis_risk":5,"migraine_risk":3,"frizz_risk":0,"updated_at":"2026-02-26T02:09:18.414350+05:30"},{"city":"Dharamshala","state":"Himachal Pradesh","latitude":32.219,"longitude":76.3234,"temp":14.9,"humidity":59,"rain":0.0,"pressure":869.8,"uv_index":5.95,"aqi":76,"mosquito_risk":0,"arthritis_risk":5,"migraine_risk":3,"frizz_risk":0,"updated_at":"2026-02-26T02:09:18.414357+05:30"},{"city":"Dalhousie","state":"Himachal Pradesh","latitude":32.5387,"longitude":75.971,"temp":11.2,"humidity":60,"rain":0.0,"pressure":803.0,"uv_index":6.15,"aqi":126,"mosquito_risk":0,"arthritis_risk":5,"migraine_risk":7,"frizz_risk":0,"updated_at":"2026-02-26T02:09:18.414365+05:30"},{"city":"Patiala","state":"Punjab","latitude":30.3398,"longitude":76.3869,"temp":15.1,"humidity":87,"rain":0.0,"pressure":981.9,"uv_index":5.35,"aqi":173,"mosquito_risk":3,"arthritis_risk":10,"migraine_risk":3,"frizz_risk":0,"updated_at":"2026-02-26T02:09:18.414373+05:30"},{"city":"Bhatinda","state":"Punjab","latitude":30.211,"longitude":74.9455,"temp":16.2,"humidity":84,"rain":0.0,"pressure":987.4,"uv_index":6.05,"aqi":156,"mosquito_risk":3,"arthritis_risk":10,"migraine_risk":7,"frizz_risk":0,"updated_at":"2026-02-26T02:09:18.414380+05:30"},{"city":"Rohtak","state":"Haryana","latitude":28.8955,"longitude":76.6066,"temp":16.4,"humidity":62,"rain":0.0,"pressure":985.6,"uv_index":5.6,"aqi":162,"mosquito_risk":3,"arthritis_risk":5,"migraine_risk":3,"frizz_risk":0,"updated_at":"2026-02-26T02:09:18.414387+05:30"},{"city":"Panipat","state":"Haryana","latitude":29.3909,"longitude":76.9635,"temp":13.8,"humidity":87,"rain":0.0,"pressure":984.3,"uv_index":5.4,"aqi":164,"mosquito_risk":3,"arthritis_risk":10,"migraine_risk":3,"frizz_risk":0,"updated_at":"2026-02-26T02:09:18.414394+05:30"},{"city":"Mathura","state":"Uttar Pradesh","latitude":27.4924,"longitude":77.6737,"temp":15.5,"humidity":61,"rain":0.0,"pressure":991.0,"uv_index":5.8,"aqi":161,"mosquito_risk":3,"arthritis_risk":5,"migraine_risk":3,"frizz_risk":0,"updated_at":"2026-02-26T02:09:18.414401+05:30"},{"city":"Vrindavan","state":"Uttar Pradesh","latitude":27.5823,"longitude":77.7027,"temp":14.8,"humidity":61,"rain":0.0,"pressure":991.4,"uv_index":5.8,"aqi":161,"mosquito_risk":3,"arthritis_risk":5,"migraine_risk":3,"frizz_risk":0,"updated_at":"2026-02-26T02:09:18.414407+05:30"},{"city":"Ayodhya","state":"Uttar Pradesh","latitude":26.7922,"longitude":82.1998,"temp":15.8,"humidity":75,"rain":0.0,"pressure":998.6,"uv_index":6.2,"aqi":161,"mosquito_risk":3,"arthritis_risk":5,"migraine_risk":7,"frizz_risk":0,"updated_at":"2026-02-26T02:09:18.414414+05:30"},{"city":"Ratlam","state":"Madhya Pradesh","latitude":23.3315,"longitude":75.0367,"temp":14.4,"humidity":90,"rain":0.0,"pressure":955.8,"uv_index":7.1,"aqi":92,"mosquito_risk":3,"arthritis_risk":10,"migraine_risk":7,"frizz_risk":0,"updated_at":"2026-02-26T02:09:18.414421+05:30"},{"city":"Sagar","state":"Madhya Pradesh","latitude":23.8388,"longitude":78.7378,"temp":17.6,"humidity":52,"rain":0.0,"pressure":952.2,"uv_index":7.0,"aqi":74,"mosquito_risk":0,"arthritis_risk":5,"migraine_risk":7,"frizz_risk":0,"updated_at":"2026-02-26T02:09:18.414429+05:30"},{"city":"Satna","state":"Madhya Pradesh","latitude":24.6005,"longitude":80.8322,"temp":17.7,"humidity":52,"rain":0.0,"pressure":974.5,"uv_index":6.95,"aqi":84,"mosquito_risk":0,"arthritis_risk":5,"migraine_risk":7,"frizz_risk":0,"updated_at":"2026-02-26T02:09:18.414436+05:30"},{"city":"Akola","state":"Maharashtra","latitude":20.7002,"longitude":77.0082,"temp":20.9,"humidity":76,"rain":0.0,"pressure":976.9,"uv_index":7.5,"aqi":108,"mosquito_risk":3,"arthritis_risk":5,"migraine_risk":7,"frizz_risk":1,"updated_at":"2026-02-26T02:09:18.414444+05:30"},{"city":"Amravati","state":"Maharashtra","latitude":20.9374,"longitude":77.7796,"temp":21.0,"humidity":76,"rain":0.0,"pressure":969.3,"uv_index":7.45,"aqi":117,"mosquito_risk":3,"arthritis_risk":5,"migraine_risk":7,"frizz_risk":1,"updated_at":"2026-02-26T02:09:18.414452+05:30"},{"city":"Latur","state":"Maharashtra","latitude":18.4088,"longitude":76.5604,"temp":21.2,"humidity":73,"rain":0.0,"pressure":940.6,"uv_index":7.95,"aqi":143,"mosquito_risk":3,"arthritis_risk":5,"migraine_risk":7,"frizz_risk":1,"updated_at":"2026-02-26T02:09:18.414459+05:30"},{"city":"Nanded","state":"Maharashtra","latitude":19.1383,"longitude":77.3091,"temp":22.9,"humidity":69,"rain":0.0,"pressure":970.1,"uv_index":7.7,"aqi":151,"mosquito_risk":3,"arthritis_risk":5,"migraine_risk":7,"frizz_risk":1,"updated_at":"2026-02-26T02:09:18.414466+05:30"},{"city":"Gulbarga","state":"Karnataka","latitude":17.3297,"longitude":76.8343,"temp":23.2,"humidity":68,"rain":0.0,"pressure":959.8,"uv_index":8.05,"aqi":129,"mosquito_risk":3,"arthritis_risk":5,"migraine_risk":7,"frizz_risk":1,"updated_at":"2026-02-26T02:09:18.414472+05:30"},{"city":"Bidar","state":"Karnataka","latitude":17.9104,"longitude":77.5199,"temp":22.5,"humidity":69,"rain":0.0,"pressure":936.5,"uv_index":8.0,"aqi":148,"mosquito_risk":3,"arthritis_risk":5,"migraine_risk":7,"frizz_risk":1,"updated_at":"2026-02-26T02:09:18.414510+05:30"},{"city":"Hospet","state":"Karnataka","latitude":15.2689,"longitude":76.3909,"temp":24.9,"humidity":64,"rain":0.0,"pressure":956.9,"uv_index":8.35,"aqi":111,"mosquito_risk":3,"arthritis_risk":5,"migraine_risk":7,"frizz_risk":1,"updated_at":"2026-02-26T02:09:18.414518+05:30"},{"city":"Tirupur","state":"Tamil Nadu","latitude":11.1085,"longitude":77.3411,"temp":23.2,"humidity":88,"rain":0.0,"pressure":977.3,"uv_index":8.95,"aqi":114,"mosquito_risk":3,"arthritis_risk":5,"migraine_risk":7,"frizz_risk":1,"updated_at":"2026-02-26T02:09:18.414526+05:30"},{"city":"Alappuzha","state":"Kerala","latitude":9.4981,"longitude":76.3388,"temp":26.3,"humidity":85,"rain":0.0,"pressure":1010.3,"uv_index":8.8,"aqi":78,"mosquito_risk":7,"arthritis_risk":0,"migraine_risk":4,"frizz_risk":1,"updated_at":"2026-02-26T02:09:18.414533+05:30"},{"city":"Munnar","state":"Kerala","latitude":10.0889,"longitude":77.0595,"temp":19.2,"humidity":97,"rain":0.0,"pressure":856.9,"uv_index":8.3,"aqi":92,"mosquito_risk":3,"arthritis_risk":10,"migraine_risk":7,"frizz_risk":1,"updated_at":"2026-02-26T02:09:18.414541+05:30"},{"city":"Silchar","state":"Assam","latitude":24.8333,"longitude":92.7789,"temp":18.3,"humidity":79,"rain":0.0,"pressure":1007.1,"uv_index":7.15,"aqi":158,"mosquito_risk":3,"arthritis_risk":5,"migraine_risk":4,"frizz_risk":0,"updated_at":"2026-02-26T02:09:18.414548+05:30"},{"city":"Dibrugarh","state":"Assam","latitude":27.4728,"longitude":94.912,"temp":18.8,"humidity":91,"rain":0.0,"pressure":998.5,"uv_index":6.9,"aqi":144,"mosquito_risk":3,"arthritis_risk":10,"migraine_risk":7,"frizz_risk":1,"updated_at":"2026-02-26T02:09:18.414555+05:30"}]