[{"city":"Delhi","state":"Delhi","latitude":28.6139,"longitude":77.209,"temp":29.6,"humidity":50,"rain":0.0,"pressure":980.9,"uv_index":7.6,"wind_gusts":43.6,"aqi":478,"pm10":136.4,"pm2_5":52.7,"no2":17.5,"co":525.0,"o3":124.0,"so2":20.0,"mosquito_risk":4,"arthritis_risk":5,"migraine_risk":7,"frizz_risk":1,"updated_at":"2026-05-03T22:25:22.244527+05:30"},{"city":"Mumbai","state":"Maharashtra","latitude":19.076,"longitude":72.8777,"temp":29.0,"humidity":78,"rain":0.0,"pressure":1008.0,"uv_index":7.85,"wind_gusts":41.0,"aqi":69,"pm10":35.4,"pm2_5":17.2,"no2":11.2,"co":238.0,"o3":62.0,"so2":17.7,"mosquito_risk":7,"arthritis_risk":0,"migraine_risk":4,"frizz_risk":1,"updated_at":"2026-05-03T22:25:22.244572+05:30"},{"city":"Bangalore","state":"Karnataka","latitude":12.9716,"longitude":77.5946,"temp":26.4,"humidity":50,"rain":0.0,"pressure":911.2,"uv_index":7.85,"wind_gusts":29.2,"aqi":77,"pm10":75.0,"pm2_5":48.4,"no2":91.4,"co":1198.0,"o3":20.0,"so2":22.3,"mosquito_risk":4,"arthritis_risk":5,"migraine_risk":7,"frizz_risk":0,"updated_at":"2026-05-03T22:25:22.244594+05:30"},{"city":"Hyderabad","state":"Telangana","latitude":17.385,"longitude":78.4867,"temp":32.6,"humidity":32,"rain":0.0,"pressure":952.3,"uv_index":9.25,"wind_gusts":33.8,"aqi":69,"pm10":77.8,"pm2_5":51.2,"no2":63.2,"co":652.0,"o3":31.0,"so2":19.5,"mosquito_risk":0,"arthritis_risk":5,"migraine_risk":7,"frizz_risk":0,"updated_at":"2026-05-03T22:25:22.244605+05:30"},{"city":"Chennai","state":"Tamil Nadu","latitude":13.0827,"longitude":80.2707,"temp":30.4,"humidity":84,"rain":0.0,"pressure":1005.9,"uv_index":8.65,"wind_gusts":51.1,"aqi":156,"pm10":33.2,"pm2_5":27.0,"no2":7.4,"co":248.0,"o3":139.0,"so2":4.1,"mosquito_risk":3,"arthritis_risk":5,"migraine_risk":4,"frizz_risk":1,"updated_at":"2026-05-03T22:25:22.244614+05:30"},{"city":"Kolkata","state":"West Bengal","latitude":22.5726,"longitude":88.3639,"temp":25.4,"humidity":90,"rain":0.0,"pressure":1005.8,"uv_index":8.95,"wind_gusts":42.8,"aqi":143,"pm10":70.1,"pm2_5":59.5,"no2":22.1,"co":617.0,"o3":76.0,"so2":19.3,"mosquito_risk":7,"arthritis_risk":5,"migraine_risk":4,"frizz_risk":1,"updated_at":"2026-05-03T22:25:22.244623+05:30"},{"city":"Pune","state":"Maharashtra","latitude":18.5204,"longitude":73.8567,"temp":25.5,"humidity":73,"rain":0.0,"pressure":948.1,"uv_index":8.5,"wind_gusts":47.9,"aqi":61,"pm10":27.0,"pm2_5":12.6,"no2":10.2,"co":236.0,"o3":67.0,"so2":7.8,"mosquito_risk":7,"arthritis_risk":5,"migraine_risk":7,"frizz_risk":1,"updated_at":"2026-05-03T22:25:22.244630+05:30"},{"city":"Ahmedabad","state":"Gujarat","latitude":23.0225,"longitude":72.5714,"temp":30.9,"humidity":70,"rain":0.0,"pressure":997.8,"uv_index":8.1,"wind_gusts":47.5,"aqi":70,"pm10":36.1,"pm2_5":15.7,"no2":7.5,"co":253.0,"o3":92.0,"so2":6.8,"mosquito_risk":3,"arthritis_risk":5,"migraine_risk":7,"frizz_risk":1,"updated_at":"2026-05-03T22:25:22.244640+05:30"},{"city":"Jaipur","state":"Rajasthan","latitude":26.9124,"longitude":75.7873,"temp":29.2,"humidity":41,"rain":0.0,"pressure":956.5,"uv_index":8.15,"wind_gusts":43.2,"aqi":114,"pm10":86.8,"pm2_5":36.9,"no2":34.6,"co":394.0,"o3":55.0,"so2":8.6,"mosquito_risk":4,"arthritis_risk":5,"migraine_risk":7,"frizz_risk":0,"updated_at":"2026-05-03T22:25:22.244649+05:30"},{"city":"Lucknow","state":"Uttar Pradesh","latitude":26.8467,"longitude":80.9462,"temp":27.7,"humidity":60,"rain":0.0,"pressure":992.9,"uv_index":8.1,"wind_gusts":36.4,"aqi":150,"pm10":51.8,"pm2_5":38.9,"no2":9.1,"co":358.0,"o3":132.0,"so2":10.2,"mosquito_risk":4,"arthritis_risk":5,"migraine_risk":7,"frizz_risk":1,"updated_at":"2026-05-03T22:25:22.244657+05:30"},{"city":"Kanpur","state":"Uttar Pradesh","latitude":26.4499,"longitude":80.3319,"temp":28.6,"humidity":57,"rain":0.0,"pressure":990.4,"uv_index":8.1,"wind_gusts":38.2,"aqi":170,"pm10":448.0,"pm2_5":70.3,"no2":8.2,"co":337.0,"o3":135.0,"so2":10.1,"mosquito_risk":4,"arthritis_risk":5,"migraine_risk":7,"frizz_risk":1,"updated_at":"2026-05-03T22:25:22.244664+05:30"},{"city":"Chandigarh","state":"Chandigarh","latitude":30.7333,"longitude":76.7794,"temp":24.2,"humidity":54,"rain":0.0,"pressure":966.5,"uv_index":7.6,"wind_gusts":62.3,"aqi":138,"pm10":128.1,"pm2_5":43.8,"no2":20.4,"co":594.0,"o3":100.0,"so2":11.0,"mosquito_risk":0,"arthritis_risk":5,"migraine_risk":7,"frizz_risk":0,"updated_at":"2026-05-03T22:25:22.244672+05:30"},{"city":"Srinagar","state":"Jammu and Kashmir","latitude":34.0837,"longitude":74.7973,"temp":10.8,"humidity":95,"rain":0.0,"pressure":840.7,"uv_index":8.75,"wind_gusts":38.9,"aqi":72,"pm10":31.0,"pm2_5":21.2,"no2":14.4,"co":1180.0,"o3":100.0,"so2":3.9,"mosquito_risk":3,"arthritis_risk":10,"migraine_risk":7,"frizz_risk":0,"updated_at":"2026-05-03T22:25:22.244680+05:30"},{"city":"Jammu","state":"Jammu and Kashmir","latitude":32.7266,"longitude":74.857,"temp":23.6,"humidity":58,"rain":0.0,"pressure":971.5,"uv_index":8.25,"wind_gusts":32.4,"aqi":132,"pm10":46.1,"pm2_5":30.0,"no2":16.5,"co":317.0,"o3":109.0,"so2":6.3,"mosquito_risk":0,"arthritis_risk":5,"migraine_risk":7,"frizz_risk":0,"updated_at":"2026-05-03T22:25:22.244688+05:30"},{"city":"Amritsar","state":"Punjab","latitude":31.634,"longitude":74.8723,"temp":23.5,"humidity":62,"rain":0.0,"pressure":978.9,"uv_index":8.1,"wind_gusts":51.5,"aqi":152,"pm10":152.3,"pm2_5":46.1,"no2":5.5,"co":427.0,"o3":137.0,"so2":8.2,"mosquito_risk":3,"arthritis_risk":5,"migraine_risk":7,"frizz_risk":0,"updated_at":"2026-05-03T22:25:22.244695+05:30"},{"city":"Ludhiana","state":"Punjab","latitude":30.901,"longitude":75.8573,"temp":26.2,"humidity":48,"rain":0.0,"pressure":976.7,"uv_index":7.85,"wind_gusts":47.9,"aqi":187,"pm10":430.3,"pm2_5":80.3,"no2":10.3,"co":559.0,"o3":121.0,"so2":9.1,"mosquito_risk":4,"arthritis_risk":5,"migraine_risk":7,"frizz_risk":0,"updated_at":"2026-05-03T22:25:22.244702+05:30"},{"city":"Jalandhar","state":"Punjab","latitude":31.326,"longitude":75.5762,"temp":24.5,"humidity":55,"rain":0.0,"pressure":978.5,"uv_index":8.05,"wind_gusts":49.7,"aqi":147,"pm10":281.3,"pm2_5":70.5,"no2":9.5,"co":493.0,"o3":127.0,"so2":8.0,"mosquito_risk":0,"arthritis_risk":5,"migraine_risk":7,"frizz_risk":0,"updated_at":"2026-05-03T22:25:22.244709+05:30"},{"city":"Dehradun","state":"Uttarakhand","latitude":30.6284,"longitude":78.0322,"temp":13.4,"humidity":86,"rain":0.0,"pressure":828.7,"uv_index":7.45,"wind_gusts":42.5,"aqi":98,"pm10":61.5,"pm2_5":30.4,"no2":26.7,"co":318.0,"o3":83.0,"so2":2.4,"mosquito_risk":3,"arthritis_risk":10,"migraine_risk":7,"frizz_risk":0,"updated_at":"2026-05-03T22:25:22.244718+05:30"},{"city":"Shimla","state":"Himachal Pradesh","latitude":31.1048,"longitude":77.1734,"temp":10.7,"humidity":73,"rain":0.0,"pressure":781.4,"uv_index":7.65,"wind_gusts":42.1,"aqi":132,"pm10":103.6,"pm2_5":33.5,"no2":20.6,"co":375.0,"o3":116.0,"so2":10.5,"mosquito_risk":3,"arthritis_risk":5,"migraine_risk":7,"frizz_risk":0,"updated_at":"2026-05-03T22:25:22.244726+05:30"},{"city":"Manali","state":"Himachal Pradesh","latitude":32.2396,"longitude":77.1887,"temp":8.8,"humidity":77,"rain":0.1,"pressure":814.7,"uv_index":9.7,"wind_gusts":40.7,"aqi":121,"pm10":10.9,"pm2_5":7.1,"no2":17.5,"co":259.0,"o3":127.0,"so2":0.5,"mosquito_risk":6,"arthritis_risk":5,"migraine_risk":7,"frizz_risk":0,"updated_at":"2026-05-03T22:25:22.244733+05:30"},{"city":"Gurgaon","state":"Haryana","latitude":28.4595,"longitude":77.0266,"temp":28.8,"humidity":51,"rain":0.0,"pressure":979.1,"uv_index":7.7,"wind_gusts":45.7,"aqi":1438,"pm10":340.9,"pm2_5":80.1,"no2":19.4,"co":599.0,"o3":119.0,"so2":20.8,"mosquito_risk":4,"arthritis_risk":5,"migraine_risk":7,"frizz_risk":1,"updated_at":"2026-05-03T22:25:22.244740+05:30"},{"city":"Noida","state":"Uttar Pradesh","latitude":28.5355,"longitude":77.391,"temp":27.0,"humidity":60,"rain":0.0,"pressure":982.1,"uv_index":7.6,"wind_gusts":45.4,"aqi":1438,"pm10":340.9,"pm2_5":80.1,"no2":19.4,"co":518.0,"o3":119.0,"so2":20.8,"mosquito_risk":4,"arthritis_risk":5,"migraine_risk":7,"frizz_risk":1,"updated_at":"2026-05-03T22:25:22.244747+05:30"},{"city":"Ghaziabad","state":"Uttar Pradesh","latitude":28.6692,"longitude":77.4538,"temp":27.6,"humidity":56,"rain":0.0,"pressure":980.5,"uv_index":7.6,"wind_gusts":50.4,"aqi":305,"pm10":232.4,"pm2_5":54.5,"no2":7.3,"co":409.0,"o3":138.0,"so2":14.7,"mosquito_risk":4,"arthritis_risk":5,"migraine_risk":7,"frizz_risk":1,"updated_at":"2026-05-03T22:25:22.244754+05:30"},{"city":"Faridabad","state":"Haryana","latitude":28.4089,"longitude":77.3178,"temp":28.0,"humidity":56,"rain":0.0,"pressure":981.4,"uv_index":7.65,"wind_gusts":49.0,"aqi":1438,"pm10":340.9,"pm2_5":80.1,"no2":19.4,"co":537.0,"o3":119.0,"so2":20.8,"mosquito_risk":4,"arthritis_risk":5,"migraine_risk":7,"frizz_risk":1,"updated_at":"2026-05-03T22:25:22.244760+05:30"},{"city":"Meerut","state":"Uttar Pradesh","latitude":28.9845,"longitude":77.7064,"temp":25.9,"humidity":65,"rain":0.0,"pressure":979.6,"uv_index":7.45,"wind_gusts":47.5,"aqi":305,"pm10":232.4,"pm2_5":54.5,"no2":7.3,"co":458.0,"o3":138.0,"so2":14.7,"mosquito_risk":7,"arthritis_risk":5,"migraine_risk":7,"frizz_risk":1,"updated_at":"2026-05-03T22:25:22.244767+05:30"},{"city":"Agra","state":"Uttar Pradesh","latitude":27.1767,"longitude":78.0081,"temp":29.4,"humidity":48,"rain":0.0,"pressure":984.7,"uv_index":7.95,"wind_gusts":69.8,"aqi":792,"pm10":394.9,"pm2_5":86.8,"no2":20.6,"co":359.0,"o3":98.0,"so2":16.7,"mosquito_risk":4,"arthritis_risk":5,"migraine_risk":7,"frizz_risk":1,"updated_at":"2026-05-03T22:25:22.244773+05:30"},{"city":"Varanasi","state":"Uttar Pradesh","latitude":25.3176,"longitude":82.9739,"temp":28.8,"humidity":57,"rain":0.0,"pressure":997.0,"uv_index":8.65,"wind_gusts":36.4,"aqi":194,"pm10":71.9,"pm2_5":63.6,"no2":12.6,"co":431.0,"o3":154.0,"so2":20.7,"mosquito_risk":4,"arthritis_risk":5,"migraine_risk":7,"frizz_risk":1,"updated_at":"2026-05-03T22:25:22.244780+05:30"},{"city":"Prayagraj","state":"Uttar Pradesh","latitude":25.4358,"longitude":81.8463,"temp":28.7,"humidity":59,"rain":0.0,"pressure":994.9,"uv_index":8.5,"wind_gusts":36.0,"aqi":184,"pm10":58.6,"pm2_5":51.7,"no2":11.4,"co":417.0,"o3":139.0,"so2":13.4,"mosquito_risk":4,"arthritis_risk":5,"migraine_risk":7,"frizz_risk":1,"updated_at":"2026-05-03T22:25:22.244790+05:30"},{"city":"Gorakhpur","state":"Uttar Pradesh","latitude":26.7606,"longitude":83.3732,"temp":24.8,"humidity":75,"rain":0.0,"pressure":998.2,"uv_index":7.95,"wind_gusts":37.8,"aqi":148,"pm10":43.8,"pm2_5":34.2,"no2":8.5,"co":403.0,"o3":130.0,"so2":6.3,"mosquito_risk":3,"arthritis_risk":5,"migraine_risk":7,"frizz_risk":1,"updated_at":"2026-05-03T22:25:22.244796+05:30"},{"city":"Bareilly","state":"Uttar Pradesh","latitude":28.367,"longitude":79.4304,"temp":26.9,"humidity":59,"rain":0.0,"pressure":986.0,"uv_index":7.9,"wind_gusts":42.1,"aqi":151,"pm10":94.1,"pm2_5":40.9,"no2":10.5,"co":340.0,"o3":110.0,"so2":10.2,"mosquito_risk":4,"arthritis_risk":5,"migraine_risk":7,"frizz_risk":1,"updated_at":"2026-05-03T22:25:22.244805+05:30"},{"city":"Aligarh","state":"Uttar Pradesh","latitude":27.8974,"longitude":78.088,"temp":27.5,"humidity":59,"rain":0.0,"pressure":983.0,"uv_index":7.75,"wind_gusts":50.4,"aqi":778,"pm10":1218.2,"pm2_5":142.5,"no2":6.7,"co":387.0,"o3":136.0,"so2":12.8,"mosquito_risk":4,"arthritis_risk":5,"migraine_risk":7,"frizz_risk":1,"updated_at":"2026-05-03T22:25:22.244812+05:30"},{"city":"Moradabad","state":"Uttar Pradesh","latitude":28.8386,"longitude":78.7733,"temp":26.4,"humidity":60,"rain":0.0,"pressure":982.5,"uv_index":7.7,"wind_gusts":46.8,"aqi":144,"pm10":119.2,"pm2_5":49.7,"no2":16.4,"co":384.0,"o3":104.0,"so2":11.8,"mosquito_risk":4,"arthritis_risk":5,"migraine_risk":7,"frizz_risk":1,"updated_at":"2026-05-03T22:25:22.244819+05:30"},{"city":"Saharanpur","state":"Uttar Pradesh","latitude":29.9637,"longitude":77.546,"temp":25.3,"humidity":68,"rain":0.0,"pressure":974.2,"uv_index":7.3,"wind_gusts":45.4,"aqi":147,"pm10":99.4,"pm2_5":49.6,"no2":16.7,"co":496.0,"o3":112.0,"so2":14.3,"mosquito_risk":7,"arthritis_risk":5,"migraine_risk":7,"frizz_risk":1,"updated_at":"2026-05-03T22:25:22.244826+05:30"},{"city":"Jhansi","state":"Uttar Pradesh","latitude":25.4484,"longitude":78.5685,"temp":30.5,"humidity":42,"rain":0.0,"pressure":975.0,"uv_index":8.4,"wind_gusts":29.5,"aqi":119,"pm10":58.6,"pm2_5":25.7,"no2":5.4,"co":300.0,"o3":108.0,"so2":15.3,"mosquito_risk":0,"arthritis_risk":5,"migraine_risk":7,"frizz_risk":1,"updated_at":"2026-05-03T22:25:25.503226+05:30"},{"city":"Surat","state":"Gujarat","latitude":21.1702,"longitude":72.8311,"temp":29.1,"humidity":81,"rain":0.0,"pressure":1004.5,"uv_index":7.7,"wind_gusts":55.8,"aqi":61,"pm10":23.7,"pm2_5":14.9,"no2":16.0,"co":238.0,"o3":59.0,"so2":26.4,"mosquito_risk":7,"arthritis_risk":5,"migraine_risk":4,"frizz_risk":1,"updated_at":"2026-05-03T22:25:25.503257+05:30"},{"city":"Vadodara","state":"Gujarat","latitude":22.3072,"longitude":73.1812,"temp":29.2,"humidity":77,"rain":0.0,"pressure":1000.8,"uv_index":8.05,"wind_gusts":51.8,"aqi":53,"pm10":18.9,"pm2_5":12.4,"no2":13.2,"co":266.0,"o3":62.0,"so2":18.1,"mosquito_risk":7,"arthritis_risk":5,"migraine_risk":4,"frizz_risk":1,"updated_at":"2026-05-03T22:25:25.503267+05:30"},{"city":"Rajkot","state":"Gujarat","latitude":22.3039,"longitude":70.8022,"temp":30.4,"humidity":59,"rain":0.0,"pressure":990.4,"uv_index":7.7,"wind_gusts":51.1,"aqi":51,"pm10":29.6,"pm2_5":13.5,"no2":5.1,"co":173.0,"o3":79.0,"so2":6.8,"mosquito_risk":0,"arthritis_risk":5,"migraine_risk":7,"frizz_risk":1,"updated_at":"2026-05-03T22:25:25.503275+05:30"},{"city":"Thane","state":"Maharashtra","latitude":19.2183,"longitude":72.9781,"temp":28.9,"humidity":78,"rain":0.0,"pressure":1007.3,"uv_index":7.9,"wind_gusts":39.6,"aqi":69,"pm10":35.4,"pm2_5":17.2,"no2":11.2,"co":258.0,"o3":62.0,"so2":17.7,"mosquito_risk":7,"arthritis_risk":5,"migraine_risk":4,"frizz_risk":1,"updated_at":"2026-05-03T22:25:25.503283+05:30"},{"city":"Nagpur","state":"Maharashtra","latitude":21.1458,"longitude":79.0882,"temp":33.7,"humidity":21,"rain":0.0,"pressure":970.1,"uv_index":8.9,"wind_gusts":37.1,"aqi":76,"pm10":83.8,"pm2_5":32.2,"no2":20.1,"co":391.0,"o3":71.0,"so2":13.7,"mosquito_risk":0,"arthritis_risk":5,"migraine_risk":7,"frizz_risk":0,"updated_at":"2026-05-03T22:25:25.503291+05:30"},{"city":"Nashik","state":"Maharashtra","latitude":19.9975,"longitude":73.7898,"temp":24.7,"humidity":76,"rain":0.0,"pressure":944.9,"uv_index":8.15,"wind_gusts":49.0,"aqi":62,"pm10":23.7,"pm2_5":12.4,"no2":8.5,"co":206.0,"o3":70.0,"so2":9.0,"mosquito_risk":3,"arthritis_risk":5,"migraine_risk":7,"frizz_risk":1,"updated_at":"2026-05-03T22:25:25.503299+05:30"},{"city":"Aurangabad","state":"Maharashtra","latitude":19.8762,"longitude":75.3433,"temp":30.1,"humidity":30,"rain":0.0,"pressure":943.4,"uv_index":9.05,"wind_gusts":50.8,"aqi":62,"pm10":25.6,"pm2_5":11.9,"no2":5.5,"co":181.0,"o3":93.0,"so2":6.8,"mosquito_risk":0,"arthritis_risk":5,"migraine_risk":7,"frizz_risk":0,"updated_at":"2026-05-03T22:25:25.503306+05:30"},{"city":"Solapur","state":"Maharashtra","latitude":17.6599,"longitude":75.9064,"temp":33.0,"humidity":23,"rain":0.0,"pressure":955.7,"uv_index":9.1,"wind_gusts":40.7,"aqi":57,"pm10":33.5,"pm2_5":16.4,"no2":8.4,"co":205.0,"o3":83.0,"so2":3.3,"mosquito_risk":0,"arthritis_risk":5,"migraine_risk":7,"frizz_risk":0,"updated_at":"2026-05-03T22:25:25.503316+05:30"},{"city":"Kolhapur","state":"Maharashtra","latitude":16.705,"longitude":74.2433,"temp":24.2,"humidity":85,"rain":0.0,"pressure":948.1,"uv_index":8.95,"wind_gusts":47.2,"aqi":62,"pm10":29.2,"pm2_5":14.9,"no2":8.8,"co":201.0,"o3":64.0,"so2":3.1,"mosquito_risk":3,"arthritis_risk":5,"migraine_risk":7,"frizz_risk":1,"updated_at":"2026-05-03T22:25:25.503323+05:30"},{"city":"Goa","state":"Goa","latitude":15.2993,"longitude":74.124,"temp":28.6,"humidity":76,"rain":0.0,"pressure":998.7,"uv_index":8.9,"wind_gusts":36.7,"aqi":67,"pm10":51.2,"pm2_5":19.2,"no2":5.4,"co":200.0,"o3":60.0,"so2":1.5,"mosquito_risk":7,"arthritis_risk":5,"migraine_risk":7,"frizz_risk":1,"updated_at":"2026-05-03T22:25:25.503330+05:30"},{"city":"Jodhpur","state":"Rajasthan","latitude":26.2389,"longitude":73.0243,"temp":29.4,"humidity":49,"rain":0.0,"pressure":977.7,"uv_index":8.3,"wind_gusts":69.8,"aqi":119,"pm10":268.2,"pm2_5":41.6,"no2":4.6,"co":463.0,"o3":106.0,"so2":3.5,"mosquito_risk":4,"arthritis_risk":5,"migraine_risk":7,"frizz_risk":1,"updated_at":"2026-05-03T22:25:25.503337+05:30"},{"city":"Udaipur","state":"Rajasthan","latitude":24.5854,"longitude":73.7125,"temp":28.1,"humidity":39,"rain":0.0,"pressure":942.4,"uv_index":8.8,"wind_gusts":39.2,"aqi":83,"pm10":37.5,"pm2_5":14.4,"no2":3.6,"co":194.0,"o3":105.0,"so2":3.4,"mosquito_risk":4,"arthritis_risk":5,"migraine_risk":7,"frizz_risk":0,"updated_at":"2026-05-03T22:25:25.503345+05:30"},{"city":"Kota","state":"Rajasthan","latitude":25.2138,"longitude":75.8648,"temp":32.8,"humidity":27,"rain":0.0,"pressure":974.7,"uv_index":8.35,"wind_gusts":37.8,"aqi":74,"pm10":27.9,"pm2_5":15.0,"no2":7.3,"co":223.0,"o3":93.0,"so2":5.6,"mosquito_risk":0,"arthritis_risk":5,"migraine_risk":7,"frizz_risk":0,"updated_at":"2026-05-03T22:25:25.503352+05:30"},{"city":"Bikaner","state":"Rajasthan","latitude":28.0229,"longitude":73.3119,"temp":32.2,"humidity":26,"rain":0.0,"pressure":977.4,"uv_index":8.25,"wind_gusts":44.3,"aqi":87,"pm10":107.3,"pm2_5":28.8,"no2":2.8,"co":179.0,"o3":106.0,"so2":4.9,"mosquito_risk":0,"arthritis_risk":5,"migraine_risk":7,"frizz_risk":0,"updated_at":"2026-05-03T22:25:25.503360+05:30"},{"city":"Ajmer","state":"Rajasthan","latitude":26.4499,"longitude":74.6399,"temp":30.6,"humidity":30,"rain":0.0,"pressure":951.2,"uv_index":8.3,"wind_gusts":45.4,"aqi":76,"pm10":54.2,"pm2_5":19.8,"no2":8.2,"co":216.0,"o3":88.0,"so2":4.4,"mosquito_risk":0,"arthritis_risk":5,"migraine_risk":7,"frizz_risk":0,"updated_at":"2026-05-03T22:25:25.503367+05:30"},{"city":"Gwalior","state":"Madhya Pradesh","latitude":26.2183,"longitude":78.1828,"temp":31.1,"humidity":38,"rain":0.0,"pressure":980.2,"uv_index":8.15,"wind_gusts":42.8,"aqi":87,"pm10":70.3,"pm2_5":25.4,"no2":6.8,"co":290.0,"o3":93.0,"so2":6.5,"mosquito_risk":0,"arthritis_risk":5,"migraine_risk":7,"frizz_risk":0,"updated_at":"2026-05-03T22:25:25.503374+05:30"},{"city":"Indore","state":"Madhya Pradesh","latitude":22.7196,"longitude":75.8577,"temp":31.4,"humidity":29,"rain":0.0,"pressure":945.9,"uv_index":8.7,"wind_gusts":41.8,"aqi":77,"pm10":16.1,"pm2_5":12.9,"no2":7.0,"co":269.0,"o3":105.0,"so2":6.6,"mosquito_risk":0,"arthritis_risk":5,"migraine_risk":7,"frizz_risk":0,"updated_at":"2026-05-03T22:25:25.503381+05:30"},{"city":"Bhopal","state":"Madhya Pradesh","latitude":23.2599,"longitude":77.4126,"temp":31.6,"humidity":20,"rain":0.0,"pressure":950.6,"uv_index":8.65,"wind_gusts":32.4,"aqi":68,"pm10":65.2,"pm2_5":26.3,"no2":11.9,"co":435.0,"o3":67.0,"so2":4.6,"mosquito_risk":0,"arthritis_risk":5,"migraine_risk":7,"frizz_risk":0,"updated_at":"2026-05-03T22:25:25.503388+05:30"},{"city":"Jabalpur","state":"Madhya Pradesh","latitude":23.1815,"longitude":79.9864,"temp":30.2,"humidity":24,"rain":0.0,"pressure":958.5,"uv_index":8.85,"wind_gusts":29.2,"aqi":69,"pm10":70.5,"pm2_5":26.1,"no2":17.7,"co":319.0,"o3":71.0,"so2":5.4,"mosquito_risk":0,"arthritis_risk":5,"migraine_risk":7,"frizz_risk":0,"updated_at":"2026-05-03T22:25:25.503395+05:30"},{"city":"Ujjain","state":"Madhya Pradesh","latitude":23.1765,"longitude":75.7885,"temp":31.5,"humidity":29,"rain":0.0,"pressure":951.3,"uv_index":8.6,"wind_gusts":42.5,"aqi":79,"pm10":17.1,"pm2_5":12.9,"no2":3.9,"co":216.0,"o3":105.0,"so2":4.9,"mosquito_risk":0,"arthritis_risk":5,"migraine_risk":7,"frizz_risk":0,"updated_at":"2026-05-03T22:25:25.503402+05:30"},{"city":"Visakhapatnam","state":"Andhra Pradesh","latitude":17.6868,"longitude":83.2185,"temp":28.1,"humidity":93,"rain":0.0,"pressure":1003.3,"uv_index":9.15,"wind_gusts":47.5,"aqi":67,"pm10":30.4,"pm2_5":24.0,"no2":23.1,"co":329.0,"o3":75.0,"so2":4.6,"mosquito_risk":7,"arthritis_risk":5,"migraine_risk":4,"frizz_risk":1,"updated_at":"2026-05-03T22:25:25.503409+05:30"},{"city":"Vijayawada","state":"Andhra Pradesh","latitude":16.5062,"longitude":80.648,"temp":30.0,"humidity":78,"rain":0.0,"pressure":1001.4,"uv_index":9.15,"wind_gusts":29.2,"aqi":152,"pm10":35.3,"pm2_5":29.7,"no2":6.1,"co":396.0,"o3":134.0,"so2":6.7,"mosquito_risk":7,"arthritis_risk":5,"migraine_risk":4,"frizz_risk":1,"updated_at":"2026-05-03T22:25:25.503417+05:30"},{"city":"Guntur","state":"Andhra Pradesh","latitude":16.3067,"longitude":80.4365,"temp":30.9,"humidity":69,"rain":0.0,"pressure":1002.6,"uv_index":9.2,"wind_gusts":34.6,"aqi":116,"pm10":38.9,"pm2_5":32.9,"no2":12.8,"co":309.0,"o3":116.0,"so2":8.7,"mosquito_risk":3,"arthritis_risk":5,"migraine_risk":4,"frizz_risk":1,"updated_at":"2026-05-03T22:25:25.503424+05:30"},{"city":"Nellore","state":"Andhra Pradesh","latitude":14.4426,"longitude":79.9865,"temp":30.7,"humidity":67,"rain":0.0,"pressure":1004.1,"uv_index":9.2,"wind_gusts":37.1,"aqi":155,"pm10":33.8,"pm2_5":30.7,"no2":6.3,"co":285.0,"o3":150.0,"so2":8.4,"mosquito_risk":3,"arthritis_risk":5,"migraine_risk":4,"frizz_risk":1,"updated_at":"2026-05-03T22:25:25.503432+05:30"},{"city":"Kurnool","state":"Andhra Pradesh","latitude":15.8281,"longitude":78.0373,"temp":33.6,"humidity":25,"rain":0.0,"pressure":974.3,"uv_index":9.15,"wind_gusts":41.4,"aqi":76,"pm10":60.8,"pm2_5":32.7,"no2":19.7,"co":473.0,"o3":82.0,"so2":8.5,"mosquito_risk":0,"arthritis_risk":5,"migraine_risk":7,"frizz_risk":0,"updated_at":"2026-05-03T22:25:25.503439+05:30"},{"city":"Kakinada","state":"Andhra Pradesh","latitude":16.9891,"longitude":82.2475,"temp":28.6,"humidity":91,"rain":0.0,"pressure":1006.8,"uv_index":9.15,"wind_gusts":33.1,"aqi":61,"pm10":31.2,"pm2_5":22.5,"no2":2.1,"co":360.0,"o3":109.0,"so2":2.6,"mosquito_risk":7,"arthritis_risk":5,"migraine_risk":4,"frizz_risk":1,"updated_at":"2026-05-03T22:25:25.503447+05:30"},{"city":"Tirupati","state":"Andhra Pradesh","latitude":13.6288,"longitude":79.4192,"temp":31.0,"humidity":54,"rain":0.0,"pressure":990.2,"uv_index":7.25,"wind_gusts":27.4,"aqi":96,"pm10":33.4,"pm2_5":27.7,"no2":14.9,"co":367.0,"o3":115.0,"so2":7.2,"mosquito_risk":0,"arthritis_risk":5,"migraine_risk":7,"frizz_risk":1,"updated_at":"2026-05-03T22:25:25.503454+05:30"},{"city":"Warangal","state":"Telangana","latitude":17.9689,"longitude":79.5941,"temp":30.8,"humidity":54,"rain":0.0,"pressure":976.7,"uv_index":9.15,"wind_gusts":38.9,"aqi":83,"pm10":82.9,"pm2_5":53.1,"no2":25.2,"co":356.0,"o3":78.0,"so2":14.2,"mosquito_risk":0,"arthritis_risk":5,"migraine_risk":7,"frizz_risk":1,"updated_at":"2026-05-03T22:25:25.503461+05:30"},{"city":"Nizamabad","state":"Telangana","latitude":18.6725,"longitude":78.0941,"temp":30.6,"humidity":25,"rain":0.0,"pressure":961.6,"uv_index":9.1,"wind_gusts":44.6,"aqi":74,"pm10":111.1,"pm2_5":41.6,"no2":25.6,"co":384.0,"o3":64.0,"so2":6.9,"mosquito_risk":0,"arthritis_risk":5,"migraine_risk":7,"frizz_risk":0,"updated_at":"2026-05-03T22:25:25.503468+05:30"},{"city":"Mysore","state":"Karnataka","latitude":12.2958,"longitude":76.6396,"temp":24.6,"humidity":81,"rain":0.0,"pressure":929.2,"uv_index":8.95,"wind_gusts":36.7,"aqi":67,"pm10":35.4,"pm2_5":20.3,"no2":14.9,"co":222.0,"o3":73.0,"so2":3.2,"mosquito_risk":3,"arthritis_risk":5,"migraine_risk":7,"frizz_risk":1,"updated_at":"2026-05-03T22:25:25.503475+05:30"},{"city":"Mangalore","state":"Karnataka","latitude":12.9141,"longitude":74.856,"temp":29.4,"humidity":71,"rain":0.0,"pressure":1007.5,"uv_index":9.0,"wind_gusts":42.8,"aqi":68,"pm10":52.5,"pm2_5":16.5,"no2":3.4,"co":197.0,"o3":63.0,"so2":1.7,"mosquito_risk":7,"arthritis_risk":5,"migraine_risk":4,"frizz_risk":1,"updated_at":"2026-05-03T22:25:25.503482+05:30"},{"city":"Hubli-Dharwad","state":"Karnataka","latitude":15.3647,"longitude":75.124,"temp":24.6,"humidity":84,"rain":0.0,"pressure":940.9,"uv_index":9.15,"wind_gusts":44.6,"aqi":58,"pm10":27.0,"pm2_5":13.2,"no2":6.6,"co":192.0,"o3":62.0,"so2":1.8,"mosquito_risk":3,"arthritis_risk":5,"migraine_risk":7,"frizz_risk":1,"updated_at":"2026-05-03T22:25:25.503488+05:30"},{"city":"Belgaum","state":"Karnataka","latitude":15.8497,"longitude":74.4977,"temp":22.5,"humidity":94,"rain":0.0,"pressure":925.8,"uv_index":9.15,"wind_gusts":45.0,"aqi":59,"pm10":28.4,"pm2_5":14.4,"no2":9.5,"co":182.0,"o3":51.0,"so2":2.5,"mosquito_risk":3,"arthritis_risk":5,"migraine_risk":7,"frizz_risk":1,"updated_at":"2026-05-03T22:25:28.750382+05:30"},{"city":"Coimbatore","state":"Tamil Nadu","latitude":11.0168,"longitude":76.9558,"temp":26.8,"humidity":75,"rain":0.0,"pressure":962.4,"uv_index":9.25,"wind_gusts":49.0,"aqi":63,"pm10":32.0,"pm2_5":21.5,"no2":10.2,"co":213.0,"o3":62.0,"so2":3.7,"mosquito_risk":7,"arthritis_risk":5,"migraine_risk":7,"frizz_risk":1,"updated_at":"2026-05-03T22:25:28.750423+05:30"},{"city":"Madurai","state":"Tamil Nadu","latitude":9.9252,"longitude":78.1198,"temp":31.8,"humidity":54,"rain":0.0,"pressure":993.2,"uv_index":8.9,"wind_gusts":33.1,"aqi":117,"pm10":29.1,"pm2_5":25.1,"no2":18.8,"co":375.0,"o3":77.0,"so2":5.7,"mosquito_risk":0,"arthritis_risk":5,"migraine_risk":7,"frizz_risk":1,"updated_at":"2026-05-03T22:25:28.750435+05:30"},{"city":"Trichy","state":"Tamil Nadu","latitude":10.7905,"longitude":78.7047,"temp":31.1,"humidity":51,"rain":0.0,"pressure":999.4,"uv_index":9.2,"wind_gusts":40.0,"aqi":119,"pm10":28.6,"pm2_5":24.9,"no2":11.5,"co":288.0,"o3":101.0,"so2":4.0,"mosquito_risk":0,"arthritis_risk":5,"migraine_risk":7,"frizz_risk":1,"updated_at":"2026-05-03T22:25:28.750444+05:30"},{"city":"Salem","state":"Tamil Nadu","latitude":11.6643,"longitude":78.146,"temp":31.3,"humidity":54,"rain":0.0,"pressure":977.3,"uv_index":9.25,"wind_gusts":42.1,"aqi":140,"pm10":33.3,"pm2_5":26.7,"no2":18.7,"co":346.0,"o3":96.0,"so2":11.0,"mosquito_risk":0,"arthritis_risk":5,"migraine_risk":7,"frizz_risk":1,"updated_at":"2026-05-03T22:25:28.750452+05:30"},{"city":"Tirunelveli","state":"Tamil Nadu","latitude":8.7139,"longitude":77.7567,"temp":30.9,"humidity":61,"rain":0.0,"pressure":1003.4,"uv_index":8.15,"wind_gusts":36.0,"aqi":73,"pm10":22.8,"pm2_5":19.4,"no2":8.3,"co":253.0,"o3":66.0,"so2":2.5,"mosquito_risk":3,"arthritis_risk":5,"migraine_risk":4,"frizz_risk":1,"updated_at":"2026-05-03T22:25:28.750460+05:30"},{"city":"Vellore","state":"Tamil Nadu","latitude":12.9165,"longitude":79.1325,"temp":32.0,"humidity":53,"rain":0.0,"pressure":983.7,"uv_index":9.3,"wind_gusts":38.9,"aqi":95,"pm10":39.8,"pm2_5":35.0,"no2":12.4,"co":277.0,"o3":120.0,"so2":8.4,"mosquito_risk":0,"arthritis_risk":5,"migraine_risk":7,"frizz_risk":1,"updated_at":"2026-05-03T22:25:28.750467+05:30"},{"city":"Erode","state":"Tamil Nadu","latitude":11.341,"longitude":77.7172,"temp":29.9,"humidity":60,"rain":0.0,"pressure":989.2,"uv_index":9.25,"wind_gusts":46.1,"aqi":90,"pm10":25.9,"pm2_5":20.8,"no2":14.1,"co":235.0,"o3":71.0,"so2":3.2,"mosquito_risk":4,"arthritis_risk":5,"migraine_risk":7,"frizz_risk":1,"updated_at":"2026-05-03T22:25:28.750475+05:30"},{"city":"Kochi","state":"Kerala","latitude":9.9312,"longitude":76.2673,"temp":27.9,"humidity":92,"rain":0.0,"pressure":1010.3,"uv_index":9.05,"wind_gusts":32.0,"aqi":96,"pm10":65.4,"pm2_5":50.8,"no2":49.1,"co":410.0,"o3":8.0,"so2":10.1,"mosquito_risk":7,"arthritis_risk":0,"migraine_risk":4,"frizz_risk":1,"updated_at":"2026-05-03T22:25:28.750483+05:30"},{"city":"Thiruvananthapuram","state":"Kerala","latitude":8.5241,"longitude":76.9366,"temp":26.4,"humidity":93,"rain":0.0,"pressure":1009.8,"uv_index":8.65,"wind_gusts":36.0,"aqi":56,"pm10":27.1,"pm2_5":17.1,"no2":2.7,"co":325.0,"o3":69.0,"so2":1.1,"mosquito_risk":7,"arthritis_risk":0,"migraine_risk":4,"frizz_risk":1,"updated_at":"2026-05-03T22:25:28.750491+05:30"},{"city":"Kozhikode","state":"Kerala","latitude":11.2588,"longitude":75.7804,"temp":28.3,"humidity":81,"rain":0.0,"pressure":1009.1,"uv_index":9.0,"wind_gusts":42.1,"aqi":65,"pm10":64.5,"pm2_5":19.4,"no2":1.8,"co":226.0,"o3":70.0,"so2":0.8,"mosquito_risk":7,"arthritis_risk":0,"migraine_risk":4,"frizz_risk":1,"updated_at":"2026-05-03T22:25:28.750498+05:30"},{"city":"Thrissur","state":"Kerala","latitude":10.5276,"longitude":76.2144,"temp":27.4,"humidity":81,"rain":0.0,"pressure":1008.7,"uv_index":8.75,"wind_gusts":36.7,"aqi":94,"pm10":59.8,"pm2_5":38.4,"no2":26.5,"co":486.0,"o3":37.0,"so2":4.9,"mosquito_risk":7,"arthritis_risk":0,"migraine_risk":4,"frizz_risk":1,"updated_at":"2026-05-03T22:25:28.750506+05:30"},{"city":"Kannur","state":"Kerala","latitude":11.8745,"longitude":75.3704,"temp":29.5,"humidity":69,"rain":0.0,"pressure":1008.3,"uv_index":9.0,"wind_gusts":46.8,"aqi":66,"pm10":51.7,"pm2_5":16.9,"no2":3.5,"co":217.0,"o3":60.0,"so2":1.0,"mosquito_risk":7,"arthritis_risk":0,"migraine_risk":4,"frizz_risk":1,"updated_at":"2026-05-03T22:25:28.750512+05:30"},{"city":"Patna","state":"Bihar","latitude":25.5941,"longitude":85.1376,"temp":25.5,"humidity":80,"rain":0.0,"pressure":1001.5,"uv_index":8.55,"wind_gusts":41.8,"aqi":174,"pm10":58.9,"pm2_5":51.2,"no2":11.9,"co":469.0,"o3":134.0,"so2":10.8,"mosquito_risk":7,"arthritis_risk":5,"migraine_risk":4,"frizz_risk":1,"updated_at":"2026-05-03T22:25:28.750519+05:30"},{"city":"Gaya","state":"Bihar","latitude":24.7914,"longitude":85.0002,"temp":26.9,"humidity":70,"rain":0.0,"pressure":994.3,"uv_index":8.7,"wind_gusts":41.0,"aqi":191,"pm10":67.8,"pm2_5":59.1,"no2":8.7,"co":367.0,"o3":146.0,"so2":10.3,"mosquito_risk":7,"arthritis_risk":5,"migraine_risk":7,"frizz_risk":1,"updated_at":"2026-05-03T22:25:28.750526+05:30"},{"city":"Muzaffarpur","state":"Bihar","latitude":26.1209,"longitude":85.3647,"temp":24.8,"humidity":78,"rain":0.0,"pressure":1002.0,"uv_index":8.7,"wind_gusts":41.4,"aqi":134,"pm10":51.5,"pm2_5":44.4,"no2":15.3,"co":429.0,"o3":105.0,"so2":9.4,"mosquito_risk":3,"arthritis_risk":5,"migraine_risk":4,"frizz_risk":1,"updated_at":"2026-05-03T22:25:28.750533+05:30"},{"city":"Bhagalpur","state":"Bihar","latitude":25.2425,"longitude":87.0117,"temp":23.6,"humidity":90,"rain":0.1,"pressure":1003.1,"uv_index":8.65,"wind_gusts":41.8,"aqi":143,"pm10":56.7,"pm2_5":45.6,"no2":13.3,"co":362.0,"o3":104.0,"so2":8.8,"mosquito_risk":6,"arthritis_risk":5,"migraine_risk":4,"frizz_risk":1,"updated_at":"2026-05-03T22:25:28.750540+05:30"},{"city":"Ranchi","state":"Jharkhand","latitude":23.3441,"longitude":85.3096,"temp":23.2,"humidity":76,"rain":0.0,"pressure":937.8,"uv_index":9.25,"wind_gusts":29.2,"aqi":105,"pm10":51.3,"pm2_5":38.0,"no2":12.5,"co":517.0,"o3":114.0,"so2":19.8,"mosquito_risk":3,"arthritis_risk":5,"migraine_risk":7,"frizz_risk":1,"updated_at":"2026-05-03T22:25:28.750548+05:30"},{"city":"Jamshedpur","state":"Jharkhand","latitude":22.8046,"longitude":86.2029,"temp":25.6,"humidity":76,"rain":0.0,"pressure":991.0,"uv_index":9.05,"wind_gusts":38.5,"aqi":184,"pm10":50.1,"pm2_5":37.8,"no2":7.9,"co":344.0,"o3":114.0,"so2":12.7,"mosquito_risk":7,"arthritis_risk":5,"migraine_risk":7,"frizz_risk":1,"updated_at":"2026-05-03T22:25:28.750554+05:30"},{"city":"Dhanbad","state":"Jharkhand","latitude":23.7957,"longitude":86.4304,"temp":24.1,"humidity":87,"rain":0.0,"pressure":980.6,"uv_index":9.0,"wind_gusts":30.2,"aqi":183,"pm10":71.9,"pm2_5":62.9,"no2":37.2,"co":721.0,"o3":96.0,"so2":69.2,"mosquito_risk":3,"arthritis_risk":5,"migraine_risk":7,"frizz_risk":1,"updated_at":"2026-05-03T22:25:28.750561+05:30"},{"city":"Bokaro","state":"Jharkhand","latitude":23.6693,"longitude":86.1511,"temp":24.0,"humidity":88,"rain":0.0,"pressure":984.5,"uv_index":9.0,"wind_gusts":39.2,"aqi":213,"pm10":78.2,"pm2_5":67.8,"no2":38.9,"co":684.0,"o3":107.0,"so2":84.1,"mosquito_risk":3,"arthritis_risk":5,"migraine_risk":7,"frizz_risk":1,"updated_at":"2026-05-03T22:25:28.750569+05:30"},{"city":"Bhubaneswar","state":"Odisha","latitude":20.2961,"longitude":85.8245,"temp":26.2,"humidity":95,"rain":0.0,"pressure":1002.7,"uv_index":9.1,"wind_gusts":41.4,"aqi":75,"pm10":20.0,"pm2_5":17.1,"no2":7.5,"co":250.0,"o3":74.0,"so2":4.4,"mosquito_risk":7,"arthritis_risk":5,"migraine_risk":4,"frizz_risk":1,"updated_at":"2026-05-03T22:25:28.750576+05:30"},{"city":"Cuttack","state":"Odisha","latitude":20.4625,"longitude":85.8828,"temp":26.4,"humidity":93,"rain":0.0,"pressure":1004.4,"uv_index":9.15,"wind_gusts":41.0,"aqi":75,"pm10":20.0,"pm2_5":17.1,"no2":7.5,"co":303.0,"o3":74.0,"so2":4.4,"mosquito_risk":7,"arthritis_risk":5,"migraine_risk":4,"frizz_risk":1,"updated_at":"2026-05-03T22:25:28.750582+05:30"},{"city":"Rourkela","state":"Odisha","latitude":22.2604,"longitude":84.8536,"temp":27.6,"humidity":69,"rain":0.0,"pressure":984.2,"uv_index":8.95,"wind_gusts":38.5,"aqi":129,"pm10":92.9,"pm2_5":61.0,"no2":34.0,"co":368.0,"o3":80.0,"so2":34.5,"mosquito_risk":7,"arthritis_risk":5,"migraine_risk":7,"frizz_risk":1,"updated_at":"2026-05-03T22:25:28.750589+05:30"},{"city":"Raipur","state":"Chhattisgarh","latitude":21.2514,"longitude":81.6296,"temp":32.6,"humidity":23,"rain":0.0,"pressure":972.1,"uv_index":9.0,"wind_gusts":32.4,"aqi":114,"pm10":99.9,"pm2_5":73.6,"no2":51.5,"co":687.0,"o3":53.0,"so2":15.7,"mosquito_risk":0,"arthritis_risk":5,"migraine_risk":7,"frizz_risk":0,"updated_at":"2026-05-03T22:25:28.750596+05:30"},{"city":"Bhilai","state":"Chhattisgarh","latitude":21.1938,"longitude":81.3509,"temp":31.4,"humidity":26,"rain":0.0,"pressure":972.3,"uv_index":9.0,"wind_gusts":35.6,"aqi":88,"pm10":82.9,"pm2_5":52.4,"no2":44.8,"co":1009.0,"o3":51.0,"so2":11.7,"mosquito_risk":0,"arthritis_risk":5,"migraine_risk":7,"frizz_risk":0,"updated_at":"2026-05-03T22:25:28.750603+05:30"},{"city":"Guwahati","state":"Assam","latitude":26.1158,"longitude":91.7086,"temp":21.3,"humidity":97,"rain":0.1,"pressure":1004.9,"uv_index":7.2,"wind_gusts":19.1,"aqi":58,"pm10":19.3,"pm2_5":17.3,"no2":11.7,"co":389.0,"o3":55.0,"so2":2.1,"mosquito_risk":6,"arthritis_risk":5,"migraine_risk":4,"frizz_risk":1,"updated_at":"2026-05-03T22:25:28.750610+05:30"},{"city":"Agartala","state":"Tripura","latitude":23.8315,"longitude":91.2868,"temp":21.8,"humidity":96,"rain":0.0,"pressure":1009.0,"uv_index":8.7,"wind_gusts":36.7,"aqi":60,"pm10":16.2,"pm2_5":13.7,"no2":15.2,"co":224.0,"o3":61.0,"so2":2.3,"mosquito_risk":3,"arthritis_risk":0,"migraine_risk":4,"frizz_risk":1,"updated_at":"2026-05-03T22:25:28.750616+05:30"},{"city":"Shillong","state":"Meghalaya","latitude":25.5788,"longitude":91.8933,"temp":13.6,"humidity":94,"rain":0.0,"pressure":856.9,"uv_index":6.5,"wind_gusts":24.8,"aqi":48,"pm10":20.7,"pm2_5":18.2,"no2":14.3,"co":465.0,"o3":59.0,"so2":1.5,"mosquito_risk":3,"arthritis_risk":10,"migraine_risk":7,"frizz_risk":0,"updated_at":"2026-05-03T22:25:28.750623+05:30"},{"city":"Imphal","state":"Manipur","latitude":24.817,"longitude":93.9368,"temp":17.9,"humidity":95,"rain":0.0,"pressure":925.5,"uv_index":9.15,"wind_gusts":37.8,"aqi":63,"pm10":48.2,"pm2_5":38.0,"no2":29.5,"co":762.0,"o3":35.0,"so2":5.6,"mosquito_risk":3,"arthritis_risk":10,"migraine_risk":7,"frizz_risk":1,"updated_at":"2026-05-03T22:25:28.750630+05:30"},{"city":"Aizawl","state":"Mizoram","latitude":23.7271,"longitude":92.7176,"temp":16.4,"humidity":95,"rain":0.1,"pressure":893.3,"uv_index":8.5,"wind_gusts":55.1,"aqi":41,"pm10":18.6,"pm2_5":14.8,"no2":9.6,"co":315.0,"o3":39.0,"so2":0.7,"mosquito_risk":6,"arthritis_risk":10,"migraine_risk":7,"frizz_risk":0,"updated_at":"2026-05-03T22:25:28.750636+05:30"},{"city":"Kohima","state":"Nagaland","latitude":25.6701,"longitude":94.1077,"temp":14.2,"humidity":92,"rain":0.0,"pressure":855.7,"uv_index":4.25,"wind_gusts":24.8,"aqi":43,"pm10":10.7,"pm2_5":8.6,"no2":9.2,"co":322.0,"o3":58.0,"so2":0.8,"mosquito_risk":3,"arthritis_risk":10,"migraine_risk":3,"frizz_risk":0,"updated_at":"2026-05-03T22:25:28.750643+05:30"},{"city":"Gangtok","state":"Sikkim","latitude":27.3314,"longitude":88.6138,"temp":12.8,"humidity":99,"rain":0.1,"pressure":838.1,"uv_index":7.95,"wind_gusts":42.1,"aqi":82,"pm10":13.7,"pm2_5":12.7,"no2":8.7,"co":475.0,"o3":113.0,"so2":1.7,"mosquito_risk":6,"arthritis_risk":10,"migraine_risk":7,"frizz_risk":0,"updated_at":"2026-05-03T22:25:28.750650+05:30"},{"city":"Siliguri","state":"West Bengal","latitude":26.7271,"longitude":88.3953,"temp":22.8,"humidity":77,"rain":0.0,"pressure":995.7,"uv_index":8.15,"wind_gusts":28.1,"aqi":85,"pm10":27.0,"pm2_5":24.6,"no2":14.7,"co":382.0,"o3":106.0,"so2":4.1,"mosquito_risk":3,"arthritis_risk":5,"migraine_risk":7,"frizz_risk":1,"updated_at":"2026-05-03T22:25:32.013417+05:30"},{"city":"Durgapur","state":"West Bengal","latitude":23.5204,"longitude":87.3119,"temp":23.8,"humidity":95,"rain":0.0,"pressure":995.6,"uv_index":8.9,"wind_gusts":32.8,"aqi":142,"pm10":64.5,"pm2_5":57.6,"no2":25.0,"co":404.0,"o3":88.0,"so2":28.3,"mosquito_risk":3,"arthritis_risk":5,"migraine_risk":7,"frizz_risk":1,"updated_at":"2026-05-03T22:25:32.013453+05:30"},{"city":"Asansol","state":"West Bengal","latitude":23.6739,"longitude":86.9524,"temp":23.8,"humidity":92,"rain":0.0,"pressure":994.3,"uv_index":8.95,"wind_gusts":29.2,"aqi":152,"pm10":68.0,"pm2_5":60.5,"no2":30.1,"co":465.0,"o3":94.0,"so2":48.9,"mosquito_risk":3,"arthritis_risk":5,"migraine_risk":7,"frizz_risk":1,"updated_at":"2026-05-03T22:25:32.013466+05:30"},{"city":"Pondicherry","state":"Puducherry","latitude":11.9139,"longitude":79.8145,"temp":30.6,"humidity":81,"rain":0.0,"pressure":1007.5,"uv_index":8.55,"wind_gusts":44.3,"aqi":161,"pm10":24.8,"pm2_5":19.1,"no2":5.3,"co":214.0,"o3":107.0,"so2":2.7,"mosquito_risk":3,"arthritis_risk":5,"migraine_risk":4,"frizz_risk":1,"updated_at":"2026-05-03T22:25:32.013477+05:30"},{"city":"Port Blair","state":"Andaman and Nicobar Islands","latitude":11.6234,"longitude":92.7265,"temp":27.7,"humidity":87,"rain":0.0,"pressure":1009.3,"uv_index":8.9,"wind_gusts":25.6,"aqi":27,"pm10":5.3,"pm2_5":3.8,"no2":0.7,"co":374.0,"o3":54.0,"so2":0.3,"mosquito_risk":7,"arthritis_risk":0,"migraine_risk":4,"frizz_risk":1,"updated_at":"2026-05-03T22:25:32.013487+05:30"},{"city":"Haridwar","state":"Uttarakhand","latitude":29.9457,"longitude":78.1642,"temp":23.6,"humidity":74,"rain":0.0,"pressure":973.0,"uv_index":7.35,"wind_gusts":40.0,"aqi":132,"pm10":120.1,"pm2_5":48.9,"no2":12.9,"co":421.0,"o3":113.0,"so2":10.5,"mosquito_risk":3,"arthritis_risk":5,"migraine_risk":7,"frizz_risk":1,"updated_at":"2026-05-03T22:25:32.013497+05:30"},{"city":"Rishikesh","state":"Uttarakhand","latitude":30.0869,"longitude":78.2676,"temp":21.8,"humidity":78,"rain":0.0,"pressure":965.8,"uv_index":7.45,"wind_gusts":37.4,"aqi":127,"pm10":145.3,"pm2_5":45.1,"no2":10.8,"co":473.0,"o3":115.0,"so2":6.9,"mosquito_risk":3,"arthritis_risk":5,"migraine_risk":7,"frizz_risk":1,"updated_at":"2026-05-03T22:25:32.013506+05:30"},{"city":"Nainital","state":"Uttarakhand","latitude":29.3919,"longitude":79.4542,"temp":11.4,"humidity":96,"rain":0.0,"pressure":803.4,"uv_index":8.4,"wind_gusts":34.9,"aqi":126,"pm10":84.3,"pm2_5":36.9,"no2":7.2,"co":384.0,"o3":111.0,"so2":3.7,"mosquito_risk":3,"arthritis_risk":10,"migraine_risk":7,"frizz_risk":0,"updated_at":"2026-05-03T22:25:32.013516+05:30"},{"city":"Mussoorie","state":"Uttarakhand","latitude":30.4599,"longitude":78.0664,"temp":11.6,"humidity":90,"rain":0.0,"pressure":800.7,"uv_index":7.3,"wind_gusts":53.3,"aqi":119,"pm10":133.2,"pm2_5":48.8,"no2":24.3,"co":397.0,"o3":99.0,"so2":13.0,"mosquito_risk":3,"arthritis_risk":10,"migraine_risk":7,"frizz_risk":0,"updated_at":"2026-05-03T22:25:32.013525+05:30"},{"city":"Dharamshala","state":"Himachal Pradesh","latitude":32.219,"longitude":76.3234,"temp":15.5,"humidity":74,"rain":0.0,"pressure":866.7,"uv_index":6.85,"wind_gusts":41.4,"aqi":116,"pm10":48.9,"pm2_5":23.2,"no2":12.3,"co":236.0,"o3":108.0,"so2":3.2,"mosquito_risk":3,"arthritis_risk":5,"migraine_risk":7,"frizz_risk":0,"updated_at":"2026-05-03T22:25:32.013533+05:30"},{"city":"Dalhousie","state":"Himachal Pradesh","latitude":32.5387,"longitude":75.971,"temp":9.6,"humidity":96,"rain":0.0,"pressure":800.9,"uv_index":7.95,"wind_gusts":48.2,"aqi":124,"pm10":53.1,"pm2_5":27.2,"no2":25.8,"co":307.0,"o3":104.0,"so2":4.7,"mosquito_risk":3,"arthritis_risk":10,"migraine_risk":7,"frizz_risk":0,"updated_at":"2026-05-03T22:25:32.013540+05:30"},{"city":"Patiala","state":"Punjab","latitude":30.3398,"longitude":76.3869,"temp":27.4,"humidity":55,"rain":0.0,"pressure":976.1,"uv_index":7.5,"wind_gusts":63.0,"aqi":773,"pm10":752.5,"pm2_5":111.1,"no2":10.3,"co":398.0,"o3":115.0,"so2":10.2,"mosquito_risk":4,"arthritis_risk":5,"migraine_risk":7,"frizz_risk":1,"updated_at":"2026-05-03T22:25:32.013548+05:30"},{"city":"Bhatinda","state":"Punjab","latitude":30.211,"longitude":74.9455,"temp":26.0,"humidity":56,"rain":0.0,"pressure":980.9,"uv_index":8.15,"wind_gusts":56.5,"aqi":404,"pm10":530.9,"pm2_5":99.9,"no2":5.0,"co":348.0,"o3":143.0,"so2":11.3,"mosquito_risk":4,"arthritis_risk":5,"migraine_risk":7,"frizz_risk":1,"updated_at":"2026-05-03T22:25:32.013556+05:30"},{"city":"Rohtak","state":"Haryana","latitude":28.8955,"longitude":76.6066,"temp":27.7,"humidity":57,"rain":0.0,"pressure":979.1,"uv_index":7.65,"wind_gusts":52.6,"aqi":760,"pm10":694.8,"pm2_5":100.8,"no2":12.5,"co":493.0,"o3":138.0,"so2":19.5,"mosquito_risk":4,"arthritis_risk":5,"migraine_risk":7,"frizz_risk":1,"updated_at":"2026-05-03T22:25:32.013563+05:30"},{"city":"Panipat","state":"Haryana","latitude":29.3909,"longitude":76.9635,"temp":26.5,"humidity":64,"rain":0.0,"pressure":978.2,"uv_index":7.45,"wind_gusts":54.0,"aqi":1237,"pm10":1959.5,"pm2_5":203.5,"no2":8.0,"co":469.0,"o3":135.0,"so2":11.3,"mosquito_risk":7,"arthritis_risk":5,"migraine_risk":7,"frizz_risk":1,"updated_at":"2026-05-03T22:25:32.013570+05:30"},{"city":"Mathura","state":"Uttar Pradesh","latitude":27.4924,"longitude":77.6737,"temp":28.0,"humidity":55,"rain":0.0,"pressure":983.9,"uv_index":7.9,"wind_gusts":60.8,"aqi":897,"pm10":1817.9,"pm2_5":204.0,"no2":12.2,"co":342.0,"o3":107.0,"so2":9.4,"mosquito_risk":4,"arthritis_risk":5,"migraine_risk":7,"frizz_risk":1,"updated_at":"2026-05-03T22:25:32.013577+05:30"},{"city":"Vrindavan","state":"Uttar Pradesh","latitude":27.5823,"longitude":77.7027,"temp":27.6,"humidity":57,"rain":0.0,"pressure":984.3,"uv_index":7.9,"wind_gusts":59.4,"aqi":897,"pm10":1817.9,"pm2_5":204.0,"no2":12.2,"co":362.0,"o3":107.0,"so2":9.4,"mosquito_risk":4,"arthritis_risk":5,"migraine_risk":7,"frizz_risk":1,"updated_at":"2026-05-03T22:25:32.013584+05:30"},{"city":"Ayodhya","state":"Uttar Pradesh","latitude":26.7922,"longitude":82.1998,"temp":26.0,"humidity":63,"rain":0.0,"pressure":995.6,"uv_index":8.25,"wind_gusts":40.7,"aqi":150,"pm10":50.4,"pm2_5":37.7,"no2":10.0,"co":325.0,"o3":123.0,"so2":6.0,"mosquito_risk":7,"arthritis_risk":5,"migraine_risk":7,"frizz_risk":1,"updated_at":"2026-05-03T22:25:32.013591+05:30"},{"city":"Ratlam","state":"Madhya Pradesh","latitude":23.3315,"longitude":75.0367,"temp":29.5,"humidity":36,"rain":0.0,"pressure":952.0,"uv_index":8.5,"wind_gusts":47.2,"aqi":88,"pm10":16.3,"pm2_5":11.1,"no2":2.3,"co":192.0,"o3":110.0,"so2":5.0,"mosquito_risk":4,"arthritis_risk":5,"migraine_risk":7,"frizz_risk":0,"updated_at":"2026-05-03T22:25:32.013598+05:30"},{"city":"Sagar","state":"Madhya Pradesh","latitude":23.8388,"longitude":78.7378,"temp":29.8,"humidity":35,"rain":0.0,"pressure":947.2,"uv_index":8.7,"wind_gusts":39.6,"aqi":70,"pm10":63.1,"pm2_5":23.1,"no2":4.5,"co":259.0,"o3":91.0,"so2":3.1,"mosquito_risk":4,"arthritis_risk":5,"migraine_risk":7,"frizz_risk":0,"updated_at":"2026-05-03T22:25:32.013605+05:30"},{"city":"Satna","state":"Madhya Pradesh","latitude":24.6005,"longitude":80.8322,"temp":28.8,"humidity":52,"rain":0.0,"pressure":969.2,"uv_index":8.7,"wind_gusts":27.7,"aqi":102,"pm10":47.7,"pm2_5":25.9,"no2":10.8,"co":273.0,"o3":102.0,"so2":6.1,"mosquito_risk":4,"arthritis_risk":5,"migraine_risk":7,"frizz_risk":1,"updated_at":"2026-05-03T22:25:32.013612+05:30"},{"city":"Akola","state":"Maharashtra","latitude":20.7002,"longitude":77.0082,"temp":33.1,"humidity":16,"rain":0.0,"pressure":972.4,"uv_index":8.85,"wind_gusts":41.4,"aqi":68,"pm10":25.8,"pm2_5":12.3,"no2":7.3,"co":195.0,"o3":97.0,"so2":9.9,"mosquito_risk":0,"arthritis_risk":5,"migraine_risk":7,"frizz_risk":0,"updated_at":"2026-05-03T22:25:32.013620+05:30"},{"city":"Amravati","state":"Maharashtra","latitude":20.9374,"longitude":77.7796,"temp":32.8,"humidity":15,"rain":0.0,"pressure":964.5,"uv_index":8.85,"wind_gusts":42.1,"aqi":66,"pm10":30.0,"pm2_5":13.1,"no2":7.8,"co":221.0,"o3":95.0,"so2":10.0,"mosquito_risk":0,"arthritis_risk":5,"migraine_risk":7,"frizz_risk":0,"updated_at":"2026-05-03T22:25:32.013628+05:30"},{"city":"Latur","state":"Maharashtra","latitude":18.4088,"longitude":76.5604,"temp":31.8,"humidity":17,"rain":0.0,"pressure":938.3,"uv_index":9.05,"wind_gusts":40.0,"aqi":63,"pm10":54.5,"pm2_5":24.8,"no2":12.8,"co":367.0,"o3":75.0,"so2":6.0,"mosquito_risk":0,"arthritis_risk":5,"migraine_risk":7,"frizz_risk":0,"updated_at":"2026-05-03T22:25:32.013635+05:30"},{"city":"Nanded","state":"Maharashtra","latitude":19.1383,"longitude":77.3091,"temp":32.2,"humidity":19,"rain":0.0,"pressure":965.9,"uv_index":9.0,"wind_gusts":36.0,"aqi":63,"pm10":48.9,"pm2_5":21.6,"no2":13.1,"co":276.0,"o3":72.0,"so2":3.6,"mosquito_risk":0,"arthritis_risk":5,"migraine_risk":7,"frizz_risk":0,"updated_at":"2026-05-03T22:25:32.013642+05:30"},{"city":"Gulbarga","state":"Karnataka","latitude":17.3297,"longitude":76.8343,"temp":33.7,"humidity":14,"rain":0.0,"pressure":956.3,"uv_index":9.1,"wind_gusts":41.4,"aqi":60,"pm10":61.0,"pm2_5":26.0,"no2":23.6,"co":245.0,"o3":57.0,"so2":4.4,"mosquito_risk":0,"arthritis_risk":5,"migraine_risk":7,"frizz_risk":0,"updated_at":"2026-05-03T22:25:32.013649+05:30"},{"city":"Bidar","state":"Karnataka","latitude":17.9104,"longitude":77.5199,"temp":30.0,"humidity":28,"rain":0.0,"pressure":933.9,"uv_index":9.15,"wind_gusts":37.4,"aqi":70,"pm10":71.5,"pm2_5":33.8,"no2":22.5,"co":489.0,"o3":62.0,"so2":5.4,"mosquito_risk":4,"arthritis_risk":5,"migraine_risk":7,"frizz_risk":0,"updated_at":"2026-05-03T22:25:32.013655+05:30"},{"city":"Hospet","state":"Karnataka","latitude":15.2689,"longitude":76.3909,"temp":28.9,"humidity":60,"rain":0.0,"pressure":955.6,"uv_index":9.2,"wind_gusts":36.7,"aqi":62,"pm10":41.8,"pm2_5":23.9,"no2":31.9,"co":237.0,"o3":53.0,"so2":4.4,"mosquito_risk":4,"arthritis_risk":5,"migraine_risk":7,"frizz_risk":1,"updated_at":"2026-05-03T22:25:32.013662+05:30"},{"city":"Tirupur","state":"Tamil Nadu","latitude":11.1085,"longitude":77.3411,"temp":27.7,"humidity":71,"rain":0.0,"pressure":975.5,"uv_index":9.35,"wind_gusts":51.8,"aqi":71,"pm10":29.2,"pm2_5":21.4,"no2":15.9,"co":205.0,"o3":66.0,"so2":5.3,"mosquito_risk":7,"arthritis_risk":5,"migraine_risk":7,"frizz_risk":1,"updated_at":"2026-05-03T22:25:32.013669+05:30"},{"city":"Alappuzha","state":"Kerala","latitude":9.4981,"longitude":76.3388,"temp":27.9,"humidity":87,"rain":0.0,"pressure":1010.3,"uv_index":9.0,"wind_gusts":36.0,"aqi":83,"pm10":51.2,"pm2_5":32.6,"no2":21.4,"co":132.0,"o3":51.0,"so2":4.2,"mosquito_risk":7,"arthritis_risk":0,"migraine_risk":4,"frizz_risk":1,"updated_at":"2026-05-03T22:25:32.013675+05:30"},{"city":"Munnar","state":"Kerala","latitude":10.0889,"longitude":77.0595,"temp":17.4,"humidity":99,"rain":0.0,"pressure":858.1,"uv_index":9.3,"wind_gusts":28.1,"aqi":68,"pm10":28.3,"pm2_5":23.1,"no2":9.4,"co":308.0,"o3":66.0,"so2":1.7,"mosquito_risk":3,"arthritis_risk":10,"migraine_risk":7,"frizz_risk":1,"updated_at":"2026-05-03T22:25:32.013682+05:30"},{"city":"Silchar","state":"Assam","latitude":24.8333,"longitude":92.7789,"temp":20.8,"humidity":98,"rain":0.0,"pressure":1008.9,"uv_index":8.35,"wind_gusts":36.4,"aqi":57,"pm10":42.6,"pm2_5":29.3,"no2":10.1,"co":355.0,"o3":79.0,"so2":5.7,"mosquito_risk":3,"arthritis_risk":0,"migraine_risk":4,"frizz_risk":1,"updated_at":"2026-05-03T22:25:32.013689+05:30"},{"city":"Dibrugarh","state":"Assam","latitude":27.4728,"longitude":94.912,"temp":22.0,"humidity":90,"rain":0.0,"pressure":999.4,"uv_index":8.2,"wind_gusts":21.6,"aqi":60,"pm10":22.8,"pm2_5":22.4,"no2":19.6,"co":661.0,"o3":28.0,"so2":1.9,"mosquito_risk":3,"arthritis_risk":5,"migraine_risk":7,"frizz_risk":1,"updated_at":"2026-05-03T22:25:32.013696+05:30"}]