[{"city":"Delhi","state":"Delhi","latitude":28.6139,"longitude":77.209,"temp":31.2,"humidity":34,"rain":0.0,"pressure":982.1,"uv_index":7.3,"wind_gusts":24.5,"aqi":195,"pm10":235.6,"pm2_5":60.1,"mosquito_risk":0,"arthritis_risk":5,"migraine_risk":7,"frizz_risk":0,"updated_at":"2026-04-16T21:12:52.798927+05:30"},{"city":"Mumbai","state":"Maharashtra","latitude":19.076,"longitude":72.8777,"temp":28.8,"humidity":75,"rain":0.0,"pressure":1007.9,"uv_index":8.0,"wind_gusts":19.1,"aqi":79,"pm10":55.3,"pm2_5":23.9,"mosquito_risk":7,"arthritis_risk":5,"migraine_risk":4,"frizz_risk":1,"updated_at":"2026-04-16T21:12:52.798970+05:30"},{"city":"Bangalore","state":"Karnataka","latitude":12.9716,"longitude":77.5946,"temp":29.0,"humidity":38,"rain":0.0,"pressure":911.8,"uv_index":9.6,"wind_gusts":32.8,"aqi":143,"pm10":31.5,"pm2_5":28.5,"mosquito_risk":4,"arthritis_risk":5,"migraine_risk":7,"frizz_risk":0,"updated_at":"2026-04-16T21:12:52.798982+05:30"},{"city":"Hyderabad","state":"Telangana","latitude":17.385,"longitude":78.4867,"temp":32.0,"humidity":42,"rain":0.0,"pressure":952.4,"uv_index":9.2,"wind_gusts":41.8,"aqi":159,"pm10":52.2,"pm2_5":46.8,"mosquito_risk":0,"arthritis_risk":5,"migraine_risk":7,"frizz_risk":1,"updated_at":"2026-04-16T21:12:52.798991+05:30"},{"city":"Chennai","state":"Tamil Nadu","latitude":13.0827,"longitude":80.2707,"temp":29.4,"humidity":81,"rain":0.0,"pressure":1006.7,"uv_index":9.3,"wind_gusts":34.2,"aqi":39,"pm10":10.7,"pm2_5":7.6,"mosquito_risk":7,"arthritis_risk":5,"migraine_risk":4,"frizz_risk":1,"updated_at":"2026-04-16T21:12:52.798999+05:30"},{"city":"Kolkata","state":"West Bengal","latitude":22.5726,"longitude":88.3639,"temp":27.1,"humidity":89,"rain":0.0,"pressure":1006.5,"uv_index":8.85,"wind_gusts":30.6,"aqi":77,"pm10":26.0,"pm2_5":22.3,"mosquito_risk":7,"arthritis_risk":5,"migraine_risk":4,"frizz_risk":1,"updated_at":"2026-04-16T21:12:52.799005+05:30"},{"city":"Pune","state":"Maharashtra","latitude":18.5204,"longitude":73.8567,"temp":28.0,"humidity":49,"rain":0.0,"pressure":947.9,"uv_index":8.6,"wind_gusts":46.4,"aqi":166,"pm10":31.3,"pm2_5":27.2,"mosquito_risk":4,"arthritis_risk":5,"migraine_risk":7,"frizz_risk":1,"updated_at":"2026-04-16T21:12:52.799015+05:30"},{"city":"Ahmedabad","state":"Gujarat","latitude":23.0225,"longitude":72.5714,"temp":33.2,"humidity":37,"rain":0.0,"pressure":1000.4,"uv_index":8.15,"wind_gusts":18.0,"aqi":109,"pm10":61.5,"pm2_5":34.7,"mosquito_risk":0,"arthritis_risk":5,"migraine_risk":4,"frizz_risk":1,"updated_at":"2026-04-16T21:12:52.799021+05:30"},{"city":"Jaipur","state":"Rajasthan","latitude":26.9124,"longitude":75.7873,"temp":33.4,"humidity":22,"rain":0.0,"pressure":958.6,"uv_index":7.95,"wind_gusts":26.6,"aqi":131,"pm10":134.6,"pm2_5":37.1,"mosquito_risk":0,"arthritis_risk":5,"migraine_risk":7,"frizz_risk":0,"updated_at":"2026-04-16T21:12:52.799029+05:30"},{"city":"Lucknow","state":"Uttar Pradesh","latitude":26.8467,"longitude":80.9462,"temp":31.5,"humidity":32,"rain":0.0,"pressure":992.3,"uv_index":7.8,"wind_gusts":23.8,"aqi":122,"pm10":95.2,"pm2_5":35.3,"mosquito_risk":0,"arthritis_risk":5,"migraine_risk":7,"frizz_risk":0,"updated_at":"2026-04-16T21:12:52.799049+05:30"},{"city":"Kanpur","state":"Uttar Pradesh","latitude":26.4499,"longitude":80.3319,"temp":29.3,"humidity":41,"rain":0.0,"pressure":990.5,"uv_index":7.8,"wind_gusts":21.2,"aqi":146,"pm10":236.1,"pm2_5":44.2,"mosquito_risk":4,"arthritis_risk":5,"migraine_risk":7,"frizz_risk":0,"updated_at":"2026-04-16T21:12:52.799057+05:30"},{"city":"Chandigarh","state":"Chandigarh","latitude":30.7333,"longitude":76.7794,"temp":26.2,"humidity":42,"rain":0.0,"pressure":968.2,"uv_index":7.1,"wind_gusts":25.6,"aqi":136,"pm10":22.7,"pm2_5":18.2,"mosquito_risk":4,"arthritis_risk":5,"migraine_risk":7,"frizz_risk":0,"updated_at":"2026-04-16T21:12:52.799065+05:30"},{"city":"Srinagar","state":"Jammu and Kashmir","latitude":34.0837,"longitude":74.7973,"temp":13.3,"humidity":80,"rain":0.0,"pressure":842.7,"uv_index":8.0,"wind_gusts":21.6,"aqi":101,"pm10":58.7,"pm2_5":37.8,"mosquito_risk":3,"arthritis_risk":5,"migraine_risk":7,"frizz_risk":0,"updated_at":"2026-04-16T21:12:52.799071+05:30"},{"city":"Jammu","state":"Jammu and Kashmir","latitude":32.7266,"longitude":74.857,"temp":25.9,"humidity":60,"rain":0.0,"pressure":972.3,"uv_index":7.6,"wind_gusts":39.2,"aqi":96,"pm10":34.3,"pm2_5":25.2,"mosquito_risk":4,"arthritis_risk":5,"migraine_risk":7,"frizz_risk":1,"updated_at":"2026-04-16T21:12:52.799077+05:30"},{"city":"Amritsar","state":"Punjab","latitude":31.634,"longitude":74.8723,"temp":25.5,"humidity":62,"rain":0.0,"pressure":979.9,"uv_index":7.65,"wind_gusts":34.9,"aqi":133,"pm10":22.6,"pm2_5":17.1,"mosquito_risk":7,"arthritis_risk":5,"migraine_risk":7,"frizz_risk":1,"updated_at":"2026-04-16T21:12:52.799083+05:30"},{"city":"Ludhiana","state":"Punjab","latitude":30.901,"longitude":75.8573,"temp":28.6,"humidity":39,"rain":0.0,"pressure":978.5,"uv_index":7.15,"wind_gusts":24.8,"aqi":107,"pm10":33.4,"pm2_5":28.3,"mosquito_risk":4,"arthritis_risk":5,"migraine_risk":7,"frizz_risk":0,"updated_at":"2026-04-16T21:12:52.799089+05:30"},{"city":"Jalandhar","state":"Punjab","latitude":31.326,"longitude":75.5762,"temp":26.9,"humidity":50,"rain":0.0,"pressure":979.5,"uv_index":7.2,"wind_gusts":25.6,"aqi":110,"pm10":30.2,"pm2_5":18.0,"mosquito_risk":4,"arthritis_risk":5,"migraine_risk":7,"frizz_risk":0,"updated_at":"2026-04-16T21:12:52.799096+05:30"},{"city":"Dehradun","state":"Uttarakhand","latitude":30.6284,"longitude":78.0322,"temp":16.7,"humidity":59,"rain":0.0,"pressure":830.8,"uv_index":7.1,"wind_gusts":31.0,"aqi":122,"pm10":18.8,"pm2_5":11.9,"mosquito_risk":0,"arthritis_risk":5,"migraine_risk":7,"frizz_risk":0,"updated_at":"2026-04-16T21:12:52.799101+05:30"},{"city":"Shimla","state":"Himachal Pradesh","latitude":31.1048,"longitude":77.1734,"temp":14.9,"humidity":47,"rain":0.0,"pressure":785.4,"uv_index":7.4,"wind_gusts":41.0,"aqi":139,"pm10":16.2,"pm2_5":11.0,"mosquito_risk":0,"arthritis_risk":5,"migraine_risk":7,"frizz_risk":0,"updated_at":"2026-04-16T21:12:52.799107+05:30"},{"city":"Manali","state":"Himachal Pradesh","latitude":32.2396,"longitude":77.1887,"temp":16.6,"humidity":70,"rain":0.0,"pressure":823.0,"uv_index":8.7,"wind_gusts":32.0,"aqi":151,"pm10":14.3,"pm2_5":9.0,"mosquito_risk":3,"arthritis_risk":5,"migraine_risk":7,"frizz_risk":0,"updated_at":"2026-04-16T21:12:52.799113+05:30"},{"city":"Gurgaon","state":"Haryana","latitude":28.4595,"longitude":77.0266,"temp":27.8,"humidity":44,"rain":0.0,"pressure":980.2,"uv_index":7.45,"wind_gusts":20.9,"aqi":449,"pm10":516.0,"pm2_5":82.7,"mosquito_risk":4,"arthritis_risk":5,"migraine_risk":7,"frizz_risk":0,"updated_at":"2026-04-16T21:12:52.799119+05:30"},{"city":"Noida","state":"Uttar Pradesh","latitude":28.5355,"longitude":77.391,"temp":30.7,"humidity":38,"rain":0.0,"pressure":983.6,"uv_index":7.35,"wind_gusts":25.6,"aqi":449,"pm10":516.0,"pm2_5":82.7,"mosquito_risk":0,"arthritis_risk":5,"migraine_risk":7,"frizz_risk":0,"updated_at":"2026-04-16T21:12:52.799124+05:30"},{"city":"Ghaziabad","state":"Uttar Pradesh","latitude":28.6692,"longitude":77.4538,"temp":28.7,"humidity":39,"rain":0.0,"pressure":981.5,"uv_index":7.35,"wind_gusts":22.7,"aqi":131,"pm10":168.1,"pm2_5":54.4,"mosquito_risk":4,"arthritis_risk":5,"migraine_risk":7,"frizz_risk":0,"updated_at":"2026-04-16T21:12:52.799130+05:30"},{"city":"Faridabad","state":"Haryana","latitude":28.4089,"longitude":77.3178,"temp":30.1,"humidity":40,"rain":0.0,"pressure":982.8,"uv_index":7.4,"wind_gusts":29.9,"aqi":449,"pm10":516.0,"pm2_5":82.7,"mosquito_risk":0,"arthritis_risk":5,"migraine_risk":7,"frizz_risk":0,"updated_at":"2026-04-16T21:12:52.799135+05:30"},{"city":"Meerut","state":"Uttar Pradesh","latitude":28.9845,"longitude":77.7064,"temp":27.4,"humidity":38,"rain":0.0,"pressure":980.4,"uv_index":7.2,"wind_gusts":28.1,"aqi":131,"pm10":168.1,"pm2_5":54.4,"mosquito_risk":4,"arthritis_risk":5,"migraine_risk":7,"frizz_risk":0,"updated_at":"2026-04-16T21:12:52.799140+05:30"},{"city":"Agra","state":"Uttar Pradesh","latitude":27.1767,"longitude":78.0081,"temp":29.6,"humidity":40,"rain":0.0,"pressure":986.4,"uv_index":7.7,"wind_gusts":25.6,"aqi":437,"pm10":352.0,"pm2_5":83.6,"mosquito_risk":4,"arthritis_risk":5,"migraine_risk":7,"frizz_risk":0,"updated_at":"2026-04-16T21:12:52.799145+05:30"},{"city":"Varanasi","state":"Uttar Pradesh","latitude":25.3176,"longitude":82.9739,"temp":29.9,"humidity":28,"rain":0.0,"pressure":996.1,"uv_index":8.4,"wind_gusts":20.5,"aqi":146,"pm10":156.0,"pm2_5":55.6,"mosquito_risk":4,"arthritis_risk":5,"migraine_risk":7,"frizz_risk":0,"updated_at":"2026-04-16T21:12:52.799152+05:30"},{"city":"Prayagraj","state":"Uttar Pradesh","latitude":25.4358,"longitude":81.8463,"temp":30.7,"humidity":37,"rain":0.0,"pressure":994.7,"uv_index":8.3,"wind_gusts":29.5,"aqi":146,"pm10":134.1,"pm2_5":44.1,"mosquito_risk":0,"arthritis_risk":5,"migraine_risk":7,"frizz_risk":0,"updated_at":"2026-04-16T21:12:52.799157+05:30"},{"city":"Gorakhpur","state":"Uttar Pradesh","latitude":26.7606,"longitude":83.3732,"temp":29.0,"humidity":47,"rain":0.0,"pressure":996.0,"uv_index":8.25,"wind_gusts":31.3,"aqi":167,"pm10":113.2,"pm2_5":58.2,"mosquito_risk":4,"arthritis_risk":5,"migraine_risk":7,"frizz_risk":1,"updated_at":"2026-04-16T21:12:52.799163+05:30"},{"city":"Bareilly","state":"Uttar Pradesh","latitude":28.367,"longitude":79.4304,"temp":28.3,"humidity":43,"rain":0.0,"pressure":985.7,"uv_index":7.6,"wind_gusts":25.6,"aqi":122,"pm10":37.3,"pm2_5":27.2,"mosquito_risk":4,"arthritis_risk":5,"migraine_risk":7,"frizz_risk":0,"updated_at":"2026-04-16T21:12:52.799168+05:30"},{"city":"Aligarh","state":"Uttar Pradesh","latitude":27.8974,"longitude":78.088,"temp":28.8,"humidity":34,"rain":0.0,"pressure":984.4,"uv_index":7.5,"wind_gusts":28.8,"aqi":185,"pm10":241.2,"pm2_5":69.4,"mosquito_risk":4,"arthritis_risk":5,"migraine_risk":7,"frizz_risk":0,"updated_at":"2026-04-16T21:12:52.799173+05:30"},{"city":"Moradabad","state":"Uttar Pradesh","latitude":28.8386,"longitude":78.7733,"temp":26.7,"humidity":43,"rain":0.0,"pressure":982.7,"uv_index":7.45,"wind_gusts":27.0,"aqi":128,"pm10":48.3,"pm2_5":37.6,"mosquito_risk":4,"arthritis_risk":5,"migraine_risk":7,"frizz_risk":0,"updated_at":"2026-04-16T21:12:52.799180+05:30"},{"city":"Saharanpur","state":"Uttar Pradesh","latitude":29.9637,"longitude":77.546,"temp":27.8,"humidity":43,"rain":0.0,"pressure":974.8,"uv_index":7.0,"wind_gusts":26.3,"aqi":116,"pm10":50.9,"pm2_5":27.1,"mosquito_risk":4,"arthritis_risk":5,"migraine_risk":7,"frizz_risk":0,"updated_at":"2026-04-16T21:12:52.799184+05:30"},{"city":"Jhansi","state":"Uttar Pradesh","latitude":25.4484,"longitude":78.5685,"temp":31.2,"humidity":32,"rain":0.0,"pressure":976.7,"uv_index":8.2,"wind_gusts":32.4,"aqi":143,"pm10":127.6,"pm2_5":28.7,"mosquito_risk":0,"arthritis_risk":5,"migraine_risk":7,"frizz_risk":0,"updated_at":"2026-04-16T21:12:56.149572+05:30"},{"city":"Surat","state":"Gujarat","latitude":21.1702,"longitude":72.8311,"temp":27.4,"humidity":79,"rain":0.0,"pressure":1006.0,"uv_index":7.8,"wind_gusts":27.7,"aqi":82,"pm10":47.7,"pm2_5":31.4,"mosquito_risk":7,"arthritis_risk":5,"migraine_risk":4,"frizz_risk":1,"updated_at":"2026-04-16T21:12:56.149602+05:30"},{"city":"Vadodara","state":"Gujarat","latitude":22.3072,"longitude":73.1812,"temp":30.6,"humidity":52,"rain":0.0,"pressure":1002.6,"uv_index":7.9,"wind_gusts":23.8,"aqi":143,"pm10":39.9,"pm2_5":29.7,"mosquito_risk":0,"arthritis_risk":5,"migraine_risk":4,"frizz_risk":1,"updated_at":"2026-04-16T21:12:56.149611+05:30"},{"city":"Rajkot","state":"Gujarat","latitude":22.3039,"longitude":70.8022,"temp":28.3,"humidity":50,"rain":0.0,"pressure":993.7,"uv_index":7.75,"wind_gusts":33.1,"aqi":101,"pm10":59.4,"pm2_5":17.8,"mosquito_risk":4,"arthritis_risk":5,"migraine_risk":7,"frizz_risk":1,"updated_at":"2026-04-16T21:12:56.149617+05:30"},{"city":"Thane","state":"Maharashtra","latitude":19.2183,"longitude":72.9781,"temp":27.0,"humidity":78,"rain":0.0,"pressure":1007.4,"uv_index":8.0,"wind_gusts":31.0,"aqi":79,"pm10":55.3,"pm2_5":23.9,"mosquito_risk":7,"arthritis_risk":5,"migraine_risk":4,"frizz_risk":1,"updated_at":"2026-04-16T21:12:56.149623+05:30"},{"city":"Nagpur","state":"Maharashtra","latitude":21.1458,"longitude":79.0882,"temp":31.0,"humidity":36,"rain":0.0,"pressure":970.6,"uv_index":8.85,"wind_gusts":22.7,"aqi":122,"pm10":23.1,"pm2_5":17.7,"mosquito_risk":0,"arthritis_risk":5,"migraine_risk":7,"frizz_risk":0,"updated_at":"2026-04-16T21:12:56.149629+05:30"},{"city":"Nashik","state":"Maharashtra","latitude":19.9975,"longitude":73.7898,"temp":26.6,"humidity":54,"rain":0.0,"pressure":945.3,"uv_index":8.3,"wind_gusts":32.0,"aqi":70,"pm10":21.5,"pm2_5":13.9,"mosquito_risk":4,"arthritis_risk":5,"migraine_risk":7,"frizz_risk":1,"updated_at":"2026-04-16T21:12:56.149634+05:30"},{"city":"Aurangabad","state":"Maharashtra","latitude":19.8762,"longitude":75.3433,"temp":31.7,"humidity":27,"rain":0.0,"pressure":943.3,"uv_index":8.95,"wind_gusts":31.3,"aqi":95,"pm10":15.7,"pm2_5":12.1,"mosquito_risk":0,"arthritis_risk":5,"migraine_risk":7,"frizz_risk":0,"updated_at":"2026-04-16T21:12:56.149640+05:30"},{"city":"Solapur","state":"Maharashtra","latitude":17.6599,"longitude":75.9064,"temp":33.0,"humidity":23,"rain":0.0,"pressure":955.1,"uv_index":9.05,"wind_gusts":27.0,"aqi":117,"pm10":31.4,"pm2_5":24.3,"mosquito_risk":0,"arthritis_risk":5,"migraine_risk":7,"frizz_risk":0,"updated_at":"2026-04-16T21:12:56.149646+05:30"},{"city":"Kolhapur","state":"Maharashtra","latitude":16.705,"longitude":74.2433,"temp":25.0,"humidity":75,"rain":0.0,"pressure":947.6,"uv_index":9.0,"wind_gusts":43.2,"aqi":114,"pm10":18.6,"pm2_5":15.7,"mosquito_risk":7,"arthritis_risk":5,"migraine_risk":7,"frizz_risk":1,"updated_at":"2026-04-16T21:12:56.149652+05:30"},{"city":"Goa","state":"Goa","latitude":15.2993,"longitude":74.124,"temp":28.2,"humidity":78,"rain":0.0,"pressure":997.4,"uv_index":9.0,"wind_gusts":28.4,"aqi":73,"pm10":27.2,"pm2_5":18.0,"mosquito_risk":7,"arthritis_risk":5,"migraine_risk":7,"frizz_risk":1,"updated_at":"2026-04-16T21:12:56.149659+05:30"},{"city":"Jodhpur","state":"Rajasthan","latitude":26.2389,"longitude":73.0243,"temp":31.7,"humidity":34,"rain":0.0,"pressure":980.9,"uv_index":7.55,"wind_gusts":31.7,"aqi":106,"pm10":120.1,"pm2_5":26.7,"mosquito_risk":0,"arthritis_risk":5,"migraine_risk":7,"frizz_risk":0,"updated_at":"2026-04-16T21:12:56.149665+05:30"},{"city":"Udaipur","state":"Rajasthan","latitude":24.5854,"longitude":73.7125,"temp":31.1,"humidity":36,"rain":0.0,"pressure":946.6,"uv_index":8.7,"wind_gusts":26.6,"aqi":90,"pm10":43.5,"pm2_5":18.2,"mosquito_risk":0,"arthritis_risk":5,"migraine_risk":7,"frizz_risk":0,"updated_at":"2026-04-16T21:12:56.149670+05:30"},{"city":"Kota","state":"Rajasthan","latitude":25.2138,"longitude":75.8648,"temp":33.3,"humidity":30,"rain":0.0,"pressure":976.8,"uv_index":8.2,"wind_gusts":14.8,"aqi":151,"pm10":76.4,"pm2_5":29.6,"mosquito_risk":0,"arthritis_risk":5,"migraine_risk":7,"frizz_risk":0,"updated_at":"2026-04-16T21:12:56.149676+05:30"},{"city":"Bikaner","state":"Rajasthan","latitude":28.0229,"longitude":73.3119,"temp":34.8,"humidity":24,"rain":0.0,"pressure":979.5,"uv_index":7.5,"wind_gusts":23.0,"aqi":108,"pm10":67.1,"pm2_5":18.2,"mosquito_risk":0,"arthritis_risk":5,"migraine_risk":7,"frizz_risk":0,"updated_at":"2026-04-16T21:12:56.149682+05:30"},{"city":"Ajmer","state":"Rajasthan","latitude":26.4499,"longitude":74.6399,"temp":31.9,"humidity":33,"rain":0.0,"pressure":953.5,"uv_index":8.15,"wind_gusts":26.6,"aqi":126,"pm10":70.8,"pm2_5":28.6,"mosquito_risk":0,"arthritis_risk":5,"migraine_risk":7,"frizz_risk":0,"updated_at":"2026-04-16T21:12:56.149687+05:30"},{"city":"Gwalior","state":"Madhya Pradesh","latitude":26.2183,"longitude":78.1828,"temp":32.8,"humidity":28,"rain":0.0,"pressure":982.0,"uv_index":7.95,"wind_gusts":34.6,"aqi":141,"pm10":139.2,"pm2_5":31.8,"mosquito_risk":0,"arthritis_risk":5,"migraine_risk":7,"frizz_risk":0,"updated_at":"2026-04-16T21:12:56.149693+05:30"},{"city":"Indore","state":"Madhya Pradesh","latitude":22.7196,"longitude":75.8577,"temp":29.7,"humidity":47,"rain":0.0,"pressure":947.3,"uv_index":8.55,"wind_gusts":25.9,"aqi":106,"pm10":50.1,"pm2_5":30.3,"mosquito_risk":4,"arthritis_risk":5,"migraine_risk":7,"frizz_risk":1,"updated_at":"2026-04-16T21:12:56.149698+05:30"},{"city":"Bhopal","state":"Madhya Pradesh","latitude":23.2599,"longitude":77.4126,"temp":33.7,"humidity":38,"rain":0.0,"pressure":952.3,"uv_index":8.55,"wind_gusts":20.9,"aqi":106,"pm10":43.3,"pm2_5":25.7,"mosquito_risk":0,"arthritis_risk":5,"migraine_risk":7,"frizz_risk":1,"updated_at":"2026-04-16T21:12:56.149704+05:30"},{"city":"Jabalpur","state":"Madhya Pradesh","latitude":23.1815,"longitude":79.9864,"temp":31.2,"humidity":38,"rain":0.0,"pressure":960.0,"uv_index":8.7,"wind_gusts":22.7,"aqi":146,"pm10":47.4,"pm2_5":27.4,"mosquito_risk":0,"arthritis_risk":5,"migraine_risk":7,"frizz_risk":0,"updated_at":"2026-04-16T21:12:56.149709+05:30"},{"city":"Ujjain","state":"Madhya Pradesh","latitude":23.1765,"longitude":75.7885,"temp":30.1,"humidity":46,"rain":0.0,"pressure":952.9,"uv_index":8.5,"wind_gusts":27.0,"aqi":92,"pm10":60.3,"pm2_5":39.8,"mosquito_risk":0,"arthritis_risk":5,"migraine_risk":7,"frizz_risk":1,"updated_at":"2026-04-16T21:12:56.149716+05:30"},{"city":"Visakhapatnam","state":"Andhra Pradesh","latitude":17.6868,"longitude":83.2185,"temp":28.4,"humidity":84,"rain":0.0,"pressure":1003.5,"uv_index":9.15,"wind_gusts":43.9,"aqi":47,"pm10":13.2,"pm2_5":10.2,"mosquito_risk":7,"arthritis_risk":5,"migraine_risk":4,"frizz_risk":1,"updated_at":"2026-04-16T21:12:56.149721+05:30"},{"city":"Vijayawada","state":"Andhra Pradesh","latitude":16.5062,"longitude":80.648,"temp":28.7,"humidity":76,"rain":0.0,"pressure":1001.8,"uv_index":9.2,"wind_gusts":29.5,"aqi":48,"pm10":13.9,"pm2_5":11.7,"mosquito_risk":7,"arthritis_risk":5,"migraine_risk":4,"frizz_risk":1,"updated_at":"2026-04-16T21:12:56.149727+05:30"},{"city":"Guntur","state":"Andhra Pradesh","latitude":16.3067,"longitude":80.4365,"temp":28.2,"humidity":83,"rain":0.0,"pressure":1003.1,"uv_index":9.2,"wind_gusts":32.4,"aqi":82,"pm10":15.7,"pm2_5":13.9,"mosquito_risk":7,"arthritis_risk":5,"migraine_risk":4,"frizz_risk":1,"updated_at":"2026-04-16T21:12:56.149733+05:30"},{"city":"Nellore","state":"Andhra Pradesh","latitude":14.4426,"longitude":79.9865,"temp":29.3,"humidity":79,"rain":0.0,"pressure":1004.7,"uv_index":9.25,"wind_gusts":34.2,"aqi":95,"pm10":12.4,"pm2_5":10.3,"mosquito_risk":7,"arthritis_risk":5,"migraine_risk":4,"frizz_risk":1,"updated_at":"2026-04-16T21:12:56.149739+05:30"},{"city":"Kurnool","state":"Andhra Pradesh","latitude":15.8281,"longitude":78.0373,"temp":34.8,"humidity":40,"rain":0.0,"pressure":975.5,"uv_index":9.2,"wind_gusts":31.0,"aqi":159,"pm10":46.2,"pm2_5":40.0,"mosquito_risk":0,"arthritis_risk":5,"migraine_risk":7,"frizz_risk":1,"updated_at":"2026-04-16T21:12:56.149745+05:30"},{"city":"Kakinada","state":"Andhra Pradesh","latitude":16.9891,"longitude":82.2475,"temp":28.4,"humidity":81,"rain":0.0,"pressure":1007.2,"uv_index":9.15,"wind_gusts":34.9,"aqi":29,"pm10":10.2,"pm2_5":7.0,"mosquito_risk":7,"arthritis_risk":5,"migraine_risk":4,"frizz_risk":1,"updated_at":"2026-04-16T21:12:56.149751+05:30"},{"city":"Tirupati","state":"Andhra Pradesh","latitude":13.6288,"longitude":79.4192,"temp":30.8,"humidity":61,"rain":0.0,"pressure":991.3,"uv_index":9.35,"wind_gusts":33.8,"aqi":116,"pm10":15.8,"pm2_5":14.7,"mosquito_risk":3,"arthritis_risk":5,"migraine_risk":7,"frizz_risk":1,"updated_at":"2026-04-16T21:12:56.149757+05:30"},{"city":"Warangal","state":"Telangana","latitude":17.9689,"longitude":79.5941,"temp":32.0,"humidity":54,"rain":0.0,"pressure":977.0,"uv_index":9.1,"wind_gusts":34.2,"aqi":134,"pm10":32.2,"pm2_5":30.5,"mosquito_risk":0,"arthritis_risk":5,"migraine_risk":7,"frizz_risk":1,"updated_at":"2026-04-16T21:12:56.149762+05:30"},{"city":"Nizamabad","state":"Telangana","latitude":18.6725,"longitude":78.0941,"temp":33.5,"humidity":30,"rain":0.0,"pressure":963.3,"uv_index":9.05,"wind_gusts":25.9,"aqi":116,"pm10":41.3,"pm2_5":32.0,"mosquito_risk":0,"arthritis_risk":5,"migraine_risk":7,"frizz_risk":0,"updated_at":"2026-04-16T21:12:56.149768+05:30"},{"city":"Mysore","state":"Karnataka","latitude":12.2958,"longitude":76.6396,"temp":26.4,"humidity":74,"rain":0.0,"pressure":928.5,"uv_index":9.5,"wind_gusts":43.6,"aqi":133,"pm10":31.1,"pm2_5":27.8,"mosquito_risk":7,"arthritis_risk":5,"migraine_risk":7,"frizz_risk":1,"updated_at":"2026-04-16T21:12:56.149773+05:30"},{"city":"Mangalore","state":"Karnataka","latitude":12.9141,"longitude":74.856,"temp":30.0,"humidity":78,"rain":0.0,"pressure":1006.3,"uv_index":8.7,"wind_gusts":21.6,"aqi":88,"pm10":53.0,"pm2_5":24.2,"mosquito_risk":7,"arthritis_risk":5,"migraine_risk":4,"frizz_risk":1,"updated_at":"2026-04-16T21:12:56.149778+05:30"},{"city":"Hubli-Dharwad","state":"Karnataka","latitude":15.3647,"longitude":75.124,"temp":26.6,"humidity":73,"rain":0.0,"pressure":940.3,"uv_index":9.2,"wind_gusts":33.5,"aqi":128,"pm10":22.4,"pm2_5":15.3,"mosquito_risk":7,"arthritis_risk":5,"migraine_risk":7,"frizz_risk":1,"updated_at":"2026-04-16T21:12:56.149783+05:30"},{"city":"Belgaum","state":"Karnataka","latitude":15.8497,"longitude":74.4977,"temp":24.0,"humidity":87,"rain":0.0,"pressure":925.2,"uv_index":9.25,"wind_gusts":36.0,"aqi":110,"pm10":18.1,"pm2_5":14.3,"mosquito_risk":3,"arthritis_risk":5,"migraine_risk":7,"frizz_risk":1,"updated_at":"2026-04-16T21:12:59.505876+05:30"},{"city":"Coimbatore","state":"Tamil Nadu","latitude":11.0168,"longitude":76.9558,"temp":26.7,"humidity":77,"rain":0.0,"pressure":961.8,"uv_index":9.45,"wind_gusts":46.4,"aqi":125,"pm10":39.8,"pm2_5":35.7,"mosquito_risk":7,"arthritis_risk":5,"migraine_risk":7,"frizz_risk":1,"updated_at":"2026-04-16T21:12:59.505906+05:30"},{"city":"Madurai","state":"Tamil Nadu","latitude":9.9252,"longitude":78.1198,"temp":30.3,"humidity":66,"rain":0.0,"pressure":993.0,"uv_index":9.25,"wind_gusts":52.6,"aqi":89,"pm10":18.3,"pm2_5":16.4,"mosquito_risk":3,"arthritis_risk":5,"migraine_risk":7,"frizz_risk":1,"updated_at":"2026-04-16T21:12:59.505915+05:30"},{"city":"Trichy","state":"Tamil Nadu","latitude":10.7905,"longitude":78.7047,"temp":30.8,"humidity":66,"rain":0.0,"pressure":999.2,"uv_index":9.35,"wind_gusts":26.6,"aqi":66,"pm10":15.8,"pm2_5":15.0,"mosquito_risk":3,"arthritis_risk":5,"migraine_risk":7,"frizz_risk":1,"updated_at":"2026-04-16T21:12:59.505922+05:30"},{"city":"Salem","state":"Tamil Nadu","latitude":11.6643,"longitude":78.146,"temp":30.8,"humidity":48,"rain":0.0,"pressure":976.4,"uv_index":9.45,"wind_gusts":26.6,"aqi":105,"pm10":24.7,"pm2_5":21.2,"mosquito_risk":0,"arthritis_risk":5,"migraine_risk":7,"frizz_risk":1,"updated_at":"2026-04-16T21:12:59.505928+05:30"},{"city":"Tirunelveli","state":"Tamil Nadu","latitude":8.7139,"longitude":77.7567,"temp":30.7,"humidity":60,"rain":0.0,"pressure":1002.7,"uv_index":8.85,"wind_gusts":52.2,"aqi":100,"pm10":28.3,"pm2_5":23.7,"mosquito_risk":0,"arthritis_risk":5,"migraine_risk":4,"frizz_risk":1,"updated_at":"2026-04-16T21:12:59.505935+05:30"},{"city":"Vellore","state":"Tamil Nadu","latitude":12.9165,"longitude":79.1325,"temp":29.7,"humidity":65,"rain":0.0,"pressure":984.3,"uv_index":9.4,"wind_gusts":32.4,"aqi":115,"pm10":23.9,"pm2_5":22.9,"mosquito_risk":7,"arthritis_risk":5,"migraine_risk":7,"frizz_risk":1,"updated_at":"2026-04-16T21:12:59.505940+05:30"},{"city":"Erode","state":"Tamil Nadu","latitude":11.341,"longitude":77.7172,"temp":32.8,"humidity":39,"rain":0.0,"pressure":987.8,"uv_index":9.4,"wind_gusts":30.2,"aqi":109,"pm10":20.5,"pm2_5":17.2,"mosquito_risk":0,"arthritis_risk":5,"migraine_risk":7,"frizz_risk":1,"updated_at":"2026-04-16T21:12:59.505946+05:30"},{"city":"Kochi","state":"Kerala","latitude":9.9312,"longitude":76.2673,"temp":29.6,"humidity":81,"rain":0.0,"pressure":1008.3,"uv_index":9.2,"wind_gusts":29.9,"aqi":102,"pm10":41.8,"pm2_5":32.6,"mosquito_risk":7,"arthritis_risk":0,"migraine_risk":4,"frizz_risk":1,"updated_at":"2026-04-16T21:12:59.505953+05:30"},{"city":"Thiruvananthapuram","state":"Kerala","latitude":8.5241,"longitude":76.9366,"temp":29.5,"humidity":78,"rain":0.0,"pressure":1007.6,"uv_index":9.15,"wind_gusts":32.8,"aqi":80,"pm10":41.3,"pm2_5":27.6,"mosquito_risk":7,"arthritis_risk":5,"migraine_risk":4,"frizz_risk":1,"updated_at":"2026-04-16T21:12:59.505959+05:30"},{"city":"Kozhikode","state":"Kerala","latitude":11.2588,"longitude":75.7804,"temp":30.6,"humidity":77,"rain":0.0,"pressure":1007.3,"uv_index":9.15,"wind_gusts":31.7,"aqi":89,"pm10":50.1,"pm2_5":29.5,"mosquito_risk":3,"arthritis_risk":5,"migraine_risk":4,"frizz_risk":1,"updated_at":"2026-04-16T21:12:59.505964+05:30"},{"city":"Thrissur","state":"Kerala","latitude":10.5276,"longitude":76.2144,"temp":29.5,"humidity":78,"rain":0.0,"pressure":1006.6,"uv_index":9.15,"wind_gusts":34.6,"aqi":104,"pm10":40.3,"pm2_5":31.0,"mosquito_risk":7,"arthritis_risk":5,"migraine_risk":4,"frizz_risk":1,"updated_at":"2026-04-16T21:12:59.505970+05:30"},{"city":"Kannur","state":"Kerala","latitude":11.8745,"longitude":75.3704,"temp":29.9,"humidity":78,"rain":0.0,"pressure":1006.7,"uv_index":9.15,"wind_gusts":32.4,"aqi":92,"pm10":49.7,"pm2_5":31.9,"mosquito_risk":7,"arthritis_risk":5,"migraine_risk":4,"frizz_risk":1,"updated_at":"2026-04-16T21:12:59.505975+05:30"},{"city":"Patna","state":"Bihar","latitude":25.5941,"longitude":85.1376,"temp":30.0,"humidity":68,"rain":0.0,"pressure":1000.2,"uv_index":8.55,"wind_gusts":34.2,"aqi":181,"pm10":68.9,"pm2_5":62.6,"mosquito_risk":7,"arthritis_risk":5,"migraine_risk":4,"frizz_risk":1,"updated_at":"2026-04-16T21:12:59.505980+05:30"},{"city":"Gaya","state":"Bihar","latitude":24.7914,"longitude":85.0002,"temp":28.5,"humidity":76,"rain":0.0,"pressure":993.3,"uv_index":8.65,"wind_gusts":23.0,"aqi":154,"pm10":62.2,"pm2_5":46.8,"mosquito_risk":7,"arthritis_risk":5,"migraine_risk":7,"frizz_risk":1,"updated_at":"2026-04-16T21:12:59.505985+05:30"},{"city":"Muzaffarpur","state":"Bihar","latitude":26.1209,"longitude":85.3647,"temp":28.1,"humidity":74,"rain":0.0,"pressure":1000.4,"uv_index":8.5,"wind_gusts":35.3,"aqi":174,"pm10":71.2,"pm2_5":62.2,"mosquito_risk":7,"arthritis_risk":5,"migraine_risk":4,"frizz_risk":1,"updated_at":"2026-04-16T21:12:59.505990+05:30"},{"city":"Bhagalpur","state":"Bihar","latitude":25.2425,"longitude":87.0117,"temp":27.2,"humidity":86,"rain":0.0,"pressure":1001.9,"uv_index":8.55,"wind_gusts":30.6,"aqi":152,"pm10":42.3,"pm2_5":38.5,"mosquito_risk":7,"arthritis_risk":5,"migraine_risk":4,"frizz_risk":1,"updated_at":"2026-04-16T21:12:59.505996+05:30"},{"city":"Ranchi","state":"Jharkhand","latitude":23.3441,"longitude":85.3096,"temp":24.8,"humidity":84,"rain":0.0,"pressure":938.2,"uv_index":9.15,"wind_gusts":39.6,"aqi":176,"pm10":60.1,"pm2_5":42.4,"mosquito_risk":3,"arthritis_risk":5,"migraine_risk":7,"frizz_risk":1,"updated_at":"2026-04-16T21:12:59.506002+05:30"},{"city":"Jamshedpur","state":"Jharkhand","latitude":22.8046,"longitude":86.2029,"temp":27.5,"humidity":87,"rain":0.0,"pressure":990.9,"uv_index":8.95,"wind_gusts":31.0,"aqi":206,"pm10":33.6,"pm2_5":31.7,"mosquito_risk":7,"arthritis_risk":5,"migraine_risk":7,"frizz_risk":1,"updated_at":"2026-04-16T21:12:59.506007+05:30"},{"city":"Dhanbad","state":"Jharkhand","latitude":23.7957,"longitude":86.4304,"temp":28.1,"humidity":77,"rain":0.0,"pressure":980.3,"uv_index":8.9,"wind_gusts":29.2,"aqi":214,"pm10":62.6,"pm2_5":60.1,"mosquito_risk":7,"arthritis_risk":5,"migraine_risk":7,"frizz_risk":1,"updated_at":"2026-04-16T21:12:59.506012+05:30"},{"city":"Bokaro","state":"Jharkhand","latitude":23.6693,"longitude":86.1511,"temp":27.3,"humidity":83,"rain":0.0,"pressure":984.3,"uv_index":8.95,"wind_gusts":24.5,"aqi":214,"pm10":75.9,"pm2_5":66.8,"mosquito_risk":7,"arthritis_risk":5,"migraine_risk":7,"frizz_risk":1,"updated_at":"2026-04-16T21:12:59.506018+05:30"},{"city":"Bhubaneswar","state":"Odisha","latitude":20.2961,"longitude":85.8245,"temp":27.5,"humidity":86,"rain":0.0,"pressure":1003.0,"uv_index":9.1,"wind_gusts":39.6,"aqi":51,"pm10":11.9,"pm2_5":9.1,"mosquito_risk":7,"arthritis_risk":5,"migraine_risk":4,"frizz_risk":1,"updated_at":"2026-04-16T21:12:59.506023+05:30"},{"city":"Cuttack","state":"Odisha","latitude":20.4625,"longitude":85.8828,"temp":28.0,"humidity":83,"rain":0.0,"pressure":1004.8,"uv_index":9.15,"wind_gusts":37.1,"aqi":51,"pm10":11.9,"pm2_5":9.1,"mosquito_risk":7,"arthritis_risk":5,"migraine_risk":4,"frizz_risk":1,"updated_at":"2026-04-16T21:12:59.506028+05:30"},{"city":"Rourkela","state":"Odisha","latitude":22.2604,"longitude":84.8536,"temp":29.0,"humidity":73,"rain":0.0,"pressure":984.3,"uv_index":8.9,"wind_gusts":50.4,"aqi":169,"pm10":48.2,"pm2_5":39.7,"mosquito_risk":7,"arthritis_risk":5,"migraine_risk":7,"frizz_risk":1,"updated_at":"2026-04-16T21:12:59.506056+05:30"},{"city":"Raipur","state":"Chhattisgarh","latitude":21.2514,"longitude":81.6296,"temp":33.0,"humidity":29,"rain":0.0,"pressure":972.0,"uv_index":8.95,"wind_gusts":32.0,"aqi":160,"pm10":42.7,"pm2_5":36.9,"mosquito_risk":0,"arthritis_risk":5,"migraine_risk":7,"frizz_risk":0,"updated_at":"2026-04-16T21:12:59.506061+05:30"},{"city":"Bhilai","state":"Chhattisgarh","latitude":21.1938,"longitude":81.3509,"temp":31.0,"humidity":37,"rain":0.0,"pressure":972.1,"uv_index":8.95,"wind_gusts":29.2,"aqi":140,"pm10":32.0,"pm2_5":26.4,"mosquito_risk":0,"arthritis_risk":5,"migraine_risk":7,"frizz_risk":0,"updated_at":"2026-04-16T21:12:59.506067+05:30"},{"city":"Guwahati","state":"Assam","latitude":26.1158,"longitude":91.7086,"temp":27.6,"humidity":73,"rain":0.0,"pressure":1003.8,"uv_index":8.45,"wind_gusts":24.5,"aqi":135,"pm10":83.1,"pm2_5":60.1,"mosquito_risk":7,"arthritis_risk":5,"migraine_risk":4,"frizz_risk":1,"updated_at":"2026-04-16T21:12:59.506072+05:30"},{"city":"Agartala","state":"Tripura","latitude":23.8315,"longitude":91.2868,"temp":25.2,"humidity":89,"rain":0.0,"pressure":1008.2,"uv_index":8.7,"wind_gusts":27.4,"aqi":137,"pm10":90.1,"pm2_5":75.9,"mosquito_risk":7,"arthritis_risk":0,"migraine_risk":4,"frizz_risk":1,"updated_at":"2026-04-16T21:12:59.506077+05:30"},{"city":"Shillong","state":"Meghalaya","latitude":25.5788,"longitude":91.8933,"temp":14.6,"humidity":95,"rain":0.0,"pressure":858.1,"uv_index":7.75,"wind_gusts":43.2,"aqi":116,"pm10":61.0,"pm2_5":47.1,"mosquito_risk":3,"arthritis_risk":10,"migraine_risk":7,"frizz_risk":0,"updated_at":"2026-04-16T21:12:59.506083+05:30"},{"city":"Imphal","state":"Manipur","latitude":24.817,"longitude":93.9368,"temp":19.4,"humidity":80,"rain":0.0,"pressure":925.6,"uv_index":9.05,"wind_gusts":69.5,"aqi":121,"pm10":81.3,"pm2_5":58.9,"mosquito_risk":3,"arthritis_risk":5,"migraine_risk":7,"frizz_risk":0,"updated_at":"2026-04-16T21:12:59.506089+05:30"},{"city":"Aizawl","state":"Mizoram","latitude":23.7271,"longitude":92.7176,"temp":19.5,"humidity":91,"rain":0.0,"pressure":894.3,"uv_index":8.95,"wind_gusts":37.4,"aqi":137,"pm10":94.1,"pm2_5":65.9,"mosquito_risk":3,"arthritis_risk":10,"migraine_risk":7,"frizz_risk":1,"updated_at":"2026-04-16T21:12:59.506094+05:30"},{"city":"Kohima","state":"Nagaland","latitude":25.6701,"longitude":94.1077,"temp":16.0,"humidity":80,"rain":0.0,"pressure":857.0,"uv_index":8.5,"wind_gusts":57.2,"aqi":104,"pm10":82.0,"pm2_5":51.0,"mosquito_risk":3,"arthritis_risk":5,"migraine_risk":7,"frizz_risk":0,"updated_at":"2026-04-16T21:12:59.506099+05:30"},{"city":"Gangtok","state":"Sikkim","latitude":27.3314,"longitude":88.6138,"temp":16.4,"humidity":91,"rain":0.0,"pressure":840.0,"uv_index":8.8,"wind_gusts":19.4,"aqi":122,"pm10":54.8,"pm2_5":39.0,"mosquito_risk":3,"arthritis_risk":10,"migraine_risk":7,"frizz_risk":0,"updated_at":"2026-04-16T21:12:59.506104+05:30"},{"city":"Siliguri","state":"West Bengal","latitude":26.7271,"longitude":88.3953,"temp":22.3,"humidity":78,"rain":0.0,"pressure":996.9,"uv_index":8.45,"wind_gusts":24.8,"aqi":163,"pm10":89.6,"pm2_5":61.0,"mosquito_risk":3,"arthritis_risk":5,"migraine_risk":7,"frizz_risk":1,"updated_at":"2026-04-16T21:13:02.858922+05:30"},{"city":"Durgapur","state":"West Bengal","latitude":23.5204,"longitude":87.3119,"temp":26.5,"humidity":85,"rain":0.0,"pressure":995.8,"uv_index":8.85,"wind_gusts":27.4,"aqi":143,"pm10":48.4,"pm2_5":43.2,"mosquito_risk":7,"arthritis_risk":5,"migraine_risk":7,"frizz_risk":1,"updated_at":"2026-04-16T21:13:02.858953+05:30"},{"city":"Asansol","state":"West Bengal","latitude":23.6739,"longitude":86.9524,"temp":27.1,"humidity":79,"rain":0.0,"pressure":994.4,"uv_index":8.9,"wind_gusts":26.6,"aqi":187,"pm10":50.8,"pm2_5":47.6,"mosquito_risk":7,"arthritis_risk":5,"migraine_risk":7,"frizz_risk":1,"updated_at":"2026-04-16T21:13:02.858962+05:30"},{"city":"Pondicherry","state":"Puducherry","latitude":11.9139,"longitude":79.8145,"temp":28.1,"humidity":86,"rain":0.0,"pressure":1007.8,"uv_index":9.25,"wind_gusts":25.9,"aqi":37,"pm10":9.2,"pm2_5":6.2,"mosquito_risk":7,"arthritis_risk":5,"migraine_risk":4,"frizz_risk":1,"updated_at":"2026-04-16T21:13:02.858968+05:30"},{"city":"Port Blair","state":"Andaman and Nicobar Islands","latitude":11.6234,"longitude":92.7265,"temp":29.4,"humidity":72,"rain":0.0,"pressure":1007.4,"uv_index":9.2,"wind_gusts":15.1,"aqi":63,"pm10":26.3,"pm2_5":17.9,"mosquito_risk":7,"arthritis_risk":5,"migraine_risk":4,"frizz_risk":1,"updated_at":"2026-04-16T21:13:02.858975+05:30"},{"city":"Haridwar","state":"Uttarakhand","latitude":29.9457,"longitude":78.1642,"temp":23.9,"humidity":59,"rain":0.0,"pressure":973.6,"uv_index":7.05,"wind_gusts":30.6,"aqi":106,"pm10":32.9,"pm2_5":20.3,"mosquito_risk":0,"arthritis_risk":5,"migraine_risk":7,"frizz_risk":0,"updated_at":"2026-04-16T21:13:02.858981+05:30"},{"city":"Rishikesh","state":"Uttarakhand","latitude":30.0869,"longitude":78.2676,"temp":22.4,"humidity":63,"rain":0.0,"pressure":966.7,"uv_index":7.1,"wind_gusts":31.7,"aqi":103,"pm10":21.1,"pm2_5":11.8,"mosquito_risk":3,"arthritis_risk":5,"migraine_risk":7,"frizz_risk":0,"updated_at":"2026-04-16T21:13:02.858987+05:30"},{"city":"Nainital","state":"Uttarakhand","latitude":29.3919,"longitude":79.4542,"temp":22.4,"humidity":24,"rain":0.0,"pressure":808.2,"uv_index":8.1,"wind_gusts":43.2,"aqi":138,"pm10":26.3,"pm2_5":16.9,"mosquito_risk":0,"arthritis_risk":5,"migraine_risk":7,"frizz_risk":0,"updated_at":"2026-04-16T21:13:02.858993+05:30"},{"city":"Mussoorie","state":"Uttarakhand","latitude":30.4599,"longitude":78.0664,"temp":18.6,"humidity":51,"rain":0.0,"pressure":803.9,"uv_index":6.7,"wind_gusts":39.2,"aqi":123,"pm10":29.9,"pm2_5":16.1,"mosquito_risk":0,"arthritis_risk":5,"migraine_risk":7,"frizz_risk":0,"updated_at":"2026-04-16T21:13:02.858999+05:30"},{"city":"Dharamshala","state":"Himachal Pradesh","latitude":32.219,"longitude":76.3234,"temp":22.9,"humidity":41,"rain":0.0,"pressure":870.8,"uv_index":7.55,"wind_gusts":24.8,"aqi":127,"pm10":17.7,"pm2_5":9.8,"mosquito_risk":0,"arthritis_risk":5,"migraine_risk":7,"frizz_risk":0,"updated_at":"2026-04-16T21:13:02.859005+05:30"},{"city":"Dalhousie","state":"Himachal Pradesh","latitude":32.5387,"longitude":75.971,"temp":20.8,"humidity":26,"rain":0.0,"pressure":806.2,"uv_index":7.8,"wind_gusts":25.6,"aqi":134,"pm10":26.5,"pm2_5":18.6,"mosquito_risk":0,"arthritis_risk":5,"migraine_risk":7,"frizz_risk":0,"updated_at":"2026-04-16T21:13:02.859012+05:30"},{"city":"Patiala","state":"Punjab","latitude":30.3398,"longitude":76.3869,"temp":27.3,"humidity":40,"rain":0.0,"pressure":977.5,"uv_index":7.2,"wind_gusts":23.0,"aqi":111,"pm10":149.0,"pm2_5":34.3,"mosquito_risk":4,"arthritis_risk":5,"migraine_risk":7,"frizz_risk":0,"updated_at":"2026-04-16T21:13:02.859018+05:30"},{"city":"Bhatinda","state":"Punjab","latitude":30.211,"longitude":74.9455,"temp":31.4,"humidity":31,"rain":0.0,"pressure":982.5,"uv_index":7.25,"wind_gusts":33.5,"aqi":129,"pm10":51.8,"pm2_5":29.8,"mosquito_risk":0,"arthritis_risk":5,"migraine_risk":7,"frizz_risk":0,"updated_at":"2026-04-16T21:13:02.859023+05:30"},{"city":"Rohtak","state":"Haryana","latitude":28.8955,"longitude":76.6066,"temp":25.2,"humidity":52,"rain":0.0,"pressure":980.4,"uv_index":7.3,"wind_gusts":26.6,"aqi":344,"pm10":283.1,"pm2_5":65.0,"mosquito_risk":4,"arthritis_risk":5,"migraine_risk":7,"frizz_risk":0,"updated_at":"2026-04-16T21:13:02.859029+05:30"},{"city":"Panipat","state":"Haryana","latitude":29.3909,"longitude":76.9635,"temp":27.0,"humidity":41,"rain":0.0,"pressure":979.3,"uv_index":7.15,"wind_gusts":25.9,"aqi":318,"pm10":514.1,"pm2_5":82.7,"mosquito_risk":4,"arthritis_risk":5,"migraine_risk":7,"frizz_risk":0,"updated_at":"2026-04-16T21:13:02.859062+05:30"},{"city":"Mathura","state":"Uttar Pradesh","latitude":27.4924,"longitude":77.6737,"temp":28.4,"humidity":37,"rain":0.0,"pressure":985.5,"uv_index":7.65,"wind_gusts":27.0,"aqi":382,"pm10":258.9,"pm2_5":68.9,"mosquito_risk":4,"arthritis_risk":5,"migraine_risk":7,"frizz_risk":0,"updated_at":"2026-04-16T21:13:02.859068+05:30"},{"city":"Vrindavan","state":"Uttar Pradesh","latitude":27.5823,"longitude":77.7027,"temp":29.2,"humidity":32,"rain":0.0,"pressure":986.0,"uv_index":7.6,"wind_gusts":24.8,"aqi":382,"pm10":258.9,"pm2_5":68.9,"mosquito_risk":4,"arthritis_risk":5,"migraine_risk":7,"frizz_risk":0,"updated_at":"2026-04-16T21:13:02.859073+05:30"},{"city":"Ayodhya","state":"Uttar Pradesh","latitude":26.7922,"longitude":82.1998,"temp":30.2,"humidity":26,"rain":0.0,"pressure":994.0,"uv_index":8.0,"wind_gusts":23.8,"aqi":133,"pm10":80.6,"pm2_5":34.1,"mosquito_risk":0,"arthritis_risk":5,"migraine_risk":7,"frizz_risk":0,"updated_at":"2026-04-16T21:13:02.859079+05:30"},{"city":"Ratlam","state":"Madhya Pradesh","latitude":23.3315,"longitude":75.0367,"temp":27.7,"humidity":63,"rain":0.0,"pressure":953.6,"uv_index":8.45,"wind_gusts":29.5,"aqi":96,"pm10":61.7,"pm2_5":35.2,"mosquito_risk":7,"arthritis_risk":5,"migraine_risk":7,"frizz_risk":1,"updated_at":"2026-04-16T21:13:02.859084+05:30"},{"city":"Sagar","state":"Madhya Pradesh","latitude":23.8388,"longitude":78.7378,"temp":32.2,"humidity":33,"rain":0.0,"pressure":949.2,"uv_index":8.55,"wind_gusts":19.4,"aqi":138,"pm10":58.6,"pm2_5":18.4,"mosquito_risk":0,"arthritis_risk":5,"migraine_risk":7,"frizz_risk":0,"updated_at":"2026-04-16T21:13:02.859089+05:30"},{"city":"Satna","state":"Madhya Pradesh","latitude":24.6005,"longitude":80.8322,"temp":31.6,"humidity":27,"rain":0.0,"pressure":970.9,"uv_index":8.6,"wind_gusts":25.6,"aqi":145,"pm10":93.6,"pm2_5":20.7,"mosquito_risk":0,"arthritis_risk":5,"migraine_risk":7,"frizz_risk":0,"updated_at":"2026-04-16T21:13:02.859094+05:30"},{"city":"Akola","state":"Maharashtra","latitude":20.7002,"longitude":77.0082,"temp":32.3,"humidity":31,"rain":0.0,"pressure":973.1,"uv_index":8.8,"wind_gusts":26.3,"aqi":105,"pm10":22.2,"pm2_5":16.2,"mosquito_risk":0,"arthritis_risk":5,"migraine_risk":7,"frizz_risk":0,"updated_at":"2026-04-16T21:13:02.859099+05:30"},{"city":"Amravati","state":"Maharashtra","latitude":20.9374,"longitude":77.7796,"temp":30.9,"humidity":35,"rain":0.0,"pressure":965.1,"uv_index":8.8,"wind_gusts":22.0,"aqi":105,"pm10":19.8,"pm2_5":14.1,"mosquito_risk":0,"arthritis_risk":5,"migraine_risk":7,"frizz_risk":0,"updated_at":"2026-04-16T21:13:02.859105+05:30"},{"city":"Latur","state":"Maharashtra","latitude":18.4088,"longitude":76.5604,"temp":28.9,"humidity":38,"rain":0.0,"pressure":938.6,"uv_index":9.05,"wind_gusts":23.0,"aqi":98,"pm10":19.7,"pm2_5":15.0,"mosquito_risk":4,"arthritis_risk":5,"migraine_risk":7,"frizz_risk":0,"updated_at":"2026-04-16T21:13:02.859110+05:30"},{"city":"Nanded","state":"Maharashtra","latitude":19.1383,"longitude":77.3091,"temp":31.4,"humidity":34,"rain":0.0,"pressure":966.7,"uv_index":8.95,"wind_gusts":17.3,"aqi":97,"pm10":36.2,"pm2_5":27.9,"mosquito_risk":0,"arthritis_risk":5,"migraine_risk":7,"frizz_risk":0,"updated_at":"2026-04-16T21:13:02.859115+05:30"},{"city":"Gulbarga","state":"Karnataka","latitude":17.3297,"longitude":76.8343,"temp":34.6,"humidity":32,"rain":0.0,"pressure":957.3,"uv_index":9.1,"wind_gusts":22.3,"aqi":179,"pm10":36.2,"pm2_5":32.9,"mosquito_risk":0,"arthritis_risk":5,"migraine_risk":7,"frizz_risk":0,"updated_at":"2026-04-16T21:13:02.859120+05:30"},{"city":"Bidar","state":"Karnataka","latitude":17.9104,"longitude":77.5199,"temp":32.3,"humidity":39,"rain":0.0,"pressure":934.9,"uv_index":9.1,"wind_gusts":34.2,"aqi":147,"pm10":39.8,"pm2_5":34.3,"mosquito_risk":0,"arthritis_risk":5,"migraine_risk":7,"frizz_risk":1,"updated_at":"2026-04-16T21:13:02.859124+05:30"},{"city":"Hospet","state":"Karnataka","latitude":15.2689,"longitude":76.3909,"temp":32.6,"humidity":44,"rain":0.0,"pressure":954.6,"uv_index":9.25,"wind_gusts":27.4,"aqi":150,"pm10":51.5,"pm2_5":43.4,"mosquito_risk":0,"arthritis_risk":5,"migraine_risk":7,"frizz_risk":1,"updated_at":"2026-04-16T21:13:02.859129+05:30"},{"city":"Tirupur","state":"Tamil Nadu","latitude":11.1085,"longitude":77.3411,"temp":29.4,"humidity":67,"rain":0.0,"pressure":974.9,"uv_index":9.45,"wind_gusts":32.4,"aqi":125,"pm10":22.5,"pm2_5":18.5,"mosquito_risk":7,"arthritis_risk":5,"migraine_risk":7,"frizz_risk":1,"updated_at":"2026-04-16T21:13:02.859134+05:30"},{"city":"Alappuzha","state":"Kerala","latitude":9.4981,"longitude":76.3388,"temp":29.2,"humidity":81,"rain":0.0,"pressure":1008.7,"uv_index":9.05,"wind_gusts":28.8,"aqi":96,"pm10":42.4,"pm2_5":31.2,"mosquito_risk":7,"arthritis_risk":0,"migraine_risk":4,"frizz_risk":1,"updated_at":"2026-04-16T21:13:02.859139+05:30"},{"city":"Munnar","state":"Kerala","latitude":10.0889,"longitude":77.0595,"temp":22.6,"humidity":95,"rain":0.0,"pressure":857.6,"uv_index":9.05,"wind_gusts":37.1,"aqi":75,"pm10":34.8,"pm2_5":30.9,"mosquito_risk":3,"arthritis_risk":5,"migraine_risk":7,"frizz_risk":1,"updated_at":"2026-04-16T21:13:02.859144+05:30"},{"city":"Silchar","state":"Assam","latitude":24.8333,"longitude":92.7789,"temp":25.0,"humidity":87,"rain":0.0,"pressure":1007.3,"uv_index":8.7,"wind_gusts":24.5,"aqi":134,"pm10":122.5,"pm2_5":88.2,"mosquito_risk":7,"arthritis_risk":5,"migraine_risk":4,"frizz_risk":1,"updated_at":"2026-04-16T21:13:02.859149+05:30"},{"city":"Dibrugarh","state":"Assam","latitude":27.4728,"longitude":94.912,"temp":24.9,"humidity":78,"rain":0.0,"pressure":998.1,"uv_index":8.55,"wind_gusts":7.9,"aqi":137,"pm10":106.2,"pm2_5":67.1,"mosquito_risk":3,"arthritis_risk":5,"migraine_risk":7,"frizz_risk":1,"updated_at":"2026-04-16T21:13:02.859154+05:30"}]