[{"city":"Delhi","state":"Delhi","latitude":28.6139,"longitude":77.209,"temp":36.6,"humidity":33,"rain":0.0,"pressure":976.8,"uv_index":7.7,"wind_gusts":37.4,"aqi":479,"pm10":657.5,"pm2_5":101.3,"no2":5.3,"co":247.0,"o3":147.0,"so2":9.8,"mosquito_risk":0,"arthritis_risk":5,"migraine_risk":10,"frizz_risk":1,"updated_at":"2026-06-22T16:10:56.327656+05:30"},{"city":"Mumbai","state":"Maharashtra","latitude":19.076,"longitude":72.8777,"temp":31.7,"humidity":59,"rain":0.1,"pressure":1004.4,"uv_index":7.7,"wind_gusts":42.8,"aqi":37,"pm10":14.6,"pm2_5":11.7,"no2":5.3,"co":165.0,"o3":100.0,"so2":9.8,"mosquito_risk":3,"arthritis_risk":5,"migraine_risk":4,"frizz_risk":1,"updated_at":"2026-06-22T16:10:56.327704+05:30"},{"city":"Bangalore","state":"Karnataka","latitude":12.9716,"longitude":77.5946,"temp":23.1,"humidity":90,"rain":0.4,"pressure":909.5,"uv_index":8.5,"wind_gusts":37.8,"aqi":32,"pm10":4.1,"pm2_5":3.4,"no2":6.9,"co":303.0,"o3":77.0,"so2":2.6,"mosquito_risk":6,"arthritis_risk":5,"migraine_risk":7,"frizz_risk":1,"updated_at":"2026-06-22T16:10:56.327721+05:30"},{"city":"Hyderabad","state":"Telangana","latitude":17.385,"longitude":78.4867,"temp":34.0,"humidity":44,"rain":0.0,"pressure":949.4,"uv_index":9.05,"wind_gusts":60.5,"aqi":53,"pm10":7.7,"pm2_5":6.7,"no2":2.0,"co":234.0,"o3":95.0,"so2":2.9,"mosquito_risk":0,"arthritis_risk":5,"migraine_risk":7,"frizz_risk":1,"updated_at":"2026-06-22T16:10:56.327732+05:30"},{"city":"Chennai","state":"Tamil Nadu","latitude":13.0827,"longitude":80.2707,"temp":31.9,"humidity":70,"rain":0.0,"pressure":1003.7,"uv_index":8.45,"wind_gusts":34.2,"aqi":69,"pm10":23.6,"pm2_5":18.5,"no2":3.9,"co":247.0,"o3":132.0,"so2":6.7,"mosquito_risk":3,"arthritis_risk":5,"migraine_risk":4,"frizz_risk":1,"updated_at":"2026-06-22T16:10:56.327741+05:30"},{"city":"Kolkata","state":"West Bengal","latitude":22.5726,"longitude":88.3639,"temp":26.1,"humidity":97,"rain":0.6,"pressure":1000.3,"uv_index":7.9,"wind_gusts":33.5,"aqi":123,"pm10":36.2,"pm2_5":32.5,"no2":6.5,"co":458.0,"o3":135.0,"so2":9.1,"mosquito_risk":10,"arthritis_risk":5,"migraine_risk":4,"frizz_risk":1,"updated_at":"2026-06-22T16:10:56.327749+05:30"},{"city":"Pune","state":"Maharashtra","latitude":18.5204,"longitude":73.8567,"temp":27.4,"humidity":71,"rain":0.1,"pressure":944.9,"uv_index":8.0,"wind_gusts":43.6,"aqi":29,"pm10":7.9,"pm2_5":5.8,"no2":2.2,"co":139.0,"o3":75.0,"so2":2.6,"mosquito_risk":10,"arthritis_risk":5,"migraine_risk":7,"frizz_risk":1,"updated_at":"2026-06-22T16:10:56.327756+05:30"},{"city":"Ahmedabad","state":"Gujarat","latitude":23.0225,"longitude":72.5714,"temp":36.2,"humidity":41,"rain":0.0,"pressure":996.2,"uv_index":8.0,"wind_gusts":40.0,"aqi":71,"pm10":61.7,"pm2_5":18.7,"no2":1.3,"co":132.0,"o3":86.0,"so2":3.0,"mosquito_risk":0,"arthritis_risk":5,"migraine_risk":10,"frizz_risk":1,"updated_at":"2026-06-22T16:10:56.327763+05:30"},{"city":"Jaipur","state":"Rajasthan","latitude":26.9124,"longitude":75.7873,"temp":36.5,"humidity":31,"rain":0.0,"pressure":954.6,"uv_index":8.2,"wind_gusts":38.2,"aqi":119,"pm10":196.5,"pm2_5":46.6,"no2":0.5,"co":145.0,"o3":96.0,"so2":2.4,"mosquito_risk":0,"arthritis_risk":5,"migraine_risk":10,"frizz_risk":1,"updated_at":"2026-06-22T16:10:56.327769+05:30"},{"city":"Lucknow","state":"Uttar Pradesh","latitude":26.8467,"longitude":80.9462,"temp":39.3,"humidity":26,"rain":0.0,"pressure":985.5,"uv_index":8.25,"wind_gusts":38.5,"aqi":174,"pm10":240.3,"pm2_5":54.4,"no2":1.4,"co":155.0,"o3":129.0,"so2":4.7,"mosquito_risk":0,"arthritis_risk":5,"migraine_risk":10,"frizz_risk":1,"updated_at":"2026-06-22T16:10:56.327780+05:30"},{"city":"Kanpur","state":"Uttar Pradesh","latitude":26.4499,"longitude":80.3319,"temp":39.2,"humidity":27,"rain":0.1,"pressure":984.2,"uv_index":8.3,"wind_gusts":42.5,"aqi":209,"pm10":391.2,"pm2_5":61.9,"no2":1.4,"co":144.0,"o3":116.0,"so2":3.0,"mosquito_risk":3,"arthritis_risk":5,"migraine_risk":10,"frizz_risk":1,"updated_at":"2026-06-22T16:10:56.327786+05:30"},{"city":"Chandigarh","state":"Chandigarh","latitude":30.7333,"longitude":76.7794,"temp":33.2,"humidity":38,"rain":0.0,"pressure":963.1,"uv_index":6.15,"wind_gusts":33.1,"aqi":119,"pm10":33.1,"pm2_5":22.4,"no2":2.2,"co":348.0,"o3":169.0,"so2":9.1,"mosquito_risk":0,"arthritis_risk":5,"migraine_risk":7,"frizz_risk":1,"updated_at":"2026-06-22T16:10:56.327792+05:30"},{"city":"Srinagar","state":"Jammu and Kashmir","latitude":34.0837,"longitude":74.7973,"temp":22.4,"humidity":60,"rain":0.0,"pressure":840.8,"uv_index":8.2,"wind_gusts":26.6,"aqi":83,"pm10":17.5,"pm2_5":11.9,"no2":1.5,"co":290.0,"o3":143.0,"so2":2.1,"mosquito_risk":0,"arthritis_risk":5,"migraine_risk":7,"frizz_risk":0,"updated_at":"2026-06-22T16:10:56.327799+05:30"},{"city":"Jammu","state":"Jammu and Kashmir","latitude":32.7266,"longitude":74.857,"temp":35.6,"humidity":28,"rain":0.0,"pressure":967.6,"uv_index":8.55,"wind_gusts":32.4,"aqi":98,"pm10":37.5,"pm2_5":20.6,"no2":1.0,"co":259.0,"o3":150.0,"so2":2.5,"mosquito_risk":0,"arthritis_risk":5,"migraine_risk":10,"frizz_risk":0,"updated_at":"2026-06-22T16:10:56.327808+05:30"},{"city":"Amritsar","state":"Punjab","latitude":31.634,"longitude":74.8723,"temp":33.0,"humidity":44,"rain":0.0,"pressure":975.5,"uv_index":8.45,"wind_gusts":27.4,"aqi":125,"pm10":60.5,"pm2_5":36.6,"no2":2.0,"co":232.0,"o3":178.0,"so2":7.4,"mosquito_risk":0,"arthritis_risk":5,"migraine_risk":7,"frizz_risk":1,"updated_at":"2026-06-22T16:10:56.327814+05:30"},{"city":"Ludhiana","state":"Punjab","latitude":30.901,"longitude":75.8573,"temp":34.8,"humidity":36,"rain":0.0,"pressure":973.1,"uv_index":7.8,"wind_gusts":42.5,"aqi":128,"pm10":48.7,"pm2_5":27.8,"no2":1.7,"co":264.0,"o3":157.0,"so2":3.3,"mosquito_risk":0,"arthritis_risk":5,"migraine_risk":7,"frizz_risk":1,"updated_at":"2026-06-22T16:10:56.327821+05:30"},{"city":"Jalandhar","state":"Punjab","latitude":31.326,"longitude":75.5762,"temp":35.2,"humidity":35,"rain":0.0,"pressure":974.1,"uv_index":8.25,"wind_gusts":28.4,"aqi":133,"pm10":65.4,"pm2_5":30.5,"no2":1.6,"co":288.0,"o3":165.0,"so2":3.8,"mosquito_risk":0,"arthritis_risk":5,"migraine_risk":10,"frizz_risk":1,"updated_at":"2026-06-22T16:10:56.327829+05:30"},{"city":"Dehradun","state":"Uttarakhand","latitude":30.6284,"longitude":78.0322,"temp":25.2,"humidity":44,"rain":0.0,"pressure":829.0,"uv_index":7.7,"wind_gusts":23.8,"aqi":85,"pm10":36.7,"pm2_5":14.8,"no2":0.4,"co":259.0,"o3":141.0,"so2":1.9,"mosquito_risk":4,"arthritis_risk":5,"migraine_risk":7,"frizz_risk":0,"updated_at":"2026-06-22T16:10:56.327836+05:30"},{"city":"Shimla","state":"Himachal Pradesh","latitude":31.1048,"longitude":77.1734,"temp":20.6,"humidity":47,"rain":0.0,"pressure":783.9,"uv_index":6.9,"wind_gusts":15.5,"aqi":85,"pm10":27.8,"pm2_5":15.2,"no2":0.6,"co":225.0,"o3":141.0,"so2":2.9,"mosquito_risk":0,"arthritis_risk":5,"migraine_risk":7,"frizz_risk":0,"updated_at":"2026-06-22T16:10:56.327842+05:30"},{"city":"Manali","state":"Himachal Pradesh","latitude":32.2396,"longitude":77.1887,"temp":17.7,"humidity":82,"rain":0.0,"pressure":817.4,"uv_index":8.85,"wind_gusts":43.2,"aqi":104,"pm10":7.1,"pm2_5":5.5,"no2":3.9,"co":135.0,"o3":153.0,"so2":0.4,"mosquito_risk":3,"arthritis_risk":10,"migraine_risk":7,"frizz_risk":0,"updated_at":"2026-06-22T16:10:56.327851+05:30"},{"city":"Gurgaon","state":"Haryana","latitude":28.4595,"longitude":77.0266,"temp":35.4,"humidity":37,"rain":0.0,"pressure":975.6,"uv_index":7.85,"wind_gusts":39.6,"aqi":943,"pm10":599.8,"pm2_5":94.1,"no2":5.1,"co":174.0,"o3":158.0,"so2":10.0,"mosquito_risk":0,"arthritis_risk":5,"migraine_risk":10,"frizz_risk":1,"updated_at":"2026-06-22T16:10:56.327857+05:30"},{"city":"Noida","state":"Uttar Pradesh","latitude":28.5355,"longitude":77.391,"temp":36.1,"humidity":37,"rain":0.1,"pressure":977.9,"uv_index":7.8,"wind_gusts":35.3,"aqi":943,"pm10":599.8,"pm2_5":94.1,"no2":5.1,"co":271.0,"o3":158.0,"so2":10.0,"mosquito_risk":3,"arthritis_risk":5,"migraine_risk":10,"frizz_risk":1,"updated_at":"2026-06-22T16:10:56.327864+05:30"},{"city":"Ghaziabad","state":"Uttar Pradesh","latitude":28.6692,"longitude":77.4538,"temp":34.8,"humidity":44,"rain":0.2,"pressure":976.4,"uv_index":7.8,"wind_gusts":38.2,"aqi":406,"pm10":451.7,"pm2_5":86.4,"no2":4.1,"co":214.0,"o3":164.0,"so2":12.1,"mosquito_risk":3,"arthritis_risk":5,"migraine_risk":7,"frizz_risk":1,"updated_at":"2026-06-22T16:10:56.327870+05:30"},{"city":"Faridabad","state":"Haryana","latitude":28.4089,"longitude":77.3178,"temp":36.7,"humidity":33,"rain":0.0,"pressure":977.4,"uv_index":7.85,"wind_gusts":42.1,"aqi":943,"pm10":599.8,"pm2_5":94.1,"no2":5.1,"co":195.0,"o3":158.0,"so2":10.0,"mosquito_risk":0,"arthritis_risk":5,"migraine_risk":10,"frizz_risk":1,"updated_at":"2026-06-22T16:10:56.327877+05:30"},{"city":"Meerut","state":"Uttar Pradesh","latitude":28.9845,"longitude":77.7064,"temp":34.9,"humidity":42,"rain":0.0,"pressure":975.2,"uv_index":7.6,"wind_gusts":41.8,"aqi":406,"pm10":451.7,"pm2_5":86.4,"no2":4.1,"co":172.0,"o3":164.0,"so2":12.1,"mosquito_risk":0,"arthritis_risk":5,"migraine_risk":7,"frizz_risk":1,"updated_at":"2026-06-22T16:10:56.327883+05:30"},{"city":"Agra","state":"Uttar Pradesh","latitude":27.1767,"longitude":78.0081,"temp":37.9,"humidity":28,"rain":0.0,"pressure":981.1,"uv_index":8.1,"wind_gusts":38.2,"aqi":419,"pm10":1113.9,"pm2_5":128.1,"no2":1.6,"co":145.0,"o3":114.0,"so2":2.5,"mosquito_risk":0,"arthritis_risk":5,"migraine_risk":10,"frizz_risk":1,"updated_at":"2026-06-22T16:10:56.327889+05:30"},{"city":"Varanasi","state":"Uttar Pradesh","latitude":25.3176,"longitude":82.9739,"temp":39.0,"humidity":32,"rain":0.0,"pressure":989.3,"uv_index":8.55,"wind_gusts":37.1,"aqi":109,"pm10":110.6,"pm2_5":39.3,"no2":1.8,"co":159.0,"o3":139.0,"so2":5.9,"mosquito_risk":0,"arthritis_risk":5,"migraine_risk":10,"frizz_risk":1,"updated_at":"2026-06-22T16:10:56.327896+05:30"},{"city":"Prayagraj","state":"Uttar Pradesh","latitude":25.4358,"longitude":81.8463,"temp":39.9,"humidity":28,"rain":0.0,"pressure":987.8,"uv_index":8.75,"wind_gusts":39.2,"aqi":107,"pm10":108.5,"pm2_5":35.6,"no2":1.6,"co":134.0,"o3":129.0,"so2":4.8,"mosquito_risk":0,"arthritis_risk":5,"migraine_risk":10,"frizz_risk":1,"updated_at":"2026-06-22T16:10:56.327903+05:30"},{"city":"Gorakhpur","state":"Uttar Pradesh","latitude":26.7606,"longitude":83.3732,"temp":37.0,"humidity":47,"rain":0.0,"pressure":988.6,"uv_index":8.7,"wind_gusts":41.4,"aqi":161,"pm10":180.7,"pm2_5":65.0,"no2":1.7,"co":191.0,"o3":166.0,"so2":8.5,"mosquito_risk":0,"arthritis_risk":5,"migraine_risk":10,"frizz_risk":1,"updated_at":"2026-06-22T16:10:56.327909+05:30"},{"city":"Bareilly","state":"Uttar Pradesh","latitude":28.367,"longitude":79.4304,"temp":32.7,"humidity":53,"rain":0.0,"pressure":979.9,"uv_index":8.1,"wind_gusts":38.2,"aqi":163,"pm10":244.9,"pm2_5":66.4,"no2":1.6,"co":171.0,"o3":158.0,"so2":8.1,"mosquito_risk":0,"arthritis_risk":5,"migraine_risk":7,"frizz_risk":1,"updated_at":"2026-06-22T16:10:56.327918+05:30"},{"city":"Aligarh","state":"Uttar Pradesh","latitude":27.8974,"longitude":78.088,"temp":36.2,"humidity":35,"rain":0.0,"pressure":979.2,"uv_index":7.95,"wind_gusts":42.1,"aqi":538,"pm10":754.4,"pm2_5":118.5,"no2":3.1,"co":156.0,"o3":173.0,"so2":12.3,"mosquito_risk":0,"arthritis_risk":5,"migraine_risk":10,"frizz_risk":1,"updated_at":"2026-06-22T16:10:56.327924+05:30"},{"city":"Moradabad","state":"Uttar Pradesh","latitude":28.8386,"longitude":78.7733,"temp":35.7,"humidity":41,"rain":0.0,"pressure":976.7,"uv_index":7.95,"wind_gusts":39.2,"aqi":170,"pm10":130.9,"pm2_5":51.9,"no2":2.3,"co":207.0,"o3":158.0,"so2":7.7,"mosquito_risk":0,"arthritis_risk":5,"migraine_risk":10,"frizz_risk":1,"updated_at":"2026-06-22T16:10:56.327931+05:30"},{"city":"Saharanpur","state":"Uttar Pradesh","latitude":29.9637,"longitude":77.546,"temp":33.9,"humidity":45,"rain":0.0,"pressure":969.3,"uv_index":7.25,"wind_gusts":31.7,"aqi":154,"pm10":105.2,"pm2_5":30.9,"no2":3.1,"co":235.0,"o3":164.0,"so2":10.3,"mosquito_risk":0,"arthritis_risk":5,"migraine_risk":7,"frizz_risk":1,"updated_at":"2026-06-22T16:10:56.327938+05:30"},{"city":"Jhansi","state":"Uttar Pradesh","latitude":25.4484,"longitude":78.5685,"temp":38.4,"humidity":30,"rain":0.0,"pressure":971.7,"uv_index":8.45,"wind_gusts":42.5,"aqi":86,"pm10":114.1,"pm2_5":29.8,"no2":0.9,"co":123.0,"o3":93.0,"so2":2.6,"mosquito_risk":0,"arthritis_risk":5,"migraine_risk":10,"frizz_risk":1,"updated_at":"2026-06-22T16:10:59.555879+05:30"},{"city":"Surat","state":"Gujarat","latitude":21.1702,"longitude":72.8311,"temp":32.8,"humidity":58,"rain":0.0,"pressure":1002.0,"uv_index":5.95,"wind_gusts":45.7,"aqi":59,"pm10":19.6,"pm2_5":15.9,"no2":13.7,"co":219.0,"o3":47.0,"so2":41.3,"mosquito_risk":0,"arthritis_risk":5,"migraine_risk":0,"frizz_risk":1,"updated_at":"2026-06-22T16:10:59.555915+05:30"},{"city":"Vadodara","state":"Gujarat","latitude":22.3072,"longitude":73.1812,"temp":36.8,"humidity":40,"rain":0.0,"pressure":998.3,"uv_index":7.85,"wind_gusts":44.6,"aqi":52,"pm10":23.2,"pm2_5":12.6,"no2":1.8,"co":137.0,"o3":94.0,"so2":3.3,"mosquito_risk":0,"arthritis_risk":5,"migraine_risk":10,"frizz_risk":1,"updated_at":"2026-06-22T16:10:59.555926+05:30"},{"city":"Rajkot","state":"Gujarat","latitude":22.3039,"longitude":70.8022,"temp":37.3,"humidity":33,"rain":0.0,"pressure":987.9,"uv_index":7.55,"wind_gusts":45.7,"aqi":68,"pm10":90.8,"pm2_5":27.5,"no2":1.1,"co":108.0,"o3":90.0,"so2":3.3,"mosquito_risk":0,"arthritis_risk":5,"migraine_risk":10,"frizz_risk":1,"updated_at":"2026-06-22T16:10:59.555935+05:30"},{"city":"Thane","state":"Maharashtra","latitude":19.2183,"longitude":72.9781,"temp":32.8,"humidity":56,"rain":0.0,"pressure":1003.7,"uv_index":7.7,"wind_gusts":41.0,"aqi":37,"pm10":14.6,"pm2_5":11.7,"no2":5.3,"co":171.0,"o3":100.0,"so2":9.8,"mosquito_risk":0,"arthritis_risk":5,"migraine_risk":4,"frizz_risk":1,"updated_at":"2026-06-22T16:10:59.555943+05:30"},{"city":"Nagpur","state":"Maharashtra","latitude":21.1458,"longitude":79.0882,"temp":35.1,"humidity":41,"rain":0.2,"pressure":968.1,"uv_index":8.2,"wind_gusts":46.8,"aqi":67,"pm10":32.8,"pm2_5":21.8,"no2":6.4,"co":126.0,"o3":99.0,"so2":12.4,"mosquito_risk":3,"arthritis_risk":5,"migraine_risk":10,"frizz_risk":1,"updated_at":"2026-06-22T16:10:59.555951+05:30"},{"city":"Nashik","state":"Maharashtra","latitude":19.9975,"longitude":73.7898,"temp":27.7,"humidity":75,"rain":0.2,"pressure":942.3,"uv_index":7.4,"wind_gusts":43.9,"aqi":29,"pm10":5.8,"pm2_5":5.7,"no2":2.5,"co":129.0,"o3":89.0,"so2":4.8,"mosquito_risk":10,"arthritis_risk":5,"migraine_risk":7,"frizz_risk":1,"updated_at":"2026-06-22T16:10:59.555959+05:30"},{"city":"Aurangabad","state":"Maharashtra","latitude":19.8762,"longitude":75.3433,"temp":29.7,"humidity":56,"rain":0.1,"pressure":940.4,"uv_index":8.8,"wind_gusts":61.6,"aqi":37,"pm10":9.1,"pm2_5":8.3,"no2":1.9,"co":119.0,"o3":92.0,"so2":3.3,"mosquito_risk":7,"arthritis_risk":5,"migraine_risk":7,"frizz_risk":1,"updated_at":"2026-06-22T16:10:59.555967+05:30"},{"city":"Solapur","state":"Maharashtra","latitude":17.6599,"longitude":75.9064,"temp":33.7,"humidity":45,"rain":0.1,"pressure":952.8,"uv_index":8.9,"wind_gusts":51.5,"aqi":29,"pm10":5.2,"pm2_5":3.9,"no2":1.1,"co":112.0,"o3":77.0,"so2":1.0,"mosquito_risk":3,"arthritis_risk":5,"migraine_risk":7,"frizz_risk":1,"updated_at":"2026-06-22T16:10:59.555974+05:30"},{"city":"Kolhapur","state":"Maharashtra","latitude":16.705,"longitude":74.2433,"temp":27.0,"humidity":73,"rain":0.3,"pressure":945.1,"uv_index":8.8,"wind_gusts":43.9,"aqi":26,"pm10":4.0,"pm2_5":3.4,"no2":1.9,"co":128.0,"o3":62.0,"so2":1.0,"mosquito_risk":10,"arthritis_risk":5,"migraine_risk":7,"frizz_risk":1,"updated_at":"2026-06-22T16:10:59.555981+05:30"},{"city":"Goa","state":"Goa","latitude":15.2993,"longitude":74.124,"temp":26.5,"humidity":94,"rain":0.2,"pressure":996.3,"uv_index":7.4,"wind_gusts":34.2,"aqi":25,"pm10":7.8,"pm2_5":4.8,"no2":0.9,"co":109.0,"o3":52.0,"so2":0.5,"mosquito_risk":10,"arthritis_risk":5,"migraine_risk":7,"frizz_risk":1,"updated_at":"2026-06-22T16:10:59.555989+05:30"},{"city":"Jodhpur","state":"Rajasthan","latitude":26.2389,"longitude":73.0243,"temp":37.9,"humidity":29,"rain":0.0,"pressure":976.9,"uv_index":8.4,"wind_gusts":38.2,"aqi":131,"pm10":197.0,"pm2_5":40.0,"no2":0.4,"co":111.0,"o3":88.0,"so2":1.2,"mosquito_risk":0,"arthritis_risk":5,"migraine_risk":10,"frizz_risk":1,"updated_at":"2026-06-22T16:10:59.555996+05:30"},{"city":"Udaipur","state":"Rajasthan","latitude":24.5854,"longitude":73.7125,"temp":34.0,"humidity":38,"rain":0.0,"pressure":942.3,"uv_index":8.8,"wind_gusts":35.3,"aqi":73,"pm10":59.0,"pm2_5":19.0,"no2":0.6,"co":111.0,"o3":83.0,"so2":1.7,"mosquito_risk":0,"arthritis_risk":5,"migraine_risk":7,"frizz_risk":1,"updated_at":"2026-06-22T16:10:59.556003+05:30"},{"city":"Kota","state":"Rajasthan","latitude":25.2138,"longitude":75.8648,"temp":37.3,"humidity":33,"rain":0.0,"pressure":973.0,"uv_index":8.35,"wind_gusts":38.5,"aqi":95,"pm10":82.7,"pm2_5":31.0,"no2":0.6,"co":124.0,"o3":110.0,"so2":4.1,"mosquito_risk":0,"arthritis_risk":5,"migraine_risk":10,"frizz_risk":1,"updated_at":"2026-06-22T16:10:59.556009+05:30"},{"city":"Bikaner","state":"Rajasthan","latitude":28.0229,"longitude":73.3119,"temp":38.7,"humidity":28,"rain":0.0,"pressure":975.5,"uv_index":8.45,"wind_gusts":33.5,"aqi":150,"pm10":154.6,"pm2_5":42.4,"no2":0.2,"co":105.0,"o3":93.0,"so2":1.6,"mosquito_risk":0,"arthritis_risk":5,"migraine_risk":10,"frizz_risk":1,"updated_at":"2026-06-22T16:10:59.556016+05:30"},{"city":"Ajmer","state":"Rajasthan","latitude":26.4499,"longitude":74.6399,"temp":34.0,"humidity":40,"rain":0.0,"pressure":949.8,"uv_index":8.35,"wind_gusts":43.6,"aqi":95,"pm10":84.8,"pm2_5":30.5,"no2":0.4,"co":115.0,"o3":97.0,"so2":2.1,"mosquito_risk":0,"arthritis_risk":5,"migraine_risk":7,"frizz_risk":1,"updated_at":"2026-06-22T16:10:59.556023+05:30"},{"city":"Gwalior","state":"Madhya Pradesh","latitude":26.2183,"longitude":78.1828,"temp":37.7,"humidity":33,"rain":0.0,"pressure":976.8,"uv_index":8.25,"wind_gusts":41.8,"aqi":83,"pm10":156.9,"pm2_5":39.5,"no2":0.6,"co":134.0,"o3":96.0,"so2":1.8,"mosquito_risk":0,"arthritis_risk":5,"migraine_risk":10,"frizz_risk":1,"updated_at":"2026-06-22T16:10:59.556030+05:30"},{"city":"Indore","state":"Madhya Pradesh","latitude":22.7196,"longitude":75.8577,"temp":31.6,"humidity":52,"rain":0.0,"pressure":944.5,"uv_index":7.85,"wind_gusts":57.6,"aqi":77,"pm10":29.5,"pm2_5":16.6,"no2":2.5,"co":154.0,"o3":82.0,"so2":3.1,"mosquito_risk":0,"arthritis_risk":5,"migraine_risk":7,"frizz_risk":1,"updated_at":"2026-06-22T16:10:59.556037+05:30"},{"city":"Bhopal","state":"Madhya Pradesh","latitude":23.2599,"longitude":77.4126,"temp":28.9,"humidity":63,"rain":0.2,"pressure":949.6,"uv_index":8.65,"wind_gusts":50.0,"aqi":89,"pm10":35.0,"pm2_5":17.3,"no2":1.2,"co":163.0,"o3":92.0,"so2":3.5,"mosquito_risk":10,"arthritis_risk":5,"migraine_risk":7,"frizz_risk":1,"updated_at":"2026-06-22T16:10:59.556044+05:30"},{"city":"Jabalpur","state":"Madhya Pradesh","latitude":23.1815,"longitude":79.9864,"temp":34.9,"humidity":39,"rain":0.0,"pressure":956.5,"uv_index":8.3,"wind_gusts":38.9,"aqi":84,"pm10":73.6,"pm2_5":34.9,"no2":0.8,"co":142.0,"o3":115.0,"so2":2.9,"mosquito_risk":0,"arthritis_risk":5,"migraine_risk":7,"frizz_risk":1,"updated_at":"2026-06-22T16:10:59.556051+05:30"},{"city":"Ujjain","state":"Madhya Pradesh","latitude":23.1765,"longitude":75.7885,"temp":31.2,"humidity":56,"rain":0.0,"pressure":950.1,"uv_index":7.8,"wind_gusts":63.4,"aqi":75,"pm10":44.4,"pm2_5":21.5,"no2":0.8,"co":124.0,"o3":87.0,"so2":2.7,"mosquito_risk":0,"arthritis_risk":5,"migraine_risk":7,"frizz_risk":1,"updated_at":"2026-06-22T16:10:59.556058+05:30"},{"city":"Visakhapatnam","state":"Andhra Pradesh","latitude":17.6868,"longitude":83.2185,"temp":31.9,"humidity":68,"rain":0.0,"pressure":999.5,"uv_index":4.7,"wind_gusts":51.8,"aqi":84,"pm10":33.2,"pm2_5":28.4,"no2":16.2,"co":381.0,"o3":132.0,"so2":34.8,"mosquito_risk":3,"arthritis_risk":5,"migraine_risk":3,"frizz_risk":1,"updated_at":"2026-06-22T16:10:59.556065+05:30"},{"city":"Vijayawada","state":"Andhra Pradesh","latitude":16.5062,"longitude":80.648,"temp":32.6,"humidity":66,"rain":0.0,"pressure":998.4,"uv_index":5.65,"wind_gusts":32.0,"aqi":82,"pm10":20.4,"pm2_5":18.2,"no2":3.2,"co":149.0,"o3":116.0,"so2":5.5,"mosquito_risk":3,"arthritis_risk":5,"migraine_risk":3,"frizz_risk":1,"updated_at":"2026-06-22T16:10:59.556071+05:30"},{"city":"Guntur","state":"Andhra Pradesh","latitude":16.3067,"longitude":80.4365,"temp":35.0,"humidity":50,"rain":0.0,"pressure":999.3,"uv_index":4.65,"wind_gusts":31.7,"aqi":78,"pm10":16.7,"pm2_5":15.1,"no2":3.1,"co":173.0,"o3":110.0,"so2":4.8,"mosquito_risk":0,"arthritis_risk":5,"migraine_risk":3,"frizz_risk":1,"updated_at":"2026-06-22T16:10:59.556078+05:30"},{"city":"Nellore","state":"Andhra Pradesh","latitude":14.4426,"longitude":79.9865,"temp":31.6,"humidity":73,"rain":0.1,"pressure":1001.8,"uv_index":8.1,"wind_gusts":39.2,"aqi":75,"pm10":25.1,"pm2_5":20.7,"no2":3.3,"co":146.0,"o3":146.0,"so2":5.3,"mosquito_risk":6,"arthritis_risk":5,"migraine_risk":4,"frizz_risk":1,"updated_at":"2026-06-22T16:10:59.556086+05:30"},{"city":"Kurnool","state":"Andhra Pradesh","latitude":15.8281,"longitude":78.0373,"temp":35.5,"humidity":44,"rain":0.0,"pressure":972.5,"uv_index":8.95,"wind_gusts":46.4,"aqi":44,"pm10":4.5,"pm2_5":3.7,"no2":0.8,"co":119.0,"o3":80.0,"so2":1.3,"mosquito_risk":0,"arthritis_risk":5,"migraine_risk":10,"frizz_risk":1,"updated_at":"2026-06-22T16:10:59.556094+05:30"},{"city":"Kakinada","state":"Andhra Pradesh","latitude":16.9891,"longitude":82.2475,"temp":31.6,"humidity":70,"rain":0.0,"pressure":1003.6,"uv_index":8.15,"wind_gusts":53.6,"aqi":93,"pm10":33.5,"pm2_5":26.0,"no2":2.4,"co":211.0,"o3":145.0,"so2":7.4,"mosquito_risk":3,"arthritis_risk":5,"migraine_risk":4,"frizz_risk":1,"updated_at":"2026-06-22T16:10:59.556101+05:30"},{"city":"Tirupati","state":"Andhra Pradesh","latitude":13.6288,"longitude":79.4192,"temp":29.0,"humidity":78,"rain":0.1,"pressure":988.1,"uv_index":8.9,"wind_gusts":35.3,"aqi":78,"pm10":10.0,"pm2_5":8.7,"no2":3.6,"co":130.0,"o3":97.0,"so2":1.7,"mosquito_risk":10,"arthritis_risk":5,"migraine_risk":7,"frizz_risk":1,"updated_at":"2026-06-22T16:10:59.556108+05:30"},{"city":"Warangal","state":"Telangana","latitude":17.9689,"longitude":79.5941,"temp":32.5,"humidity":60,"rain":0.0,"pressure":974.6,"uv_index":8.4,"wind_gusts":32.8,"aqi":64,"pm10":11.3,"pm2_5":10.3,"no2":1.5,"co":160.0,"o3":108.0,"so2":2.7,"mosquito_risk":0,"arthritis_risk":5,"migraine_risk":7,"frizz_risk":1,"updated_at":"2026-06-22T16:10:59.556115+05:30"},{"city":"Nizamabad","state":"Telangana","latitude":18.6725,"longitude":78.0941,"temp":35.0,"humidity":41,"rain":0.0,"pressure":960.7,"uv_index":8.3,"wind_gusts":54.7,"aqi":53,"pm10":8.9,"pm2_5":7.9,"no2":1.6,"co":129.0,"o3":95.0,"so2":1.9,"mosquito_risk":0,"arthritis_risk":5,"migraine_risk":7,"frizz_risk":1,"updated_at":"2026-06-22T16:10:59.556121+05:30"},{"city":"Mysore","state":"Karnataka","latitude":12.2958,"longitude":76.6396,"temp":27.9,"humidity":63,"rain":0.1,"pressure":926.6,"uv_index":8.45,"wind_gusts":45.0,"aqi":29,"pm10":3.6,"pm2_5":2.7,"no2":2.4,"co":128.0,"o3":71.0,"so2":1.2,"mosquito_risk":10,"arthritis_risk":5,"migraine_risk":7,"frizz_risk":1,"updated_at":"2026-06-22T16:10:59.556128+05:30"},{"city":"Mangalore","state":"Karnataka","latitude":12.9141,"longitude":74.856,"temp":27.0,"humidity":83,"rain":0.1,"pressure":1005.7,"uv_index":8.5,"wind_gusts":37.8,"aqi":27,"pm10":6.9,"pm2_5":4.6,"no2":1.3,"co":108.0,"o3":59.0,"so2":1.2,"mosquito_risk":10,"arthritis_risk":5,"migraine_risk":4,"frizz_risk":1,"updated_at":"2026-06-22T16:10:59.556134+05:30"},{"city":"Hubli-Dharwad","state":"Karnataka","latitude":15.3647,"longitude":75.124,"temp":27.4,"humidity":67,"rain":0.1,"pressure":938.3,"uv_index":8.9,"wind_gusts":54.0,"aqi":25,"pm10":3.1,"pm2_5":2.2,"no2":1.7,"co":108.0,"o3":59.0,"so2":0.7,"mosquito_risk":10,"arthritis_risk":5,"migraine_risk":7,"frizz_risk":1,"updated_at":"2026-06-22T16:10:59.556140+05:30"},{"city":"Belgaum","state":"Karnataka","latitude":15.8497,"longitude":74.4977,"temp":25.7,"humidity":76,"rain":0.0,"pressure":923.5,"uv_index":9.0,"wind_gusts":47.5,"aqi":24,"pm10":3.2,"pm2_5":2.6,"no2":2.1,"co":108.0,"o3":55.0,"so2":1.1,"mosquito_risk":7,"arthritis_risk":5,"migraine_risk":7,"frizz_risk":1,"updated_at":"2026-06-22T16:11:02.778710+05:30"},{"city":"Coimbatore","state":"Tamil Nadu","latitude":11.0168,"longitude":76.9558,"temp":29.0,"humidity":65,"rain":0.1,"pressure":960.3,"uv_index":8.75,"wind_gusts":54.0,"aqi":27,"pm10":4.2,"pm2_5":3.4,"no2":2.1,"co":144.0,"o3":65.0,"so2":1.6,"mosquito_risk":10,"arthritis_risk":5,"migraine_risk":7,"frizz_risk":1,"updated_at":"2026-06-22T16:11:02.778747+05:30"},{"city":"Madurai","state":"Tamil Nadu","latitude":9.9252,"longitude":78.1198,"temp":29.8,"humidity":68,"rain":0.2,"pressure":991.3,"uv_index":7.5,"wind_gusts":37.4,"aqi":56,"pm10":6.1,"pm2_5":5.2,"no2":2.4,"co":141.0,"o3":98.0,"so2":2.1,"mosquito_risk":10,"arthritis_risk":5,"migraine_risk":7,"frizz_risk":1,"updated_at":"2026-06-22T16:11:02.778758+05:30"},{"city":"Trichy","state":"Tamil Nadu","latitude":10.7905,"longitude":78.7047,"temp":31.8,"humidity":61,"rain":0.0,"pressure":996.7,"uv_index":8.3,"wind_gusts":37.1,"aqi":47,"pm10":5.6,"pm2_5":4.3,"no2":2.3,"co":149.0,"o3":83.0,"so2":1.8,"mosquito_risk":3,"arthritis_risk":5,"migraine_risk":7,"frizz_risk":1,"updated_at":"2026-06-22T16:11:02.778767+05:30"},{"city":"Salem","state":"Tamil Nadu","latitude":11.6643,"longitude":78.146,"temp":28.8,"humidity":77,"rain":0.1,"pressure":975.0,"uv_index":8.05,"wind_gusts":31.7,"aqi":43,"pm10":6.4,"pm2_5":6.0,"no2":2.9,"co":158.0,"o3":102.0,"so2":5.7,"mosquito_risk":10,"arthritis_risk":5,"migraine_risk":7,"frizz_risk":1,"updated_at":"2026-06-22T16:11:02.778775+05:30"},{"city":"Tirunelveli","state":"Tamil Nadu","latitude":8.7139,"longitude":77.7567,"temp":32.1,"humidity":59,"rain":0.1,"pressure":1001.5,"uv_index":7.85,"wind_gusts":31.0,"aqi":29,"pm10":4.0,"pm2_5":3.4,"no2":1.9,"co":110.0,"o3":71.0,"so2":0.8,"mosquito_risk":3,"arthritis_risk":5,"migraine_risk":4,"frizz_risk":1,"updated_at":"2026-06-22T16:11:02.778784+05:30"},{"city":"Vellore","state":"Tamil Nadu","latitude":12.9165,"longitude":79.1325,"temp":32.1,"humidity":60,"rain":0.0,"pressure":981.3,"uv_index":8.95,"wind_gusts":29.5,"aqi":75,"pm10":6.3,"pm2_5":5.4,"no2":1.8,"co":146.0,"o3":99.0,"so2":2.1,"mosquito_risk":0,"arthritis_risk":5,"migraine_risk":7,"frizz_risk":1,"updated_at":"2026-06-22T16:11:02.778792+05:30"},{"city":"Erode","state":"Tamil Nadu","latitude":11.341,"longitude":77.7172,"temp":31.9,"humidity":56,"rain":0.1,"pressure":986.3,"uv_index":8.7,"wind_gusts":36.0,"aqi":33,"pm10":5.2,"pm2_5":4.5,"no2":2.9,"co":159.0,"o3":84.0,"so2":1.8,"mosquito_risk":3,"arthritis_risk":5,"migraine_risk":7,"frizz_risk":1,"updated_at":"2026-06-22T16:11:02.778799+05:30"},{"city":"Kochi","state":"Kerala","latitude":9.9312,"longitude":76.2673,"temp":27.2,"humidity":84,"rain":0.1,"pressure":1008.7,"uv_index":8.25,"wind_gusts":31.7,"aqi":35,"pm10":10.7,"pm2_5":7.3,"no2":3.1,"co":114.0,"o3":72.0,"so2":2.8,"mosquito_risk":10,"arthritis_risk":0,"migraine_risk":4,"frizz_risk":1,"updated_at":"2026-06-22T16:11:02.778806+05:30"},{"city":"Thiruvananthapuram","state":"Kerala","latitude":8.5241,"longitude":76.9366,"temp":26.3,"humidity":87,"rain":0.1,"pressure":1008.6,"uv_index":7.8,"wind_gusts":32.8,"aqi":28,"pm10":7.8,"pm2_5":4.7,"no2":1.1,"co":94.0,"o3":64.0,"so2":0.6,"mosquito_risk":10,"arthritis_risk":0,"migraine_risk":4,"frizz_risk":1,"updated_at":"2026-06-22T16:11:02.778813+05:30"},{"city":"Kozhikode","state":"Kerala","latitude":11.2588,"longitude":75.7804,"temp":27.5,"humidity":83,"rain":0.0,"pressure":1007.3,"uv_index":7.9,"wind_gusts":31.7,"aqi":25,"pm10":4.9,"pm2_5":3.0,"no2":0.5,"co":113.0,"o3":58.0,"so2":0.7,"mosquito_risk":7,"arthritis_risk":5,"migraine_risk":4,"frizz_risk":1,"updated_at":"2026-06-22T16:11:02.778820+05:30"},{"city":"Thrissur","state":"Kerala","latitude":10.5276,"longitude":76.2144,"temp":25.5,"humidity":96,"rain":0.1,"pressure":1007.1,"uv_index":7.8,"wind_gusts":29.5,"aqi":34,"pm10":8.2,"pm2_5":5.6,"no2":2.1,"co":102.0,"o3":61.0,"so2":1.6,"mosquito_risk":10,"arthritis_risk":5,"migraine_risk":4,"frizz_risk":1,"updated_at":"2026-06-22T16:11:02.778828+05:30"},{"city":"Kannur","state":"Kerala","latitude":11.8745,"longitude":75.3704,"temp":27.5,"humidity":81,"rain":0.0,"pressure":1006.4,"uv_index":8.55,"wind_gusts":33.5,"aqi":25,"pm10":4.6,"pm2_5":3.0,"no2":1.2,"co":118.0,"o3":55.0,"so2":0.9,"mosquito_risk":7,"arthritis_risk":5,"migraine_risk":4,"frizz_risk":1,"updated_at":"2026-06-22T16:11:02.778835+05:30"},{"city":"Patna","state":"Bihar","latitude":25.5941,"longitude":85.1376,"temp":35.3,"humidity":53,"rain":0.0,"pressure":992.1,"uv_index":8.4,"wind_gusts":33.8,"aqi":153,"pm10":113.6,"pm2_5":44.4,"no2":3.9,"co":208.0,"o3":155.0,"so2":6.0,"mosquito_risk":0,"arthritis_risk":5,"migraine_risk":10,"frizz_risk":1,"updated_at":"2026-06-22T16:11:02.778842+05:30"},{"city":"Gaya","state":"Bihar","latitude":24.7914,"longitude":85.0002,"temp":35.5,"humidity":49,"rain":0.0,"pressure":986.4,"uv_index":8.65,"wind_gusts":40.3,"aqi":115,"pm10":71.9,"pm2_5":31.1,"no2":2.9,"co":199.0,"o3":133.0,"so2":5.9,"mosquito_risk":0,"arthritis_risk":5,"migraine_risk":10,"frizz_risk":1,"updated_at":"2026-06-22T16:11:02.778849+05:30"},{"city":"Muzaffarpur","state":"Bihar","latitude":26.1209,"longitude":85.3647,"temp":34.1,"humidity":63,"rain":0.0,"pressure":992.0,"uv_index":7.8,"wind_gusts":36.7,"aqi":156,"pm10":126.7,"pm2_5":60.1,"no2":5.1,"co":259.0,"o3":196.0,"so2":11.7,"mosquito_risk":3,"arthritis_risk":5,"migraine_risk":7,"frizz_risk":1,"updated_at":"2026-06-22T16:11:02.778856+05:30"},{"city":"Bhagalpur","state":"Bihar","latitude":25.2425,"longitude":87.0117,"temp":32.2,"humidity":72,"rain":0.0,"pressure":993.3,"uv_index":8.7,"wind_gusts":30.2,"aqi":141,"pm10":113.6,"pm2_5":47.8,"no2":3.2,"co":183.0,"o3":170.0,"so2":10.8,"mosquito_risk":3,"arthritis_risk":5,"migraine_risk":7,"frizz_risk":1,"updated_at":"2026-06-22T16:11:02.778863+05:30"},{"city":"Ranchi","state":"Jharkhand","latitude":23.3441,"longitude":85.3096,"temp":29.5,"humidity":64,"rain":0.0,"pressure":932.7,"uv_index":7.8,"wind_gusts":36.7,"aqi":95,"pm10":38.5,"pm2_5":27.1,"no2":3.6,"co":157.0,"o3":118.0,"so2":4.3,"mosquito_risk":7,"arthritis_risk":5,"migraine_risk":7,"frizz_risk":1,"updated_at":"2026-06-22T16:11:02.778869+05:30"},{"city":"Jamshedpur","state":"Jharkhand","latitude":22.8046,"longitude":86.2029,"temp":28.3,"humidity":91,"rain":0.1,"pressure":984.5,"uv_index":5.45,"wind_gusts":45.4,"aqi":115,"pm10":49.0,"pm2_5":38.0,"no2":4.7,"co":282.0,"o3":170.0,"so2":17.3,"mosquito_risk":10,"arthritis_risk":5,"migraine_risk":3,"frizz_risk":1,"updated_at":"2026-06-22T16:11:02.778876+05:30"},{"city":"Dhanbad","state":"Jharkhand","latitude":23.7957,"longitude":86.4304,"temp":29.0,"humidity":79,"rain":0.0,"pressure":973.5,"uv_index":5.15,"wind_gusts":39.2,"aqi":151,"pm10":91.3,"pm2_5":50.8,"no2":17.0,"co":360.0,"o3":151.0,"so2":55.6,"mosquito_risk":7,"arthritis_risk":5,"migraine_risk":3,"frizz_risk":1,"updated_at":"2026-06-22T16:11:02.778883+05:30"},{"city":"Bokaro","state":"Jharkhand","latitude":23.6693,"longitude":86.1511,"temp":30.5,"humidity":74,"rain":0.0,"pressure":977.1,"uv_index":6.0,"wind_gusts":38.2,"aqi":121,"pm10":66.1,"pm2_5":39.3,"no2":13.3,"co":138.0,"o3":145.0,"so2":42.8,"mosquito_risk":3,"arthritis_risk":5,"migraine_risk":3,"frizz_risk":1,"updated_at":"2026-06-22T16:11:02.778891+05:30"},{"city":"Bhubaneswar","state":"Odisha","latitude":20.2961,"longitude":85.8245,"temp":30.7,"humidity":79,"rain":0.0,"pressure":997.3,"uv_index":6.9,"wind_gusts":48.6,"aqi":89,"pm10":26.3,"pm2_5":22.5,"no2":5.1,"co":229.0,"o3":126.0,"so2":7.2,"mosquito_risk":3,"arthritis_risk":5,"migraine_risk":7,"frizz_risk":1,"updated_at":"2026-06-22T16:11:02.778898+05:30"},{"city":"Cuttack","state":"Odisha","latitude":20.4625,"longitude":85.8828,"temp":31.2,"humidity":76,"rain":0.0,"pressure":998.8,"uv_index":8.55,"wind_gusts":42.8,"aqi":89,"pm10":26.3,"pm2_5":22.5,"no2":5.1,"co":232.0,"o3":126.0,"so2":7.2,"mosquito_risk":3,"arthritis_risk":5,"migraine_risk":7,"frizz_risk":1,"updated_at":"2026-06-22T16:11:02.778904+05:30"},{"city":"Rourkela","state":"Odisha","latitude":22.2604,"longitude":84.8536,"temp":31.4,"humidity":68,"rain":0.0,"pressure":979.2,"uv_index":8.35,"wind_gusts":36.0,"aqi":115,"pm10":53.9,"pm2_5":39.6,"no2":3.2,"co":210.0,"o3":183.0,"so2":15.4,"mosquito_risk":3,"arthritis_risk":5,"migraine_risk":7,"frizz_risk":1,"updated_at":"2026-06-22T16:11:02.778911+05:30"},{"city":"Raipur","state":"Chhattisgarh","latitude":21.2514,"longitude":81.6296,"temp":34.7,"humidity":45,"rain":0.0,"pressure":970.0,"uv_index":8.95,"wind_gusts":50.8,"aqi":87,"pm10":56.1,"pm2_5":34.9,"no2":10.3,"co":144.0,"o3":115.0,"so2":27.5,"mosquito_risk":0,"arthritis_risk":5,"migraine_risk":7,"frizz_risk":1,"updated_at":"2026-06-22T16:11:02.778917+05:30"},{"city":"Bhilai","state":"Chhattisgarh","latitude":21.1938,"longitude":81.3509,"temp":34.8,"humidity":44,"rain":0.0,"pressure":970.3,"uv_index":8.95,"wind_gusts":56.9,"aqi":85,"pm10":56.2,"pm2_5":33.2,"no2":10.1,"co":252.0,"o3":111.0,"so2":24.9,"mosquito_risk":0,"arthritis_risk":5,"migraine_risk":7,"frizz_risk":1,"updated_at":"2026-06-22T16:11:02.778923+05:30"},{"city":"Guwahati","state":"Assam","latitude":26.1158,"longitude":91.7086,"temp":27.4,"humidity":93,"rain":0.1,"pressure":994.6,"uv_index":7.75,"wind_gusts":28.8,"aqi":62,"pm10":23.5,"pm2_5":19.1,"no2":2.9,"co":335.0,"o3":105.0,"so2":2.8,"mosquito_risk":10,"arthritis_risk":5,"migraine_risk":7,"frizz_risk":1,"updated_at":"2026-06-22T16:11:02.778930+05:30"},{"city":"Agartala","state":"Tripura","latitude":23.8315,"longitude":91.2868,"temp":28.1,"humidity":89,"rain":0.1,"pressure":1000.1,"uv_index":7.95,"wind_gusts":27.4,"aqi":59,"pm10":28.1,"pm2_5":22.0,"no2":6.5,"co":200.0,"o3":109.0,"so2":3.0,"mosquito_risk":10,"arthritis_risk":5,"migraine_risk":4,"frizz_risk":1,"updated_at":"2026-06-22T16:11:02.778937+05:30"},{"city":"Shillong","state":"Meghalaya","latitude":25.5788,"longitude":91.8933,"temp":23.2,"humidity":74,"rain":0.1,"pressure":853.5,"uv_index":5.65,"wind_gusts":26.6,"aqi":47,"pm10":22.4,"pm2_5":13.6,"no2":2.6,"co":201.0,"o3":106.0,"so2":1.7,"mosquito_risk":6,"arthritis_risk":5,"migraine_risk":3,"frizz_risk":1,"updated_at":"2026-06-22T16:11:02.778943+05:30"},{"city":"Imphal","state":"Manipur","latitude":24.817,"longitude":93.9368,"temp":26.1,"humidity":84,"rain":0.1,"pressure":917.8,"uv_index":5.35,"wind_gusts":29.5,"aqi":73,"pm10":15.4,"pm2_5":12.1,"no2":2.1,"co":208.0,"o3":84.0,"so2":1.1,"mosquito_risk":10,"arthritis_risk":5,"migraine_risk":3,"frizz_risk":1,"updated_at":"2026-06-22T16:11:02.778950+05:30"},{"city":"Aizawl","state":"Mizoram","latitude":23.7271,"longitude":92.7176,"temp":20.9,"humidity":95,"rain":0.2,"pressure":887.9,"uv_index":7.6,"wind_gusts":28.8,"aqi":35,"pm10":2.2,"pm2_5":2.1,"no2":1.5,"co":163.0,"o3":77.0,"so2":0.3,"mosquito_risk":6,"arthritis_risk":5,"migraine_risk":7,"frizz_risk":1,"updated_at":"2026-06-22T16:11:02.778957+05:30"},{"city":"Kohima","state":"Nagaland","latitude":25.6701,"longitude":94.1077,"temp":21.7,"humidity":95,"rain":0.0,"pressure":851.1,"uv_index":6.75,"wind_gusts":26.6,"aqi":53,"pm10":16.4,"pm2_5":11.7,"no2":1.9,"co":186.0,"o3":90.0,"so2":1.0,"mosquito_risk":3,"arthritis_risk":5,"migraine_risk":7,"frizz_risk":1,"updated_at":"2026-06-22T16:11:02.778964+05:30"},{"city":"Gangtok","state":"Sikkim","latitude":27.3314,"longitude":88.6138,"temp":20.1,"humidity":93,"rain":0.1,"pressure":833.3,"uv_index":7.5,"wind_gusts":27.7,"aqi":68,"pm10":5.0,"pm2_5":4.1,"no2":4.1,"co":299.0,"o3":115.0,"so2":1.9,"mosquito_risk":6,"arthritis_risk":5,"migraine_risk":7,"frizz_risk":1,"updated_at":"2026-06-22T16:11:02.778971+05:30"},{"city":"Siliguri","state":"West Bengal","latitude":26.7271,"longitude":88.3953,"temp":29.2,"humidity":77,"rain":0.0,"pressure":985.4,"uv_index":7.9,"wind_gusts":20.2,"aqi":68,"pm10":47.6,"pm2_5":33.5,"no2":5.9,"co":458.0,"o3":131.0,"so2":8.1,"mosquito_risk":7,"arthritis_risk":5,"migraine_risk":7,"frizz_risk":1,"updated_at":"2026-06-22T16:11:06.002245+05:30"},{"city":"Durgapur","state":"West Bengal","latitude":23.5204,"longitude":87.3119,"temp":31.9,"humidity":67,"rain":0.0,"pressure":988.1,"uv_index":8.95,"wind_gusts":37.1,"aqi":155,"pm10":84.8,"pm2_5":57.2,"no2":18.0,"co":418.0,"o3":171.0,"so2":59.4,"mosquito_risk":3,"arthritis_risk":5,"migraine_risk":7,"frizz_risk":1,"updated_at":"2026-06-22T16:11:06.002281+05:30"},{"city":"Asansol","state":"West Bengal","latitude":23.6739,"longitude":86.9524,"temp":31.1,"humidity":67,"rain":0.0,"pressure":986.9,"uv_index":6.4,"wind_gusts":43.9,"aqi":152,"pm10":97.8,"pm2_5":55.4,"no2":16.4,"co":223.0,"o3":162.0,"so2":51.2,"mosquito_risk":3,"arthritis_risk":5,"migraine_risk":7,"frizz_risk":1,"updated_at":"2026-06-22T16:11:06.002293+05:30"},{"city":"Pondicherry","state":"Puducherry","latitude":11.9139,"longitude":79.8145,"temp":29.5,"humidity":82,"rain":0.0,"pressure":1005.3,"uv_index":8.55,"wind_gusts":43.9,"aqi":58,"pm10":22.6,"pm2_5":18.6,"no2":4.9,"co":171.0,"o3":131.0,"so2":9.4,"mosquito_risk":7,"arthritis_risk":5,"migraine_risk":4,"frizz_risk":1,"updated_at":"2026-06-22T16:11:06.002302+05:30"},{"city":"Port Blair","state":"Andaman and Nicobar Islands","latitude":11.6234,"longitude":92.7265,"temp":29.5,"humidity":72,"rain":0.0,"pressure":1006.4,"uv_index":8.5,"wind_gusts":38.9,"aqi":30,"pm10":11.0,"pm2_5":6.4,"no2":0.3,"co":97.0,"o3":42.0,"so2":0.5,"mosquito_risk":7,"arthritis_risk":5,"migraine_risk":4,"frizz_risk":1,"updated_at":"2026-06-22T16:11:06.002310+05:30"},{"city":"Haridwar","state":"Uttarakhand","latitude":29.9457,"longitude":78.1642,"temp":33.9,"humidity":49,"rain":0.0,"pressure":967.3,"uv_index":7.6,"wind_gusts":22.3,"aqi":145,"pm10":45.3,"pm2_5":25.1,"no2":1.7,"co":282.0,"o3":167.0,"so2":8.2,"mosquito_risk":0,"arthritis_risk":5,"migraine_risk":7,"frizz_risk":1,"updated_at":"2026-06-22T16:11:06.002318+05:30"},{"city":"Rishikesh","state":"Uttarakhand","latitude":30.0869,"longitude":78.2676,"temp":33.3,"humidity":45,"rain":0.0,"pressure":960.3,"uv_index":7.75,"wind_gusts":24.1,"aqi":135,"pm10":49.7,"pm2_5":25.6,"no2":1.0,"co":284.0,"o3":168.0,"so2":6.2,"mosquito_risk":0,"arthritis_risk":5,"migraine_risk":7,"frizz_risk":1,"updated_at":"2026-06-22T16:11:06.002342+05:30"},{"city":"Nainital","state":"Uttarakhand","latitude":29.3919,"longitude":79.4542,"temp":22.1,"humidity":59,"rain":0.1,"pressure":804.3,"uv_index":6.85,"wind_gusts":26.6,"aqi":139,"pm10":124.8,"pm2_5":42.7,"no2":1.2,"co":264.0,"o3":160.0,"so2":6.3,"mosquito_risk":3,"arthritis_risk":5,"migraine_risk":7,"frizz_risk":0,"updated_at":"2026-06-22T16:11:06.002350+05:30"},{"city":"Mussoorie","state":"Uttarakhand","latitude":30.4599,"longitude":78.0664,"temp":22.6,"humidity":47,"rain":0.0,"pressure":802.1,"uv_index":7.6,"wind_gusts":29.9,"aqi":113,"pm10":37.7,"pm2_5":22.8,"no2":1.2,"co":264.0,"o3":159.0,"so2":5.6,"mosquito_risk":0,"arthritis_risk":5,"migraine_risk":7,"frizz_risk":0,"updated_at":"2026-06-22T16:11:06.002357+05:30"},{"city":"Dharamshala","state":"Himachal Pradesh","latitude":32.219,"longitude":76.3234,"temp":25.2,"humidity":45,"rain":0.0,"pressure":866.8,"uv_index":8.45,"wind_gusts":45.7,"aqi":81,"pm10":15.0,"pm2_5":8.9,"no2":0.6,"co":250.0,"o3":131.0,"so2":0.6,"mosquito_risk":4,"arthritis_risk":5,"migraine_risk":7,"frizz_risk":0,"updated_at":"2026-06-22T16:11:06.002363+05:30"},{"city":"Dalhousie","state":"Himachal Pradesh","latitude":32.5387,"longitude":75.971,"temp":21.7,"humidity":53,"rain":0.0,"pressure":804.3,"uv_index":7.8,"wind_gusts":31.3,"aqi":99,"pm10":27.9,"pm2_5":16.4,"no2":1.0,"co":210.0,"o3":145.0,"so2":1.1,"mosquito_risk":0,"arthritis_risk":5,"migraine_risk":7,"frizz_risk":0,"updated_at":"2026-06-22T16:11:06.002371+05:30"},{"city":"Patiala","state":"Punjab","latitude":30.3398,"longitude":76.3869,"temp":33.8,"humidity":35,"rain":0.0,"pressure":972.8,"uv_index":6.7,"wind_gusts":37.4,"aqi":191,"pm10":646.3,"pm2_5":86.8,"no2":1.9,"co":213.0,"o3":154.0,"so2":5.1,"mosquito_risk":0,"arthritis_risk":5,"migraine_risk":7,"frizz_risk":1,"updated_at":"2026-06-22T16:11:06.002378+05:30"},{"city":"Bhatinda","state":"Punjab","latitude":30.211,"longitude":74.9455,"temp":34.4,"humidity":43,"rain":0.0,"pressure":978.6,"uv_index":8.3,"wind_gusts":33.5,"aqi":104,"pm10":81.3,"pm2_5":36.4,"no2":2.0,"co":144.0,"o3":163.0,"so2":13.6,"mosquito_risk":0,"arthritis_risk":5,"migraine_risk":7,"frizz_risk":1,"updated_at":"2026-06-22T16:11:06.002385+05:30"},{"city":"Rohtak","state":"Haryana","latitude":28.8955,"longitude":76.6066,"temp":34.1,"humidity":41,"rain":0.0,"pressure":976.1,"uv_index":6.95,"wind_gusts":39.6,"aqi":543,"pm10":860.5,"pm2_5":110.4,"no2":2.6,"co":158.0,"o3":135.0,"so2":4.0,"mosquito_risk":0,"arthritis_risk":5,"migraine_risk":7,"frizz_risk":1,"updated_at":"2026-06-22T16:11:06.002391+05:30"},{"city":"Panipat","state":"Haryana","latitude":29.3909,"longitude":76.9635,"temp":33.9,"humidity":45,"rain":0.0,"pressure":974.4,"uv_index":7.5,"wind_gusts":36.4,"aqi":1491,"pm10":1929.7,"pm2_5":212.8,"no2":3.2,"co":159.0,"o3":133.0,"so2":7.9,"mosquito_risk":0,"arthritis_risk":5,"migraine_risk":7,"frizz_risk":1,"updated_at":"2026-06-22T16:11:06.002397+05:30"},{"city":"Mathura","state":"Uttar Pradesh","latitude":27.4924,"longitude":77.6737,"temp":36.4,"humidity":30,"rain":0.0,"pressure":980.5,"uv_index":8.05,"wind_gusts":32.4,"aqi":435,"pm10":920.1,"pm2_5":111.3,"no2":2.6,"co":139.0,"o3":124.0,"so2":3.5,"mosquito_risk":0,"arthritis_risk":5,"migraine_risk":10,"frizz_risk":1,"updated_at":"2026-06-22T16:11:06.002404+05:30"},{"city":"Vrindavan","state":"Uttar Pradesh","latitude":27.5823,"longitude":77.7027,"temp":36.1,"humidity":33,"rain":0.0,"pressure":980.8,"uv_index":8.0,"wind_gusts":32.4,"aqi":435,"pm10":920.1,"pm2_5":111.3,"no2":2.6,"co":135.0,"o3":124.0,"so2":3.5,"mosquito_risk":0,"arthritis_risk":5,"migraine_risk":10,"frizz_risk":1,"updated_at":"2026-06-22T16:11:06.002410+05:30"},{"city":"Ayodhya","state":"Uttar Pradesh","latitude":26.7922,"longitude":82.1998,"temp":36.0,"humidity":49,"rain":0.3,"pressure":986.7,"uv_index":8.05,"wind_gusts":35.6,"aqi":160,"pm10":265.4,"pm2_5":63.8,"no2":1.6,"co":166.0,"o3":147.0,"so2":8.5,"mosquito_risk":3,"arthritis_risk":5,"migraine_risk":10,"frizz_risk":1,"updated_at":"2026-06-22T16:11:06.002417+05:30"},{"city":"Ratlam","state":"Madhya Pradesh","latitude":23.3315,"longitude":75.0367,"temp":33.7,"humidity":47,"rain":0.0,"pressure":950.5,"uv_index":7.8,"wind_gusts":41.4,"aqi":69,"pm10":50.3,"pm2_5":24.7,"no2":0.7,"co":115.0,"o3":84.0,"so2":2.2,"mosquito_risk":0,"arthritis_risk":5,"migraine_risk":7,"frizz_risk":1,"updated_at":"2026-06-22T16:11:06.002424+05:30"},{"city":"Sagar","state":"Madhya Pradesh","latitude":23.8388,"longitude":78.7378,"temp":35.8,"humidity":35,"rain":0.0,"pressure":945.3,"uv_index":8.7,"wind_gusts":46.1,"aqi":92,"pm10":89.6,"pm2_5":37.1,"no2":0.6,"co":132.0,"o3":107.0,"so2":3.1,"mosquito_risk":0,"arthritis_risk":5,"migraine_risk":10,"frizz_risk":1,"updated_at":"2026-06-22T16:11:06.002430+05:30"},{"city":"Satna","state":"Madhya Pradesh","latitude":24.6005,"longitude":80.8322,"temp":36.8,"humidity":35,"rain":0.0,"pressure":965.3,"uv_index":8.8,"wind_gusts":40.0,"aqi":80,"pm10":65.4,"pm2_5":27.5,"no2":0.6,"co":128.0,"o3":106.0,"so2":2.1,"mosquito_risk":0,"arthritis_risk":5,"migraine_risk":10,"frizz_risk":1,"updated_at":"2026-06-22T16:11:06.002436+05:30"},{"city":"Akola","state":"Maharashtra","latitude":20.7002,"longitude":77.0082,"temp":35.3,"humidity":43,"rain":0.0,"pressure":970.6,"uv_index":8.85,"wind_gusts":58.3,"aqi":56,"pm10":12.2,"pm2_5":9.1,"no2":1.4,"co":111.0,"o3":103.0,"so2":5.5,"mosquito_risk":0,"arthritis_risk":5,"migraine_risk":10,"frizz_risk":1,"updated_at":"2026-06-22T16:11:06.002445+05:30"},{"city":"Amravati","state":"Maharashtra","latitude":20.9374,"longitude":77.7796,"temp":33.5,"humidity":47,"rain":0.1,"pressure":963.1,"uv_index":8.6,"wind_gusts":49.7,"aqi":59,"pm10":13.8,"pm2_5":11.3,"no2":1.8,"co":112.0,"o3":106.0,"so2":6.7,"mosquito_risk":3,"arthritis_risk":5,"migraine_risk":7,"frizz_risk":1,"updated_at":"2026-06-22T16:11:06.002453+05:30"},{"city":"Latur","state":"Maharashtra","latitude":18.4088,"longitude":76.5604,"temp":34.1,"humidity":44,"rain":0.0,"pressure":935.8,"uv_index":8.9,"wind_gusts":42.1,"aqi":35,"pm10":4.5,"pm2_5":3.8,"no2":1.0,"co":110.0,"o3":75.0,"so2":0.6,"mosquito_risk":0,"arthritis_risk":5,"migraine_risk":7,"frizz_risk":1,"updated_at":"2026-06-22T16:11:06.002461+05:30"},{"city":"Nanded","state":"Maharashtra","latitude":19.1383,"longitude":77.3091,"temp":36.8,"humidity":37,"rain":0.0,"pressure":963.8,"uv_index":8.85,"wind_gusts":45.4,"aqi":55,"pm10":11.9,"pm2_5":10.5,"no2":1.7,"co":127.0,"o3":99.0,"so2":2.9,"mosquito_risk":0,"arthritis_risk":5,"migraine_risk":10,"frizz_risk":1,"updated_at":"2026-06-22T16:11:06.002468+05:30"},{"city":"Gulbarga","state":"Karnataka","latitude":17.3297,"longitude":76.8343,"temp":35.4,"humidity":40,"rain":0.0,"pressure":954.5,"uv_index":8.9,"wind_gusts":52.2,"aqi":32,"pm10":4.3,"pm2_5":3.6,"no2":1.5,"co":116.0,"o3":83.0,"so2":1.5,"mosquito_risk":0,"arthritis_risk":5,"migraine_risk":10,"frizz_risk":1,"updated_at":"2026-06-22T16:11:06.002475+05:30"},{"city":"Bidar","state":"Karnataka","latitude":17.9104,"longitude":77.5199,"temp":32.9,"humidity":48,"rain":0.0,"pressure":932.1,"uv_index":8.25,"wind_gusts":50.0,"aqi":48,"pm10":8.4,"pm2_5":7.0,"no2":1.3,"co":128.0,"o3":98.0,"so2":1.3,"mosquito_risk":0,"arthritis_risk":5,"migraine_risk":7,"frizz_risk":1,"updated_at":"2026-06-22T16:11:06.002481+05:30"},{"city":"Hospet","state":"Karnataka","latitude":15.2689,"longitude":76.3909,"temp":31.7,"humidity":53,"rain":0.0,"pressure":952.1,"uv_index":8.95,"wind_gusts":50.8,"aqi":28,"pm10":3.5,"pm2_5":2.7,"no2":1.9,"co":117.0,"o3":68.0,"so2":1.4,"mosquito_risk":0,"arthritis_risk":5,"migraine_risk":7,"frizz_risk":1,"updated_at":"2026-06-22T16:11:06.002488+05:30"},{"city":"Tirupur","state":"Tamil Nadu","latitude":11.1085,"longitude":77.3411,"temp":31.7,"humidity":55,"rain":0.0,"pressure":972.8,"uv_index":8.7,"wind_gusts":55.1,"aqi":34,"pm10":5.4,"pm2_5":4.7,"no2":3.0,"co":140.0,"o3":82.0,"so2":2.2,"mosquito_risk":0,"arthritis_risk":5,"migraine_risk":7,"frizz_risk":1,"updated_at":"2026-06-22T16:11:06.002494+05:30"},{"city":"Alappuzha","state":"Kerala","latitude":9.4981,"longitude":76.3388,"temp":26.9,"humidity":85,"rain":0.1,"pressure":1008.8,"uv_index":6.15,"wind_gusts":32.8,"aqi":29,"pm10":11.0,"pm2_5":7.6,"no2":2.7,"co":88.0,"o3":68.0,"so2":2.0,"mosquito_risk":10,"arthritis_risk":0,"migraine_risk":4,"frizz_risk":1,"updated_at":"2026-06-22T16:11:06.002500+05:30"},{"city":"Munnar","state":"Kerala","latitude":10.0889,"longitude":77.0595,"temp":17.8,"humidity":100,"rain":0.3,"pressure":856.1,"uv_index":8.45,"wind_gusts":29.9,"aqi":26,"pm10":5.1,"pm2_5":4.1,"no2":1.8,"co":101.0,"o3":69.0,"so2":1.3,"mosquito_risk":6,"arthritis_risk":10,"migraine_risk":7,"frizz_risk":1,"updated_at":"2026-06-22T16:11:06.002507+05:30"},{"city":"Silchar","state":"Assam","latitude":24.8333,"longitude":92.7789,"temp":29.7,"humidity":77,"rain":0.1,"pressure":998.3,"uv_index":7.4,"wind_gusts":32.0,"aqi":80,"pm10":17.4,"pm2_5":13.7,"no2":2.0,"co":212.0,"o3":94.0,"so2":2.1,"mosquito_risk":10,"arthritis_risk":5,"migraine_risk":7,"frizz_risk":1,"updated_at":"2026-06-22T16:11:06.002514+05:30"},{"city":"Dibrugarh","state":"Assam","latitude":27.4728,"longitude":94.912,"temp":29.4,"humidity":78,"rain":0.1,"pressure":988.1,"uv_index":7.15,"wind_gusts":24.8,"aqi":72,"pm10":25.1,"pm2_5":18.0,"no2":3.6,"co":216.0,"o3":110.0,"so2":1.9,"mosquito_risk":10,"arthritis_risk":5,"migraine_risk":7,"frizz_risk":1,"updated_at":"2026-06-22T16:11:06.002520+05:30"}]