[{"city":"Delhi","state":"Delhi","latitude":28.6139,"longitude":77.209,"temp":32.2,"humidity":48,"rain":0.0,"pressure":984.0,"uv_index":7.25,"wind_gusts":24.5,"aqi":150,"pm10":153.2,"pm2_5":53.0,"no2":12.5,"co":483.0,"o3":168.0,"so2":26.9,"mosquito_risk":0,"arthritis_risk":5,"migraine_risk":7,"frizz_risk":1,"updated_at":"2026-06-02T11:21:46.531288+05:30"},{"city":"Mumbai","state":"Maharashtra","latitude":19.076,"longitude":72.8777,"temp":32.8,"humidity":60,"rain":0.0,"pressure":1009.0,"uv_index":7.7,"wind_gusts":42.1,"aqi":59,"pm10":48.7,"pm2_5":23.0,"no2":7.2,"co":194.0,"o3":92.0,"so2":10.6,"mosquito_risk":0,"arthritis_risk":0,"migraine_risk":4,"frizz_risk":1,"updated_at":"2026-06-02T11:21:46.531330+05:30"},{"city":"Bangalore","state":"Karnataka","latitude":12.9716,"longitude":77.5946,"temp":29.9,"humidity":47,"rain":0.0,"pressure":914.2,"uv_index":9.2,"wind_gusts":38.2,"aqi":83,"pm10":18.2,"pm2_5":15.0,"no2":7.6,"co":405.0,"o3":145.0,"so2":6.7,"mosquito_risk":4,"arthritis_risk":5,"migraine_risk":7,"frizz_risk":1,"updated_at":"2026-06-02T11:21:46.531342+05:30"},{"city":"Hyderabad","state":"Telangana","latitude":17.385,"longitude":78.4867,"temp":35.3,"humidity":30,"rain":0.0,"pressure":954.3,"uv_index":9.1,"wind_gusts":27.7,"aqi":93,"pm10":47.3,"pm2_5":24.4,"no2":4.2,"co":343.0,"o3":138.0,"so2":5.8,"mosquito_risk":0,"arthritis_risk":5,"migraine_risk":10,"frizz_risk":0,"updated_at":"2026-06-02T11:21:46.531350+05:30"},{"city":"Chennai","state":"Tamil Nadu","latitude":13.0827,"longitude":80.2707,"temp":36.8,"humidity":43,"rain":0.0,"pressure":1007.1,"uv_index":8.95,"wind_gusts":41.4,"aqi":75,"pm10":24.9,"pm2_5":20.0,"no2":9.0,"co":341.0,"o3":114.0,"so2":16.6,"mosquito_risk":0,"arthritis_risk":5,"migraine_risk":7,"frizz_risk":1,"updated_at":"2026-06-02T11:21:46.531358+05:30"},{"city":"Kolkata","state":"West Bengal","latitude":22.5726,"longitude":88.3639,"temp":36.2,"humidity":48,"rain":0.0,"pressure":1005.4,"uv_index":8.6,"wind_gusts":29.9,"aqi":117,"pm10":51.2,"pm2_5":35.9,"no2":2.7,"co":416.0,"o3":150.0,"so2":10.3,"mosquito_risk":0,"arthritis_risk":5,"migraine_risk":7,"frizz_risk":1,"updated_at":"2026-06-02T11:21:46.531364+05:30"},{"city":"Pune","state":"Maharashtra","latitude":18.5204,"longitude":73.8567,"temp":34.9,"humidity":35,"rain":0.0,"pressure":949.1,"uv_index":8.3,"wind_gusts":50.4,"aqi":48,"pm10":36.3,"pm2_5":14.9,"no2":3.1,"co":157.0,"o3":92.0,"so2":6.3,"mosquito_risk":0,"arthritis_risk":5,"migraine_risk":7,"frizz_risk":1,"updated_at":"2026-06-02T11:21:46.531370+05:30"},{"city":"Ahmedabad","state":"Gujarat","latitude":23.0225,"longitude":72.5714,"temp":32.8,"humidity":61,"rain":0.0,"pressure":1002.9,"uv_index":8.05,"wind_gusts":28.4,"aqi":79,"pm10":67.3,"pm2_5":29.1,"no2":2.7,"co":170.0,"o3":77.0,"so2":5.6,"mosquito_risk":3,"arthritis_risk":5,"migraine_risk":4,"frizz_risk":1,"updated_at":"2026-06-02T11:21:46.531376+05:30"},{"city":"Jaipur","state":"Rajasthan","latitude":26.9124,"longitude":75.7873,"temp":32.8,"humidity":44,"rain":0.0,"pressure":960.8,"uv_index":8.2,"wind_gusts":27.7,"aqi":99,"pm10":178.8,"pm2_5":46.1,"no2":3.0,"co":256.0,"o3":105.0,"so2":6.5,"mosquito_risk":0,"arthritis_risk":5,"migraine_risk":7,"frizz_risk":1,"updated_at":"2026-06-02T11:21:46.531384+05:30"},{"city":"Lucknow","state":"Uttar Pradesh","latitude":26.8467,"longitude":80.9462,"temp":33.2,"humidity":45,"rain":0.0,"pressure":994.6,"uv_index":8.15,"wind_gusts":43.2,"aqi":140,"pm10":71.2,"pm2_5":45.2,"no2":3.6,"co":322.0,"o3":156.0,"so2":7.7,"mosquito_risk":0,"arthritis_risk":5,"migraine_risk":7,"frizz_risk":1,"updated_at":"2026-06-02T11:21:46.531389+05:30"},{"city":"Kanpur","state":"Uttar Pradesh","latitude":26.4499,"longitude":80.3319,"temp":34.0,"humidity":45,"rain":0.0,"pressure":992.5,"uv_index":7.6,"wind_gusts":41.8,"aqi":126,"pm10":224.9,"pm2_5":58.4,"no2":2.9,"co":273.0,"o3":158.0,"so2":7.0,"mosquito_risk":0,"arthritis_risk":5,"migraine_risk":7,"frizz_risk":1,"updated_at":"2026-06-02T11:21:46.531395+05:30"},{"city":"Chandigarh","state":"Chandigarh","latitude":30.7333,"longitude":76.7794,"temp":32.7,"humidity":41,"rain":0.0,"pressure":970.5,"uv_index":7.85,"wind_gusts":22.0,"aqi":91,"pm10":39.6,"pm2_5":26.8,"no2":3.6,"co":523.0,"o3":191.0,"so2":15.5,"mosquito_risk":0,"arthritis_risk":5,"migraine_risk":7,"frizz_risk":1,"updated_at":"2026-06-02T11:21:46.531400+05:30"},{"city":"Srinagar","state":"Jammu and Kashmir","latitude":34.0837,"longitude":74.7973,"temp":25.6,"humidity":44,"rain":0.0,"pressure":845.8,"uv_index":9.1,"wind_gusts":24.5,"aqi":127,"pm10":84.3,"pm2_5":43.9,"no2":2.6,"co":407.0,"o3":153.0,"so2":4.8,"mosquito_risk":4,"arthritis_risk":5,"migraine_risk":7,"frizz_risk":0,"updated_at":"2026-06-02T11:21:46.531405+05:30"},{"city":"Jammu","state":"Jammu and Kashmir","latitude":32.7266,"longitude":74.857,"temp":32.3,"humidity":42,"rain":0.0,"pressure":974.2,"uv_index":8.65,"wind_gusts":31.0,"aqi":139,"pm10":104.8,"pm2_5":38.4,"no2":3.0,"co":309.0,"o3":161.0,"so2":4.2,"mosquito_risk":0,"arthritis_risk":5,"migraine_risk":7,"frizz_risk":1,"updated_at":"2026-06-02T11:21:46.531411+05:30"},{"city":"Amritsar","state":"Punjab","latitude":31.634,"longitude":74.8723,"temp":34.5,"humidity":37,"rain":0.0,"pressure":981.9,"uv_index":8.45,"wind_gusts":23.0,"aqi":149,"pm10":484.3,"pm2_5":94.8,"no2":3.2,"co":327.0,"o3":152.0,"so2":10.0,"mosquito_risk":0,"arthritis_risk":5,"migraine_risk":7,"frizz_risk":1,"updated_at":"2026-06-02T11:21:46.531417+05:30"},{"city":"Ludhiana","state":"Punjab","latitude":30.901,"longitude":75.8573,"temp":34.5,"humidity":35,"rain":0.0,"pressure":980.4,"uv_index":8.05,"wind_gusts":27.7,"aqi":134,"pm10":87.1,"pm2_5":34.0,"no2":4.3,"co":424.0,"o3":171.0,"so2":15.2,"mosquito_risk":0,"arthritis_risk":5,"migraine_risk":7,"frizz_risk":1,"updated_at":"2026-06-02T11:21:46.531422+05:30"},{"city":"Jalandhar","state":"Punjab","latitude":31.326,"longitude":75.5762,"temp":35.2,"humidity":35,"rain":0.0,"pressure":981.3,"uv_index":8.25,"wind_gusts":26.3,"aqi":124,"pm10":93.4,"pm2_5":35.7,"no2":3.8,"co":383.0,"o3":159.0,"so2":10.6,"mosquito_risk":0,"arthritis_risk":5,"migraine_risk":10,"frizz_risk":1,"updated_at":"2026-06-02T11:21:46.531427+05:30"},{"city":"Dehradun","state":"Uttarakhand","latitude":30.6284,"longitude":78.0322,"temp":23.1,"humidity":51,"rain":0.0,"pressure":834.7,"uv_index":8.25,"wind_gusts":29.2,"aqi":54,"pm10":20.7,"pm2_5":9.8,"no2":1.1,"co":197.0,"o3":137.0,"so2":0.8,"mosquito_risk":0,"arthritis_risk":5,"migraine_risk":7,"frizz_risk":0,"updated_at":"2026-06-02T11:21:46.531432+05:30"},{"city":"Shimla","state":"Himachal Pradesh","latitude":31.1048,"longitude":77.1734,"temp":21.3,"humidity":43,"rain":0.0,"pressure":789.3,"uv_index":8.35,"wind_gusts":34.9,"aqi":58,"pm10":22.5,"pm2_5":9.8,"no2":1.0,"co":267.0,"o3":142.0,"so2":1.4,"mosquito_risk":0,"arthritis_risk":5,"migraine_risk":7,"frizz_risk":0,"updated_at":"2026-06-02T11:21:46.531440+05:30"},{"city":"Manali","state":"Himachal Pradesh","latitude":32.2396,"longitude":77.1887,"temp":24.2,"humidity":45,"rain":0.0,"pressure":823.2,"uv_index":9.75,"wind_gusts":32.4,"aqi":38,"pm10":13.4,"pm2_5":6.1,"no2":6.9,"co":142.0,"o3":121.0,"so2":0.3,"mosquito_risk":0,"arthritis_risk":5,"migraine_risk":7,"frizz_risk":0,"updated_at":"2026-06-02T11:21:46.531445+05:30"},{"city":"Gurgaon","state":"Haryana","latitude":28.4595,"longitude":77.0266,"temp":33.0,"humidity":42,"rain":0.0,"pressure":982.3,"uv_index":7.25,"wind_gusts":29.9,"aqi":318,"pm10":269.2,"pm2_5":67.5,"no2":9.9,"co":388.0,"o3":155.0,"so2":18.6,"mosquito_risk":0,"arthritis_risk":5,"migraine_risk":7,"frizz_risk":1,"updated_at":"2026-06-02T11:21:46.531450+05:30"},{"city":"Noida","state":"Uttar Pradesh","latitude":28.5355,"longitude":77.391,"temp":32.8,"humidity":46,"rain":0.0,"pressure":985.3,"uv_index":7.8,"wind_gusts":27.0,"aqi":318,"pm10":269.2,"pm2_5":67.5,"no2":9.9,"co":398.0,"o3":155.0,"so2":18.6,"mosquito_risk":0,"arthritis_risk":5,"migraine_risk":7,"frizz_risk":1,"updated_at":"2026-06-02T11:21:46.531456+05:30"},{"city":"Ghaziabad","state":"Uttar Pradesh","latitude":28.6692,"longitude":77.4538,"temp":32.8,"humidity":47,"rain":0.0,"pressure":983.5,"uv_index":7.75,"wind_gusts":26.3,"aqi":128,"pm10":127.1,"pm2_5":45.8,"no2":4.5,"co":291.0,"o3":158.0,"so2":13.5,"mosquito_risk":0,"arthritis_risk":5,"migraine_risk":7,"frizz_risk":1,"updated_at":"2026-06-02T11:21:46.531461+05:30"},{"city":"Faridabad","state":"Haryana","latitude":28.4089,"longitude":77.3178,"temp":32.2,"humidity":48,"rain":0.0,"pressure":984.6,"uv_index":7.8,"wind_gusts":29.2,"aqi":318,"pm10":269.2,"pm2_5":67.5,"no2":9.9,"co":399.0,"o3":155.0,"so2":18.6,"mosquito_risk":0,"arthritis_risk":5,"migraine_risk":7,"frizz_risk":1,"updated_at":"2026-06-02T11:21:46.531466+05:30"},{"city":"Meerut","state":"Uttar Pradesh","latitude":28.9845,"longitude":77.7064,"temp":32.3,"humidity":47,"rain":0.0,"pressure":982.6,"uv_index":7.15,"wind_gusts":29.2,"aqi":128,"pm10":127.1,"pm2_5":45.8,"no2":4.5,"co":342.0,"o3":158.0,"so2":13.5,"mosquito_risk":0,"arthritis_risk":5,"migraine_risk":7,"frizz_risk":1,"updated_at":"2026-06-02T11:21:46.531473+05:30"},{"city":"Agra","state":"Uttar Pradesh","latitude":27.1767,"longitude":78.0081,"temp":32.0,"humidity":52,"rain":0.0,"pressure":988.7,"uv_index":8.1,"wind_gusts":28.8,"aqi":255,"pm10":529.0,"pm2_5":84.1,"no2":3.0,"co":279.0,"o3":139.0,"so2":6.5,"mosquito_risk":0,"arthritis_risk":5,"migraine_risk":7,"frizz_risk":1,"updated_at":"2026-06-02T11:21:46.531478+05:30"},{"city":"Varanasi","state":"Uttar Pradesh","latitude":25.3176,"longitude":82.9739,"temp":37.0,"humidity":35,"rain":0.0,"pressure":997.8,"uv_index":8.75,"wind_gusts":30.6,"aqi":152,"pm10":68.5,"pm2_5":52.7,"no2":4.5,"co":716.0,"o3":186.0,"so2":12.9,"mosquito_risk":0,"arthritis_risk":5,"migraine_risk":10,"frizz_risk":1,"updated_at":"2026-06-02T11:21:46.531483+05:30"},{"city":"Prayagraj","state":"Uttar Pradesh","latitude":25.4358,"longitude":81.8463,"temp":33.8,"humidity":45,"rain":0.0,"pressure":996.6,"uv_index":8.7,"wind_gusts":19.1,"aqi":134,"pm10":69.6,"pm2_5":48.1,"no2":4.7,"co":326.0,"o3":161.0,"so2":8.7,"mosquito_risk":0,"arthritis_risk":5,"migraine_risk":7,"frizz_risk":1,"updated_at":"2026-06-02T11:21:46.531489+05:30"},{"city":"Gorakhpur","state":"Uttar Pradesh","latitude":26.7606,"longitude":83.3732,"temp":35.3,"humidity":41,"rain":0.0,"pressure":997.6,"uv_index":8.5,"wind_gusts":23.0,"aqi":156,"pm10":65.7,"pm2_5":42.6,"no2":2.7,"co":309.0,"o3":181.0,"so2":7.7,"mosquito_risk":0,"arthritis_risk":5,"migraine_risk":10,"frizz_risk":1,"updated_at":"2026-06-02T11:21:46.531496+05:30"},{"city":"Bareilly","state":"Uttar Pradesh","latitude":28.367,"longitude":79.4304,"temp":31.6,"humidity":51,"rain":0.0,"pressure":987.9,"uv_index":8.05,"wind_gusts":24.5,"aqi":127,"pm10":105.0,"pm2_5":45.6,"no2":4.3,"co":261.0,"o3":157.0,"so2":20.1,"mosquito_risk":0,"arthritis_risk":5,"migraine_risk":7,"frizz_risk":1,"updated_at":"2026-06-02T11:21:46.531501+05:30"},{"city":"Aligarh","state":"Uttar Pradesh","latitude":27.8974,"longitude":78.088,"temp":31.8,"humidity":52,"rain":0.0,"pressure":986.5,"uv_index":7.95,"wind_gusts":24.8,"aqi":151,"pm10":263.6,"pm2_5":61.5,"no2":3.0,"co":299.0,"o3":144.0,"so2":9.2,"mosquito_risk":0,"arthritis_risk":5,"migraine_risk":7,"frizz_risk":1,"updated_at":"2026-06-02T11:21:46.531506+05:30"},{"city":"Moradabad","state":"Uttar Pradesh","latitude":28.8386,"longitude":78.7733,"temp":32.2,"humidity":50,"rain":0.0,"pressure":985.0,"uv_index":7.9,"wind_gusts":25.2,"aqi":125,"pm10":107.8,"pm2_5":47.1,"no2":4.4,"co":275.0,"o3":156.0,"so2":19.1,"mosquito_risk":0,"arthritis_risk":5,"migraine_risk":7,"frizz_risk":1,"updated_at":"2026-06-02T11:21:46.531510+05:30"},{"city":"Saharanpur","state":"Uttar Pradesh","latitude":29.9637,"longitude":77.546,"temp":31.3,"humidity":50,"rain":0.0,"pressure":977.2,"uv_index":7.55,"wind_gusts":23.4,"aqi":135,"pm10":59.8,"pm2_5":31.4,"no2":3.0,"co":334.0,"o3":173.0,"so2":7.9,"mosquito_risk":0,"arthritis_risk":5,"migraine_risk":7,"frizz_risk":1,"updated_at":"2026-06-02T11:21:46.531515+05:30"},{"city":"Jhansi","state":"Uttar Pradesh","latitude":25.4484,"longitude":78.5685,"temp":33.5,"humidity":43,"rain":0.0,"pressure":979.1,"uv_index":8.25,"wind_gusts":30.6,"aqi":82,"pm10":81.3,"pm2_5":30.6,"no2":2.2,"co":162.0,"o3":114.0,"so2":11.0,"mosquito_risk":0,"arthritis_risk":5,"migraine_risk":7,"frizz_risk":1,"updated_at":"2026-06-02T11:21:49.790192+05:30"},{"city":"Surat","state":"Gujarat","latitude":21.1702,"longitude":72.8311,"temp":32.8,"humidity":61,"rain":0.1,"pressure":1007.4,"uv_index":7.6,"wind_gusts":35.3,"aqi":72,"pm10":49.9,"pm2_5":25.3,"no2":15.3,"co":366.0,"o3":47.0,"so2":49.0,"mosquito_risk":6,"arthritis_risk":5,"migraine_risk":4,"frizz_risk":1,"updated_at":"2026-06-02T11:21:49.790223+05:30"},{"city":"Vadodara","state":"Gujarat","latitude":22.3072,"longitude":73.1812,"temp":33.5,"humidity":58,"rain":0.0,"pressure":1005.0,"uv_index":8.0,"wind_gusts":37.4,"aqi":70,"pm10":50.9,"pm2_5":23.2,"no2":2.8,"co":164.0,"o3":73.0,"so2":5.1,"mosquito_risk":0,"arthritis_risk":5,"migraine_risk":4,"frizz_risk":1,"updated_at":"2026-06-02T11:21:49.790232+05:30"},{"city":"Rajkot","state":"Gujarat","latitude":22.3039,"longitude":70.8022,"temp":35.6,"humidity":45,"rain":0.0,"pressure":994.3,"uv_index":7.55,"wind_gusts":40.7,"aqi":69,"pm10":76.6,"pm2_5":27.5,"no2":1.8,"co":116.0,"o3":74.0,"so2":4.8,"mosquito_risk":0,"arthritis_risk":5,"migraine_risk":10,"frizz_risk":1,"updated_at":"2026-06-02T11:21:49.790239+05:30"},{"city":"Thane","state":"Maharashtra","latitude":19.2183,"longitude":72.9781,"temp":35.5,"humidity":50,"rain":0.0,"pressure":1008.0,"uv_index":7.7,"wind_gusts":35.6,"aqi":59,"pm10":48.7,"pm2_5":23.0,"no2":7.2,"co":183.0,"o3":92.0,"so2":10.6,"mosquito_risk":0,"arthritis_risk":0,"migraine_risk":7,"frizz_risk":1,"updated_at":"2026-06-02T11:21:49.790245+05:30"},{"city":"Nagpur","state":"Maharashtra","latitude":21.1458,"longitude":79.0882,"temp":37.0,"humidity":26,"rain":0.0,"pressure":973.6,"uv_index":8.85,"wind_gusts":34.9,"aqi":80,"pm10":56.6,"pm2_5":28.3,"no2":11.6,"co":206.0,"o3":118.0,"so2":34.3,"mosquito_risk":0,"arthritis_risk":5,"migraine_risk":10,"frizz_risk":0,"updated_at":"2026-06-02T11:21:49.790252+05:30"},{"city":"Nashik","state":"Maharashtra","latitude":19.9975,"longitude":73.7898,"temp":32.3,"humidity":44,"rain":0.0,"pressure":947.2,"uv_index":8.0,"wind_gusts":43.6,"aqi":54,"pm10":47.7,"pm2_5":18.3,"no2":2.4,"co":129.0,"o3":81.0,"so2":4.5,"mosquito_risk":0,"arthritis_risk":5,"migraine_risk":7,"frizz_risk":1,"updated_at":"2026-06-02T11:21:49.790257+05:30"},{"city":"Aurangabad","state":"Maharashtra","latitude":19.8762,"longitude":75.3433,"temp":32.7,"humidity":40,"rain":0.0,"pressure":945.7,"uv_index":8.95,"wind_gusts":52.2,"aqi":59,"pm10":45.4,"pm2_5":17.5,"no2":2.1,"co":134.0,"o3":90.0,"so2":5.4,"mosquito_risk":0,"arthritis_risk":5,"migraine_risk":7,"frizz_risk":1,"updated_at":"2026-06-02T11:21:49.790264+05:30"},{"city":"Solapur","state":"Maharashtra","latitude":17.6599,"longitude":75.9064,"temp":34.2,"humidity":40,"rain":0.0,"pressure":958.3,"uv_index":8.95,"wind_gusts":51.5,"aqi":70,"pm10":43.9,"pm2_5":23.1,"no2":2.3,"co":164.0,"o3":126.0,"so2":6.8,"mosquito_risk":0,"arthritis_risk":5,"migraine_risk":7,"frizz_risk":1,"updated_at":"2026-06-02T11:21:49.790270+05:30"},{"city":"Kolhapur","state":"Maharashtra","latitude":16.705,"longitude":74.2433,"temp":33.2,"humidity":41,"rain":0.0,"pressure":949.4,"uv_index":8.75,"wind_gusts":49.3,"aqi":41,"pm10":28.7,"pm2_5":12.0,"no2":2.3,"co":144.0,"o3":90.0,"so2":2.5,"mosquito_risk":0,"arthritis_risk":5,"migraine_risk":7,"frizz_risk":1,"updated_at":"2026-06-02T11:21:49.790276+05:30"},{"city":"Goa","state":"Goa","latitude":15.2993,"longitude":74.124,"temp":31.9,"humidity":63,"rain":0.0,"pressure":999.6,"uv_index":8.4,"wind_gusts":32.4,"aqi":52,"pm10":15.1,"pm2_5":9.3,"no2":1.1,"co":166.0,"o3":71.0,"so2":2.2,"mosquito_risk":3,"arthritis_risk":5,"migraine_risk":7,"frizz_risk":1,"updated_at":"2026-06-02T11:21:49.790282+05:30"},{"city":"Jodhpur","state":"Rajasthan","latitude":26.2389,"longitude":73.0243,"temp":35.2,"humidity":42,"rain":0.0,"pressure":983.5,"uv_index":8.4,"wind_gusts":37.4,"aqi":97,"pm10":129.9,"pm2_5":37.0,"no2":2.1,"co":149.0,"o3":92.0,"so2":3.7,"mosquito_risk":0,"arthritis_risk":5,"migraine_risk":10,"frizz_risk":1,"updated_at":"2026-06-02T11:21:49.790288+05:30"},{"city":"Udaipur","state":"Rajasthan","latitude":24.5854,"longitude":73.7125,"temp":32.3,"humidity":42,"rain":0.0,"pressure":947.8,"uv_index":8.8,"wind_gusts":27.0,"aqi":78,"pm10":57.5,"pm2_5":28.1,"no2":1.6,"co":149.0,"o3":84.0,"so2":4.6,"mosquito_risk":0,"arthritis_risk":5,"migraine_risk":7,"frizz_risk":1,"updated_at":"2026-06-02T11:21:49.790294+05:30"},{"city":"Kota","state":"Rajasthan","latitude":25.2138,"longitude":75.8648,"temp":34.5,"humidity":38,"rain":0.0,"pressure":979.5,"uv_index":8.4,"wind_gusts":27.0,"aqi":77,"pm10":71.0,"pm2_5":30.9,"no2":2.2,"co":156.0,"o3":107.0,"so2":6.8,"mosquito_risk":0,"arthritis_risk":5,"migraine_risk":7,"frizz_risk":1,"updated_at":"2026-06-02T11:21:49.790300+05:30"},{"city":"Bikaner","state":"Rajasthan","latitude":28.0229,"longitude":73.3119,"temp":36.2,"humidity":36,"rain":0.0,"pressure":981.9,"uv_index":8.45,"wind_gusts":36.0,"aqi":127,"pm10":187.2,"pm2_5":52.7,"no2":1.2,"co":187.0,"o3":104.0,"so2":5.3,"mosquito_risk":0,"arthritis_risk":5,"migraine_risk":10,"frizz_risk":1,"updated_at":"2026-06-02T11:21:49.790306+05:30"},{"city":"Ajmer","state":"Rajasthan","latitude":26.4499,"longitude":74.6399,"temp":32.2,"humidity":46,"rain":0.0,"pressure":955.7,"uv_index":8.3,"wind_gusts":34.9,"aqi":80,"pm10":150.9,"pm2_5":41.4,"no2":1.8,"co":140.0,"o3":98.0,"so2":4.6,"mosquito_risk":0,"arthritis_risk":5,"migraine_risk":7,"frizz_risk":1,"updated_at":"2026-06-02T11:21:49.790311+05:30"},{"city":"Gwalior","state":"Madhya Pradesh","latitude":26.2183,"longitude":78.1828,"temp":31.7,"humidity":51,"rain":0.0,"pressure":984.4,"uv_index":8.25,"wind_gusts":32.0,"aqi":96,"pm10":81.7,"pm2_5":30.4,"no2":1.4,"co":173.0,"o3":108.0,"so2":6.0,"mosquito_risk":0,"arthritis_risk":5,"migraine_risk":7,"frizz_risk":1,"updated_at":"2026-06-02T11:21:49.790317+05:30"},{"city":"Indore","state":"Madhya Pradesh","latitude":22.7196,"longitude":75.8577,"temp":31.9,"humidity":41,"rain":0.0,"pressure":949.4,"uv_index":8.6,"wind_gusts":29.9,"aqi":85,"pm10":55.8,"pm2_5":28.2,"no2":2.6,"co":236.0,"o3":96.0,"so2":8.9,"mosquito_risk":0,"arthritis_risk":5,"migraine_risk":7,"frizz_risk":1,"updated_at":"2026-06-02T11:21:49.790322+05:30"},{"city":"Bhopal","state":"Madhya Pradesh","latitude":23.2599,"longitude":77.4126,"temp":33.8,"humidity":25,"rain":0.0,"pressure":955.1,"uv_index":8.65,"wind_gusts":37.4,"aqi":71,"pm10":53.6,"pm2_5":26.5,"no2":1.3,"co":182.0,"o3":113.0,"so2":4.2,"mosquito_risk":0,"arthritis_risk":5,"migraine_risk":7,"frizz_risk":0,"updated_at":"2026-06-02T11:21:49.790327+05:30"},{"city":"Jabalpur","state":"Madhya Pradesh","latitude":23.1815,"longitude":79.9864,"temp":34.5,"humidity":34,"rain":0.0,"pressure":962.6,"uv_index":8.85,"wind_gusts":25.9,"aqi":86,"pm10":60.3,"pm2_5":24.4,"no2":1.5,"co":173.0,"o3":120.0,"so2":3.5,"mosquito_risk":0,"arthritis_risk":5,"migraine_risk":7,"frizz_risk":1,"updated_at":"2026-06-02T11:21:49.790333+05:30"},{"city":"Ujjain","state":"Madhya Pradesh","latitude":23.1765,"longitude":75.7885,"temp":32.8,"humidity":38,"rain":0.0,"pressure":955.1,"uv_index":8.55,"wind_gusts":27.7,"aqi":84,"pm10":46.1,"pm2_5":25.1,"no2":2.0,"co":179.0,"o3":82.0,"so2":9.4,"mosquito_risk":0,"arthritis_risk":5,"migraine_risk":7,"frizz_risk":1,"updated_at":"2026-06-02T11:21:49.790339+05:30"},{"city":"Visakhapatnam","state":"Andhra Pradesh","latitude":17.6868,"longitude":83.2185,"temp":35.5,"humidity":54,"rain":0.0,"pressure":1003.0,"uv_index":9.0,"wind_gusts":44.3,"aqi":91,"pm10":42.8,"pm2_5":32.5,"no2":12.7,"co":330.0,"o3":147.0,"so2":40.2,"mosquito_risk":0,"arthritis_risk":5,"migraine_risk":7,"frizz_risk":1,"updated_at":"2026-06-02T11:21:49.790344+05:30"},{"city":"Vijayawada","state":"Andhra Pradesh","latitude":16.5062,"longitude":80.648,"temp":37.3,"humidity":40,"rain":0.0,"pressure":1001.9,"uv_index":9.0,"wind_gusts":24.5,"aqi":92,"pm10":35.5,"pm2_5":24.2,"no2":2.9,"co":219.0,"o3":146.0,"so2":9.4,"mosquito_risk":0,"arthritis_risk":5,"migraine_risk":7,"frizz_risk":1,"updated_at":"2026-06-02T11:21:49.790349+05:30"},{"city":"Guntur","state":"Andhra Pradesh","latitude":16.3067,"longitude":80.4365,"temp":37.7,"humidity":35,"rain":0.0,"pressure":1002.9,"uv_index":9.0,"wind_gusts":27.7,"aqi":96,"pm10":36.0,"pm2_5":22.9,"no2":2.8,"co":220.0,"o3":142.0,"so2":6.9,"mosquito_risk":0,"arthritis_risk":5,"migraine_risk":7,"frizz_risk":1,"updated_at":"2026-06-02T11:21:49.790355+05:30"},{"city":"Nellore","state":"Andhra Pradesh","latitude":14.4426,"longitude":79.9865,"temp":36.3,"humidity":43,"rain":0.0,"pressure":1005.5,"uv_index":8.8,"wind_gusts":34.6,"aqi":74,"pm10":27.4,"pm2_5":20.3,"no2":3.5,"co":173.0,"o3":140.0,"so2":5.1,"mosquito_risk":0,"arthritis_risk":5,"migraine_risk":7,"frizz_risk":1,"updated_at":"2026-06-02T11:21:49.790360+05:30"},{"city":"Kurnool","state":"Andhra Pradesh","latitude":15.8281,"longitude":78.0373,"temp":35.7,"humidity":41,"rain":0.0,"pressure":977.5,"uv_index":9.0,"wind_gusts":31.7,"aqi":82,"pm10":35.6,"pm2_5":20.6,"no2":4.3,"co":193.0,"o3":132.0,"so2":11.3,"mosquito_risk":0,"arthritis_risk":5,"migraine_risk":10,"frizz_risk":1,"updated_at":"2026-06-02T11:21:49.790366+05:30"},{"city":"Kakinada","state":"Andhra Pradesh","latitude":16.9891,"longitude":82.2475,"temp":35.5,"humidity":54,"rain":0.0,"pressure":1007.0,"uv_index":9.0,"wind_gusts":34.9,"aqi":77,"pm10":43.0,"pm2_5":27.4,"no2":1.5,"co":237.0,"o3":136.0,"so2":5.3,"mosquito_risk":0,"arthritis_risk":5,"migraine_risk":7,"frizz_risk":1,"updated_at":"2026-06-02T11:21:49.790372+05:30"},{"city":"Tirupati","state":"Andhra Pradesh","latitude":13.6288,"longitude":79.4192,"temp":36.5,"humidity":35,"rain":0.0,"pressure":991.2,"uv_index":9.0,"wind_gusts":32.4,"aqi":65,"pm10":28.8,"pm2_5":20.3,"no2":2.8,"co":183.0,"o3":143.0,"so2":3.5,"mosquito_risk":0,"arthritis_risk":5,"migraine_risk":10,"frizz_risk":1,"updated_at":"2026-06-02T11:21:49.790377+05:30"},{"city":"Warangal","state":"Telangana","latitude":17.9689,"longitude":79.5941,"temp":35.7,"humidity":35,"rain":0.0,"pressure":979.2,"uv_index":9.0,"wind_gusts":32.0,"aqi":124,"pm10":57.7,"pm2_5":32.5,"no2":2.9,"co":221.0,"o3":134.0,"so2":6.6,"mosquito_risk":0,"arthritis_risk":5,"migraine_risk":10,"frizz_risk":1,"updated_at":"2026-06-02T11:21:49.790383+05:30"},{"city":"Nizamabad","state":"Telangana","latitude":18.6725,"longitude":78.0941,"temp":34.0,"humidity":37,"rain":0.0,"pressure":966.1,"uv_index":8.95,"wind_gusts":29.2,"aqi":96,"pm10":70.8,"pm2_5":31.0,"no2":2.1,"co":173.0,"o3":121.0,"so2":4.3,"mosquito_risk":0,"arthritis_risk":5,"migraine_risk":7,"frizz_risk":1,"updated_at":"2026-06-02T11:21:49.790388+05:30"},{"city":"Mysore","state":"Karnataka","latitude":12.2958,"longitude":76.6396,"temp":29.8,"humidity":59,"rain":0.0,"pressure":930.9,"uv_index":8.95,"wind_gusts":42.8,"aqi":54,"pm10":11.8,"pm2_5":9.7,"no2":2.9,"co":233.0,"o3":128.0,"so2":2.8,"mosquito_risk":4,"arthritis_risk":5,"migraine_risk":7,"frizz_risk":1,"updated_at":"2026-06-02T11:21:49.790393+05:30"},{"city":"Mangalore","state":"Karnataka","latitude":12.9141,"longitude":74.856,"temp":28.2,"humidity":78,"rain":0.0,"pressure":1009.4,"uv_index":1.85,"wind_gusts":32.8,"aqi":52,"pm10":13.3,"pm2_5":8.7,"no2":2.3,"co":172.0,"o3":82.0,"so2":3.4,"mosquito_risk":7,"arthritis_risk":0,"migraine_risk":0,"frizz_risk":1,"updated_at":"2026-06-02T11:21:49.790399+05:30"},{"city":"Hubli-Dharwad","state":"Karnataka","latitude":15.3647,"longitude":75.124,"temp":32.0,"humidity":48,"rain":0.0,"pressure":943.1,"uv_index":8.6,"wind_gusts":41.4,"aqi":37,"pm10":18.0,"pm2_5":8.3,"no2":1.8,"co":150.0,"o3":82.0,"so2":1.5,"mosquito_risk":0,"arthritis_risk":5,"migraine_risk":7,"frizz_risk":1,"updated_at":"2026-06-02T11:21:49.790404+05:30"},{"city":"Belgaum","state":"Karnataka","latitude":15.8497,"longitude":74.4977,"temp":30.3,"humidity":51,"rain":0.0,"pressure":928.0,"uv_index":8.95,"wind_gusts":41.0,"aqi":41,"pm10":23.8,"pm2_5":9.7,"no2":1.8,"co":133.0,"o3":81.0,"so2":1.8,"mosquito_risk":0,"arthritis_risk":5,"migraine_risk":7,"frizz_risk":1,"updated_at":"2026-06-02T11:21:53.052531+05:30"},{"city":"Coimbatore","state":"Tamil Nadu","latitude":11.0168,"longitude":76.9558,"temp":33.2,"humidity":45,"rain":0.0,"pressure":963.3,"uv_index":9.0,"wind_gusts":46.1,"aqi":52,"pm10":9.2,"pm2_5":7.4,"no2":2.3,"co":216.0,"o3":119.0,"so2":3.4,"mosquito_risk":0,"arthritis_risk":5,"migraine_risk":7,"frizz_risk":1,"updated_at":"2026-06-02T11:21:53.052561+05:30"},{"city":"Madurai","state":"Tamil Nadu","latitude":9.9252,"longitude":78.1198,"temp":35.4,"humidity":44,"rain":0.0,"pressure":993.9,"uv_index":8.85,"wind_gusts":48.6,"aqi":78,"pm10":28.2,"pm2_5":18.6,"no2":5.6,"co":206.0,"o3":139.0,"so2":6.5,"mosquito_risk":0,"arthritis_risk":5,"migraine_risk":10,"frizz_risk":1,"updated_at":"2026-06-02T11:21:53.052569+05:30"},{"city":"Trichy","state":"Tamil Nadu","latitude":10.7905,"longitude":78.7047,"temp":34.5,"humidity":51,"rain":0.0,"pressure":1000.5,"uv_index":8.85,"wind_gusts":42.1,"aqi":53,"pm10":20.4,"pm2_5":14.1,"no2":3.7,"co":165.0,"o3":121.0,"so2":5.7,"mosquito_risk":0,"arthritis_risk":5,"migraine_risk":4,"frizz_risk":1,"updated_at":"2026-06-02T11:21:53.052577+05:30"},{"city":"Salem","state":"Tamil Nadu","latitude":11.6643,"longitude":78.146,"temp":34.6,"humidity":44,"rain":0.0,"pressure":978.5,"uv_index":8.95,"wind_gusts":34.6,"aqi":73,"pm10":22.2,"pm2_5":19.8,"no2":5.4,"co":212.0,"o3":159.0,"so2":14.2,"mosquito_risk":0,"arthritis_risk":5,"migraine_risk":7,"frizz_risk":1,"updated_at":"2026-06-02T11:21:53.052583+05:30"},{"city":"Tirunelveli","state":"Tamil Nadu","latitude":8.7139,"longitude":77.7567,"temp":37.5,"humidity":37,"rain":0.0,"pressure":1003.7,"uv_index":8.75,"wind_gusts":30.6,"aqi":36,"pm10":6.3,"pm2_5":4.9,"no2":1.6,"co":139.0,"o3":69.0,"so2":1.0,"mosquito_risk":0,"arthritis_risk":5,"migraine_risk":7,"frizz_risk":1,"updated_at":"2026-06-02T11:21:53.052590+05:30"},{"city":"Vellore","state":"Tamil Nadu","latitude":12.9165,"longitude":79.1325,"temp":35.2,"humidity":41,"rain":0.0,"pressure":985.0,"uv_index":9.0,"wind_gusts":30.2,"aqi":79,"pm10":26.0,"pm2_5":20.3,"no2":3.2,"co":245.0,"o3":157.0,"so2":7.0,"mosquito_risk":0,"arthritis_risk":5,"migraine_risk":10,"frizz_risk":1,"updated_at":"2026-06-02T11:21:53.052596+05:30"},{"city":"Erode","state":"Tamil Nadu","latitude":11.341,"longitude":77.7172,"temp":35.1,"humidity":42,"rain":0.0,"pressure":990.0,"uv_index":8.9,"wind_gusts":51.1,"aqi":59,"pm10":15.9,"pm2_5":13.2,"no2":4.4,"co":281.0,"o3":136.0,"so2":3.9,"mosquito_risk":0,"arthritis_risk":5,"migraine_risk":10,"frizz_risk":1,"updated_at":"2026-06-02T11:21:53.052602+05:30"},{"city":"Kochi","state":"Kerala","latitude":9.9312,"longitude":76.2673,"temp":28.9,"humidity":76,"rain":0.1,"pressure":1011.1,"uv_index":8.55,"wind_gusts":29.5,"aqi":47,"pm10":11.1,"pm2_5":8.8,"no2":3.8,"co":192.0,"o3":96.0,"so2":5.0,"mosquito_risk":10,"arthritis_risk":0,"migraine_risk":4,"frizz_risk":1,"updated_at":"2026-06-02T11:21:53.052608+05:30"},{"city":"Thiruvananthapuram","state":"Kerala","latitude":8.5241,"longitude":76.9366,"temp":28.2,"humidity":79,"rain":0.1,"pressure":1010.7,"uv_index":8.25,"wind_gusts":35.3,"aqi":27,"pm10":7.7,"pm2_5":4.7,"no2":1.5,"co":135.0,"o3":55.0,"so2":0.7,"mosquito_risk":10,"arthritis_risk":0,"migraine_risk":4,"frizz_risk":1,"updated_at":"2026-06-02T11:21:53.052614+05:30"},{"city":"Kozhikode","state":"Kerala","latitude":11.2588,"longitude":75.7804,"temp":26.0,"humidity":94,"rain":0.3,"pressure":1010.9,"uv_index":7.9,"wind_gusts":27.4,"aqi":36,"pm10":6.4,"pm2_5":4.2,"no2":1.0,"co":206.0,"o3":82.0,"so2":0.9,"mosquito_risk":10,"arthritis_risk":0,"migraine_risk":4,"frizz_risk":1,"updated_at":"2026-06-02T11:21:53.052620+05:30"},{"city":"Thrissur","state":"Kerala","latitude":10.5276,"longitude":76.2144,"temp":28.4,"humidity":80,"rain":0.0,"pressure":1009.7,"uv_index":8.65,"wind_gusts":28.8,"aqi":50,"pm10":9.9,"pm2_5":8.3,"no2":2.9,"co":209.0,"o3":90.0,"so2":3.8,"mosquito_risk":7,"arthritis_risk":0,"migraine_risk":4,"frizz_risk":1,"updated_at":"2026-06-02T11:21:53.052626+05:30"},{"city":"Kannur","state":"Kerala","latitude":11.8745,"longitude":75.3704,"temp":27.0,"humidity":88,"rain":0.2,"pressure":1009.9,"uv_index":2.9,"wind_gusts":24.8,"aqi":39,"pm10":7.5,"pm2_5":4.9,"no2":2.0,"co":206.0,"o3":74.0,"so2":1.3,"mosquito_risk":10,"arthritis_risk":0,"migraine_risk":0,"frizz_risk":1,"updated_at":"2026-06-02T11:21:53.052633+05:30"},{"city":"Patna","state":"Bihar","latitude":25.5941,"longitude":85.1376,"temp":35.3,"humidity":45,"rain":0.0,"pressure":1000.3,"uv_index":8.85,"wind_gusts":18.7,"aqi":169,"pm10":86.1,"pm2_5":67.1,"no2":4.0,"co":405.0,"o3":220.0,"so2":18.8,"mosquito_risk":0,"arthritis_risk":5,"migraine_risk":7,"frizz_risk":1,"updated_at":"2026-06-02T11:21:53.052638+05:30"},{"city":"Gaya","state":"Bihar","latitude":24.7914,"longitude":85.0002,"temp":36.0,"humidity":40,"rain":0.0,"pressure":993.9,"uv_index":8.9,"wind_gusts":20.2,"aqi":145,"pm10":59.3,"pm2_5":45.6,"no2":1.6,"co":405.0,"o3":199.0,"so2":15.8,"mosquito_risk":0,"arthritis_risk":5,"migraine_risk":10,"frizz_risk":1,"updated_at":"2026-06-02T11:21:53.052643+05:30"},{"city":"Muzaffarpur","state":"Bihar","latitude":26.1209,"longitude":85.3647,"temp":35.0,"humidity":45,"rain":0.0,"pressure":1000.3,"uv_index":8.85,"wind_gusts":22.3,"aqi":172,"pm10":87.1,"pm2_5":68.0,"no2":4.0,"co":417.0,"o3":212.0,"so2":17.1,"mosquito_risk":0,"arthritis_risk":5,"migraine_risk":4,"frizz_risk":1,"updated_at":"2026-06-02T11:21:53.052649+05:30"},{"city":"Bhagalpur","state":"Bihar","latitude":25.2425,"longitude":87.0117,"temp":35.5,"humidity":49,"rain":0.0,"pressure":1000.7,"uv_index":8.85,"wind_gusts":18.4,"aqi":150,"pm10":55.4,"pm2_5":48.5,"no2":4.7,"co":372.0,"o3":209.0,"so2":27.5,"mosquito_risk":0,"arthritis_risk":5,"migraine_risk":7,"frizz_risk":1,"updated_at":"2026-06-02T11:21:53.052654+05:30"},{"city":"Ranchi","state":"Jharkhand","latitude":23.3441,"longitude":85.3096,"temp":32.3,"humidity":44,"rain":0.0,"pressure":939.4,"uv_index":8.95,"wind_gusts":31.7,"aqi":155,"pm10":73.3,"pm2_5":55.3,"no2":0.7,"co":276.0,"o3":204.0,"so2":26.0,"mosquito_risk":0,"arthritis_risk":5,"migraine_risk":7,"frizz_risk":1,"updated_at":"2026-06-02T11:21:53.052659+05:30"},{"city":"Jamshedpur","state":"Jharkhand","latitude":22.8046,"longitude":86.2029,"temp":34.5,"humidity":50,"rain":0.0,"pressure":991.0,"uv_index":9.05,"wind_gusts":21.6,"aqi":137,"pm10":70.8,"pm2_5":55.3,"no2":6.6,"co":333.0,"o3":210.0,"so2":35.3,"mosquito_risk":0,"arthritis_risk":5,"migraine_risk":7,"frizz_risk":1,"updated_at":"2026-06-02T11:21:53.052664+05:30"},{"city":"Dhanbad","state":"Jharkhand","latitude":23.7957,"longitude":86.4304,"temp":34.6,"humidity":43,"rain":0.0,"pressure":980.4,"uv_index":9.05,"wind_gusts":22.3,"aqi":174,"pm10":76.6,"pm2_5":65.4,"no2":32.8,"co":307.0,"o3":167.0,"so2":98.1,"mosquito_risk":0,"arthritis_risk":5,"migraine_risk":7,"frizz_risk":1,"updated_at":"2026-06-02T11:21:53.052670+05:30"},{"city":"Bokaro","state":"Jharkhand","latitude":23.6693,"longitude":86.1511,"temp":34.7,"humidity":46,"rain":0.0,"pressure":984.0,"uv_index":8.6,"wind_gusts":22.3,"aqi":178,"pm10":80.8,"pm2_5":65.9,"no2":25.2,"co":343.0,"o3":190.0,"so2":91.8,"mosquito_risk":0,"arthritis_risk":5,"migraine_risk":7,"frizz_risk":1,"updated_at":"2026-06-02T11:21:53.052675+05:30"},{"city":"Bhubaneswar","state":"Odisha","latitude":20.2961,"longitude":85.8245,"temp":34.9,"humidity":56,"rain":0.0,"pressure":1002.1,"uv_index":9.0,"wind_gusts":31.3,"aqi":100,"pm10":38.1,"pm2_5":31.0,"no2":2.4,"co":290.0,"o3":172.0,"so2":11.4,"mosquito_risk":0,"arthritis_risk":5,"migraine_risk":4,"frizz_risk":1,"updated_at":"2026-06-02T11:21:53.052680+05:30"},{"city":"Cuttack","state":"Odisha","latitude":20.4625,"longitude":85.8828,"temp":34.2,"humidity":61,"rain":0.0,"pressure":1004.0,"uv_index":9.05,"wind_gusts":38.5,"aqi":100,"pm10":38.1,"pm2_5":31.0,"no2":2.4,"co":306.0,"o3":172.0,"so2":11.4,"mosquito_risk":3,"arthritis_risk":5,"migraine_risk":4,"frizz_risk":1,"updated_at":"2026-06-02T11:21:53.052685+05:30"},{"city":"Rourkela","state":"Odisha","latitude":22.2604,"longitude":84.8536,"temp":36.0,"humidity":40,"rain":0.0,"pressure":985.4,"uv_index":5.3,"wind_gusts":31.3,"aqi":158,"pm10":61.0,"pm2_5":47.1,"no2":3.4,"co":476.0,"o3":205.0,"so2":28.7,"mosquito_risk":0,"arthritis_risk":5,"migraine_risk":6,"frizz_risk":1,"updated_at":"2026-06-02T11:21:53.052690+05:30"},{"city":"Raipur","state":"Chhattisgarh","latitude":21.2514,"longitude":81.6296,"temp":37.7,"humidity":29,"rain":0.0,"pressure":974.7,"uv_index":8.95,"wind_gusts":31.3,"aqi":153,"pm10":92.4,"pm2_5":52.0,"no2":21.6,"co":506.0,"o3":145.0,"so2":57.2,"mosquito_risk":0,"arthritis_risk":5,"migraine_risk":10,"frizz_risk":1,"updated_at":"2026-06-02T11:21:53.052695+05:30"},{"city":"Bhilai","state":"Chhattisgarh","latitude":21.1938,"longitude":81.3509,"temp":36.3,"humidity":32,"rain":0.0,"pressure":975.2,"uv_index":8.95,"wind_gusts":30.6,"aqi":155,"pm10":91.0,"pm2_5":49.1,"no2":18.2,"co":852.0,"o3":137.0,"so2":50.6,"mosquito_risk":0,"arthritis_risk":5,"migraine_risk":10,"frizz_risk":1,"updated_at":"2026-06-02T11:21:53.052700+05:30"},{"city":"Guwahati","state":"Assam","latitude":26.1158,"longitude":91.7086,"temp":32.2,"humidity":62,"rain":0.0,"pressure":1000.6,"uv_index":8.7,"wind_gusts":31.7,"aqi":92,"pm10":48.4,"pm2_5":37.7,"no2":1.0,"co":370.0,"o3":163.0,"so2":5.8,"mosquito_risk":3,"arthritis_risk":5,"migraine_risk":4,"frizz_risk":1,"updated_at":"2026-06-02T11:21:53.052705+05:30"},{"city":"Agartala","state":"Tripura","latitude":23.8315,"longitude":91.2868,"temp":33.0,"humidity":66,"rain":0.0,"pressure":1005.7,"uv_index":8.75,"wind_gusts":19.4,"aqi":115,"pm10":41.2,"pm2_5":29.0,"no2":4.5,"co":235.0,"o3":146.0,"so2":6.6,"mosquito_risk":3,"arthritis_risk":5,"migraine_risk":4,"frizz_risk":1,"updated_at":"2026-06-02T11:21:53.052709+05:30"},{"city":"Shillong","state":"Meghalaya","latitude":25.5788,"longitude":91.8933,"temp":26.6,"humidity":52,"rain":0.1,"pressure":859.8,"uv_index":7.85,"wind_gusts":24.5,"aqi":60,"pm10":33.3,"pm2_5":25.7,"no2":1.0,"co":305.0,"o3":158.0,"so2":4.1,"mosquito_risk":7,"arthritis_risk":5,"migraine_risk":7,"frizz_risk":0,"updated_at":"2026-06-02T11:21:53.052714+05:30"},{"city":"Imphal","state":"Manipur","latitude":24.817,"longitude":93.9368,"temp":28.3,"humidity":70,"rain":0.1,"pressure":923.1,"uv_index":8.8,"wind_gusts":30.2,"aqi":64,"pm10":9.1,"pm2_5":7.3,"no2":1.2,"co":260.0,"o3":121.0,"so2":2.3,"mosquito_risk":10,"arthritis_risk":5,"migraine_risk":7,"frizz_risk":1,"updated_at":"2026-06-02T11:21:53.052719+05:30"},{"city":"Aizawl","state":"Mizoram","latitude":23.7271,"longitude":92.7176,"temp":21.7,"humidity":88,"rain":0.1,"pressure":893.1,"uv_index":8.3,"wind_gusts":24.8,"aqi":54,"pm10":30.2,"pm2_5":16.8,"no2":1.0,"co":208.0,"o3":119.0,"so2":3.7,"mosquito_risk":6,"arthritis_risk":5,"migraine_risk":7,"frizz_risk":1,"updated_at":"2026-06-02T11:21:53.052724+05:30"},{"city":"Kohima","state":"Nagaland","latitude":25.6701,"longitude":94.1077,"temp":24.2,"humidity":76,"rain":0.0,"pressure":856.9,"uv_index":8.55,"wind_gusts":30.6,"aqi":38,"pm10":16.5,"pm2_5":11.9,"no2":0.6,"co":241.0,"o3":124.0,"so2":1.5,"mosquito_risk":3,"arthritis_risk":5,"migraine_risk":7,"frizz_risk":1,"updated_at":"2026-06-02T11:21:53.052729+05:30"},{"city":"Gangtok","state":"Sikkim","latitude":27.3314,"longitude":88.6138,"temp":24.8,"humidity":56,"rain":0.1,"pressure":840.9,"uv_index":9.1,"wind_gusts":40.0,"aqi":66,"pm10":23.3,"pm2_5":17.2,"no2":0.8,"co":280.0,"o3":132.0,"so2":1.7,"mosquito_risk":3,"arthritis_risk":5,"migraine_risk":7,"frizz_risk":0,"updated_at":"2026-06-02T11:21:53.052734+05:30"},{"city":"Siliguri","state":"West Bengal","latitude":26.7271,"longitude":88.3953,"temp":33.3,"humidity":56,"rain":0.0,"pressure":992.3,"uv_index":8.75,"wind_gusts":31.3,"aqi":130,"pm10":45.8,"pm2_5":35.6,"no2":1.7,"co":439.0,"o3":170.0,"so2":4.9,"mosquito_risk":0,"arthritis_risk":5,"migraine_risk":7,"frizz_risk":1,"updated_at":"2026-06-02T11:21:56.318566+05:30"},{"city":"Durgapur","state":"West Bengal","latitude":23.5204,"longitude":87.3119,"temp":34.0,"humidity":61,"rain":0.1,"pressure":994.9,"uv_index":8.95,"wind_gusts":21.2,"aqi":157,"pm10":57.2,"pm2_5":51.5,"no2":17.3,"co":718.0,"o3":169.0,"so2":66.9,"mosquito_risk":6,"arthritis_risk":5,"migraine_risk":7,"frizz_risk":1,"updated_at":"2026-06-02T11:21:56.318598+05:30"},{"city":"Asansol","state":"West Bengal","latitude":23.6739,"longitude":86.9524,"temp":34.8,"humidity":53,"rain":0.0,"pressure":993.5,"uv_index":9.0,"wind_gusts":24.5,"aqi":157,"pm10":59.5,"pm2_5":52.6,"no2":17.2,"co":756.0,"o3":172.0,"so2":63.0,"mosquito_risk":0,"arthritis_risk":5,"migraine_risk":7,"frizz_risk":1,"updated_at":"2026-06-02T11:21:56.318607+05:30"},{"city":"Pondicherry","state":"Puducherry","latitude":11.9139,"longitude":79.8145,"temp":33.8,"humidity":59,"rain":0.0,"pressure":1008.7,"uv_index":8.85,"wind_gusts":43.2,"aqi":65,"pm10":17.5,"pm2_5":14.1,"no2":5.4,"co":265.0,"o3":106.0,"so2":13.7,"mosquito_risk":0,"arthritis_risk":0,"migraine_risk":4,"frizz_risk":1,"updated_at":"2026-06-02T11:21:56.318615+05:30"},{"city":"Port Blair","state":"Andaman and Nicobar Islands","latitude":11.6234,"longitude":92.7265,"temp":28.0,"humidity":83,"rain":0.1,"pressure":1008.0,"uv_index":1.7,"wind_gusts":38.5,"aqi":33,"pm10":13.0,"pm2_5":7.5,"no2":0.5,"co":119.0,"o3":69.0,"so2":0.5,"mosquito_risk":10,"arthritis_risk":0,"migraine_risk":0,"frizz_risk":1,"updated_at":"2026-06-02T11:21:56.318622+05:30"},{"city":"Haridwar","state":"Uttarakhand","latitude":29.9457,"longitude":78.1642,"temp":32.5,"humidity":45,"rain":0.0,"pressure":975.4,"uv_index":7.6,"wind_gusts":23.0,"aqi":96,"pm10":52.6,"pm2_5":27.4,"no2":1.2,"co":267.0,"o3":170.0,"so2":7.4,"mosquito_risk":0,"arthritis_risk":5,"migraine_risk":7,"frizz_risk":1,"updated_at":"2026-06-02T11:21:56.318628+05:30"},{"city":"Rishikesh","state":"Uttarakhand","latitude":30.0869,"longitude":78.2676,"temp":31.7,"humidity":44,"rain":0.0,"pressure":968.3,"uv_index":7.65,"wind_gusts":22.3,"aqi":86,"pm10":42.8,"pm2_5":23.3,"no2":1.1,"co":278.0,"o3":161.0,"so2":5.4,"mosquito_risk":0,"arthritis_risk":5,"migraine_risk":7,"frizz_risk":1,"updated_at":"2026-06-02T11:21:56.318634+05:30"},{"city":"Nainital","state":"Uttarakhand","latitude":29.3919,"longitude":79.4542,"temp":22.2,"humidity":51,"rain":0.1,"pressure":810.0,"uv_index":7.25,"wind_gusts":32.0,"aqi":70,"pm10":55.4,"pm2_5":24.4,"no2":0.3,"co":215.0,"o3":143.0,"so2":3.6,"mosquito_risk":3,"arthritis_risk":5,"migraine_risk":7,"frizz_risk":0,"updated_at":"2026-06-02T11:21:56.318640+05:30"},{"city":"Mussoorie","state":"Uttarakhand","latitude":30.4599,"longitude":78.0664,"temp":21.6,"humidity":50,"rain":0.1,"pressure":807.4,"uv_index":8.15,"wind_gusts":33.5,"aqi":78,"pm10":36.2,"pm2_5":21.7,"no2":1.5,"co":228.0,"o3":170.0,"so2":5.6,"mosquito_risk":3,"arthritis_risk":5,"migraine_risk":7,"frizz_risk":0,"updated_at":"2026-06-02T11:21:56.318646+05:30"},{"city":"Dharamshala","state":"Himachal Pradesh","latitude":32.219,"longitude":76.3234,"temp":23.9,"humidity":63,"rain":0.0,"pressure":872.9,"uv_index":8.55,"wind_gusts":41.8,"aqi":52,"pm10":26.0,"pm2_5":14.3,"no2":0.5,"co":216.0,"o3":137.0,"so2":0.7,"mosquito_risk":3,"arthritis_risk":5,"migraine_risk":7,"frizz_risk":1,"updated_at":"2026-06-02T11:21:56.318652+05:30"},{"city":"Dalhousie","state":"Himachal Pradesh","latitude":32.5387,"longitude":75.971,"temp":19.7,"humidity":63,"rain":0.1,"pressure":809.1,"uv_index":8.8,"wind_gusts":30.2,"aqi":74,"pm10":26.3,"pm2_5":18.0,"no2":1.1,"co":226.0,"o3":159.0,"so2":1.8,"mosquito_risk":6,"arthritis_risk":5,"migraine_risk":7,"frizz_risk":0,"updated_at":"2026-06-02T11:21:56.318659+05:30"},{"city":"Patiala","state":"Punjab","latitude":30.3398,"longitude":76.3869,"temp":33.2,"humidity":43,"rain":0.0,"pressure":979.7,"uv_index":7.7,"wind_gusts":28.8,"aqi":233,"pm10":274.7,"pm2_5":54.6,"no2":3.3,"co":327.0,"o3":175.0,"so2":15.5,"mosquito_risk":0,"arthritis_risk":5,"migraine_risk":7,"frizz_risk":1,"updated_at":"2026-06-02T11:21:56.318665+05:30"},{"city":"Bhatinda","state":"Punjab","latitude":30.211,"longitude":74.9455,"temp":35.5,"humidity":34,"rain":0.0,"pressure":984.9,"uv_index":8.3,"wind_gusts":29.2,"aqi":425,"pm10":201.6,"pm2_5":65.2,"no2":4.6,"co":266.0,"o3":151.0,"so2":15.6,"mosquito_risk":0,"arthritis_risk":5,"migraine_risk":10,"frizz_risk":1,"updated_at":"2026-06-02T11:21:56.318671+05:30"},{"city":"Rohtak","state":"Haryana","latitude":28.8955,"longitude":76.6066,"temp":33.3,"humidity":40,"rain":0.0,"pressure":982.7,"uv_index":7.8,"wind_gusts":25.9,"aqi":189,"pm10":344.6,"pm2_5":72.2,"no2":9.4,"co":360.0,"o3":170.0,"so2":23.4,"mosquito_risk":0,"arthritis_risk":5,"migraine_risk":7,"frizz_risk":1,"updated_at":"2026-06-02T11:21:56.318676+05:30"},{"city":"Panipat","state":"Haryana","latitude":29.3909,"longitude":76.9635,"temp":33.0,"humidity":42,"rain":0.0,"pressure":981.7,"uv_index":7.65,"wind_gusts":27.4,"aqi":611,"pm10":841.9,"pm2_5":114.6,"no2":6.2,"co":293.0,"o3":163.0,"so2":21.6,"mosquito_risk":0,"arthritis_risk":5,"migraine_risk":7,"frizz_risk":1,"updated_at":"2026-06-02T11:21:56.318681+05:30"},{"city":"Mathura","state":"Uttar Pradesh","latitude":27.4924,"longitude":77.6737,"temp":32.2,"humidity":50,"rain":0.0,"pressure":987.8,"uv_index":8.05,"wind_gusts":20.9,"aqi":209,"pm10":275.7,"pm2_5":61.0,"no2":3.0,"co":340.0,"o3":139.0,"so2":5.2,"mosquito_risk":0,"arthritis_risk":5,"migraine_risk":7,"frizz_risk":1,"updated_at":"2026-06-02T11:21:56.318687+05:30"},{"city":"Vrindavan","state":"Uttar Pradesh","latitude":27.5823,"longitude":77.7027,"temp":32.4,"humidity":49,"rain":0.0,"pressure":988.2,"uv_index":8.05,"wind_gusts":36.0,"aqi":209,"pm10":275.7,"pm2_5":61.0,"no2":3.0,"co":382.0,"o3":139.0,"so2":5.2,"mosquito_risk":0,"arthritis_risk":5,"migraine_risk":7,"frizz_risk":1,"updated_at":"2026-06-02T11:21:56.318692+05:30"},{"city":"Ayodhya","state":"Uttar Pradesh","latitude":26.7922,"longitude":82.1998,"temp":33.5,"humidity":46,"rain":0.0,"pressure":996.2,"uv_index":8.35,"wind_gusts":26.3,"aqi":156,"pm10":69.4,"pm2_5":40.9,"no2":4.3,"co":367.0,"o3":148.0,"so2":5.9,"mosquito_risk":0,"arthritis_risk":5,"migraine_risk":7,"frizz_risk":1,"updated_at":"2026-06-02T11:21:56.318697+05:30"},{"city":"Ratlam","state":"Madhya Pradesh","latitude":23.3315,"longitude":75.0367,"temp":32.6,"humidity":44,"rain":0.0,"pressure":956.2,"uv_index":8.5,"wind_gusts":30.6,"aqi":80,"pm10":41.2,"pm2_5":23.3,"no2":2.2,"co":150.0,"o3":79.0,"so2":9.0,"mosquito_risk":0,"arthritis_risk":5,"migraine_risk":7,"frizz_risk":1,"updated_at":"2026-06-02T11:21:56.318703+05:30"},{"city":"Sagar","state":"Madhya Pradesh","latitude":23.8388,"longitude":78.7378,"temp":33.3,"humidity":35,"rain":0.0,"pressure":951.7,"uv_index":8.7,"wind_gusts":24.8,"aqi":66,"pm10":58.6,"pm2_5":23.8,"no2":1.0,"co":157.0,"o3":115.0,"so2":1.9,"mosquito_risk":0,"arthritis_risk":5,"migraine_risk":7,"frizz_risk":0,"updated_at":"2026-06-02T11:21:56.318708+05:30"},{"city":"Satna","state":"Madhya Pradesh","latitude":24.6005,"longitude":80.8322,"temp":33.7,"humidity":40,"rain":0.0,"pressure":972.5,"uv_index":8.8,"wind_gusts":19.8,"aqi":110,"pm10":71.0,"pm2_5":44.0,"no2":2.2,"co":246.0,"o3":156.0,"so2":12.7,"mosquito_risk":0,"arthritis_risk":5,"migraine_risk":7,"frizz_risk":1,"updated_at":"2026-06-02T11:21:56.318713+05:30"},{"city":"Akola","state":"Maharashtra","latitude":20.7002,"longitude":77.0082,"temp":34.2,"humidity":43,"rain":0.0,"pressure":975.8,"uv_index":8.8,"wind_gusts":34.9,"aqi":73,"pm10":58.9,"pm2_5":26.8,"no2":3.0,"co":144.0,"o3":119.0,"so2":11.2,"mosquito_risk":0,"arthritis_risk":5,"migraine_risk":7,"frizz_risk":1,"updated_at":"2026-06-02T11:21:56.318719+05:30"},{"city":"Amravati","state":"Maharashtra","latitude":20.9374,"longitude":77.7796,"temp":35.4,"humidity":33,"rain":0.0,"pressure":968.1,"uv_index":8.8,"wind_gusts":33.1,"aqi":73,"pm10":56.2,"pm2_5":26.5,"no2":3.9,"co":164.0,"o3":121.0,"so2":12.4,"mosquito_risk":0,"arthritis_risk":5,"migraine_risk":10,"frizz_risk":1,"updated_at":"2026-06-02T11:21:56.318727+05:30"},{"city":"Latur","state":"Maharashtra","latitude":18.4088,"longitude":76.5604,"temp":34.5,"humidity":34,"rain":0.0,"pressure":941.2,"uv_index":8.95,"wind_gusts":48.2,"aqi":78,"pm10":45.3,"pm2_5":21.4,"no2":1.7,"co":150.0,"o3":119.0,"so2":5.3,"mosquito_risk":0,"arthritis_risk":5,"migraine_risk":7,"frizz_risk":1,"updated_at":"2026-06-02T11:21:56.318741+05:30"},{"city":"Nanded","state":"Maharashtra","latitude":19.1383,"longitude":77.3091,"temp":35.3,"humidity":37,"rain":0.0,"pressure":969.3,"uv_index":8.9,"wind_gusts":27.7,"aqi":86,"pm10":58.7,"pm2_5":27.0,"no2":2.1,"co":183.0,"o3":124.0,"so2":5.3,"mosquito_risk":0,"arthritis_risk":5,"migraine_risk":10,"frizz_risk":1,"updated_at":"2026-06-02T11:21:56.318750+05:30"},{"city":"Gulbarga","state":"Karnataka","latitude":17.3297,"longitude":76.8343,"temp":35.1,"humidity":36,"rain":0.0,"pressure":959.8,"uv_index":8.95,"wind_gusts":40.3,"aqi":76,"pm10":60.8,"pm2_5":28.9,"no2":3.9,"co":164.0,"o3":133.0,"so2":6.7,"mosquito_risk":0,"arthritis_risk":5,"migraine_risk":10,"frizz_risk":1,"updated_at":"2026-06-02T11:21:56.318758+05:30"},{"city":"Bidar","state":"Karnataka","latitude":17.9104,"longitude":77.5199,"temp":33.2,"humidity":38,"rain":0.0,"pressure":937.1,"uv_index":8.95,"wind_gusts":36.7,"aqi":83,"pm10":65.7,"pm2_5":29.7,"no2":2.8,"co":178.0,"o3":129.0,"so2":4.2,"mosquito_risk":0,"arthritis_risk":5,"migraine_risk":7,"frizz_risk":1,"updated_at":"2026-06-02T11:21:56.318765+05:30"},{"city":"Hospet","state":"Karnataka","latitude":15.2689,"longitude":76.3909,"temp":31.1,"humidity":52,"rain":0.0,"pressure":957.5,"uv_index":8.95,"wind_gusts":39.6,"aqi":53,"pm10":19.3,"pm2_5":9.6,"no2":2.2,"co":171.0,"o3":92.0,"so2":3.4,"mosquito_risk":0,"arthritis_risk":5,"migraine_risk":7,"frizz_risk":1,"updated_at":"2026-06-02T11:21:56.318773+05:30"},{"city":"Tirupur","state":"Tamil Nadu","latitude":11.1085,"longitude":77.3411,"temp":34.5,"humidity":43,"rain":0.0,"pressure":976.3,"uv_index":9.0,"wind_gusts":48.6,"aqi":62,"pm10":14.4,"pm2_5":12.0,"no2":4.5,"co":197.0,"o3":138.0,"so2":4.8,"mosquito_risk":0,"arthritis_risk":5,"migraine_risk":7,"frizz_risk":1,"updated_at":"2026-06-02T11:21:56.318780+05:30"},{"city":"Alappuzha","state":"Kerala","latitude":9.4981,"longitude":76.3388,"temp":27.6,"humidity":85,"rain":0.1,"pressure":1011.2,"uv_index":8.55,"wind_gusts":36.0,"aqi":42,"pm10":11.3,"pm2_5":9.2,"no2":3.2,"co":160.0,"o3":95.0,"so2":3.8,"mosquito_risk":10,"arthritis_risk":0,"migraine_risk":4,"frizz_risk":1,"updated_at":"2026-06-02T11:21:56.318788+05:30"},{"city":"Munnar","state":"Kerala","latitude":10.0889,"longitude":77.0595,"temp":21.4,"humidity":83,"rain":0.1,"pressure":859.8,"uv_index":9.15,"wind_gusts":25.9,"aqi":55,"pm10":29.2,"pm2_5":13.7,"no2":1.3,"co":143.0,"o3":107.0,"so2":2.0,"mosquito_risk":6,"arthritis_risk":5,"migraine_risk":7,"frizz_risk":1,"updated_at":"2026-06-02T11:21:56.318797+05:30"},{"city":"Silchar","state":"Assam","latitude":24.8333,"longitude":92.7789,"temp":30.8,"humidity":70,"rain":0.0,"pressure":1004.6,"uv_index":8.7,"wind_gusts":19.8,"aqi":91,"pm10":32.8,"pm2_5":21.5,"no2":1.3,"co":263.0,"o3":135.0,"so2":5.7,"mosquito_risk":3,"arthritis_risk":5,"migraine_risk":4,"frizz_risk":1,"updated_at":"2026-06-02T11:21:56.318805+05:30"},{"city":"Dibrugarh","state":"Assam","latitude":27.4728,"longitude":94.912,"temp":30.5,"humidity":72,"rain":0.1,"pressure":994.1,"uv_index":8.9,"wind_gusts":23.4,"aqi":65,"pm10":9.6,"pm2_5":9.2,"no2":1.1,"co":223.0,"o3":120.0,"so2":1.4,"mosquito_risk":6,"arthritis_risk":5,"migraine_risk":7,"frizz_risk":1,"updated_at":"2026-06-02T11:21:56.318813+05:30"}]