[{"city":"Delhi","state":"Delhi","latitude":28.6139,"longitude":77.209,"temp":21.6,"humidity":77,"rain":0.0,"pressure":983.5,"uv_index":7.55,"wind_gusts":22.0,"aqi":122,"pm10":91.7,"pm2_5":74.3,"no2":68.0,"co":1059.0,"o3":16.0,"so2":28.1,"mosquito_risk":3,"arthritis_risk":5,"migraine_risk":7,"frizz_risk":1,"updated_at":"2026-05-06T05:21:08.170555+05:30"},{"city":"Mumbai","state":"Maharashtra","latitude":19.076,"longitude":72.8777,"temp":27.0,"humidity":81,"rain":0.0,"pressure":1007.6,"uv_index":7.85,"wind_gusts":46.8,"aqi":78,"pm10":67.8,"pm2_5":25.3,"no2":9.0,"co":419.0,"o3":67.0,"so2":35.4,"mosquito_risk":7,"arthritis_risk":5,"migraine_risk":4,"frizz_risk":1,"updated_at":"2026-05-06T05:21:08.170598+05:30"},{"city":"Bangalore","state":"Karnataka","latitude":12.9716,"longitude":77.5946,"temp":22.8,"humidity":77,"rain":0.0,"pressure":910.1,"uv_index":9.55,"wind_gusts":32.8,"aqi":110,"pm10":54.6,"pm2_5":40.6,"no2":44.5,"co":422.0,"o3":43.0,"so2":14.5,"mosquito_risk":3,"arthritis_risk":5,"migraine_risk":7,"frizz_risk":1,"updated_at":"2026-05-06T05:21:08.170614+05:30"},{"city":"Hyderabad","state":"Telangana","latitude":17.385,"longitude":78.4867,"temp":25.3,"humidity":82,"rain":0.0,"pressure":952.0,"uv_index":9.3,"wind_gusts":37.8,"aqi":80,"pm10":32.1,"pm2_5":25.3,"no2":10.2,"co":265.0,"o3":74.0,"so2":6.1,"mosquito_risk":7,"arthritis_risk":5,"migraine_risk":7,"frizz_risk":1,"updated_at":"2026-05-06T05:21:08.170625+05:30"},{"city":"Chennai","state":"Tamil Nadu","latitude":13.0827,"longitude":80.2707,"temp":28.5,"humidity":79,"rain":0.0,"pressure":1005.0,"uv_index":9.25,"wind_gusts":42.1,"aqi":61,"pm10":15.5,"pm2_5":10.6,"no2":3.7,"co":216.0,"o3":85.0,"so2":2.8,"mosquito_risk":7,"arthritis_risk":5,"migraine_risk":4,"frizz_risk":1,"updated_at":"2026-05-06T05:21:08.170634+05:30"},{"city":"Kolkata","state":"West Bengal","latitude":22.5726,"longitude":88.3639,"temp":25.5,"humidity":93,"rain":0.0,"pressure":1006.2,"uv_index":8.9,"wind_gusts":29.5,"aqi":86,"pm10":41.9,"pm2_5":37.8,"no2":29.3,"co":313.0,"o3":20.0,"so2":9.0,"mosquito_risk":7,"arthritis_risk":5,"migraine_risk":4,"frizz_risk":1,"updated_at":"2026-05-06T05:21:08.170648+05:30"},{"city":"Pune","state":"Maharashtra","latitude":18.5204,"longitude":73.8567,"temp":21.7,"humidity":93,"rain":0.0,"pressure":946.8,"uv_index":8.5,"wind_gusts":58.3,"aqi":62,"pm10":48.0,"pm2_5":23.6,"no2":18.3,"co":212.0,"o3":40.0,"so2":17.0,"mosquito_risk":3,"arthritis_risk":5,"migraine_risk":7,"frizz_risk":1,"updated_at":"2026-05-06T05:21:08.170656+05:30"},{"city":"Ahmedabad","state":"Gujarat","latitude":23.0225,"longitude":72.5714,"temp":27.2,"humidity":78,"rain":0.0,"pressure":1001.1,"uv_index":8.1,"wind_gusts":26.6,"aqi":88,"pm10":65.7,"pm2_5":30.9,"no2":16.3,"co":213.0,"o3":30.0,"so2":10.5,"mosquito_risk":7,"arthritis_risk":5,"migraine_risk":4,"frizz_risk":1,"updated_at":"2026-05-06T05:21:08.170667+05:30"},{"city":"Jaipur","state":"Rajasthan","latitude":26.9124,"longitude":75.7873,"temp":21.6,"humidity":73,"rain":0.0,"pressure":959.4,"uv_index":8.1,"wind_gusts":31.7,"aqi":118,"pm10":156.9,"pm2_5":44.6,"no2":10.8,"co":470.0,"o3":78.0,"so2":7.3,"mosquito_risk":3,"arthritis_risk":5,"migraine_risk":7,"frizz_risk":1,"updated_at":"2026-05-06T05:21:08.170675+05:30"},{"city":"Lucknow","state":"Uttar Pradesh","latitude":26.8467,"longitude":80.9462,"temp":20.5,"humidity":94,"rain":0.0,"pressure":993.9,"uv_index":8.05,"wind_gusts":27.4,"aqi":121,"pm10":78.9,"pm2_5":62.2,"no2":36.5,"co":662.0,"o3":31.0,"so2":16.1,"mosquito_risk":3,"arthritis_risk":5,"migraine_risk":7,"frizz_risk":1,"updated_at":"2026-05-06T05:21:08.170683+05:30"},{"city":"Kanpur","state":"Uttar Pradesh","latitude":26.4499,"longitude":80.3319,"temp":20.1,"humidity":97,"rain":0.0,"pressure":992.2,"uv_index":8.05,"wind_gusts":19.8,"aqi":118,"pm10":78.0,"pm2_5":53.8,"no2":26.0,"co":688.0,"o3":48.0,"so2":12.1,"mosquito_risk":3,"arthritis_risk":5,"migraine_risk":7,"frizz_risk":1,"updated_at":"2026-05-06T05:21:08.170691+05:30"},{"city":"Chandigarh","state":"Chandigarh","latitude":30.7333,"longitude":76.7794,"temp":18.9,"humidity":66,"rain":0.0,"pressure":969.0,"uv_index":7.55,"wind_gusts":36.4,"aqi":69,"pm10":45.8,"pm2_5":25.4,"no2":17.7,"co":349.0,"o3":44.0,"so2":2.2,"mosquito_risk":3,"arthritis_risk":5,"migraine_risk":7,"frizz_risk":0,"updated_at":"2026-05-06T05:21:08.170698+05:30"},{"city":"Srinagar","state":"Jammu and Kashmir","latitude":34.0837,"longitude":74.7973,"temp":6.4,"humidity":99,"rain":0.0,"pressure":839.6,"uv_index":8.65,"wind_gusts":27.0,"aqi":74,"pm10":37.6,"pm2_5":33.5,"no2":22.8,"co":373.0,"o3":29.0,"so2":0.8,"mosquito_risk":3,"arthritis_risk":10,"migraine_risk":7,"frizz_risk":0,"updated_at":"2026-05-06T05:21:08.170707+05:30"},{"city":"Jammu","state":"Jammu and Kashmir","latitude":32.7266,"longitude":74.857,"temp":18.1,"humidity":61,"rain":0.0,"pressure":972.8,"uv_index":8.25,"wind_gusts":29.9,"aqi":60,"pm10":22.1,"pm2_5":18.2,"no2":15.0,"co":250.0,"o3":39.0,"so2":1.9,"mosquito_risk":3,"arthritis_risk":5,"migraine_risk":7,"frizz_risk":0,"updated_at":"2026-05-06T05:21:08.170714+05:30"},{"city":"Amritsar","state":"Punjab","latitude":31.634,"longitude":74.8723,"temp":19.4,"humidity":78,"rain":0.0,"pressure":981.0,"uv_index":8.15,"wind_gusts":31.3,"aqi":98,"pm10":100.1,"pm2_5":55.1,"no2":23.0,"co":531.0,"o3":49.0,"so2":7.7,"mosquito_risk":3,"arthritis_risk":5,"migraine_risk":7,"frizz_risk":0,"updated_at":"2026-05-06T05:21:08.170722+05:30"},{"city":"Ludhiana","state":"Punjab","latitude":30.901,"longitude":75.8573,"temp":18.7,"humidity":93,"rain":0.0,"pressure":979.6,"uv_index":7.8,"wind_gusts":29.9,"aqi":117,"pm10":150.9,"pm2_5":49.0,"no2":17.1,"co":469.0,"o3":45.0,"so2":5.6,"mosquito_risk":3,"arthritis_risk":10,"migraine_risk":7,"frizz_risk":1,"updated_at":"2026-05-06T05:21:08.170729+05:30"},{"city":"Jalandhar","state":"Punjab","latitude":31.326,"longitude":75.5762,"temp":18.2,"humidity":91,"rain":0.0,"pressure":980.5,"uv_index":7.95,"wind_gusts":32.0,"aqi":110,"pm10":133.2,"pm2_5":49.4,"no2":16.0,"co":716.0,"o3":49.0,"so2":8.9,"mosquito_risk":3,"arthritis_risk":10,"migraine_risk":7,"frizz_risk":1,"updated_at":"2026-05-06T05:21:08.170738+05:30"},{"city":"Dehradun","state":"Uttarakhand","latitude":30.6284,"longitude":78.0322,"temp":7.0,"humidity":99,"rain":0.0,"pressure":825.2,"uv_index":7.45,"wind_gusts":34.9,"aqi":57,"pm10":51.8,"pm2_5":15.6,"no2":20.0,"co":231.0,"o3":36.0,"so2":0.3,"mosquito_risk":3,"arthritis_risk":10,"migraine_risk":7,"frizz_risk":0,"updated_at":"2026-05-06T05:21:08.170748+05:30"},{"city":"Shimla","state":"Himachal Pradesh","latitude":31.1048,"longitude":77.1734,"temp":6.1,"humidity":79,"rain":0.0,"pressure":779.3,"uv_index":7.5,"wind_gusts":42.5,"aqi":60,"pm10":68.5,"pm2_5":23.3,"no2":20.6,"co":205.0,"o3":42.0,"so2":0.1,"mosquito_risk":3,"arthritis_risk":5,"migraine_risk":7,"frizz_risk":0,"updated_at":"2026-05-06T05:21:08.170756+05:30"},{"city":"Manali","state":"Himachal Pradesh","latitude":32.2396,"longitude":77.1887,"temp":4.3,"humidity":56,"rain":0.0,"pressure":811.4,"uv_index":9.5,"wind_gusts":40.7,"aqi":80,"pm10":3.7,"pm2_5":3.3,"no2":11.6,"co":226.0,"o3":131.0,"so2":0.0,"mosquito_risk":0,"arthritis_risk":5,"migraine_risk":7,"frizz_risk":1,"updated_at":"2026-05-06T05:21:08.170763+05:30"},{"city":"Gurgaon","state":"Haryana","latitude":28.4595,"longitude":77.0266,"temp":20.7,"humidity":87,"rain":0.0,"pressure":981.7,"uv_index":7.65,"wind_gusts":24.8,"aqi":165,"pm10":123.4,"pm2_5":79.4,"no2":55.4,"co":1231.0,"o3":27.0,"so2":34.0,"mosquito_risk":3,"arthritis_risk":5,"migraine_risk":7,"frizz_risk":1,"updated_at":"2026-05-06T05:21:08.170770+05:30"},{"city":"Noida","state":"Uttar Pradesh","latitude":28.5355,"longitude":77.391,"temp":20.2,"humidity":83,"rain":0.0,"pressure":984.8,"uv_index":7.55,"wind_gusts":20.5,"aqi":165,"pm10":123.4,"pm2_5":79.4,"no2":55.4,"co":996.0,"o3":27.0,"so2":34.0,"mosquito_risk":3,"arthritis_risk":5,"migraine_risk":7,"frizz_risk":1,"updated_at":"2026-05-06T05:21:08.170777+05:30"},{"city":"Ghaziabad","state":"Uttar Pradesh","latitude":28.6692,"longitude":77.4538,"temp":19.5,"humidity":82,"rain":0.0,"pressure":983.0,"uv_index":7.55,"wind_gusts":24.1,"aqi":106,"pm10":94.1,"pm2_5":66.6,"no2":32.5,"co":626.0,"o3":42.0,"so2":17.3,"mosquito_risk":3,"arthritis_risk":10,"migraine_risk":7,"frizz_risk":1,"updated_at":"2026-05-06T05:21:08.170784+05:30"},{"city":"Faridabad","state":"Haryana","latitude":28.4089,"longitude":77.3178,"temp":21.1,"humidity":80,"rain":0.0,"pressure":984.1,"uv_index":7.6,"wind_gusts":19.4,"aqi":165,"pm10":123.4,"pm2_5":79.4,"no2":55.4,"co":877.0,"o3":27.0,"so2":34.0,"mosquito_risk":3,"arthritis_risk":5,"migraine_risk":7,"frizz_risk":1,"updated_at":"2026-05-06T05:21:08.170791+05:30"},{"city":"Meerut","state":"Uttar Pradesh","latitude":28.9845,"longitude":77.7064,"temp":18.8,"humidity":87,"rain":0.0,"pressure":981.7,"uv_index":7.45,"wind_gusts":23.4,"aqi":106,"pm10":94.1,"pm2_5":66.6,"no2":32.5,"co":496.0,"o3":42.0,"so2":17.3,"mosquito_risk":3,"arthritis_risk":10,"migraine_risk":7,"frizz_risk":1,"updated_at":"2026-05-06T05:21:08.170798+05:30"},{"city":"Agra","state":"Uttar Pradesh","latitude":27.1767,"longitude":78.0081,"temp":21.2,"humidity":91,"rain":0.0,"pressure":988.2,"uv_index":7.9,"wind_gusts":20.9,"aqi":220,"pm10":138.8,"pm2_5":69.4,"no2":24.0,"co":560.0,"o3":27.0,"so2":16.9,"mosquito_risk":3,"arthritis_risk":5,"migraine_risk":7,"frizz_risk":1,"updated_at":"2026-05-06T05:21:08.170805+05:30"},{"city":"Varanasi","state":"Uttar Pradesh","latitude":25.3176,"longitude":82.9739,"temp":22.0,"humidity":95,"rain":0.0,"pressure":998.1,"uv_index":8.55,"wind_gusts":26.3,"aqi":150,"pm10":83.6,"pm2_5":67.1,"no2":35.0,"co":367.0,"o3":45.0,"so2":21.2,"mosquito_risk":3,"arthritis_risk":5,"migraine_risk":7,"frizz_risk":1,"updated_at":"2026-05-06T05:21:08.170812+05:30"},{"city":"Prayagraj","state":"Uttar Pradesh","latitude":25.4358,"longitude":81.8463,"temp":21.5,"humidity":98,"rain":0.0,"pressure":996.4,"uv_index":8.45,"wind_gusts":31.0,"aqi":130,"pm10":70.3,"pm2_5":56.6,"no2":27.4,"co":469.0,"o3":29.0,"so2":11.6,"mosquito_risk":3,"arthritis_risk":5,"migraine_risk":7,"frizz_risk":1,"updated_at":"2026-05-06T05:21:08.170821+05:30"},{"city":"Gorakhpur","state":"Uttar Pradesh","latitude":26.7606,"longitude":83.3732,"temp":20.6,"humidity":92,"rain":0.0,"pressure":998.4,"uv_index":8.45,"wind_gusts":29.2,"aqi":103,"pm10":68.2,"pm2_5":62.6,"no2":48.5,"co":368.0,"o3":19.0,"so2":13.3,"mosquito_risk":3,"arthritis_risk":5,"migraine_risk":7,"frizz_risk":1,"updated_at":"2026-05-06T05:21:08.170828+05:30"},{"city":"Bareilly","state":"Uttar Pradesh","latitude":28.367,"longitude":79.4304,"temp":19.9,"humidity":86,"rain":0.0,"pressure":987.1,"uv_index":7.85,"wind_gusts":24.1,"aqi":118,"pm10":101.3,"pm2_5":64.3,"no2":32.8,"co":448.0,"o3":47.0,"so2":13.0,"mosquito_risk":3,"arthritis_risk":10,"migraine_risk":7,"frizz_risk":1,"updated_at":"2026-05-06T05:21:08.170835+05:30"},{"city":"Aligarh","state":"Uttar Pradesh","latitude":27.8974,"longitude":78.088,"temp":21.1,"humidity":87,"rain":0.0,"pressure":986.0,"uv_index":7.7,"wind_gusts":24.5,"aqi":151,"pm10":98.0,"pm2_5":70.1,"no2":29.9,"co":493.0,"o3":32.0,"so2":15.6,"mosquito_risk":3,"arthritis_risk":5,"migraine_risk":7,"frizz_risk":1,"updated_at":"2026-05-06T05:21:08.170843+05:30"},{"city":"Moradabad","state":"Uttar Pradesh","latitude":28.8386,"longitude":78.7733,"temp":18.7,"humidity":84,"rain":0.0,"pressure":983.8,"uv_index":7.65,"wind_gusts":24.1,"aqi":132,"pm10":97.8,"pm2_5":76.8,"no2":43.4,"co":444.0,"o3":25.0,"so2":14.7,"mosquito_risk":3,"arthritis_risk":10,"migraine_risk":7,"frizz_risk":0,"updated_at":"2026-05-06T05:21:08.170850+05:30"},{"city":"Saharanpur","state":"Uttar Pradesh","latitude":29.9637,"longitude":77.546,"temp":16.9,"humidity":93,"rain":0.0,"pressure":975.8,"uv_index":7.25,"wind_gusts":24.5,"aqi":89,"pm10":80.1,"pm2_5":49.1,"no2":36.0,"co":455.0,"o3":16.0,"so2":10.4,"mosquito_risk":3,"arthritis_risk":10,"migraine_risk":7,"frizz_risk":0,"updated_at":"2026-05-06T05:21:08.170856+05:30"},{"city":"Jhansi","state":"Uttar Pradesh","latitude":25.4484,"longitude":78.5685,"temp":21.5,"humidity":86,"rain":0.0,"pressure":978.0,"uv_index":8.35,"wind_gusts":30.6,"aqi":109,"pm10":49.1,"pm2_5":35.2,"no2":6.2,"co":402.0,"o3":66.0,"so2":7.7,"mosquito_risk":3,"arthritis_risk":5,"migraine_risk":7,"frizz_risk":1,"updated_at":"2026-05-06T05:21:11.549222+05:30"},{"city":"Surat","state":"Gujarat","latitude":21.1702,"longitude":72.8311,"temp":27.0,"humidity":90,"rain":0.0,"pressure":1005.8,"uv_index":7.7,"wind_gusts":34.9,"aqi":83,"pm10":45.3,"pm2_5":25.3,"no2":27.5,"co":296.0,"o3":41.0,"so2":39.6,"mosquito_risk":7,"arthritis_risk":5,"migraine_risk":4,"frizz_risk":1,"updated_at":"2026-05-06T05:21:11.549253+05:30"},{"city":"Vadodara","state":"Gujarat","latitude":22.3072,"longitude":73.1812,"temp":26.5,"humidity":89,"rain":0.0,"pressure":1003.6,"uv_index":8.05,"wind_gusts":25.9,"aqi":77,"pm10":33.8,"pm2_5":21.0,"no2":19.2,"co":300.0,"o3":38.0,"so2":26.0,"mosquito_risk":7,"arthritis_risk":5,"migraine_risk":4,"frizz_risk":1,"updated_at":"2026-05-06T05:21:11.549263+05:30"},{"city":"Rajkot","state":"Gujarat","latitude":22.3039,"longitude":70.8022,"temp":25.2,"humidity":94,"rain":0.0,"pressure":993.3,"uv_index":7.7,"wind_gusts":47.5,"aqi":67,"pm10":47.6,"pm2_5":16.1,"no2":6.2,"co":171.0,"o3":51.0,"so2":6.8,"mosquito_risk":7,"arthritis_risk":5,"migraine_risk":7,"frizz_risk":1,"updated_at":"2026-05-06T05:21:11.549271+05:30"},{"city":"Thane","state":"Maharashtra","latitude":19.2183,"longitude":72.9781,"temp":26.0,"humidity":88,"rain":0.0,"pressure":1007.0,"uv_index":7.9,"wind_gusts":42.5,"aqi":78,"pm10":67.8,"pm2_5":25.3,"no2":9.0,"co":342.0,"o3":67.0,"so2":35.4,"mosquito_risk":7,"arthritis_risk":5,"migraine_risk":4,"frizz_risk":1,"updated_at":"2026-05-06T05:21:11.549279+05:30"},{"city":"Nagpur","state":"Maharashtra","latitude":21.1458,"longitude":79.0882,"temp":27.6,"humidity":45,"rain":0.0,"pressure":971.8,"uv_index":8.9,"wind_gusts":35.6,"aqi":71,"pm10":33.2,"pm2_5":25.4,"no2":10.4,"co":269.0,"o3":59.0,"so2":6.0,"mosquito_risk":4,"arthritis_risk":5,"migraine_risk":7,"frizz_risk":0,"updated_at":"2026-05-06T05:21:11.549287+05:30"},{"city":"Nashik","state":"Maharashtra","latitude":19.9975,"longitude":73.7898,"temp":21.8,"humidity":85,"rain":0.0,"pressure":944.4,"uv_index":8.2,"wind_gusts":41.4,"aqi":66,"pm10":61.5,"pm2_5":26.0,"no2":13.5,"co":177.0,"o3":38.0,"so2":0.9,"mosquito_risk":3,"arthritis_risk":5,"migraine_risk":7,"frizz_risk":1,"updated_at":"2026-05-06T05:21:11.549295+05:30"},{"city":"Aurangabad","state":"Maharashtra","latitude":19.8762,"longitude":75.3433,"temp":26.5,"humidity":38,"rain":0.0,"pressure":942.8,"uv_index":9.05,"wind_gusts":36.7,"aqi":62,"pm10":36.1,"pm2_5":16.1,"no2":10.2,"co":217.0,"o3":51.0,"so2":2.1,"mosquito_risk":4,"arthritis_risk":5,"migraine_risk":7,"frizz_risk":0,"updated_at":"2026-05-06T05:21:11.549302+05:30"},{"city":"Solapur","state":"Maharashtra","latitude":17.6599,"longitude":75.9064,"temp":27.3,"humidity":52,"rain":0.0,"pressure":955.4,"uv_index":9.05,"wind_gusts":42.5,"aqi":58,"pm10":25.8,"pm2_5":17.1,"no2":6.4,"co":191.0,"o3":83.0,"so2":8.3,"mosquito_risk":4,"arthritis_risk":5,"migraine_risk":7,"frizz_risk":1,"updated_at":"2026-05-06T05:21:11.549310+05:30"},{"city":"Kolhapur","state":"Maharashtra","latitude":16.705,"longitude":74.2433,"temp":22.0,"humidity":94,"rain":0.0,"pressure":946.1,"uv_index":8.95,"wind_gusts":45.0,"aqi":62,"pm10":38.1,"pm2_5":20.6,"no2":11.3,"co":202.0,"o3":32.0,"so2":1.1,"mosquito_risk":3,"arthritis_risk":5,"migraine_risk":7,"frizz_risk":1,"updated_at":"2026-05-06T05:21:11.549317+05:30"},{"city":"Goa","state":"Goa","latitude":15.2993,"longitude":74.124,"temp":25.8,"humidity":90,"rain":0.0,"pressure":996.2,"uv_index":8.9,"wind_gusts":39.2,"aqi":66,"pm10":47.0,"pm2_5":22.7,"no2":9.3,"co":194.0,"o3":42.0,"so2":1.6,"mosquito_risk":7,"arthritis_risk":5,"migraine_risk":7,"frizz_risk":1,"updated_at":"2026-05-06T05:21:11.549324+05:30"},{"city":"Jodhpur","state":"Rajasthan","latitude":26.2389,"longitude":73.0243,"temp":25.6,"humidity":38,"rain":0.0,"pressure":982.4,"uv_index":8.3,"wind_gusts":28.1,"aqi":91,"pm10":79.9,"pm2_5":25.9,"no2":3.0,"co":278.0,"o3":90.0,"so2":4.7,"mosquito_risk":4,"arthritis_risk":5,"migraine_risk":7,"frizz_risk":0,"updated_at":"2026-05-06T05:21:11.549330+05:30"},{"city":"Udaipur","state":"Rajasthan","latitude":24.5854,"longitude":73.7125,"temp":22.6,"humidity":60,"rain":0.0,"pressure":945.4,"uv_index":8.75,"wind_gusts":22.0,"aqi":77,"pm10":111.5,"pm2_5":29.3,"no2":5.1,"co":200.0,"o3":58.0,"so2":3.9,"mosquito_risk":0,"arthritis_risk":5,"migraine_risk":7,"frizz_risk":0,"updated_at":"2026-05-06T05:21:11.549337+05:30"},{"city":"Kota","state":"Rajasthan","latitude":25.2138,"longitude":75.8648,"temp":24.1,"humidity":65,"rain":0.0,"pressure":978.6,"uv_index":8.3,"wind_gusts":27.7,"aqi":82,"pm10":37.6,"pm2_5":24.3,"no2":7.4,"co":425.0,"o3":65.0,"so2":4.6,"mosquito_risk":3,"arthritis_risk":5,"migraine_risk":7,"frizz_risk":1,"updated_at":"2026-05-06T05:21:11.549344+05:30"},{"city":"Bikaner","state":"Rajasthan","latitude":28.0229,"longitude":73.3119,"temp":23.5,"humidity":54,"rain":0.0,"pressure":982.1,"uv_index":8.25,"wind_gusts":28.8,"aqi":79,"pm10":55.2,"pm2_5":27.1,"no2":4.2,"co":342.0,"o3":79.0,"so2":8.5,"mosquito_risk":0,"arthritis_risk":5,"migraine_risk":7,"frizz_risk":0,"updated_at":"2026-05-06T05:21:11.549351+05:30"},{"city":"Ajmer","state":"Rajasthan","latitude":26.4499,"longitude":74.6399,"temp":21.7,"humidity":53,"rain":0.0,"pressure":953.9,"uv_index":8.25,"wind_gusts":36.7,"aqi":69,"pm10":96.6,"pm2_5":30.9,"no2":6.4,"co":311.0,"o3":74.0,"so2":4.5,"mosquito_risk":0,"arthritis_risk":5,"migraine_risk":7,"frizz_risk":0,"updated_at":"2026-05-06T05:21:11.549357+05:30"},{"city":"Gwalior","state":"Madhya Pradesh","latitude":26.2183,"longitude":78.1828,"temp":21.5,"humidity":86,"rain":0.0,"pressure":983.3,"uv_index":8.15,"wind_gusts":22.3,"aqi":101,"pm10":78.0,"pm2_5":39.3,"no2":13.7,"co":398.0,"o3":49.0,"so2":6.3,"mosquito_risk":3,"arthritis_risk":5,"migraine_risk":7,"frizz_risk":1,"updated_at":"2026-05-06T05:21:11.549364+05:30"},{"city":"Indore","state":"Madhya Pradesh","latitude":22.7196,"longitude":75.8577,"temp":25.8,"humidity":46,"rain":0.0,"pressure":947.4,"uv_index":8.6,"wind_gusts":34.6,"aqi":71,"pm10":75.9,"pm2_5":34.5,"no2":13.3,"co":270.0,"o3":61.0,"so2":7.1,"mosquito_risk":4,"arthritis_risk":5,"migraine_risk":7,"frizz_risk":0,"updated_at":"2026-05-06T05:21:11.549370+05:30"},{"city":"Bhopal","state":"Madhya Pradesh","latitude":23.2599,"longitude":77.4126,"temp":23.9,"humidity":59,"rain":0.0,"pressure":953.2,"uv_index":8.65,"wind_gusts":36.0,"aqi":69,"pm10":30.2,"pm2_5":22.3,"no2":3.8,"co":310.0,"o3":91.0,"so2":4.6,"mosquito_risk":0,"arthritis_risk":5,"migraine_risk":7,"frizz_risk":0,"updated_at":"2026-05-06T05:21:11.549376+05:30"},{"city":"Jabalpur","state":"Madhya Pradesh","latitude":23.1815,"longitude":79.9864,"temp":23.0,"humidity":77,"rain":0.0,"pressure":960.7,"uv_index":8.8,"wind_gusts":35.6,"aqi":83,"pm10":47.3,"pm2_5":36.3,"no2":18.1,"co":243.0,"o3":67.0,"so2":8.9,"mosquito_risk":3,"arthritis_risk":5,"migraine_risk":7,"frizz_risk":1,"updated_at":"2026-05-06T05:21:11.549383+05:30"},{"city":"Ujjain","state":"Madhya Pradesh","latitude":23.1765,"longitude":75.7885,"temp":25.0,"humidity":43,"rain":0.0,"pressure":953.1,"uv_index":8.55,"wind_gusts":32.4,"aqi":77,"pm10":91.7,"pm2_5":43.5,"no2":14.2,"co":292.0,"o3":59.0,"so2":6.7,"mosquito_risk":4,"arthritis_risk":5,"migraine_risk":7,"frizz_risk":0,"updated_at":"2026-05-06T05:21:11.549390+05:30"},{"city":"Visakhapatnam","state":"Andhra Pradesh","latitude":17.6868,"longitude":83.2185,"temp":25.1,"humidity":97,"rain":0.0,"pressure":1002.6,"uv_index":9.15,"wind_gusts":28.4,"aqi":78,"pm10":35.7,"pm2_5":29.3,"no2":35.3,"co":750.0,"o3":24.0,"so2":4.0,"mosquito_risk":7,"arthritis_risk":5,"migraine_risk":4,"frizz_risk":1,"updated_at":"2026-05-06T05:21:11.549397+05:30"},{"city":"Vijayawada","state":"Andhra Pradesh","latitude":16.5062,"longitude":80.648,"temp":28.3,"humidity":88,"rain":0.0,"pressure":1001.2,"uv_index":9.2,"wind_gusts":43.2,"aqi":71,"pm10":18.0,"pm2_5":14.7,"no2":7.5,"co":208.0,"o3":60.0,"so2":4.0,"mosquito_risk":7,"arthritis_risk":5,"migraine_risk":4,"frizz_risk":1,"updated_at":"2026-05-06T05:21:11.549403+05:30"},{"city":"Guntur","state":"Andhra Pradesh","latitude":16.3067,"longitude":80.4365,"temp":28.3,"humidity":89,"rain":0.0,"pressure":1002.4,"uv_index":9.25,"wind_gusts":39.2,"aqi":75,"pm10":18.0,"pm2_5":14.7,"no2":6.4,"co":194.0,"o3":66.0,"so2":3.3,"mosquito_risk":7,"arthritis_risk":5,"migraine_risk":4,"frizz_risk":1,"updated_at":"2026-05-06T05:21:11.549410+05:30"},{"city":"Nellore","state":"Andhra Pradesh","latitude":14.4426,"longitude":79.9865,"temp":28.0,"humidity":87,"rain":0.0,"pressure":1003.8,"uv_index":9.25,"wind_gusts":39.2,"aqi":72,"pm10":13.9,"pm2_5":10.2,"no2":7.7,"co":188.0,"o3":67.0,"so2":9.0,"mosquito_risk":7,"arthritis_risk":5,"migraine_risk":4,"frizz_risk":1,"updated_at":"2026-05-06T05:21:11.549417+05:30"},{"city":"Kurnool","state":"Andhra Pradesh","latitude":15.8281,"longitude":78.0373,"temp":28.9,"humidity":63,"rain":0.0,"pressure":975.1,"uv_index":8.95,"wind_gusts":40.7,"aqi":77,"pm10":27.4,"pm2_5":23.9,"no2":8.2,"co":242.0,"o3":79.0,"so2":7.4,"mosquito_risk":7,"arthritis_risk":5,"migraine_risk":7,"frizz_risk":1,"updated_at":"2026-05-06T05:21:11.549425+05:30"},{"city":"Kakinada","state":"Andhra Pradesh","latitude":16.9891,"longitude":82.2475,"temp":26.8,"humidity":98,"rain":0.0,"pressure":1006.2,"uv_index":9.15,"wind_gusts":31.7,"aqi":57,"pm10":17.8,"pm2_5":10.9,"no2":2.5,"co":255.0,"o3":54.0,"so2":0.5,"mosquito_risk":7,"arthritis_risk":5,"migraine_risk":4,"frizz_risk":1,"updated_at":"2026-05-06T05:21:11.549431+05:30"},{"city":"Tirupati","state":"Andhra Pradesh","latitude":13.6288,"longitude":79.4192,"temp":27.4,"humidity":81,"rain":0.0,"pressure":989.4,"uv_index":9.3,"wind_gusts":30.2,"aqi":102,"pm10":17.4,"pm2_5":13.8,"no2":18.4,"co":199.0,"o3":34.0,"so2":8.2,"mosquito_risk":7,"arthritis_risk":5,"migraine_risk":7,"frizz_risk":1,"updated_at":"2026-05-06T05:21:11.549437+05:30"},{"city":"Warangal","state":"Telangana","latitude":17.9689,"longitude":79.5941,"temp":26.3,"humidity":82,"rain":0.0,"pressure":977.4,"uv_index":9.2,"wind_gusts":41.0,"aqi":81,"pm10":20.9,"pm2_5":19.1,"no2":10.3,"co":239.0,"o3":55.0,"so2":10.0,"mosquito_risk":7,"arthritis_risk":5,"migraine_risk":7,"frizz_risk":1,"updated_at":"2026-05-06T05:21:11.549443+05:30"},{"city":"Nizamabad","state":"Telangana","latitude":18.6725,"longitude":78.0941,"temp":26.6,"humidity":57,"rain":0.0,"pressure":963.4,"uv_index":9.05,"wind_gusts":35.6,"aqi":89,"pm10":44.2,"pm2_5":36.3,"no2":13.1,"co":305.0,"o3":73.0,"so2":6.4,"mosquito_risk":4,"arthritis_risk":5,"migraine_risk":7,"frizz_risk":1,"updated_at":"2026-05-06T05:21:11.549450+05:30"},{"city":"Mysore","state":"Karnataka","latitude":12.2958,"longitude":76.6396,"temp":23.1,"humidity":86,"rain":0.0,"pressure":926.4,"uv_index":9.4,"wind_gusts":29.2,"aqi":69,"pm10":38.4,"pm2_5":22.5,"no2":13.6,"co":242.0,"o3":41.0,"so2":2.4,"mosquito_risk":3,"arthritis_risk":5,"migraine_risk":7,"frizz_risk":1,"updated_at":"2026-05-06T05:21:11.549457+05:30"},{"city":"Mangalore","state":"Karnataka","latitude":12.9141,"longitude":74.856,"temp":27.4,"humidity":85,"rain":0.0,"pressure":1005.0,"uv_index":9.05,"wind_gusts":53.6,"aqi":66,"pm10":38.8,"pm2_5":20.5,"no2":6.8,"co":217.0,"o3":46.0,"so2":2.0,"mosquito_risk":7,"arthritis_risk":5,"migraine_risk":4,"frizz_risk":1,"updated_at":"2026-05-06T05:21:11.549463+05:30"},{"city":"Hubli-Dharwad","state":"Karnataka","latitude":15.3647,"longitude":75.124,"temp":21.2,"humidity":95,"rain":0.0,"pressure":939.3,"uv_index":8.8,"wind_gusts":41.8,"aqi":58,"pm10":40.0,"pm2_5":20.7,"no2":17.8,"co":185.0,"o3":23.0,"so2":2.5,"mosquito_risk":3,"arthritis_risk":5,"migraine_risk":7,"frizz_risk":1,"updated_at":"2026-05-06T05:21:11.549470+05:30"},{"city":"Belgaum","state":"Karnataka","latitude":15.8497,"longitude":74.4977,"temp":20.6,"humidity":97,"rain":0.0,"pressure":923.5,"uv_index":8.6,"wind_gusts":48.6,"aqi":59,"pm10":47.6,"pm2_5":20.4,"no2":10.2,"co":155.0,"o3":38.0,"so2":1.4,"mosquito_risk":3,"arthritis_risk":5,"migraine_risk":7,"frizz_risk":1,"updated_at":"2026-05-06T05:21:14.918090+05:30"},{"city":"Coimbatore","state":"Tamil Nadu","latitude":11.0168,"longitude":76.9558,"temp":23.6,"humidity":93,"rain":0.0,"pressure":959.2,"uv_index":9.35,"wind_gusts":26.3,"aqi":64,"pm10":31.0,"pm2_5":20.0,"no2":16.8,"co":276.0,"o3":39.0,"so2":4.0,"mosquito_risk":3,"arthritis_risk":5,"migraine_risk":7,"frizz_risk":1,"updated_at":"2026-05-06T05:21:14.918124+05:30"},{"city":"Madurai","state":"Tamil Nadu","latitude":9.9252,"longitude":78.1198,"temp":26.0,"humidity":87,"rain":0.0,"pressure":990.6,"uv_index":8.8,"wind_gusts":36.0,"aqi":85,"pm10":40.5,"pm2_5":28.8,"no2":30.8,"co":357.0,"o3":15.0,"so2":6.0,"mosquito_risk":7,"arthritis_risk":5,"migraine_risk":7,"frizz_risk":1,"updated_at":"2026-05-06T05:21:14.918135+05:30"},{"city":"Trichy","state":"Tamil Nadu","latitude":10.7905,"longitude":78.7047,"temp":26.0,"humidity":89,"rain":0.0,"pressure":997.6,"uv_index":9.15,"wind_gusts":27.0,"aqi":90,"pm10":35.0,"pm2_5":21.2,"no2":8.8,"co":367.0,"o3":67.0,"so2":2.7,"mosquito_risk":7,"arthritis_risk":5,"migraine_risk":7,"frizz_risk":1,"updated_at":"2026-05-06T05:21:14.918144+05:30"},{"city":"Salem","state":"Tamil Nadu","latitude":11.6643,"longitude":78.146,"temp":26.5,"humidity":70,"rain":0.0,"pressure":975.2,"uv_index":9.25,"wind_gusts":42.8,"aqi":95,"pm10":41.9,"pm2_5":30.7,"no2":17.2,"co":410.0,"o3":63.0,"so2":11.7,"mosquito_risk":7,"arthritis_risk":5,"migraine_risk":7,"frizz_risk":1,"updated_at":"2026-05-06T05:21:14.918152+05:30"},{"city":"Tirunelveli","state":"Tamil Nadu","latitude":8.7139,"longitude":77.7567,"temp":27.9,"humidity":71,"rain":0.0,"pressure":1000.4,"uv_index":7.95,"wind_gusts":40.3,"aqi":66,"pm10":15.3,"pm2_5":12.1,"no2":5.9,"co":220.0,"o3":56.0,"so2":1.8,"mosquito_risk":7,"arthritis_risk":5,"migraine_risk":4,"frizz_risk":1,"updated_at":"2026-05-06T05:21:14.918160+05:30"},{"city":"Vellore","state":"Tamil Nadu","latitude":12.9165,"longitude":79.1325,"temp":26.8,"humidity":85,"rain":0.0,"pressure":982.6,"uv_index":9.3,"wind_gusts":34.9,"aqi":110,"pm10":38.5,"pm2_5":34.9,"no2":15.7,"co":237.0,"o3":46.0,"so2":8.1,"mosquito_risk":7,"arthritis_risk":5,"migraine_risk":7,"frizz_risk":1,"updated_at":"2026-05-06T05:21:14.918168+05:30"},{"city":"Erode","state":"Tamil Nadu","latitude":11.341,"longitude":77.7172,"temp":27.2,"humidity":66,"rain":0.0,"pressure":987.0,"uv_index":9.25,"wind_gusts":30.6,"aqi":77,"pm10":38.0,"pm2_5":26.5,"no2":21.8,"co":340.0,"o3":45.0,"so2":5.1,"mosquito_risk":7,"arthritis_risk":5,"migraine_risk":7,"frizz_risk":1,"updated_at":"2026-05-06T05:21:14.918175+05:30"},{"city":"Kochi","state":"Kerala","latitude":9.9312,"longitude":76.2673,"temp":26.3,"humidity":96,"rain":0.0,"pressure":1006.5,"uv_index":6.25,"wind_gusts":31.3,"aqi":60,"pm10":30.9,"pm2_5":19.0,"no2":13.1,"co":206.0,"o3":48.0,"so2":3.8,"mosquito_risk":7,"arthritis_risk":5,"migraine_risk":4,"frizz_risk":1,"updated_at":"2026-05-06T05:21:14.918183+05:30"},{"city":"Thiruvananthapuram","state":"Kerala","latitude":8.5241,"longitude":76.9366,"temp":24.0,"humidity":94,"rain":0.0,"pressure":1005.7,"uv_index":8.7,"wind_gusts":31.0,"aqi":55,"pm10":23.9,"pm2_5":11.1,"no2":3.2,"co":242.0,"o3":81.0,"so2":1.6,"mosquito_risk":3,"arthritis_risk":5,"migraine_risk":4,"frizz_risk":1,"updated_at":"2026-05-06T05:21:14.918191+05:30"},{"city":"Kozhikode","state":"Kerala","latitude":11.2588,"longitude":75.7804,"temp":26.7,"humidity":86,"rain":0.0,"pressure":1005.4,"uv_index":9.05,"wind_gusts":39.6,"aqi":62,"pm10":41.2,"pm2_5":19.0,"no2":3.1,"co":335.0,"o3":65.0,"so2":1.1,"mosquito_risk":7,"arthritis_risk":5,"migraine_risk":4,"frizz_risk":1,"updated_at":"2026-05-06T05:21:14.918198+05:30"},{"city":"Thrissur","state":"Kerala","latitude":10.5276,"longitude":76.2144,"temp":25.3,"humidity":92,"rain":0.0,"pressure":1004.7,"uv_index":8.9,"wind_gusts":31.3,"aqi":64,"pm10":36.9,"pm2_5":24.2,"no2":17.6,"co":392.0,"o3":34.0,"so2":2.9,"mosquito_risk":7,"arthritis_risk":5,"migraine_risk":4,"frizz_risk":1,"updated_at":"2026-05-06T05:21:14.918206+05:30"},{"city":"Kannur","state":"Kerala","latitude":11.8745,"longitude":75.3704,"temp":27.6,"humidity":82,"rain":0.0,"pressure":1004.8,"uv_index":9.05,"wind_gusts":55.8,"aqi":65,"pm10":32.1,"pm2_5":17.6,"no2":7.3,"co":244.0,"o3":40.0,"so2":1.9,"mosquito_risk":7,"arthritis_risk":5,"migraine_risk":4,"frizz_risk":1,"updated_at":"2026-05-06T05:21:14.918213+05:30"},{"city":"Patna","state":"Bihar","latitude":25.5941,"longitude":85.1376,"temp":22.4,"humidity":88,"rain":0.0,"pressure":1001.7,"uv_index":8.7,"wind_gusts":35.6,"aqi":145,"pm10":64.7,"pm2_5":49.2,"no2":21.2,"co":468.0,"o3":90.0,"so2":15.7,"mosquito_risk":3,"arthritis_risk":5,"migraine_risk":4,"frizz_risk":1,"updated_at":"2026-05-06T05:21:14.918220+05:30"},{"city":"Gaya","state":"Bihar","latitude":24.7914,"longitude":85.0002,"temp":22.9,"humidity":86,"rain":0.0,"pressure":994.4,"uv_index":8.75,"wind_gusts":38.9,"aqi":130,"pm10":64.0,"pm2_5":53.8,"no2":18.5,"co":275.0,"o3":73.0,"so2":11.4,"mosquito_risk":3,"arthritis_risk":5,"migraine_risk":7,"frizz_risk":1,"updated_at":"2026-05-06T05:21:14.918228+05:30"},{"city":"Muzaffarpur","state":"Bihar","latitude":26.1209,"longitude":85.3647,"temp":21.4,"humidity":91,"rain":0.0,"pressure":1001.5,"uv_index":8.7,"wind_gusts":45.7,"aqi":140,"pm10":55.9,"pm2_5":43.0,"no2":16.0,"co":309.0,"o3":91.0,"so2":13.3,"mosquito_risk":3,"arthritis_risk":5,"migraine_risk":4,"frizz_risk":1,"updated_at":"2026-05-06T05:21:14.918234+05:30"},{"city":"Bhagalpur","state":"Bihar","latitude":25.2425,"longitude":87.0117,"temp":22.8,"humidity":88,"rain":0.0,"pressure":1001.9,"uv_index":8.7,"wind_gusts":38.9,"aqi":106,"pm10":52.2,"pm2_5":49.0,"no2":15.5,"co":362.0,"o3":73.0,"so2":25.4,"mosquito_risk":3,"arthritis_risk":5,"migraine_risk":4,"frizz_risk":1,"updated_at":"2026-05-06T05:21:14.918240+05:30"},{"city":"Ranchi","state":"Jharkhand","latitude":23.3441,"longitude":85.3096,"temp":21.0,"humidity":83,"rain":0.0,"pressure":936.4,"uv_index":9.2,"wind_gusts":34.9,"aqi":101,"pm10":49.2,"pm2_5":37.3,"no2":7.3,"co":245.0,"o3":100.0,"so2":15.1,"mosquito_risk":3,"arthritis_risk":5,"migraine_risk":7,"frizz_risk":1,"updated_at":"2026-05-06T05:21:14.918247+05:30"},{"city":"Jamshedpur","state":"Jharkhand","latitude":22.8046,"longitude":86.2029,"temp":22.2,"humidity":96,"rain":0.0,"pressure":990.7,"uv_index":9.0,"wind_gusts":41.8,"aqi":99,"pm10":52.0,"pm2_5":41.1,"no2":32.1,"co":400.0,"o3":30.0,"so2":28.2,"mosquito_risk":3,"arthritis_risk":5,"migraine_risk":7,"frizz_risk":1,"updated_at":"2026-05-06T05:21:14.918253+05:30"},{"city":"Dhanbad","state":"Jharkhand","latitude":23.7957,"longitude":86.4304,"temp":22.9,"humidity":84,"rain":0.0,"pressure":979.5,"uv_index":8.95,"wind_gusts":32.8,"aqi":154,"pm10":100.4,"pm2_5":88.7,"no2":74.0,"co":1527.0,"o3":10.0,"so2":68.3,"mosquito_risk":3,"arthritis_risk":5,"migraine_risk":7,"frizz_risk":1,"updated_at":"2026-05-06T05:21:14.918260+05:30"},{"city":"Bokaro","state":"Jharkhand","latitude":23.6693,"longitude":86.1511,"temp":22.4,"humidity":83,"rain":0.0,"pressure":983.4,"uv_index":9.0,"wind_gusts":42.8,"aqi":153,"pm10":97.8,"pm2_5":78.0,"no2":44.5,"co":887.0,"o3":59.0,"so2":31.6,"mosquito_risk":3,"arthritis_risk":5,"migraine_risk":7,"frizz_risk":1,"updated_at":"2026-05-06T05:21:14.918269+05:30"},{"city":"Bhubaneswar","state":"Odisha","latitude":20.2961,"longitude":85.8245,"temp":24.6,"humidity":99,"rain":0.0,"pressure":1002.2,"uv_index":9.1,"wind_gusts":35.3,"aqi":46,"pm10":22.1,"pm2_5":17.9,"no2":14.0,"co":212.0,"o3":31.0,"so2":5.1,"mosquito_risk":3,"arthritis_risk":5,"migraine_risk":4,"frizz_risk":1,"updated_at":"2026-05-06T05:21:14.918276+05:30"},{"city":"Cuttack","state":"Odisha","latitude":20.4625,"longitude":85.8828,"temp":24.8,"humidity":99,"rain":0.0,"pressure":1004.3,"uv_index":9.15,"wind_gusts":33.8,"aqi":46,"pm10":22.1,"pm2_5":17.9,"no2":14.0,"co":207.0,"o3":31.0,"so2":5.1,"mosquito_risk":3,"arthritis_risk":5,"migraine_risk":4,"frizz_risk":1,"updated_at":"2026-05-06T05:21:14.918283+05:30"},{"city":"Rourkela","state":"Odisha","latitude":22.2604,"longitude":84.8536,"temp":23.7,"humidity":90,"rain":0.0,"pressure":984.8,"uv_index":8.95,"wind_gusts":43.6,"aqi":107,"pm10":60.8,"pm2_5":47.8,"no2":18.3,"co":469.0,"o3":64.0,"so2":44.3,"mosquito_risk":3,"arthritis_risk":5,"migraine_risk":7,"frizz_risk":1,"updated_at":"2026-05-06T05:21:14.918289+05:30"},{"city":"Raipur","state":"Chhattisgarh","latitude":21.2514,"longitude":81.6296,"temp":26.3,"humidity":57,"rain":0.0,"pressure":974.2,"uv_index":9.0,"wind_gusts":34.6,"aqi":112,"pm10":44.5,"pm2_5":37.1,"no2":23.4,"co":293.0,"o3":69.0,"so2":7.3,"mosquito_risk":4,"arthritis_risk":5,"migraine_risk":7,"frizz_risk":1,"updated_at":"2026-05-06T05:21:14.918296+05:30"},{"city":"Bhilai","state":"Chhattisgarh","latitude":21.1938,"longitude":81.3509,"temp":25.9,"humidity":65,"rain":0.0,"pressure":974.5,"uv_index":9.0,"wind_gusts":27.7,"aqi":119,"pm10":53.0,"pm2_5":45.3,"no2":44.0,"co":358.0,"o3":44.0,"so2":9.7,"mosquito_risk":7,"arthritis_risk":5,"migraine_risk":7,"frizz_risk":1,"updated_at":"2026-05-06T05:21:14.918303+05:30"},{"city":"Guwahati","state":"Assam","latitude":26.1158,"longitude":91.7086,"temp":21.4,"humidity":91,"rain":0.0,"pressure":1002.8,"uv_index":8.65,"wind_gusts":31.7,"aqi":76,"pm10":31.2,"pm2_5":26.7,"no2":9.0,"co":251.0,"o3":57.0,"so2":1.0,"mosquito_risk":3,"arthritis_risk":5,"migraine_risk":4,"frizz_risk":1,"updated_at":"2026-05-06T05:21:14.918310+05:30"},{"city":"Agartala","state":"Tripura","latitude":23.8315,"longitude":91.2868,"temp":22.6,"humidity":93,"rain":0.0,"pressure":1007.1,"uv_index":8.8,"wind_gusts":19.8,"aqi":89,"pm10":29.9,"pm2_5":27.4,"no2":23.2,"co":322.0,"o3":14.0,"so2":2.0,"mosquito_risk":3,"arthritis_risk":5,"migraine_risk":4,"frizz_risk":1,"updated_at":"2026-05-06T05:21:14.918316+05:30"},{"city":"Shillong","state":"Meghalaya","latitude":25.5788,"longitude":91.8933,"temp":14.3,"humidity":92,"rain":0.0,"pressure":855.5,"uv_index":8.9,"wind_gusts":27.7,"aqi":72,"pm10":39.5,"pm2_5":33.3,"no2":8.9,"co":259.0,"o3":65.0,"so2":0.2,"mosquito_risk":3,"arthritis_risk":10,"migraine_risk":7,"frizz_risk":0,"updated_at":"2026-05-06T05:21:14.918323+05:30"},{"city":"Imphal","state":"Manipur","latitude":24.817,"longitude":93.9368,"temp":18.4,"humidity":93,"rain":0.0,"pressure":923.2,"uv_index":9.2,"wind_gusts":28.4,"aqi":83,"pm10":43.4,"pm2_5":34.5,"no2":11.9,"co":298.0,"o3":38.0,"so2":1.6,"mosquito_risk":3,"arthritis_risk":10,"migraine_risk":7,"frizz_risk":1,"updated_at":"2026-05-06T05:21:14.918330+05:30"},{"city":"Aizawl","state":"Mizoram","latitude":23.7271,"longitude":92.7176,"temp":15.7,"humidity":98,"rain":0.0,"pressure":891.5,"uv_index":9.05,"wind_gusts":25.2,"aqi":66,"pm10":30.7,"pm2_5":23.0,"no2":14.0,"co":280.0,"o3":12.0,"so2":0.1,"mosquito_risk":3,"arthritis_risk":10,"migraine_risk":7,"frizz_risk":0,"updated_at":"2026-05-06T05:21:14.918337+05:30"},{"city":"Kohima","state":"Nagaland","latitude":25.6701,"longitude":94.1077,"temp":14.9,"humidity":91,"rain":0.0,"pressure":854.1,"uv_index":9.15,"wind_gusts":30.6,"aqi":71,"pm10":49.9,"pm2_5":32.4,"no2":8.7,"co":245.0,"o3":50.0,"so2":0.7,"mosquito_risk":3,"arthritis_risk":10,"migraine_risk":7,"frizz_risk":0,"updated_at":"2026-05-06T05:21:14.918343+05:30"},{"city":"Gangtok","state":"Sikkim","latitude":27.3314,"longitude":88.6138,"temp":11.7,"humidity":84,"rain":0.0,"pressure":835.8,"uv_index":8.85,"wind_gusts":38.9,"aqi":52,"pm10":21.8,"pm2_5":17.5,"no2":18.3,"co":365.0,"o3":49.0,"so2":0.9,"mosquito_risk":3,"arthritis_risk":10,"migraine_risk":7,"frizz_risk":0,"updated_at":"2026-05-06T05:21:14.918350+05:30"},{"city":"Siliguri","state":"West Bengal","latitude":26.7271,"longitude":88.3953,"temp":20.8,"humidity":91,"rain":0.0,"pressure":993.9,"uv_index":8.6,"wind_gusts":21.2,"aqi":87,"pm10":58.0,"pm2_5":47.1,"no2":27.8,"co":969.0,"o3":51.0,"so2":4.7,"mosquito_risk":3,"arthritis_risk":5,"migraine_risk":7,"frizz_risk":1,"updated_at":"2026-05-06T05:21:18.308636+05:30"},{"city":"Durgapur","state":"West Bengal","latitude":23.5204,"longitude":87.3119,"temp":23.0,"humidity":93,"rain":0.0,"pressure":995.1,"uv_index":8.9,"wind_gusts":29.2,"aqi":133,"pm10":51.3,"pm2_5":47.8,"no2":40.8,"co":791.0,"o3":25.0,"so2":50.5,"mosquito_risk":3,"arthritis_risk":5,"migraine_risk":7,"frizz_risk":1,"updated_at":"2026-05-06T05:21:18.308668+05:30"},{"city":"Asansol","state":"West Bengal","latitude":23.6739,"longitude":86.9524,"temp":22.1,"humidity":93,"rain":0.0,"pressure":993.3,"uv_index":8.95,"wind_gusts":35.6,"aqi":126,"pm10":57.3,"pm2_5":52.0,"no2":46.8,"co":294.0,"o3":21.0,"so2":55.8,"mosquito_risk":3,"arthritis_risk":5,"migraine_risk":7,"frizz_risk":1,"updated_at":"2026-05-06T05:21:18.308679+05:30"},{"city":"Pondicherry","state":"Puducherry","latitude":11.9139,"longitude":79.8145,"temp":27.2,"humidity":91,"rain":0.0,"pressure":1006.3,"uv_index":8.75,"wind_gusts":37.8,"aqi":58,"pm10":15.0,"pm2_5":9.4,"no2":1.7,"co":241.0,"o3":88.0,"so2":0.6,"mosquito_risk":7,"arthritis_risk":5,"migraine_risk":4,"frizz_risk":1,"updated_at":"2026-05-06T05:21:18.308687+05:30"},{"city":"Port Blair","state":"Andaman and Nicobar Islands","latitude":11.6234,"longitude":92.7265,"temp":27.5,"humidity":86,"rain":0.0,"pressure":1005.4,"uv_index":8.35,"wind_gusts":36.0,"aqi":29,"pm10":6.6,"pm2_5":5.3,"no2":0.3,"co":168.0,"o3":64.0,"so2":2.2,"mosquito_risk":7,"arthritis_risk":5,"migraine_risk":4,"frizz_risk":1,"updated_at":"2026-05-06T05:21:18.308696+05:30"},{"city":"Haridwar","state":"Uttarakhand","latitude":29.9457,"longitude":78.1642,"temp":17.4,"humidity":79,"rain":0.0,"pressure":974.1,"uv_index":7.35,"wind_gusts":24.5,"aqi":71,"pm10":48.8,"pm2_5":31.9,"no2":25.9,"co":231.0,"o3":11.0,"so2":3.2,"mosquito_risk":3,"arthritis_risk":5,"migraine_risk":7,"frizz_risk":0,"updated_at":"2026-05-06T05:21:18.308704+05:30"},{"city":"Rishikesh","state":"Uttarakhand","latitude":30.0869,"longitude":78.2676,"temp":14.6,"humidity":92,"rain":0.0,"pressure":966.5,"uv_index":7.45,"wind_gusts":23.4,"aqi":64,"pm10":69.4,"pm2_5":28.8,"no2":16.8,"co":270.0,"o3":42.0,"so2":2.4,"mosquito_risk":3,"arthritis_risk":10,"migraine_risk":7,"frizz_risk":0,"updated_at":"2026-05-06T05:21:18.308712+05:30"},{"city":"Nainital","state":"Uttarakhand","latitude":29.3919,"longitude":79.4542,"temp":9.3,"humidity":70,"rain":0.0,"pressure":801.8,"uv_index":6.8,"wind_gusts":35.3,"aqi":67,"pm10":44.7,"pm2_5":25.3,"no2":19.7,"co":191.0,"o3":45.0,"so2":2.9,"mosquito_risk":3,"arthritis_risk":5,"migraine_risk":7,"frizz_risk":0,"updated_at":"2026-05-06T05:21:18.308720+05:30"},{"city":"Mussoorie","state":"Uttarakhand","latitude":30.4599,"longitude":78.0664,"temp":9.5,"humidity":67,"rain":0.0,"pressure":799.0,"uv_index":7.3,"wind_gusts":33.1,"aqi":64,"pm10":51.2,"pm2_5":24.7,"no2":21.5,"co":190.0,"o3":32.0,"so2":3.8,"mosquito_risk":3,"arthritis_risk":5,"migraine_risk":7,"frizz_risk":0,"updated_at":"2026-05-06T05:21:18.308727+05:30"},{"city":"Dharamshala","state":"Himachal Pradesh","latitude":32.219,"longitude":76.3234,"temp":14.2,"humidity":65,"rain":0.0,"pressure":867.1,"uv_index":8.15,"wind_gusts":42.5,"aqi":41,"pm10":5.1,"pm2_5":3.3,"no2":9.3,"co":202.0,"o3":59.0,"so2":0.0,"mosquito_risk":3,"arthritis_risk":5,"migraine_risk":7,"frizz_risk":0,"updated_at":"2026-05-06T05:21:18.308734+05:30"},{"city":"Dalhousie","state":"Himachal Pradesh","latitude":32.5387,"longitude":75.971,"temp":5.1,"humidity":88,"rain":0.0,"pressure":798.0,"uv_index":8.3,"wind_gusts":39.2,"aqi":58,"pm10":19.2,"pm2_5":14.3,"no2":24.2,"co":284.0,"o3":20.0,"so2":0.4,"mosquito_risk":3,"arthritis_risk":10,"migraine_risk":7,"frizz_risk":0,"updated_at":"2026-05-06T05:21:18.308741+05:30"},{"city":"Patiala","state":"Punjab","latitude":30.3398,"longitude":76.3869,"temp":18.9,"humidity":91,"rain":0.0,"pressure":978.9,"uv_index":7.45,"wind_gusts":40.0,"aqi":258,"pm10":104.5,"pm2_5":44.2,"no2":17.4,"co":458.0,"o3":67.0,"so2":5.6,"mosquito_risk":3,"arthritis_risk":10,"migraine_risk":7,"frizz_risk":1,"updated_at":"2026-05-06T05:21:18.308748+05:30"},{"city":"Bhatinda","state":"Punjab","latitude":30.211,"longitude":74.9455,"temp":20.7,"humidity":66,"rain":0.0,"pressure":984.2,"uv_index":8.1,"wind_gusts":24.5,"aqi":152,"pm10":374.4,"pm2_5":78.5,"no2":10.5,"co":491.0,"o3":72.0,"so2":5.2,"mosquito_risk":3,"arthritis_risk":5,"migraine_risk":7,"frizz_risk":0,"updated_at":"2026-05-06T05:21:18.308755+05:30"},{"city":"Rohtak","state":"Haryana","latitude":28.8955,"longitude":76.6066,"temp":19.9,"humidity":82,"rain":0.0,"pressure":982.2,"uv_index":7.55,"wind_gusts":29.2,"aqi":151,"pm10":104.8,"pm2_5":77.5,"no2":55.9,"co":732.0,"o3":24.0,"so2":31.9,"mosquito_risk":3,"arthritis_risk":10,"migraine_risk":7,"frizz_risk":1,"updated_at":"2026-05-06T05:21:18.308762+05:30"},{"city":"Panipat","state":"Haryana","latitude":29.3909,"longitude":76.9635,"temp":18.1,"humidity":93,"rain":0.0,"pressure":980.8,"uv_index":7.4,"wind_gusts":25.2,"aqi":483,"pm10":143.9,"pm2_5":68.7,"no2":30.3,"co":651.0,"o3":40.0,"so2":11.9,"mosquito_risk":3,"arthritis_risk":10,"migraine_risk":7,"frizz_risk":1,"updated_at":"2026-05-06T05:21:18.308769+05:30"},{"city":"Mathura","state":"Uttar Pradesh","latitude":27.4924,"longitude":77.6737,"temp":20.8,"humidity":83,"rain":0.0,"pressure":987.1,"uv_index":7.85,"wind_gusts":24.1,"aqi":167,"pm10":104.8,"pm2_5":60.3,"no2":24.9,"co":520.0,"o3":33.0,"so2":10.5,"mosquito_risk":3,"arthritis_risk":5,"migraine_risk":7,"frizz_risk":1,"updated_at":"2026-05-06T05:21:18.308775+05:30"},{"city":"Vrindavan","state":"Uttar Pradesh","latitude":27.5823,"longitude":77.7027,"temp":20.8,"humidity":82,"rain":0.0,"pressure":987.6,"uv_index":7.8,"wind_gusts":23.8,"aqi":167,"pm10":104.8,"pm2_5":60.3,"no2":24.9,"co":518.0,"o3":33.0,"so2":10.5,"mosquito_risk":3,"arthritis_risk":5,"migraine_risk":7,"frizz_risk":1,"updated_at":"2026-05-06T05:21:18.308782+05:30"},{"city":"Ayodhya","state":"Uttar Pradesh","latitude":26.7922,"longitude":82.1998,"temp":20.8,"humidity":98,"rain":0.0,"pressure":995.6,"uv_index":8.2,"wind_gusts":19.4,"aqi":101,"pm10":72.9,"pm2_5":61.9,"no2":35.3,"co":518.0,"o3":25.0,"so2":10.4,"mosquito_risk":3,"arthritis_risk":5,"migraine_risk":7,"frizz_risk":1,"updated_at":"2026-05-06T05:21:18.308789+05:30"},{"city":"Ratlam","state":"Madhya Pradesh","latitude":23.3315,"longitude":75.0367,"temp":24.3,"humidity":49,"rain":0.0,"pressure":953.5,"uv_index":8.5,"wind_gusts":31.7,"aqi":74,"pm10":104.8,"pm2_5":36.3,"no2":6.7,"co":264.0,"o3":77.0,"so2":4.3,"mosquito_risk":0,"arthritis_risk":5,"migraine_risk":7,"frizz_risk":0,"updated_at":"2026-05-06T05:21:18.308796+05:30"},{"city":"Sagar","state":"Madhya Pradesh","latitude":23.8388,"longitude":78.7378,"temp":21.6,"humidity":79,"rain":0.0,"pressure":949.2,"uv_index":8.65,"wind_gusts":34.2,"aqi":79,"pm10":43.1,"pm2_5":29.5,"no2":9.6,"co":262.0,"o3":82.0,"so2":7.0,"mosquito_risk":3,"arthritis_risk":5,"migraine_risk":7,"frizz_risk":1,"updated_at":"2026-05-06T05:21:18.308802+05:30"},{"city":"Satna","state":"Madhya Pradesh","latitude":24.6005,"longitude":80.8322,"temp":20.2,"humidity":98,"rain":0.0,"pressure":970.8,"uv_index":8.7,"wind_gusts":42.5,"aqi":119,"pm10":66.4,"pm2_5":52.2,"no2":31.5,"co":357.0,"o3":26.0,"so2":7.6,"mosquito_risk":3,"arthritis_risk":5,"migraine_risk":7,"frizz_risk":1,"updated_at":"2026-05-06T05:21:18.308809+05:30"},{"city":"Akola","state":"Maharashtra","latitude":20.7002,"longitude":77.0082,"temp":28.0,"humidity":38,"rain":0.0,"pressure":973.8,"uv_index":8.85,"wind_gusts":33.1,"aqi":61,"pm10":29.2,"pm2_5":16.2,"no2":6.7,"co":196.0,"o3":67.0,"so2":7.7,"mosquito_risk":4,"arthritis_risk":5,"migraine_risk":7,"frizz_risk":0,"updated_at":"2026-05-06T05:21:18.308817+05:30"},{"city":"Amravati","state":"Maharashtra","latitude":20.9374,"longitude":77.7796,"temp":28.5,"humidity":31,"rain":0.0,"pressure":965.6,"uv_index":8.85,"wind_gusts":37.4,"aqi":64,"pm10":33.3,"pm2_5":17.7,"no2":9.7,"co":183.0,"o3":56.0,"so2":6.2,"mosquito_risk":4,"arthritis_risk":5,"migraine_risk":7,"frizz_risk":0,"updated_at":"2026-05-06T05:21:18.308824+05:30"},{"city":"Latur","state":"Maharashtra","latitude":18.4088,"longitude":76.5604,"temp":27.5,"humidity":34,"rain":0.0,"pressure":938.3,"uv_index":8.95,"wind_gusts":44.3,"aqi":66,"pm10":26.0,"pm2_5":16.1,"no2":10.3,"co":183.0,"o3":58.0,"so2":6.3,"mosquito_risk":4,"arthritis_risk":5,"migraine_risk":7,"frizz_risk":0,"updated_at":"2026-05-06T05:21:18.308831+05:30"},{"city":"Nanded","state":"Maharashtra","latitude":19.1383,"longitude":77.3091,"temp":27.2,"humidity":40,"rain":0.0,"pressure":967.4,"uv_index":9.0,"wind_gusts":28.4,"aqi":66,"pm10":40.3,"pm2_5":20.7,"no2":16.4,"co":232.0,"o3":59.0,"so2":8.8,"mosquito_risk":4,"arthritis_risk":5,"migraine_risk":7,"frizz_risk":0,"updated_at":"2026-05-06T05:21:18.308837+05:30"},{"city":"Gulbarga","state":"Karnataka","latitude":17.3297,"longitude":76.8343,"temp":26.6,"humidity":44,"rain":0.0,"pressure":956.2,"uv_index":9.15,"wind_gusts":26.6,"aqi":62,"pm10":26.5,"pm2_5":18.2,"no2":15.4,"co":217.0,"o3":45.0,"so2":5.0,"mosquito_risk":4,"arthritis_risk":5,"migraine_risk":7,"frizz_risk":0,"updated_at":"2026-05-06T05:21:18.308844+05:30"},{"city":"Bidar","state":"Karnataka","latitude":17.9104,"longitude":77.5199,"temp":25.5,"humidity":49,"rain":0.0,"pressure":934.3,"uv_index":8.7,"wind_gusts":29.2,"aqi":77,"pm10":40.2,"pm2_5":32.0,"no2":16.6,"co":246.0,"o3":65.0,"so2":6.6,"mosquito_risk":4,"arthritis_risk":5,"migraine_risk":7,"frizz_risk":0,"updated_at":"2026-05-06T05:21:18.308850+05:30"},{"city":"Hospet","state":"Karnataka","latitude":15.2689,"longitude":76.3909,"temp":24.2,"humidity":88,"rain":0.0,"pressure":954.4,"uv_index":8.95,"wind_gusts":30.2,"aqi":67,"pm10":28.8,"pm2_5":15.7,"no2":13.6,"co":203.0,"o3":31.0,"so2":2.9,"mosquito_risk":3,"arthritis_risk":5,"migraine_risk":7,"frizz_risk":1,"updated_at":"2026-05-06T05:21:18.308857+05:30"},{"city":"Tirupur","state":"Tamil Nadu","latitude":11.1085,"longitude":77.3411,"temp":24.6,"humidity":87,"rain":0.0,"pressure":972.8,"uv_index":9.35,"wind_gusts":23.8,"aqi":78,"pm10":34.1,"pm2_5":26.4,"no2":31.6,"co":233.0,"o3":17.0,"so2":6.1,"mosquito_risk":3,"arthritis_risk":5,"migraine_risk":7,"frizz_risk":1,"updated_at":"2026-05-06T05:21:18.308863+05:30"},{"city":"Alappuzha","state":"Kerala","latitude":9.4981,"longitude":76.3388,"temp":25.6,"humidity":96,"rain":0.0,"pressure":1006.5,"uv_index":8.95,"wind_gusts":32.0,"aqi":56,"pm10":28.9,"pm2_5":15.2,"no2":7.4,"co":138.0,"o3":69.0,"so2":3.2,"mosquito_risk":7,"arthritis_risk":5,"migraine_risk":4,"frizz_risk":1,"updated_at":"2026-05-06T05:21:18.308870+05:30"},{"city":"Munnar","state":"Kerala","latitude":10.0889,"longitude":77.0595,"temp":17.0,"humidity":86,"rain":0.0,"pressure":853.8,"uv_index":6.5,"wind_gusts":21.6,"aqi":60,"pm10":18.4,"pm2_5":12.4,"no2":8.9,"co":224.0,"o3":43.0,"so2":1.4,"mosquito_risk":3,"arthritis_risk":10,"migraine_risk":7,"frizz_risk":0,"updated_at":"2026-05-06T05:21:18.308876+05:30"},{"city":"Silchar","state":"Assam","latitude":24.8333,"longitude":92.7789,"temp":22.6,"humidity":94,"rain":0.1,"pressure":1006.2,"uv_index":8.85,"wind_gusts":25.9,"aqi":106,"pm10":71.2,"pm2_5":52.9,"no2":16.9,"co":245.0,"o3":53.0,"so2":5.7,"mosquito_risk":6,"arthritis_risk":5,"migraine_risk":4,"frizz_risk":1,"updated_at":"2026-05-06T05:21:18.308884+05:30"},{"city":"Dibrugarh","state":"Assam","latitude":27.4728,"longitude":94.912,"temp":21.0,"humidity":98,"rain":0.0,"pressure":997.5,"uv_index":8.8,"wind_gusts":25.2,"aqi":70,"pm10":29.1,"pm2_5":21.5,"no2":17.8,"co":237.0,"o3":33.0,"so2":0.7,"mosquito_risk":3,"arthritis_risk":5,"migraine_risk":7,"frizz_risk":1,"updated_at":"2026-05-06T05:21:18.308890+05:30"}]