[{"city":"Delhi","state":"Delhi","latitude":28.6139,"longitude":77.209,"temp":28.8,"humidity":47,"rain":0.0,"pressure":976.9,"uv_index":7.0,"wind_gusts":42.5,"aqi":554,"pm10":609.1,"pm2_5":136.0,"mosquito_risk":4,"arthritis_risk":5,"migraine_risk":7,"frizz_risk":1,"updated_at":"2026-04-28T05:27:53.214507+05:30"},{"city":"Mumbai","state":"Maharashtra","latitude":19.076,"longitude":72.8777,"temp":26.5,"humidity":96,"rain":0.0,"pressure":1005.9,"uv_index":8.0,"wind_gusts":38.9,"aqi":86,"pm10":63.1,"pm2_5":32.8,"mosquito_risk":7,"arthritis_risk":5,"migraine_risk":4,"frizz_risk":1,"updated_at":"2026-04-28T05:27:53.214550+05:30"},{"city":"Bangalore","state":"Karnataka","latitude":12.9716,"longitude":77.5946,"temp":23.0,"humidity":87,"rain":0.0,"pressure":909.9,"uv_index":9.1,"wind_gusts":40.3,"aqi":87,"pm10":38.8,"pm2_5":34.2,"mosquito_risk":3,"arthritis_risk":5,"migraine_risk":7,"frizz_risk":1,"updated_at":"2026-04-28T05:27:53.214566+05:30"},{"city":"Hyderabad","state":"Telangana","latitude":17.385,"longitude":78.4867,"temp":28.5,"humidity":60,"rain":0.0,"pressure":950.8,"uv_index":8.95,"wind_gusts":49.3,"aqi":99,"pm10":38.2,"pm2_5":32.1,"mosquito_risk":4,"arthritis_risk":5,"migraine_risk":7,"frizz_risk":1,"updated_at":"2026-04-28T05:27:53.214577+05:30"},{"city":"Chennai","state":"Tamil Nadu","latitude":13.0827,"longitude":80.2707,"temp":28.1,"humidity":87,"rain":0.0,"pressure":1005.4,"uv_index":8.5,"wind_gusts":56.5,"aqi":55,"pm10":14.8,"pm2_5":10.2,"mosquito_risk":7,"arthritis_risk":5,"migraine_risk":4,"frizz_risk":1,"updated_at":"2026-04-28T05:27:53.214586+05:30"},{"city":"Kolkata","state":"West Bengal","latitude":22.5726,"longitude":88.3639,"temp":27.5,"humidity":88,"rain":0.0,"pressure":1001.0,"uv_index":8.85,"wind_gusts":63.4,"aqi":56,"pm10":26.2,"pm2_5":21.2,"mosquito_risk":7,"arthritis_risk":5,"migraine_risk":4,"frizz_risk":1,"updated_at":"2026-04-28T05:27:53.214595+05:30"},{"city":"Pune","state":"Maharashtra","latitude":18.5204,"longitude":73.8567,"temp":24.6,"humidity":67,"rain":0.0,"pressure":945.5,"uv_index":8.6,"wind_gusts":41.0,"aqi":70,"pm10":40.6,"pm2_5":23.6,"mosquito_risk":3,"arthritis_risk":5,"migraine_risk":7,"frizz_risk":1,"updated_at":"2026-04-28T05:27:53.214607+05:30"},{"city":"Ahmedabad","state":"Gujarat","latitude":23.0225,"longitude":72.5714,"temp":28.5,"humidity":39,"rain":0.0,"pressure":998.5,"uv_index":8.2,"wind_gusts":47.9,"aqi":43,"pm10":16.5,"pm2_5":7.4,"mosquito_risk":4,"arthritis_risk":5,"migraine_risk":7,"frizz_risk":0,"updated_at":"2026-04-28T05:27:53.214615+05:30"},{"city":"Jaipur","state":"Rajasthan","latitude":26.9124,"longitude":75.7873,"temp":27.6,"humidity":36,"rain":0.0,"pressure":954.3,"uv_index":8.1,"wind_gusts":39.6,"aqi":154,"pm10":151.8,"pm2_5":33.8,"mosquito_risk":4,"arthritis_risk":5,"migraine_risk":7,"frizz_risk":0,"updated_at":"2026-04-28T05:27:53.214623+05:30"},{"city":"Lucknow","state":"Uttar Pradesh","latitude":26.8467,"longitude":80.9462,"temp":27.0,"humidity":63,"rain":0.0,"pressure":988.9,"uv_index":7.9,"wind_gusts":40.0,"aqi":137,"pm10":61.2,"pm2_5":46.0,"mosquito_risk":7,"arthritis_risk":5,"migraine_risk":7,"frizz_risk":1,"updated_at":"2026-04-28T05:27:53.214631+05:30"},{"city":"Kanpur","state":"Uttar Pradesh","latitude":26.4499,"longitude":80.3319,"temp":28.1,"humidity":37,"rain":0.0,"pressure":985.8,"uv_index":7.95,"wind_gusts":43.9,"aqi":184,"pm10":162.5,"pm2_5":47.6,"mosquito_risk":4,"arthritis_risk":5,"migraine_risk":7,"frizz_risk":0,"updated_at":"2026-04-28T05:27:53.214639+05:30"},{"city":"Chandigarh","state":"Chandigarh","latitude":30.7333,"longitude":76.7794,"temp":23.9,"humidity":38,"rain":0.0,"pressure":961.9,"uv_index":4.1,"wind_gusts":53.3,"aqi":43,"pm10":10.6,"pm2_5":9.9,"mosquito_risk":0,"arthritis_risk":5,"migraine_risk":3,"frizz_risk":0,"updated_at":"2026-04-28T05:27:53.214647+05:30"},{"city":"Srinagar","state":"Jammu and Kashmir","latitude":34.0837,"longitude":74.7973,"temp":8.8,"humidity":94,"rain":0.0,"pressure":836.0,"uv_index":4.65,"wind_gusts":31.7,"aqi":70,"pm10":43.4,"pm2_5":37.0,"mosquito_risk":3,"arthritis_risk":10,"migraine_risk":3,"frizz_risk":0,"updated_at":"2026-04-28T05:27:53.214656+05:30"},{"city":"Jammu","state":"Jammu and Kashmir","latitude":32.7266,"longitude":74.857,"temp":23.5,"humidity":39,"rain":0.0,"pressure":967.2,"uv_index":6.75,"wind_gusts":44.3,"aqi":56,"pm10":14.8,"pm2_5":13.1,"mosquito_risk":0,"arthritis_risk":5,"migraine_risk":7,"frizz_risk":0,"updated_at":"2026-04-28T05:27:53.214663+05:30"},{"city":"Amritsar","state":"Punjab","latitude":31.634,"longitude":74.8723,"temp":27.1,"humidity":42,"rain":0.0,"pressure":974.9,"uv_index":6.5,"wind_gusts":48.6,"aqi":75,"pm10":52.6,"pm2_5":41.8,"mosquito_risk":4,"arthritis_risk":5,"migraine_risk":7,"frizz_risk":0,"updated_at":"2026-04-28T05:27:53.214671+05:30"},{"city":"Ludhiana","state":"Punjab","latitude":30.901,"longitude":75.8573,"temp":27.0,"humidity":39,"rain":0.0,"pressure":972.2,"uv_index":7.1,"wind_gusts":32.4,"aqi":71,"pm10":23.7,"pm2_5":23.4,"mosquito_risk":4,"arthritis_risk":5,"migraine_risk":7,"frizz_risk":0,"updated_at":"2026-04-28T05:27:53.214677+05:30"},{"city":"Jalandhar","state":"Punjab","latitude":31.326,"longitude":75.5762,"temp":24.8,"humidity":48,"rain":0.0,"pressure":973.1,"uv_index":6.65,"wind_gusts":36.0,"aqi":78,"pm10":31.2,"pm2_5":26.1,"mosquito_risk":0,"arthritis_risk":5,"migraine_risk":7,"frizz_risk":0,"updated_at":"2026-04-28T05:27:53.214686+05:30"},{"city":"Dehradun","state":"Uttarakhand","latitude":30.6284,"longitude":78.0322,"temp":11.6,"humidity":59,"rain":0.0,"pressure":822.8,"uv_index":6.3,"wind_gusts":53.3,"aqi":37,"pm10":11.2,"pm2_5":11.2,"mosquito_risk":0,"arthritis_risk":5,"migraine_risk":7,"frizz_risk":0,"updated_at":"2026-04-28T05:27:53.214693+05:30"},{"city":"Shimla","state":"Himachal Pradesh","latitude":31.1048,"longitude":77.1734,"temp":12.1,"humidity":41,"rain":0.0,"pressure":778.7,"uv_index":3.5,"wind_gusts":47.9,"aqi":46,"pm10":11.4,"pm2_5":10.6,"mosquito_risk":0,"arthritis_risk":5,"migraine_risk":3,"frizz_risk":1,"updated_at":"2026-04-28T05:27:53.214700+05:30"},{"city":"Manali","state":"Himachal Pradesh","latitude":32.2396,"longitude":77.1887,"temp":8.7,"humidity":62,"rain":0.0,"pressure":810.9,"uv_index":8.75,"wind_gusts":40.0,"aqi":46,"pm10":36.4,"pm2_5":25.7,"mosquito_risk":3,"arthritis_risk":5,"migraine_risk":7,"frizz_risk":0,"updated_at":"2026-04-28T05:27:53.214706+05:30"},{"city":"Gurgaon","state":"Haryana","latitude":28.4595,"longitude":77.0266,"temp":25.9,"humidity":56,"rain":0.0,"pressure":975.3,"uv_index":7.15,"wind_gusts":48.6,"aqi":1211,"pm10":627.7,"pm2_5":110.1,"mosquito_risk":4,"arthritis_risk":5,"migraine_risk":7,"frizz_risk":1,"updated_at":"2026-04-28T05:27:53.214715+05:30"},{"city":"Noida","state":"Uttar Pradesh","latitude":28.5355,"longitude":77.391,"temp":28.9,"humidity":39,"rain":0.0,"pressure":978.3,"uv_index":7.0,"wind_gusts":42.1,"aqi":1211,"pm10":627.7,"pm2_5":110.1,"mosquito_risk":4,"arthritis_risk":5,"migraine_risk":7,"frizz_risk":0,"updated_at":"2026-04-28T05:27:53.214722+05:30"},{"city":"Ghaziabad","state":"Uttar Pradesh","latitude":28.6692,"longitude":77.4538,"temp":28.0,"humidity":39,"rain":0.0,"pressure":976.5,"uv_index":7.0,"wind_gusts":59.8,"aqi":427,"pm10":666.8,"pm2_5":144.4,"mosquito_risk":4,"arthritis_risk":5,"migraine_risk":7,"frizz_risk":0,"updated_at":"2026-04-28T05:27:53.214729+05:30"},{"city":"Faridabad","state":"Haryana","latitude":28.4089,"longitude":77.3178,"temp":30.1,"humidity":35,"rain":0.0,"pressure":977.7,"uv_index":7.35,"wind_gusts":47.5,"aqi":1211,"pm10":627.7,"pm2_5":110.1,"mosquito_risk":0,"arthritis_risk":5,"migraine_risk":7,"frizz_risk":0,"updated_at":"2026-04-28T05:27:53.214735+05:30"},{"city":"Meerut","state":"Uttar Pradesh","latitude":28.9845,"longitude":77.7064,"temp":27.5,"humidity":40,"rain":0.0,"pressure":975.3,"uv_index":6.6,"wind_gusts":52.6,"aqi":427,"pm10":666.8,"pm2_5":144.4,"mosquito_risk":4,"arthritis_risk":5,"migraine_risk":7,"frizz_risk":0,"updated_at":"2026-04-28T05:27:53.214742+05:30"},{"city":"Agra","state":"Uttar Pradesh","latitude":27.1767,"longitude":78.0081,"temp":30.1,"humidity":29,"rain":0.0,"pressure":981.7,"uv_index":7.85,"wind_gusts":41.0,"aqi":693,"pm10":601.6,"pm2_5":79.2,"mosquito_risk":0,"arthritis_risk":5,"migraine_risk":7,"frizz_risk":0,"updated_at":"2026-04-28T05:27:53.214749+05:30"},{"city":"Varanasi","state":"Uttar Pradesh","latitude":25.3176,"longitude":82.9739,"temp":26.0,"humidity":77,"rain":0.0,"pressure":992.3,"uv_index":8.5,"wind_gusts":40.7,"aqi":128,"pm10":55.8,"pm2_5":43.7,"mosquito_risk":7,"arthritis_risk":5,"migraine_risk":7,"frizz_risk":1,"updated_at":"2026-04-28T05:27:53.214758+05:30"},{"city":"Prayagraj","state":"Uttar Pradesh","latitude":25.4358,"longitude":81.8463,"temp":27.0,"humidity":70,"rain":0.0,"pressure":990.0,"uv_index":8.4,"wind_gusts":37.4,"aqi":130,"pm10":60.5,"pm2_5":46.6,"mosquito_risk":7,"arthritis_risk":5,"migraine_risk":7,"frizz_risk":1,"updated_at":"2026-04-28T05:27:53.214764+05:30"},{"city":"Gorakhpur","state":"Uttar Pradesh","latitude":26.7606,"longitude":83.3732,"temp":23.3,"humidity":82,"rain":0.0,"pressure":993.4,"uv_index":8.3,"wind_gusts":35.3,"aqi":136,"pm10":36.1,"pm2_5":31.8,"mosquito_risk":3,"arthritis_risk":5,"migraine_risk":7,"frizz_risk":1,"updated_at":"2026-04-28T05:27:53.214771+05:30"},{"city":"Bareilly","state":"Uttar Pradesh","latitude":28.367,"longitude":79.4304,"temp":26.1,"humidity":43,"rain":0.0,"pressure":981.2,"uv_index":7.75,"wind_gusts":50.4,"aqi":103,"pm10":72.4,"pm2_5":42.8,"mosquito_risk":4,"arthritis_risk":5,"migraine_risk":7,"frizz_risk":0,"updated_at":"2026-04-28T05:27:53.214778+05:30"},{"city":"Aligarh","state":"Uttar Pradesh","latitude":27.8974,"longitude":78.088,"temp":31.3,"humidity":27,"rain":0.0,"pressure":978.9,"uv_index":7.65,"wind_gusts":59.0,"aqi":696,"pm10":810.3,"pm2_5":151.3,"mosquito_risk":0,"arthritis_risk":5,"migraine_risk":7,"frizz_risk":0,"updated_at":"2026-04-28T05:27:53.214784+05:30"},{"city":"Moradabad","state":"Uttar Pradesh","latitude":28.8386,"longitude":78.7733,"temp":26.5,"humidity":39,"rain":0.0,"pressure":978.2,"uv_index":6.55,"wind_gusts":48.2,"aqi":124,"pm10":306.4,"pm2_5":79.2,"mosquito_risk":4,"arthritis_risk":5,"migraine_risk":7,"frizz_risk":0,"updated_at":"2026-04-28T05:27:53.214793+05:30"},{"city":"Saharanpur","state":"Uttar Pradesh","latitude":29.9637,"longitude":77.546,"temp":25.8,"humidity":40,"rain":0.0,"pressure":969.5,"uv_index":7.0,"wind_gusts":42.1,"aqi":77,"pm10":37.0,"pm2_5":26.6,"mosquito_risk":4,"arthritis_risk":5,"migraine_risk":7,"frizz_risk":0,"updated_at":"2026-04-28T05:27:53.214799+05:30"},{"city":"Jhansi","state":"Uttar Pradesh","latitude":25.4484,"longitude":78.5685,"temp":28.5,"humidity":31,"rain":0.0,"pressure":972.8,"uv_index":8.3,"wind_gusts":42.8,"aqi":58,"pm10":19.8,"pm2_5":15.0,"mosquito_risk":4,"arthritis_risk":5,"migraine_risk":7,"frizz_risk":0,"updated_at":"2026-04-28T05:27:56.496032+05:30"},{"city":"Surat","state":"Gujarat","latitude":21.1702,"longitude":72.8311,"temp":26.9,"humidity":85,"rain":0.0,"pressure":1003.6,"uv_index":7.9,"wind_gusts":44.3,"aqi":85,"pm10":42.8,"pm2_5":26.7,"mosquito_risk":7,"arthritis_risk":5,"migraine_risk":4,"frizz_risk":1,"updated_at":"2026-04-28T05:27:56.496064+05:30"},{"city":"Vadodara","state":"Gujarat","latitude":22.3072,"longitude":73.1812,"temp":27.4,"humidity":69,"rain":0.0,"pressure":1001.2,"uv_index":8.15,"wind_gusts":48.6,"aqi":65,"pm10":31.1,"pm2_5":21.0,"mosquito_risk":7,"arthritis_risk":5,"migraine_risk":4,"frizz_risk":1,"updated_at":"2026-04-28T05:27:56.496074+05:30"},{"city":"Rajkot","state":"Gujarat","latitude":22.3039,"longitude":70.8022,"temp":25.5,"humidity":59,"rain":0.0,"pressure":990.5,"uv_index":7.9,"wind_gusts":53.3,"aqi":46,"pm10":12.5,"pm2_5":6.7,"mosquito_risk":4,"arthritis_risk":5,"migraine_risk":7,"frizz_risk":1,"updated_at":"2026-04-28T05:27:56.496083+05:30"},{"city":"Thane","state":"Maharashtra","latitude":19.2183,"longitude":72.9781,"temp":26.0,"humidity":99,"rain":0.0,"pressure":1005.3,"uv_index":8.05,"wind_gusts":36.4,"aqi":86,"pm10":63.1,"pm2_5":32.8,"mosquito_risk":7,"arthritis_risk":5,"migraine_risk":4,"frizz_risk":1,"updated_at":"2026-04-28T05:27:56.496090+05:30"},{"city":"Nagpur","state":"Maharashtra","latitude":21.1458,"longitude":79.0882,"temp":32.5,"humidity":21,"rain":0.0,"pressure":969.2,"uv_index":8.85,"wind_gusts":50.8,"aqi":99,"pm10":33.4,"pm2_5":29.0,"mosquito_risk":0,"arthritis_risk":5,"migraine_risk":7,"frizz_risk":0,"updated_at":"2026-04-28T05:27:56.496098+05:30"},{"city":"Nashik","state":"Maharashtra","latitude":19.9975,"longitude":73.7898,"temp":25.4,"humidity":39,"rain":0.0,"pressure":942.8,"uv_index":8.3,"wind_gusts":43.6,"aqi":77,"pm10":50.5,"pm2_5":25.9,"mosquito_risk":4,"arthritis_risk":5,"migraine_risk":7,"frizz_risk":0,"updated_at":"2026-04-28T05:27:56.496105+05:30"},{"city":"Aurangabad","state":"Maharashtra","latitude":19.8762,"longitude":75.3433,"temp":28.7,"humidity":30,"rain":0.0,"pressure":941.3,"uv_index":9.0,"wind_gusts":43.6,"aqi":70,"pm10":38.4,"pm2_5":23.1,"mosquito_risk":4,"arthritis_risk":5,"migraine_risk":7,"frizz_risk":0,"updated_at":"2026-04-28T05:27:56.496113+05:30"},{"city":"Solapur","state":"Maharashtra","latitude":17.6599,"longitude":75.9064,"temp":28.2,"humidity":63,"rain":0.0,"pressure":954.4,"uv_index":9.1,"wind_gusts":40.7,"aqi":81,"pm10":26.6,"pm2_5":22.5,"mosquito_risk":7,"arthritis_risk":5,"migraine_risk":7,"frizz_risk":1,"updated_at":"2026-04-28T05:27:56.496121+05:30"},{"city":"Kolhapur","state":"Maharashtra","latitude":16.705,"longitude":74.2433,"temp":22.7,"humidity":95,"rain":0.0,"pressure":945.7,"uv_index":9.0,"wind_gusts":50.8,"aqi":72,"pm10":43.0,"pm2_5":24.2,"mosquito_risk":3,"arthritis_risk":5,"migraine_risk":7,"frizz_risk":1,"updated_at":"2026-04-28T05:27:56.496128+05:30"},{"city":"Goa","state":"Goa","latitude":15.2993,"longitude":74.124,"temp":27.5,"humidity":89,"rain":0.0,"pressure":995.6,"uv_index":8.95,"wind_gusts":35.3,"aqi":65,"pm10":46.0,"pm2_5":17.4,"mosquito_risk":7,"arthritis_risk":5,"migraine_risk":7,"frizz_risk":1,"updated_at":"2026-04-28T05:27:56.496135+05:30"},{"city":"Jodhpur","state":"Rajasthan","latitude":26.2389,"longitude":73.0243,"temp":28.6,"humidity":30,"rain":0.0,"pressure":977.8,"uv_index":8.3,"wind_gusts":46.8,"aqi":129,"pm10":196.5,"pm2_5":31.0,"mosquito_risk":4,"arthritis_risk":5,"migraine_risk":7,"frizz_risk":0,"updated_at":"2026-04-28T05:27:56.496142+05:30"},{"city":"Udaipur","state":"Rajasthan","latitude":24.5854,"longitude":73.7125,"temp":26.0,"humidity":35,"rain":0.0,"pressure":942.4,"uv_index":8.75,"wind_gusts":49.3,"aqi":39,"pm10":18.8,"pm2_5":8.6,"mosquito_risk":4,"arthritis_risk":5,"migraine_risk":7,"frizz_risk":0,"updated_at":"2026-04-28T05:27:56.496150+05:30"},{"city":"Kota","state":"Rajasthan","latitude":25.2138,"longitude":75.8648,"temp":28.5,"humidity":23,"rain":0.0,"pressure":974.1,"uv_index":8.3,"wind_gusts":38.5,"aqi":52,"pm10":11.1,"pm2_5":9.7,"mosquito_risk":4,"arthritis_risk":5,"migraine_risk":7,"frizz_risk":0,"updated_at":"2026-04-28T05:27:56.496157+05:30"},{"city":"Bikaner","state":"Rajasthan","latitude":28.0229,"longitude":73.3119,"temp":28.4,"humidity":37,"rain":0.0,"pressure":975.5,"uv_index":8.15,"wind_gusts":59.0,"aqi":57,"pm10":87.1,"pm2_5":22.9,"mosquito_risk":4,"arthritis_risk":5,"migraine_risk":7,"frizz_risk":0,"updated_at":"2026-04-28T05:27:56.496165+05:30"},{"city":"Ajmer","state":"Rajasthan","latitude":26.4499,"longitude":74.6399,"temp":27.8,"humidity":26,"rain":0.0,"pressure":949.9,"uv_index":8.25,"wind_gusts":43.6,"aqi":60,"pm10":13.6,"pm2_5":6.5,"mosquito_risk":4,"arthritis_risk":5,"migraine_risk":7,"frizz_risk":0,"updated_at":"2026-04-28T05:27:56.496172+05:30"},{"city":"Gwalior","state":"Madhya Pradesh","latitude":26.2183,"longitude":78.1828,"temp":29.3,"humidity":32,"rain":0.0,"pressure":977.4,"uv_index":8.05,"wind_gusts":43.9,"aqi":74,"pm10":27.8,"pm2_5":15.1,"mosquito_risk":4,"arthritis_risk":5,"migraine_risk":7,"frizz_risk":0,"updated_at":"2026-04-28T05:27:56.496178+05:30"},{"city":"Indore","state":"Madhya Pradesh","latitude":22.7196,"longitude":75.8577,"temp":27.7,"humidity":32,"rain":0.0,"pressure":945.2,"uv_index":8.6,"wind_gusts":54.7,"aqi":49,"pm10":26.4,"pm2_5":18.1,"mosquito_risk":4,"arthritis_risk":5,"migraine_risk":7,"frizz_risk":0,"updated_at":"2026-04-28T05:27:56.496185+05:30"},{"city":"Bhopal","state":"Madhya Pradesh","latitude":23.2599,"longitude":77.4126,"temp":29.7,"humidity":21,"rain":0.0,"pressure":950.2,"uv_index":8.6,"wind_gusts":46.4,"aqi":50,"pm10":13.8,"pm2_5":10.7,"mosquito_risk":4,"arthritis_risk":5,"migraine_risk":7,"frizz_risk":0,"updated_at":"2026-04-28T05:27:56.496192+05:30"},{"city":"Jabalpur","state":"Madhya Pradesh","latitude":23.1815,"longitude":79.9864,"temp":27.1,"humidity":40,"rain":0.0,"pressure":956.8,"uv_index":8.75,"wind_gusts":42.5,"aqi":63,"pm10":31.0,"pm2_5":22.6,"mosquito_risk":4,"arthritis_risk":5,"migraine_risk":7,"frizz_risk":0,"updated_at":"2026-04-28T05:27:56.496199+05:30"},{"city":"Ujjain","state":"Madhya Pradesh","latitude":23.1765,"longitude":75.7885,"temp":27.3,"humidity":33,"rain":0.0,"pressure":950.7,"uv_index":8.55,"wind_gusts":56.9,"aqi":50,"pm10":25.6,"pm2_5":18.3,"mosquito_risk":4,"arthritis_risk":5,"migraine_risk":7,"frizz_risk":0,"updated_at":"2026-04-28T05:27:56.496207+05:30"},{"city":"Visakhapatnam","state":"Andhra Pradesh","latitude":17.6868,"longitude":83.2185,"temp":26.9,"humidity":91,"rain":0.0,"pressure":1001.1,"uv_index":7.65,"wind_gusts":58.3,"aqi":67,"pm10":31.4,"pm2_5":23.3,"mosquito_risk":7,"arthritis_risk":5,"migraine_risk":4,"frizz_risk":1,"updated_at":"2026-04-28T05:27:56.496214+05:30"},{"city":"Vijayawada","state":"Andhra Pradesh","latitude":16.5062,"longitude":80.648,"temp":27.9,"humidity":90,"rain":0.0,"pressure":1000.0,"uv_index":8.95,"wind_gusts":41.4,"aqi":67,"pm10":19.5,"pm2_5":14.7,"mosquito_risk":7,"arthritis_risk":5,"migraine_risk":4,"frizz_risk":1,"updated_at":"2026-04-28T05:27:56.496221+05:30"},{"city":"Guntur","state":"Andhra Pradesh","latitude":16.3067,"longitude":80.4365,"temp":28.0,"humidity":89,"rain":0.0,"pressure":1001.2,"uv_index":9.0,"wind_gusts":45.4,"aqi":68,"pm10":18.6,"pm2_5":14.1,"mosquito_risk":7,"arthritis_risk":5,"migraine_risk":4,"frizz_risk":1,"updated_at":"2026-04-28T05:27:56.496228+05:30"},{"city":"Nellore","state":"Andhra Pradesh","latitude":14.4426,"longitude":79.9865,"temp":26.8,"humidity":88,"rain":0.0,"pressure":1003.5,"uv_index":9.1,"wind_gusts":48.2,"aqi":62,"pm10":13.1,"pm2_5":10.2,"mosquito_risk":7,"arthritis_risk":5,"migraine_risk":4,"frizz_risk":1,"updated_at":"2026-04-28T05:27:56.496235+05:30"},{"city":"Kurnool","state":"Andhra Pradesh","latitude":15.8281,"longitude":78.0373,"temp":31.7,"humidity":41,"rain":0.0,"pressure":974.2,"uv_index":9.2,"wind_gusts":40.7,"aqi":94,"pm10":29.9,"pm2_5":27.4,"mosquito_risk":0,"arthritis_risk":5,"migraine_risk":7,"frizz_risk":1,"updated_at":"2026-04-28T05:27:56.496243+05:30"},{"city":"Kakinada","state":"Andhra Pradesh","latitude":16.9891,"longitude":82.2475,"temp":27.1,"humidity":92,"rain":0.0,"pressure":1005.4,"uv_index":9.2,"wind_gusts":45.7,"aqi":62,"pm10":29.8,"pm2_5":18.4,"mosquito_risk":7,"arthritis_risk":5,"migraine_risk":4,"frizz_risk":1,"updated_at":"2026-04-28T05:27:56.496250+05:30"},{"city":"Tirupati","state":"Andhra Pradesh","latitude":13.6288,"longitude":79.4192,"temp":26.2,"humidity":84,"rain":0.0,"pressure":989.7,"uv_index":8.6,"wind_gusts":38.2,"aqi":69,"pm10":13.6,"pm2_5":11.3,"mosquito_risk":7,"arthritis_risk":5,"migraine_risk":7,"frizz_risk":1,"updated_at":"2026-04-28T05:27:56.496256+05:30"},{"city":"Warangal","state":"Telangana","latitude":17.9689,"longitude":79.5941,"temp":26.8,"humidity":79,"rain":0.0,"pressure":975.8,"uv_index":8.8,"wind_gusts":38.2,"aqi":82,"pm10":27.2,"pm2_5":25.0,"mosquito_risk":7,"arthritis_risk":5,"migraine_risk":7,"frizz_risk":1,"updated_at":"2026-04-28T05:27:56.496263+05:30"},{"city":"Nizamabad","state":"Telangana","latitude":18.6725,"longitude":78.0941,"temp":29.7,"humidity":40,"rain":0.0,"pressure":961.8,"uv_index":8.95,"wind_gusts":36.0,"aqi":97,"pm10":54.7,"pm2_5":48.0,"mosquito_risk":4,"arthritis_risk":5,"migraine_risk":7,"frizz_risk":0,"updated_at":"2026-04-28T05:27:56.496269+05:30"},{"city":"Mysore","state":"Karnataka","latitude":12.2958,"longitude":76.6396,"temp":23.1,"humidity":94,"rain":0.0,"pressure":926.6,"uv_index":9.05,"wind_gusts":40.7,"aqi":99,"pm10":37.3,"pm2_5":34.6,"mosquito_risk":3,"arthritis_risk":5,"migraine_risk":7,"frizz_risk":1,"updated_at":"2026-04-28T05:27:56.496276+05:30"},{"city":"Mangalore","state":"Karnataka","latitude":12.9141,"longitude":74.856,"temp":28.2,"humidity":84,"rain":0.0,"pressure":1004.4,"uv_index":8.7,"wind_gusts":37.4,"aqi":76,"pm10":33.4,"pm2_5":28.5,"mosquito_risk":7,"arthritis_risk":5,"migraine_risk":4,"frizz_risk":1,"updated_at":"2026-04-28T05:27:56.496283+05:30"},{"city":"Hubli-Dharwad","state":"Karnataka","latitude":15.3647,"longitude":75.124,"temp":24.1,"humidity":89,"rain":0.0,"pressure":938.7,"uv_index":9.2,"wind_gusts":40.3,"aqi":80,"pm10":15.5,"pm2_5":12.5,"mosquito_risk":3,"arthritis_risk":5,"migraine_risk":7,"frizz_risk":1,"updated_at":"2026-04-28T05:27:56.496290+05:30"},{"city":"Belgaum","state":"Karnataka","latitude":15.8497,"longitude":74.4977,"temp":22.9,"humidity":93,"rain":0.0,"pressure":923.2,"uv_index":9.25,"wind_gusts":47.9,"aqi":77,"pm10":31.9,"pm2_5":20.1,"mosquito_risk":3,"arthritis_risk":5,"migraine_risk":7,"frizz_risk":1,"updated_at":"2026-04-28T05:27:59.764445+05:30"},{"city":"Coimbatore","state":"Tamil Nadu","latitude":11.0168,"longitude":76.9558,"temp":24.8,"humidity":94,"rain":0.0,"pressure":960.0,"uv_index":7.75,"wind_gusts":49.0,"aqi":74,"pm10":19.6,"pm2_5":18.0,"mosquito_risk":3,"arthritis_risk":5,"migraine_risk":7,"frizz_risk":1,"updated_at":"2026-04-28T05:27:59.764476+05:30"},{"city":"Madurai","state":"Tamil Nadu","latitude":9.9252,"longitude":78.1198,"temp":26.9,"humidity":76,"rain":0.0,"pressure":991.3,"uv_index":8.55,"wind_gusts":50.8,"aqi":52,"pm10":19.7,"pm2_5":19.0,"mosquito_risk":7,"arthritis_risk":5,"migraine_risk":7,"frizz_risk":1,"updated_at":"2026-04-28T05:27:59.764487+05:30"},{"city":"Trichy","state":"Tamil Nadu","latitude":10.7905,"longitude":78.7047,"temp":27.0,"humidity":85,"rain":0.0,"pressure":998.2,"uv_index":8.25,"wind_gusts":45.7,"aqi":52,"pm10":10.9,"pm2_5":10.2,"mosquito_risk":7,"arthritis_risk":5,"migraine_risk":7,"frizz_risk":1,"updated_at":"2026-04-28T05:27:59.764495+05:30"},{"city":"Salem","state":"Tamil Nadu","latitude":11.6643,"longitude":78.146,"temp":26.4,"humidity":74,"rain":0.0,"pressure":975.8,"uv_index":8.85,"wind_gusts":31.7,"aqi":62,"pm10":11.8,"pm2_5":11.3,"mosquito_risk":7,"arthritis_risk":5,"migraine_risk":7,"frizz_risk":1,"updated_at":"2026-04-28T05:27:59.764503+05:30"},{"city":"Tirunelveli","state":"Tamil Nadu","latitude":8.7139,"longitude":77.7567,"temp":26.3,"humidity":83,"rain":0.0,"pressure":1001.2,"uv_index":9.15,"wind_gusts":45.0,"aqi":64,"pm10":24.5,"pm2_5":22.3,"mosquito_risk":7,"arthritis_risk":5,"migraine_risk":4,"frizz_risk":1,"updated_at":"2026-04-28T05:27:59.764512+05:30"},{"city":"Vellore","state":"Tamil Nadu","latitude":12.9165,"longitude":79.1325,"temp":25.6,"humidity":87,"rain":0.0,"pressure":983.1,"uv_index":8.3,"wind_gusts":38.9,"aqi":81,"pm10":21.8,"pm2_5":20.5,"mosquito_risk":7,"arthritis_risk":5,"migraine_risk":7,"frizz_risk":1,"updated_at":"2026-04-28T05:27:59.764520+05:30"},{"city":"Erode","state":"Tamil Nadu","latitude":11.341,"longitude":77.7172,"temp":27.7,"humidity":78,"rain":0.0,"pressure":987.4,"uv_index":8.35,"wind_gusts":50.0,"aqi":65,"pm10":20.3,"pm2_5":19.3,"mosquito_risk":7,"arthritis_risk":5,"migraine_risk":7,"frizz_risk":1,"updated_at":"2026-04-28T05:27:59.764528+05:30"},{"city":"Kochi","state":"Kerala","latitude":9.9312,"longitude":76.2673,"temp":26.2,"humidity":90,"rain":0.1,"pressure":1007.3,"uv_index":7.45,"wind_gusts":36.4,"aqi":78,"pm10":21.9,"pm2_5":19.4,"mosquito_risk":10,"arthritis_risk":5,"migraine_risk":4,"frizz_risk":1,"updated_at":"2026-04-28T05:27:59.764536+05:30"},{"city":"Thiruvananthapuram","state":"Kerala","latitude":8.5241,"longitude":76.9366,"temp":24.3,"humidity":95,"rain":0.0,"pressure":1006.3,"uv_index":8.4,"wind_gusts":36.4,"aqi":61,"pm10":23.3,"pm2_5":19.3,"mosquito_risk":3,"arthritis_risk":5,"migraine_risk":4,"frizz_risk":1,"updated_at":"2026-04-28T05:27:59.764544+05:30"},{"city":"Kozhikode","state":"Kerala","latitude":11.2588,"longitude":75.7804,"temp":26.1,"humidity":93,"rain":0.1,"pressure":1006.2,"uv_index":5.2,"wind_gusts":36.0,"aqi":66,"pm10":24.2,"pm2_5":17.8,"mosquito_risk":10,"arthritis_risk":5,"migraine_risk":0,"frizz_risk":1,"updated_at":"2026-04-28T05:27:59.764552+05:30"},{"city":"Thrissur","state":"Kerala","latitude":10.5276,"longitude":76.2144,"temp":25.0,"humidity":94,"rain":0.0,"pressure":1005.6,"uv_index":7.0,"wind_gusts":36.7,"aqi":74,"pm10":22.9,"pm2_5":20.1,"mosquito_risk":7,"arthritis_risk":5,"migraine_risk":4,"frizz_risk":1,"updated_at":"2026-04-28T05:27:59.764560+05:30"},{"city":"Kannur","state":"Kerala","latitude":11.8745,"longitude":75.3704,"temp":26.5,"humidity":93,"rain":0.0,"pressure":1005.3,"uv_index":8.25,"wind_gusts":37.8,"aqi":75,"pm10":33.5,"pm2_5":28.6,"mosquito_risk":7,"arthritis_risk":5,"migraine_risk":4,"frizz_risk":1,"updated_at":"2026-04-28T05:27:59.764567+05:30"},{"city":"Patna","state":"Bihar","latitude":25.5941,"longitude":85.1376,"temp":22.1,"humidity":90,"rain":0.0,"pressure":996.6,"uv_index":8.6,"wind_gusts":33.8,"aqi":109,"pm10":30.0,"pm2_5":25.0,"mosquito_risk":3,"arthritis_risk":5,"migraine_risk":7,"frizz_risk":1,"updated_at":"2026-04-28T05:27:59.764574+05:30"},{"city":"Gaya","state":"Bihar","latitude":24.7914,"longitude":85.0002,"temp":23.8,"humidity":84,"rain":0.0,"pressure":989.3,"uv_index":8.7,"wind_gusts":35.3,"aqi":114,"pm10":29.2,"pm2_5":27.4,"mosquito_risk":3,"arthritis_risk":5,"migraine_risk":7,"frizz_risk":1,"updated_at":"2026-04-28T05:27:59.764582+05:30"},{"city":"Muzaffarpur","state":"Bihar","latitude":26.1209,"longitude":85.3647,"temp":21.8,"humidity":88,"rain":0.0,"pressure":997.0,"uv_index":8.3,"wind_gusts":36.7,"aqi":108,"pm10":25.4,"pm2_5":22.4,"mosquito_risk":3,"arthritis_risk":5,"migraine_risk":7,"frizz_risk":1,"updated_at":"2026-04-28T05:27:59.764589+05:30"},{"city":"Bhagalpur","state":"Bihar","latitude":25.2425,"longitude":87.0117,"temp":22.2,"humidity":91,"rain":0.0,"pressure":997.6,"uv_index":8.6,"wind_gusts":31.7,"aqi":93,"pm10":28.5,"pm2_5":23.9,"mosquito_risk":3,"arthritis_risk":5,"migraine_risk":7,"frizz_risk":1,"updated_at":"2026-04-28T05:27:59.764596+05:30"},{"city":"Ranchi","state":"Jharkhand","latitude":23.3441,"longitude":85.3096,"temp":23.0,"humidity":68,"rain":0.0,"pressure":932.2,"uv_index":8.95,"wind_gusts":47.2,"aqi":92,"pm10":80.1,"pm2_5":50.8,"mosquito_risk":3,"arthritis_risk":5,"migraine_risk":7,"frizz_risk":1,"updated_at":"2026-04-28T05:27:59.764603+05:30"},{"city":"Jamshedpur","state":"Jharkhand","latitude":22.8046,"longitude":86.2029,"temp":26.1,"humidity":76,"rain":0.0,"pressure":985.8,"uv_index":9.0,"wind_gusts":55.4,"aqi":99,"pm10":52.2,"pm2_5":43.7,"mosquito_risk":7,"arthritis_risk":5,"migraine_risk":7,"frizz_risk":1,"updated_at":"2026-04-28T05:27:59.764610+05:30"},{"city":"Dhanbad","state":"Jharkhand","latitude":23.7957,"longitude":86.4304,"temp":23.8,"humidity":88,"rain":0.0,"pressure":975.4,"uv_index":8.95,"wind_gusts":37.8,"aqi":127,"pm10":53.9,"pm2_5":48.2,"mosquito_risk":3,"arthritis_risk":5,"migraine_risk":7,"frizz_risk":1,"updated_at":"2026-04-28T05:27:59.764617+05:30"},{"city":"Bokaro","state":"Jharkhand","latitude":23.6693,"longitude":86.1511,"temp":24.4,"humidity":87,"rain":0.0,"pressure":979.3,"uv_index":8.95,"wind_gusts":36.4,"aqi":123,"pm10":54.2,"pm2_5":48.8,"mosquito_risk":3,"arthritis_risk":5,"migraine_risk":7,"frizz_risk":1,"updated_at":"2026-04-28T05:27:59.764625+05:30"},{"city":"Bhubaneswar","state":"Odisha","latitude":20.2961,"longitude":85.8245,"temp":27.1,"humidity":88,"rain":0.0,"pressure":998.2,"uv_index":9.1,"wind_gusts":48.6,"aqi":58,"pm10":24.7,"pm2_5":20.1,"mosquito_risk":7,"arthritis_risk":5,"migraine_risk":7,"frizz_risk":1,"updated_at":"2026-04-28T05:27:59.764632+05:30"},{"city":"Cuttack","state":"Odisha","latitude":20.4625,"longitude":85.8828,"temp":27.0,"humidity":89,"rain":0.0,"pressure":1000.1,"uv_index":9.15,"wind_gusts":42.8,"aqi":58,"pm10":24.7,"pm2_5":20.1,"mosquito_risk":7,"arthritis_risk":5,"migraine_risk":4,"frizz_risk":1,"updated_at":"2026-04-28T05:27:59.764640+05:30"},{"city":"Rourkela","state":"Odisha","latitude":22.2604,"longitude":84.8536,"temp":26.4,"humidity":80,"rain":0.0,"pressure":980.0,"uv_index":8.85,"wind_gusts":64.1,"aqi":91,"pm10":55.4,"pm2_5":37.3,"mosquito_risk":7,"arthritis_risk":5,"migraine_risk":7,"frizz_risk":1,"updated_at":"2026-04-28T05:27:59.764647+05:30"},{"city":"Raipur","state":"Chhattisgarh","latitude":21.2514,"longitude":81.6296,"temp":29.9,"humidity":43,"rain":0.0,"pressure":970.4,"uv_index":8.9,"wind_gusts":46.8,"aqi":90,"pm10":40.6,"pm2_5":34.9,"mosquito_risk":4,"arthritis_risk":5,"migraine_risk":7,"frizz_risk":0,"updated_at":"2026-04-28T05:27:59.764655+05:30"},{"city":"Bhilai","state":"Chhattisgarh","latitude":21.1938,"longitude":81.3509,"temp":29.4,"humidity":46,"rain":0.0,"pressure":971.0,"uv_index":8.95,"wind_gusts":46.1,"aqi":90,"pm10":44.1,"pm2_5":36.1,"mosquito_risk":4,"arthritis_risk":5,"migraine_risk":7,"frizz_risk":1,"updated_at":"2026-04-28T05:27:59.764662+05:30"},{"city":"Guwahati","state":"Assam","latitude":26.1158,"longitude":91.7086,"temp":20.5,"humidity":95,"rain":0.0,"pressure":999.4,"uv_index":7.35,"wind_gusts":32.8,"aqi":98,"pm10":28.3,"pm2_5":23.2,"mosquito_risk":3,"arthritis_risk":5,"migraine_risk":7,"frizz_risk":1,"updated_at":"2026-04-28T05:27:59.764669+05:30"},{"city":"Agartala","state":"Tripura","latitude":23.8315,"longitude":91.2868,"temp":26.6,"humidity":87,"rain":0.0,"pressure":1001.8,"uv_index":8.0,"wind_gusts":44.6,"aqi":67,"pm10":27.7,"pm2_5":14.6,"mosquito_risk":7,"arthritis_risk":5,"migraine_risk":4,"frizz_risk":1,"updated_at":"2026-04-28T05:27:59.764676+05:30"},{"city":"Shillong","state":"Meghalaya","latitude":25.5788,"longitude":91.8933,"temp":15.5,"humidity":98,"rain":0.0,"pressure":853.1,"uv_index":8.8,"wind_gusts":28.4,"aqi":67,"pm10":0.7,"pm2_5":0.5,"mosquito_risk":3,"arthritis_risk":10,"migraine_risk":7,"frizz_risk":0,"updated_at":"2026-04-28T05:27:59.764683+05:30"},{"city":"Imphal","state":"Manipur","latitude":24.817,"longitude":93.9368,"temp":18.4,"humidity":97,"rain":0.0,"pressure":920.5,"uv_index":6.4,"wind_gusts":20.9,"aqi":116,"pm10":58.9,"pm2_5":36.1,"mosquito_risk":3,"arthritis_risk":10,"migraine_risk":7,"frizz_risk":1,"updated_at":"2026-04-28T05:27:59.764690+05:30"},{"city":"Aizawl","state":"Mizoram","latitude":23.7271,"longitude":92.7176,"temp":19.2,"humidity":77,"rain":0.0,"pressure":888.0,"uv_index":7.9,"wind_gusts":74.5,"aqi":82,"pm10":56.5,"pm2_5":26.1,"mosquito_risk":3,"arthritis_risk":5,"migraine_risk":7,"frizz_risk":0,"updated_at":"2026-04-28T05:27:59.764697+05:30"},{"city":"Kohima","state":"Nagaland","latitude":25.6701,"longitude":94.1077,"temp":15.8,"humidity":97,"rain":0.2,"pressure":851.8,"uv_index":7.6,"wind_gusts":29.9,"aqi":99,"pm10":5.8,"pm2_5":4.4,"mosquito_risk":6,"arthritis_risk":10,"migraine_risk":7,"frizz_risk":0,"updated_at":"2026-04-28T05:27:59.764704+05:30"},{"city":"Gangtok","state":"Sikkim","latitude":27.3314,"longitude":88.6138,"temp":11.8,"humidity":89,"rain":0.0,"pressure":831.8,"uv_index":7.0,"wind_gusts":42.5,"aqi":79,"pm10":41.2,"pm2_5":28.9,"mosquito_risk":3,"arthritis_risk":10,"migraine_risk":7,"frizz_risk":0,"updated_at":"2026-04-28T05:27:59.764711+05:30"},{"city":"Siliguri","state":"West Bengal","latitude":26.7271,"longitude":88.3953,"temp":20.4,"humidity":89,"rain":0.0,"pressure":990.4,"uv_index":8.25,"wind_gusts":28.4,"aqi":99,"pm10":59.8,"pm2_5":42.4,"mosquito_risk":3,"arthritis_risk":5,"migraine_risk":7,"frizz_risk":1,"updated_at":"2026-04-28T05:28:03.051263+05:30"},{"city":"Durgapur","state":"West Bengal","latitude":23.5204,"longitude":87.3119,"temp":25.9,"humidity":88,"rain":0.0,"pressure":990.2,"uv_index":8.85,"wind_gusts":37.1,"aqi":118,"pm10":61.7,"pm2_5":53.4,"mosquito_risk":7,"arthritis_risk":5,"migraine_risk":7,"frizz_risk":1,"updated_at":"2026-04-28T05:28:03.051296+05:30"},{"city":"Asansol","state":"West Bengal","latitude":23.6739,"longitude":86.9524,"temp":25.3,"humidity":86,"rain":0.0,"pressure":988.9,"uv_index":8.9,"wind_gusts":32.8,"aqi":108,"pm10":49.7,"pm2_5":43.2,"mosquito_risk":7,"arthritis_risk":5,"migraine_risk":7,"frizz_risk":1,"updated_at":"2026-04-28T05:28:03.051306+05:30"},{"city":"Pondicherry","state":"Puducherry","latitude":11.9139,"longitude":79.8145,"temp":28.0,"humidity":82,"rain":0.0,"pressure":1006.7,"uv_index":8.75,"wind_gusts":46.8,"aqi":48,"pm10":12.8,"pm2_5":8.8,"mosquito_risk":7,"arthritis_risk":5,"migraine_risk":4,"frizz_risk":1,"updated_at":"2026-04-28T05:28:03.051315+05:30"},{"city":"Port Blair","state":"Andaman and Nicobar Islands","latitude":11.6234,"longitude":92.7265,"temp":26.9,"humidity":82,"rain":0.0,"pressure":1006.3,"uv_index":9.1,"wind_gusts":27.0,"aqi":48,"pm10":18.0,"pm2_5":13.7,"mosquito_risk":7,"arthritis_risk":5,"migraine_risk":4,"frizz_risk":1,"updated_at":"2026-04-28T05:28:03.051324+05:30"},{"city":"Haridwar","state":"Uttarakhand","latitude":29.9457,"longitude":78.1642,"temp":20.1,"humidity":57,"rain":0.0,"pressure":967.4,"uv_index":7.1,"wind_gusts":28.1,"aqi":57,"pm10":22.5,"pm2_5":22.4,"mosquito_risk":0,"arthritis_risk":5,"migraine_risk":7,"frizz_risk":0,"updated_at":"2026-04-28T05:28:03.051332+05:30"},{"city":"Rishikesh","state":"Uttarakhand","latitude":30.0869,"longitude":78.2676,"temp":18.8,"humidity":60,"rain":0.0,"pressure":960.0,"uv_index":5.9,"wind_gusts":29.5,"aqi":51,"pm10":24.2,"pm2_5":21.8,"mosquito_risk":0,"arthritis_risk":5,"migraine_risk":3,"frizz_risk":0,"updated_at":"2026-04-28T05:28:03.051340+05:30"},{"city":"Nainital","state":"Uttarakhand","latitude":29.3919,"longitude":79.4542,"temp":14.4,"humidity":51,"rain":0.0,"pressure":801.0,"uv_index":7.0,"wind_gusts":54.4,"aqi":64,"pm10":38.4,"pm2_5":17.1,"mosquito_risk":0,"arthritis_risk":5,"migraine_risk":7,"frizz_risk":0,"updated_at":"2026-04-28T05:28:03.051348+05:30"},{"city":"Mussoorie","state":"Uttarakhand","latitude":30.4599,"longitude":78.0664,"temp":16.7,"humidity":37,"rain":0.0,"pressure":798.9,"uv_index":5.15,"wind_gusts":51.8,"aqi":48,"pm10":16.2,"pm2_5":16.1,"mosquito_risk":0,"arthritis_risk":5,"migraine_risk":3,"frizz_risk":0,"updated_at":"2026-04-28T05:28:03.051356+05:30"},{"city":"Dharamshala","state":"Himachal Pradesh","latitude":32.219,"longitude":76.3234,"temp":22.0,"humidity":29,"rain":0.0,"pressure":865.1,"uv_index":6.75,"wind_gusts":53.3,"aqi":32,"pm10":12.4,"pm2_5":7.2,"mosquito_risk":0,"arthritis_risk":5,"migraine_risk":7,"frizz_risk":0,"updated_at":"2026-04-28T05:28:03.051363+05:30"},{"city":"Dalhousie","state":"Himachal Pradesh","latitude":32.5387,"longitude":75.971,"temp":12.4,"humidity":55,"rain":0.0,"pressure":798.2,"uv_index":5.3,"wind_gusts":36.7,"aqi":41,"pm10":13.6,"pm2_5":11.4,"mosquito_risk":0,"arthritis_risk":5,"migraine_risk":3,"frizz_risk":0,"updated_at":"2026-04-28T05:28:03.051372+05:30"},{"city":"Patiala","state":"Punjab","latitude":30.3398,"longitude":76.3869,"temp":27.9,"humidity":36,"rain":0.0,"pressure":971.8,"uv_index":6.4,"wind_gusts":49.3,"aqi":389,"pm10":158.8,"pm2_5":40.6,"mosquito_risk":4,"arthritis_risk":5,"migraine_risk":7,"frizz_risk":0,"updated_at":"2026-04-28T05:28:03.051380+05:30"},{"city":"Bhatinda","state":"Punjab","latitude":30.211,"longitude":74.9455,"temp":28.1,"humidity":40,"rain":0.0,"pressure":977.1,"uv_index":7.8,"wind_gusts":44.6,"aqi":82,"pm10":62.6,"pm2_5":46.3,"mosquito_risk":4,"arthritis_risk":5,"migraine_risk":7,"frizz_risk":0,"updated_at":"2026-04-28T05:28:03.051388+05:30"},{"city":"Rohtak","state":"Haryana","latitude":28.8955,"longitude":76.6066,"temp":26.9,"humidity":47,"rain":0.0,"pressure":975.5,"uv_index":7.05,"wind_gusts":53.3,"aqi":670,"pm10":560.7,"pm2_5":110.4,"mosquito_risk":4,"arthritis_risk":5,"migraine_risk":7,"frizz_risk":0,"updated_at":"2026-04-28T05:28:03.051395+05:30"},{"city":"Panipat","state":"Haryana","latitude":29.3909,"longitude":76.9635,"temp":27.8,"humidity":39,"rain":0.0,"pressure":974.1,"uv_index":6.7,"wind_gusts":56.2,"aqi":1129,"pm10":689.2,"pm2_5":142.0,"mosquito_risk":4,"arthritis_risk":5,"migraine_risk":7,"frizz_risk":0,"updated_at":"2026-04-28T05:28:03.051403+05:30"},{"city":"Mathura","state":"Uttar Pradesh","latitude":27.4924,"longitude":77.6737,"temp":29.4,"humidity":32,"rain":0.0,"pressure":980.6,"uv_index":7.75,"wind_gusts":63.7,"aqi":671,"pm10":568.1,"pm2_5":85.7,"mosquito_risk":4,"arthritis_risk":5,"migraine_risk":7,"frizz_risk":0,"updated_at":"2026-04-28T05:28:03.051410+05:30"},{"city":"Vrindavan","state":"Uttar Pradesh","latitude":27.5823,"longitude":77.7027,"temp":29.0,"humidity":33,"rain":0.0,"pressure":980.9,"uv_index":7.75,"wind_gusts":67.3,"aqi":671,"pm10":568.1,"pm2_5":85.7,"mosquito_risk":4,"arthritis_risk":5,"migraine_risk":7,"frizz_risk":0,"updated_at":"2026-04-28T05:28:03.051417+05:30"},{"city":"Ayodhya","state":"Uttar Pradesh","latitude":26.7922,"longitude":82.1998,"temp":24.8,"humidity":77,"rain":0.0,"pressure":991.0,"uv_index":8.1,"wind_gusts":52.2,"aqi":126,"pm10":59.1,"pm2_5":52.0,"mosquito_risk":3,"arthritis_risk":5,"migraine_risk":7,"frizz_risk":1,"updated_at":"2026-04-28T05:28:03.051424+05:30"},{"city":"Ratlam","state":"Madhya Pradesh","latitude":23.3315,"longitude":75.0367,"temp":25.8,"humidity":41,"rain":0.0,"pressure":951.4,"uv_index":8.45,"wind_gusts":51.1,"aqi":50,"pm10":26.1,"pm2_5":17.7,"mosquito_risk":4,"arthritis_risk":5,"migraine_risk":7,"frizz_risk":0,"updated_at":"2026-04-28T05:28:03.051431+05:30"},{"city":"Sagar","state":"Madhya Pradesh","latitude":23.8388,"longitude":78.7378,"temp":27.9,"humidity":23,"rain":0.0,"pressure":945.7,"uv_index":8.6,"wind_gusts":45.4,"aqi":52,"pm10":8.8,"pm2_5":7.9,"mosquito_risk":4,"arthritis_risk":5,"migraine_risk":7,"frizz_risk":0,"updated_at":"2026-04-28T05:28:03.051438+05:30"},{"city":"Satna","state":"Madhya Pradesh","latitude":24.6005,"longitude":80.8322,"temp":30.0,"humidity":31,"rain":0.0,"pressure":965.7,"uv_index":8.65,"wind_gusts":46.8,"aqi":56,"pm10":33.4,"pm2_5":14.5,"mosquito_risk":4,"arthritis_risk":5,"migraine_risk":7,"frizz_risk":0,"updated_at":"2026-04-28T05:28:03.051446+05:30"},{"city":"Akola","state":"Maharashtra","latitude":20.7002,"longitude":77.0082,"temp":29.9,"humidity":26,"rain":0.0,"pressure":971.4,"uv_index":8.4,"wind_gusts":42.8,"aqi":63,"pm10":24.5,"pm2_5":20.0,"mosquito_risk":4,"arthritis_risk":5,"migraine_risk":7,"frizz_risk":0,"updated_at":"2026-04-28T05:28:03.051453+05:30"},{"city":"Amravati","state":"Maharashtra","latitude":20.9374,"longitude":77.7796,"temp":31.1,"humidity":20,"rain":0.0,"pressure":963.4,"uv_index":8.85,"wind_gusts":46.8,"aqi":63,"pm10":21.9,"pm2_5":18.2,"mosquito_risk":0,"arthritis_risk":5,"migraine_risk":7,"frizz_risk":0,"updated_at":"2026-04-28T05:28:03.051461+05:30"},{"city":"Latur","state":"Maharashtra","latitude":18.4088,"longitude":76.5604,"temp":28.4,"humidity":29,"rain":0.0,"pressure":936.5,"uv_index":8.75,"wind_gusts":36.4,"aqi":80,"pm10":41.8,"pm2_5":31.2,"mosquito_risk":4,"arthritis_risk":5,"migraine_risk":7,"frizz_risk":0,"updated_at":"2026-04-28T05:28:03.051469+05:30"},{"city":"Nanded","state":"Maharashtra","latitude":19.1383,"longitude":77.3091,"temp":28.8,"humidity":28,"rain":0.0,"pressure":965.3,"uv_index":8.75,"wind_gusts":31.0,"aqi":76,"pm10":24.5,"pm2_5":22.1,"mosquito_risk":4,"arthritis_risk":5,"migraine_risk":7,"frizz_risk":0,"updated_at":"2026-04-28T05:28:03.051476+05:30"},{"city":"Gulbarga","state":"Karnataka","latitude":17.3297,"longitude":76.8343,"temp":28.5,"humidity":58,"rain":0.0,"pressure":955.7,"uv_index":9.1,"wind_gusts":35.6,"aqi":96,"pm10":20.1,"pm2_5":14.5,"mosquito_risk":4,"arthritis_risk":5,"migraine_risk":7,"frizz_risk":1,"updated_at":"2026-04-28T05:28:03.051482+05:30"},{"city":"Bidar","state":"Karnataka","latitude":17.9104,"longitude":77.5199,"temp":27.9,"humidity":44,"rain":0.0,"pressure":932.8,"uv_index":8.45,"wind_gusts":34.6,"aqi":95,"pm10":46.1,"pm2_5":41.3,"mosquito_risk":4,"arthritis_risk":5,"migraine_risk":7,"frizz_risk":0,"updated_at":"2026-04-28T05:28:03.051489+05:30"},{"city":"Hospet","state":"Karnataka","latitude":15.2689,"longitude":76.3909,"temp":26.0,"humidity":85,"rain":0.0,"pressure":953.6,"uv_index":9.25,"wind_gusts":34.2,"aqi":93,"pm10":23.7,"pm2_5":22.7,"mosquito_risk":7,"arthritis_risk":5,"migraine_risk":7,"frizz_risk":1,"updated_at":"2026-04-28T05:28:03.051497+05:30"},{"city":"Tirupur","state":"Tamil Nadu","latitude":11.1085,"longitude":77.3411,"temp":26.1,"humidity":89,"rain":0.0,"pressure":973.4,"uv_index":7.95,"wind_gusts":33.8,"aqi":78,"pm10":30.7,"pm2_5":29.1,"mosquito_risk":7,"arthritis_risk":5,"migraine_risk":7,"frizz_risk":1,"updated_at":"2026-04-28T05:28:03.051504+05:30"},{"city":"Alappuzha","state":"Kerala","latitude":9.4981,"longitude":76.3388,"temp":25.8,"humidity":97,"rain":0.0,"pressure":1007.3,"uv_index":7.55,"wind_gusts":36.0,"aqi":77,"pm10":26.4,"pm2_5":22.4,"mosquito_risk":7,"arthritis_risk":5,"migraine_risk":4,"frizz_risk":1,"updated_at":"2026-04-28T05:28:03.051511+05:30"},{"city":"Munnar","state":"Kerala","latitude":10.0889,"longitude":77.0595,"temp":18.2,"humidity":81,"rain":0.0,"pressure":855.3,"uv_index":8.55,"wind_gusts":26.6,"aqi":79,"pm10":33.3,"pm2_5":31.1,"mosquito_risk":3,"arthritis_risk":10,"migraine_risk":7,"frizz_risk":0,"updated_at":"2026-04-28T05:28:03.051519+05:30"},{"city":"Silchar","state":"Assam","latitude":24.8333,"longitude":92.7789,"temp":22.0,"humidity":92,"rain":0.1,"pressure":1001.8,"uv_index":3.1,"wind_gusts":34.2,"aqi":136,"pm10":30.9,"pm2_5":23.4,"mosquito_risk":6,"arthritis_risk":5,"migraine_risk":0,"frizz_risk":1,"updated_at":"2026-04-28T05:28:03.051527+05:30"},{"city":"Dibrugarh","state":"Assam","latitude":27.4728,"longitude":94.912,"temp":20.9,"humidity":97,"rain":0.0,"pressure":994.6,"uv_index":7.8,"wind_gusts":18.0,"aqi":109,"pm10":42.6,"pm2_5":33.2,"mosquito_risk":3,"arthritis_risk":5,"migraine_risk":7,"frizz_risk":1,"updated_at":"2026-04-28T05:28:03.051534+05:30"}]