[{"city":"Delhi","state":"Delhi","latitude":28.6139,"longitude":77.209,"temp":25.2,"humidity":65,"rain":0.0,"pressure":987.5,"uv_index":5.9,"wind_gusts":19.4,"aqi":386,"pm10":270.1,"pm2_5":91.3,"mosquito_risk":7,"arthritis_risk":5,"migraine_risk":3,"frizz_risk":1,"updated_at":"2026-03-06T10:14:17.621094+05:30"},{"city":"Mumbai","state":"Maharashtra","latitude":19.076,"longitude":72.8777,"temp":28.1,"humidity":59,"rain":0.0,"pressure":1011.6,"uv_index":7.4,"wind_gusts":23.8,"aqi":100,"pm10":41.3,"pm2_5":39.8,"mosquito_risk":4,"arthritis_risk":0,"migraine_risk":4,"frizz_risk":1,"updated_at":"2026-03-06T10:14:17.621142+05:30"},{"city":"Bangalore","state":"Karnataka","latitude":12.9716,"longitude":77.5946,"temp":26.0,"humidity":56,"rain":0.0,"pressure":915.2,"uv_index":9.15,"wind_gusts":22.0,"aqi":100,"pm10":37.5,"pm2_5":33.8,"mosquito_risk":4,"arthritis_risk":5,"migraine_risk":7,"frizz_risk":1,"updated_at":"2026-03-06T10:14:17.621157+05:30"},{"city":"Hyderabad","state":"Telangana","latitude":17.385,"longitude":78.4867,"temp":30.4,"humidity":30,"rain":0.0,"pressure":957.3,"uv_index":8.5,"wind_gusts":23.4,"aqi":101,"pm10":26.3,"pm2_5":25.0,"mosquito_risk":0,"arthritis_risk":5,"migraine_risk":7,"frizz_risk":0,"updated_at":"2026-03-06T10:14:17.621167+05:30"},{"city":"Chennai","state":"Tamil Nadu","latitude":13.0827,"longitude":80.2707,"temp":30.9,"humidity":55,"rain":0.0,"pressure":1010.5,"uv_index":8.9,"wind_gusts":31.3,"aqi":75,"pm10":26.8,"pm2_5":24.6,"mosquito_risk":0,"arthritis_risk":0,"migraine_risk":4,"frizz_risk":1,"updated_at":"2026-03-06T10:14:17.621176+05:30"},{"city":"Kolkata","state":"West Bengal","latitude":22.5726,"longitude":88.3639,"temp":27.4,"humidity":74,"rain":0.0,"pressure":1010.7,"uv_index":7.8,"wind_gusts":15.8,"aqi":165,"pm10":84.3,"pm2_5":63.3,"mosquito_risk":7,"arthritis_risk":0,"migraine_risk":4,"frizz_risk":1,"updated_at":"2026-03-06T10:14:17.621185+05:30"},{"city":"Pune","state":"Maharashtra","latitude":18.5204,"longitude":73.8567,"temp":30.7,"humidity":29,"rain":0.0,"pressure":952.8,"uv_index":8.0,"wind_gusts":27.7,"aqi":93,"pm10":25.8,"pm2_5":22.9,"mosquito_risk":0,"arthritis_risk":5,"migraine_risk":7,"frizz_risk":0,"updated_at":"2026-03-06T10:14:17.621198+05:30"},{"city":"Ahmedabad","state":"Gujarat","latitude":23.0225,"longitude":72.5714,"temp":26.0,"humidity":63,"rain":0.0,"pressure":1007.9,"uv_index":7.25,"wind_gusts":20.5,"aqi":71,"pm10":22.2,"pm2_5":16.3,"mosquito_risk":7,"arthritis_risk":5,"migraine_risk":4,"frizz_risk":1,"updated_at":"2026-03-06T10:14:17.621206+05:30"},{"city":"Jaipur","state":"Rajasthan","latitude":26.9124,"longitude":75.7873,"temp":29.2,"humidity":26,"rain":0.0,"pressure":964.8,"uv_index":6.7,"wind_gusts":25.2,"aqi":98,"pm10":155.5,"pm2_5":30.4,"mosquito_risk":4,"arthritis_risk":5,"migraine_risk":7,"frizz_risk":0,"updated_at":"2026-03-06T10:14:17.621213+05:30"},{"city":"Lucknow","state":"Uttar Pradesh","latitude":26.8467,"longitude":80.9462,"temp":26.9,"humidity":61,"rain":0.0,"pressure":998.4,"uv_index":6.4,"wind_gusts":22.3,"aqi":169,"pm10":130.9,"pm2_5":91.0,"mosquito_risk":7,"arthritis_risk":5,"migraine_risk":7,"frizz_risk":1,"updated_at":"2026-03-06T10:14:17.621221+05:30"},{"city":"Kanpur","state":"Uttar Pradesh","latitude":26.4499,"longitude":80.3319,"temp":26.3,"humidity":73,"rain":0.0,"pressure":996.5,"uv_index":6.4,"wind_gusts":13.3,"aqi":175,"pm10":232.8,"pm2_5":98.5,"mosquito_risk":7,"arthritis_risk":5,"migraine_risk":7,"frizz_risk":1,"updated_at":"2026-03-06T10:14:17.621228+05:30"},{"city":"Chandigarh","state":"Chandigarh","latitude":30.7333,"longitude":76.7794,"temp":24.3,"humidity":68,"rain":0.0,"pressure":972.7,"uv_index":5.8,"wind_gusts":16.2,"aqi":112,"pm10":67.8,"pm2_5":42.0,"mosquito_risk":3,"arthritis_risk":5,"migraine_risk":3,"frizz_risk":1,"updated_at":"2026-03-06T10:14:17.621236+05:30"},{"city":"Srinagar","state":"Jammu and Kashmir","latitude":34.0837,"longitude":74.7973,"temp":14.9,"humidity":64,"rain":0.0,"pressure":846.1,"uv_index":6.7,"wind_gusts":17.6,"aqi":138,"pm10":71.9,"pm2_5":51.6,"mosquito_risk":3,"arthritis_risk":5,"migraine_risk":7,"frizz_risk":0,"updated_at":"2026-03-06T10:14:17.621244+05:30"},{"city":"Jammu","state":"Jammu and Kashmir","latitude":32.7266,"longitude":74.857,"temp":25.6,"humidity":65,"rain":0.0,"pressure":975.8,"uv_index":6.45,"wind_gusts":17.3,"aqi":121,"pm10":49.8,"pm2_5":41.6,"mosquito_risk":7,"arthritis_risk":5,"migraine_risk":7,"frizz_risk":1,"updated_at":"2026-03-06T10:14:17.621252+05:30"},{"city":"Amritsar","state":"Punjab","latitude":31.634,"longitude":74.8723,"temp":25.6,"humidity":76,"rain":0.0,"pressure":984.0,"uv_index":6.05,"wind_gusts":12.2,"aqi":155,"pm10":117.1,"pm2_5":102.7,"mosquito_risk":7,"arthritis_risk":5,"migraine_risk":7,"frizz_risk":1,"updated_at":"2026-03-06T10:14:17.621260+05:30"},{"city":"Ludhiana","state":"Punjab","latitude":30.901,"longitude":75.8573,"temp":25.7,"humidity":73,"rain":0.0,"pressure":982.4,"uv_index":6.05,"wind_gusts":15.1,"aqi":162,"pm10":105.2,"pm2_5":93.8,"mosquito_risk":7,"arthritis_risk":5,"migraine_risk":7,"frizz_risk":1,"updated_at":"2026-03-06T10:14:17.621267+05:30"},{"city":"Jalandhar","state":"Punjab","latitude":31.326,"longitude":75.5762,"temp":25.1,"humidity":75,"rain":0.0,"pressure":983.4,"uv_index":6.15,"wind_gusts":14.0,"aqi":163,"pm10":115.0,"pm2_5":100.4,"mosquito_risk":7,"arthritis_risk":5,"migraine_risk":7,"frizz_risk":1,"updated_at":"2026-03-06T10:14:17.621276+05:30"},{"city":"Dehradun","state":"Uttarakhand","latitude":30.6284,"longitude":78.0322,"temp":19.6,"humidity":43,"rain":0.0,"pressure":833.8,"uv_index":6.15,"wind_gusts":27.0,"aqi":78,"pm10":27.4,"pm2_5":20.7,"mosquito_risk":0,"arthritis_risk":5,"migraine_risk":7,"frizz_risk":0,"updated_at":"2026-03-06T10:14:17.621284+05:30"},{"city":"Shimla","state":"Himachal Pradesh","latitude":31.1048,"longitude":77.1734,"temp":20.4,"humidity":39,"rain":0.0,"pressure":789.9,"uv_index":6.25,"wind_gusts":32.8,"aqi":74,"pm10":42.5,"pm2_5":21.8,"mosquito_risk":0,"arthritis_risk":5,"migraine_risk":7,"frizz_risk":0,"updated_at":"2026-03-06T10:14:17.621294+05:30"},{"city":"Manali","state":"Himachal Pradesh","latitude":32.2396,"longitude":77.1887,"temp":24.0,"humidity":13,"rain":0.0,"pressure":826.2,"uv_index":7.2,"wind_gusts":37.8,"aqi":64,"pm10":28.9,"pm2_5":16.5,"mosquito_risk":0,"arthritis_risk":5,"migraine_risk":7,"frizz_risk":1,"updated_at":"2026-03-06T10:14:17.621302+05:30"},{"city":"Gurgaon","state":"Haryana","latitude":28.4595,"longitude":77.0266,"temp":24.9,"humidity":66,"rain":0.0,"pressure":986.0,"uv_index":6.0,"wind_gusts":17.6,"aqi":1127,"pm10":226.8,"pm2_5":86.6,"mosquito_risk":3,"arthritis_risk":5,"migraine_risk":3,"frizz_risk":1,"updated_at":"2026-03-06T10:14:17.621309+05:30"},{"city":"Noida","state":"Uttar Pradesh","latitude":28.5355,"longitude":77.391,"temp":25.7,"humidity":65,"rain":0.0,"pressure":989.0,"uv_index":5.9,"wind_gusts":17.3,"aqi":1127,"pm10":226.8,"pm2_5":86.6,"mosquito_risk":7,"arthritis_risk":5,"migraine_risk":3,"frizz_risk":1,"updated_at":"2026-03-06T10:14:17.621316+05:30"},{"city":"Ghaziabad","state":"Uttar Pradesh","latitude":28.6692,"longitude":77.4538,"temp":24.7,"humidity":76,"rain":0.0,"pressure":987.1,"uv_index":5.9,"wind_gusts":14.8,"aqi":284,"pm10":302.7,"pm2_5":104.1,"mosquito_risk":3,"arthritis_risk":5,"migraine_risk":3,"frizz_risk":1,"updated_at":"2026-03-06T10:14:17.621323+05:30"},{"city":"Faridabad","state":"Haryana","latitude":28.4089,"longitude":77.3178,"temp":25.5,"humidity":66,"rain":0.0,"pressure":988.3,"uv_index":5.95,"wind_gusts":16.9,"aqi":1127,"pm10":226.8,"pm2_5":86.6,"mosquito_risk":7,"arthritis_risk":5,"migraine_risk":3,"frizz_risk":1,"updated_at":"2026-03-06T10:14:17.621329+05:30"},{"city":"Meerut","state":"Uttar Pradesh","latitude":28.9845,"longitude":77.7064,"temp":23.7,"humidity":83,"rain":0.0,"pressure":986.0,"uv_index":5.75,"wind_gusts":14.8,"aqi":284,"pm10":302.7,"pm2_5":104.1,"mosquito_risk":3,"arthritis_risk":5,"migraine_risk":3,"frizz_risk":1,"updated_at":"2026-03-06T10:14:17.621336+05:30"},{"city":"Agra","state":"Uttar Pradesh","latitude":27.1767,"longitude":78.0081,"temp":27.6,"humidity":54,"rain":0.0,"pressure":992.4,"uv_index":6.3,"wind_gusts":19.4,"aqi":514,"pm10":376.3,"pm2_5":97.8,"mosquito_risk":4,"arthritis_risk":5,"migraine_risk":7,"frizz_risk":1,"updated_at":"2026-03-06T10:14:17.621343+05:30"},{"city":"Varanasi","state":"Uttar Pradesh","latitude":25.3176,"longitude":82.9739,"temp":27.0,"humidity":66,"rain":0.0,"pressure":1002.4,"uv_index":7.1,"wind_gusts":17.6,"aqi":165,"pm10":177.0,"pm2_5":78.9,"mosquito_risk":7,"arthritis_risk":5,"migraine_risk":4,"frizz_risk":1,"updated_at":"2026-03-06T10:14:17.621355+05:30"},{"city":"Prayagraj","state":"Uttar Pradesh","latitude":25.4358,"longitude":81.8463,"temp":26.7,"humidity":70,"rain":0.0,"pressure":1000.8,"uv_index":6.95,"wind_gusts":16.2,"aqi":168,"pm10":176.0,"pm2_5":99.2,"mosquito_risk":7,"arthritis_risk":5,"migraine_risk":4,"frizz_risk":1,"updated_at":"2026-03-06T10:14:17.621362+05:30"},{"city":"Gorakhpur","state":"Uttar Pradesh","latitude":26.7606,"longitude":83.3732,"temp":27.0,"humidity":67,"rain":0.0,"pressure":1002.7,"uv_index":6.8,"wind_gusts":19.1,"aqi":171,"pm10":93.4,"pm2_5":85.4,"mosquito_risk":7,"arthritis_risk":5,"migraine_risk":4,"frizz_risk":1,"updated_at":"2026-03-06T10:14:17.621370+05:30"},{"city":"Bareilly","state":"Uttar Pradesh","latitude":28.367,"longitude":79.4304,"temp":25.2,"humidity":75,"rain":0.0,"pressure":991.5,"uv_index":6.1,"wind_gusts":14.4,"aqi":165,"pm10":105.5,"pm2_5":85.7,"mosquito_risk":7,"arthritis_risk":5,"migraine_risk":7,"frizz_risk":1,"updated_at":"2026-03-06T10:14:17.621377+05:30"},{"city":"Aligarh","state":"Uttar Pradesh","latitude":27.8974,"longitude":78.088,"temp":26.0,"humidity":69,"rain":0.0,"pressure":990.0,"uv_index":6.05,"wind_gusts":16.6,"aqi":649,"pm10":287.8,"pm2_5":110.6,"mosquito_risk":7,"arthritis_risk":5,"migraine_risk":7,"frizz_risk":1,"updated_at":"2026-03-06T10:14:17.621383+05:30"},{"city":"Moradabad","state":"Uttar Pradesh","latitude":28.8386,"longitude":78.7733,"temp":24.8,"humidity":74,"rain":0.0,"pressure":988.2,"uv_index":5.9,"wind_gusts":18.7,"aqi":171,"pm10":98.5,"pm2_5":82.0,"mosquito_risk":3,"arthritis_risk":5,"migraine_risk":3,"frizz_risk":1,"updated_at":"2026-03-06T10:14:17.621390+05:30"},{"city":"Saharanpur","state":"Uttar Pradesh","latitude":29.9637,"longitude":77.546,"temp":23.9,"humidity":77,"rain":0.0,"pressure":980.0,"uv_index":5.55,"wind_gusts":19.8,"aqi":159,"pm10":102.9,"pm2_5":69.2,"mosquito_risk":3,"arthritis_risk":5,"migraine_risk":3,"frizz_risk":1,"updated_at":"2026-03-06T10:14:17.621396+05:30"},{"city":"Jhansi","state":"Uttar Pradesh","latitude":25.4484,"longitude":78.5685,"temp":29.7,"humidity":43,"rain":0.0,"pressure":982.7,"uv_index":6.9,"wind_gusts":25.2,"aqi":62,"pm10":36.6,"pm2_5":17.3,"mosquito_risk":4,"arthritis_risk":5,"migraine_risk":7,"frizz_risk":0,"updated_at":"2026-03-06T10:14:20.868241+05:30"},{"city":"Surat","state":"Gujarat","latitude":21.1702,"longitude":72.8311,"temp":27.2,"humidity":62,"rain":0.0,"pressure":1011.6,"uv_index":7.15,"wind_gusts":22.7,"aqi":122,"pm10":40.7,"pm2_5":39.7,"mosquito_risk":7,"arthritis_risk":0,"migraine_risk":4,"frizz_risk":1,"updated_at":"2026-03-06T10:14:20.868271+05:30"},{"city":"Vadodara","state":"Gujarat","latitude":22.3072,"longitude":73.1812,"temp":27.9,"humidity":57,"rain":0.0,"pressure":1009.9,"uv_index":7.25,"wind_gusts":18.0,"aqi":96,"pm10":30.7,"pm2_5":28.5,"mosquito_risk":4,"arthritis_risk":0,"migraine_risk":4,"frizz_risk":1,"updated_at":"2026-03-06T10:14:20.868281+05:30"},{"city":"Rajkot","state":"Gujarat","latitude":22.3039,"longitude":70.8022,"temp":24.0,"humidity":74,"rain":0.0,"pressure":999.8,"uv_index":7.1,"wind_gusts":22.0,"aqi":57,"pm10":26.3,"pm2_5":14.6,"mosquito_risk":3,"arthritis_risk":5,"migraine_risk":7,"frizz_risk":1,"updated_at":"2026-03-06T10:14:20.868289+05:30"},{"city":"Thane","state":"Maharashtra","latitude":19.2183,"longitude":72.9781,"temp":30.9,"humidity":37,"rain":0.0,"pressure":1011.2,"uv_index":7.4,"wind_gusts":35.6,"aqi":100,"pm10":41.3,"pm2_5":39.8,"mosquito_risk":0,"arthritis_risk":0,"migraine_risk":4,"frizz_risk":0,"updated_at":"2026-03-06T10:14:20.868297+05:30"},{"city":"Nagpur","state":"Maharashtra","latitude":21.1458,"longitude":79.0882,"temp":31.0,"humidity":32,"rain":0.0,"pressure":977.8,"uv_index":7.85,"wind_gusts":25.9,"aqi":56,"pm10":26.7,"pm2_5":19.0,"mosquito_risk":0,"arthritis_risk":5,"migraine_risk":7,"frizz_risk":0,"updated_at":"2026-03-06T10:14:20.868304+05:30"},{"city":"Nashik","state":"Maharashtra","latitude":19.9975,"longitude":73.7898,"temp":29.2,"humidity":29,"rain":0.0,"pressure":950.2,"uv_index":7.6,"wind_gusts":31.7,"aqi":71,"pm10":17.2,"pm2_5":15.8,"mosquito_risk":4,"arthritis_risk":5,"migraine_risk":7,"frizz_risk":0,"updated_at":"2026-03-06T10:14:20.868311+05:30"},{"city":"Aurangabad","state":"Maharashtra","latitude":19.8762,"longitude":75.3433,"temp":30.5,"humidity":27,"rain":0.0,"pressure":948.9,"uv_index":8.1,"wind_gusts":22.7,"aqi":66,"pm10":19.7,"pm2_5":17.3,"mosquito_risk":0,"arthritis_risk":5,"migraine_risk":7,"frizz_risk":0,"updated_at":"2026-03-06T10:14:20.868318+05:30"},{"city":"Solapur","state":"Maharashtra","latitude":17.6599,"longitude":75.9064,"temp":28.0,"humidity":39,"rain":0.0,"pressure":961.4,"uv_index":8.4,"wind_gusts":20.2,"aqi":72,"pm10":22.4,"pm2_5":20.1,"mosquito_risk":4,"arthritis_risk":5,"migraine_risk":7,"frizz_risk":0,"updated_at":"2026-03-06T10:14:20.868326+05:30"},{"city":"Kolhapur","state":"Maharashtra","latitude":16.705,"longitude":74.2433,"temp":29.3,"humidity":32,"rain":0.0,"pressure":951.7,"uv_index":8.55,"wind_gusts":31.7,"aqi":149,"pm10":46.4,"pm2_5":45.1,"mosquito_risk":4,"arthritis_risk":5,"migraine_risk":7,"frizz_risk":0,"updated_at":"2026-03-06T10:14:20.868334+05:30"},{"city":"Goa","state":"Goa","latitude":15.2993,"longitude":74.124,"temp":29.3,"humidity":67,"rain":0.0,"pressure":1000.6,"uv_index":8.6,"wind_gusts":32.4,"aqi":156,"pm10":74.3,"pm2_5":71.9,"mosquito_risk":7,"arthritis_risk":5,"migraine_risk":4,"frizz_risk":1,"updated_at":"2026-03-06T10:14:20.868341+05:30"},{"city":"Jodhpur","state":"Rajasthan","latitude":26.2389,"longitude":73.0243,"temp":26.0,"humidity":48,"rain":0.0,"pressure":988.4,"uv_index":6.95,"wind_gusts":23.0,"aqi":64,"pm10":43.7,"pm2_5":17.1,"mosquito_risk":4,"arthritis_risk":5,"migraine_risk":7,"frizz_risk":0,"updated_at":"2026-03-06T10:14:20.868348+05:30"},{"city":"Udaipur","state":"Rajasthan","latitude":24.5854,"longitude":73.7125,"temp":28.5,"humidity":23,"rain":0.0,"pressure":951.4,"uv_index":7.6,"wind_gusts":20.2,"aqi":41,"pm10":12.0,"pm2_5":11.3,"mosquito_risk":4,"arthritis_risk":5,"migraine_risk":7,"frizz_risk":0,"updated_at":"2026-03-06T10:14:20.868354+05:30"},{"city":"Kota","state":"Rajasthan","latitude":25.2138,"longitude":75.8648,"temp":28.0,"humidity":38,"rain":0.0,"pressure":983.9,"uv_index":7.0,"wind_gusts":17.3,"aqi":76,"pm10":18.3,"pm2_5":13.0,"mosquito_risk":4,"arthritis_risk":5,"migraine_risk":7,"frizz_risk":0,"updated_at":"2026-03-06T10:14:20.868361+05:30"},{"city":"Bikaner","state":"Rajasthan","latitude":28.0229,"longitude":73.3119,"temp":26.0,"humidity":40,"rain":0.0,"pressure":986.4,"uv_index":6.65,"wind_gusts":23.0,"aqi":59,"pm10":52.0,"pm2_5":17.9,"mosquito_risk":4,"arthritis_risk":5,"migraine_risk":7,"frizz_risk":0,"updated_at":"2026-03-06T10:14:20.868368+05:30"},{"city":"Ajmer","state":"Rajasthan","latitude":26.4499,"longitude":74.6399,"temp":26.0,"humidity":40,"rain":0.0,"pressure":959.8,"uv_index":6.95,"wind_gusts":26.3,"aqi":63,"pm10":22.0,"pm2_5":11.3,"mosquito_risk":4,"arthritis_risk":5,"migraine_risk":7,"frizz_risk":0,"updated_at":"2026-03-06T10:14:20.868375+05:30"},{"city":"Gwalior","state":"Madhya Pradesh","latitude":26.2183,"longitude":78.1828,"temp":28.6,"humidity":54,"rain":0.0,"pressure":987.8,"uv_index":6.6,"wind_gusts":20.5,"aqi":87,"pm10":34.6,"pm2_5":22.8,"mosquito_risk":4,"arthritis_risk":5,"migraine_risk":7,"frizz_risk":1,"updated_at":"2026-03-06T10:14:20.868381+05:30"},{"city":"Indore","state":"Madhya Pradesh","latitude":22.7196,"longitude":75.8577,"temp":27.6,"humidity":36,"rain":0.0,"pressure":953.3,"uv_index":7.55,"wind_gusts":22.3,"aqi":71,"pm10":15.0,"pm2_5":14.5,"mosquito_risk":4,"arthritis_risk":5,"migraine_risk":7,"frizz_risk":0,"updated_at":"2026-03-06T10:14:20.868387+05:30"},{"city":"Bhopal","state":"Madhya Pradesh","latitude":23.2599,"longitude":77.4126,"temp":28.0,"humidity":40,"rain":0.0,"pressure":958.9,"uv_index":7.4,"wind_gusts":24.8,"aqi":70,"pm10":36.6,"pm2_5":23.1,"mosquito_risk":4,"arthritis_risk":5,"migraine_risk":7,"frizz_risk":0,"updated_at":"2026-03-06T10:14:20.868394+05:30"},{"city":"Jabalpur","state":"Madhya Pradesh","latitude":23.1815,"longitude":79.9864,"temp":27.9,"humidity":47,"rain":0.0,"pressure":966.0,"uv_index":7.5,"wind_gusts":27.4,"aqi":64,"pm10":34.0,"pm2_5":21.2,"mosquito_risk":4,"arthritis_risk":5,"migraine_risk":7,"frizz_risk":0,"updated_at":"2026-03-06T10:14:20.868400+05:30"},{"city":"Ujjain","state":"Madhya Pradesh","latitude":23.1765,"longitude":75.7885,"temp":26.9,"humidity":44,"rain":0.0,"pressure":958.9,"uv_index":7.45,"wind_gusts":20.2,"aqi":80,"pm10":16.5,"pm2_5":15.9,"mosquito_risk":4,"arthritis_risk":5,"migraine_risk":7,"frizz_risk":0,"updated_at":"2026-03-06T10:14:20.868408+05:30"},{"city":"Visakhapatnam","state":"Andhra Pradesh","latitude":17.6868,"longitude":83.2185,"temp":30.0,"humidity":65,"rain":0.0,"pressure":1006.5,"uv_index":8.45,"wind_gusts":36.7,"aqi":143,"pm10":61.0,"pm2_5":57.9,"mosquito_risk":7,"arthritis_risk":5,"migraine_risk":4,"frizz_risk":1,"updated_at":"2026-03-06T10:14:20.868415+05:30"},{"city":"Vijayawada","state":"Andhra Pradesh","latitude":16.5062,"longitude":80.648,"temp":30.1,"humidity":56,"rain":0.0,"pressure":1005.8,"uv_index":8.55,"wind_gusts":15.1,"aqi":136,"pm10":47.7,"pm2_5":45.2,"mosquito_risk":0,"arthritis_risk":5,"migraine_risk":4,"frizz_risk":1,"updated_at":"2026-03-06T10:14:20.868422+05:30"},{"city":"Guntur","state":"Andhra Pradesh","latitude":16.3067,"longitude":80.4365,"temp":30.5,"humidity":56,"rain":0.0,"pressure":1006.9,"uv_index":8.55,"wind_gusts":15.8,"aqi":115,"pm10":43.4,"pm2_5":40.6,"mosquito_risk":0,"arthritis_risk":5,"migraine_risk":4,"frizz_risk":1,"updated_at":"2026-03-06T10:14:20.868429+05:30"},{"city":"Nellore","state":"Andhra Pradesh","latitude":14.4426,"longitude":79.9865,"temp":31.3,"humidity":52,"rain":0.0,"pressure":1009.0,"uv_index":8.75,"wind_gusts":28.4,"aqi":89,"pm10":32.5,"pm2_5":30.5,"mosquito_risk":0,"arthritis_risk":0,"migraine_risk":4,"frizz_risk":1,"updated_at":"2026-03-06T10:14:20.868436+05:30"},{"city":"Kurnool","state":"Andhra Pradesh","latitude":15.8281,"longitude":78.0373,"temp":32.6,"humidity":27,"rain":0.0,"pressure":980.6,"uv_index":8.55,"wind_gusts":24.5,"aqi":75,"pm10":32.8,"pm2_5":29.7,"mosquito_risk":0,"arthritis_risk":5,"migraine_risk":7,"frizz_risk":0,"updated_at":"2026-03-06T10:14:20.868443+05:30"},{"city":"Kakinada","state":"Andhra Pradesh","latitude":16.9891,"longitude":82.2475,"temp":30.5,"humidity":65,"rain":0.0,"pressure":1010.1,"uv_index":8.5,"wind_gusts":32.0,"aqi":120,"pm10":39.1,"pm2_5":35.0,"mosquito_risk":3,"arthritis_risk":0,"migraine_risk":4,"frizz_risk":1,"updated_at":"2026-03-06T10:14:20.868449+05:30"},{"city":"Tirupati","state":"Andhra Pradesh","latitude":13.6288,"longitude":79.4192,"temp":32.1,"humidity":41,"rain":0.0,"pressure":994.9,"uv_index":8.85,"wind_gusts":30.6,"aqi":109,"pm10":36.3,"pm2_5":33.4,"mosquito_risk":0,"arthritis_risk":5,"migraine_risk":7,"frizz_risk":1,"updated_at":"2026-03-06T10:14:20.868456+05:30"},{"city":"Warangal","state":"Telangana","latitude":17.9689,"longitude":79.5941,"temp":30.3,"humidity":42,"rain":0.0,"pressure":982.4,"uv_index":8.3,"wind_gusts":25.9,"aqi":80,"pm10":26.6,"pm2_5":25.1,"mosquito_risk":0,"arthritis_risk":5,"migraine_risk":7,"frizz_risk":0,"updated_at":"2026-03-06T10:14:20.868462+05:30"},{"city":"Nizamabad","state":"Telangana","latitude":18.6725,"longitude":78.0941,"temp":29.6,"humidity":32,"rain":0.0,"pressure":969.3,"uv_index":8.2,"wind_gusts":32.0,"aqi":87,"pm10":32.6,"pm2_5":29.0,"mosquito_risk":4,"arthritis_risk":5,"migraine_risk":7,"frizz_risk":0,"updated_at":"2026-03-06T10:14:20.868468+05:30"},{"city":"Mysore","state":"Karnataka","latitude":12.2958,"longitude":76.6396,"temp":26.1,"humidity":68,"rain":0.0,"pressure":931.7,"uv_index":9.2,"wind_gusts":35.6,"aqi":119,"pm10":45.9,"pm2_5":44.7,"mosquito_risk":7,"arthritis_risk":5,"migraine_risk":7,"frizz_risk":1,"updated_at":"2026-03-06T10:14:20.868475+05:30"},{"city":"Mangalore","state":"Karnataka","latitude":12.9141,"longitude":74.856,"temp":28.1,"humidity":86,"rain":0.0,"pressure":1009.2,"uv_index":8.8,"wind_gusts":23.4,"aqi":125,"pm10":55.4,"pm2_5":52.3,"mosquito_risk":7,"arthritis_risk":0,"migraine_risk":4,"frizz_risk":1,"updated_at":"2026-03-06T10:14:20.868481+05:30"},{"city":"Hubli-Dharwad","state":"Karnataka","latitude":15.3647,"longitude":75.124,"temp":30.7,"humidity":28,"rain":0.0,"pressure":944.3,"uv_index":8.75,"wind_gusts":37.1,"aqi":91,"pm10":42.3,"pm2_5":40.7,"mosquito_risk":0,"arthritis_risk":5,"migraine_risk":7,"frizz_risk":0,"updated_at":"2026-03-06T10:14:20.868489+05:30"},{"city":"Belgaum","state":"Karnataka","latitude":15.8497,"longitude":74.4977,"temp":30.0,"humidity":29,"rain":0.0,"pressure":929.3,"uv_index":8.8,"wind_gusts":40.0,"aqi":117,"pm10":35.3,"pm2_5":34.0,"mosquito_risk":4,"arthritis_risk":5,"migraine_risk":7,"frizz_risk":0,"updated_at":"2026-03-06T10:14:24.113967+05:30"},{"city":"Coimbatore","state":"Tamil Nadu","latitude":11.0168,"longitude":76.9558,"temp":28.8,"humidity":58,"rain":0.0,"pressure":965.4,"uv_index":9.15,"wind_gusts":44.3,"aqi":110,"pm10":43.2,"pm2_5":41.3,"mosquito_risk":4,"arthritis_risk":5,"migraine_risk":7,"frizz_risk":1,"updated_at":"2026-03-06T10:14:24.113998+05:30"},{"city":"Madurai","state":"Tamil Nadu","latitude":9.9252,"longitude":78.1198,"temp":29.2,"humidity":66,"rain":0.0,"pressure":996.8,"uv_index":9.15,"wind_gusts":33.8,"aqi":90,"pm10":23.7,"pm2_5":21.5,"mosquito_risk":7,"arthritis_risk":5,"migraine_risk":7,"frizz_risk":1,"updated_at":"2026-03-06T10:14:24.114009+05:30"},{"city":"Trichy","state":"Tamil Nadu","latitude":10.7905,"longitude":78.7047,"temp":29.3,"humidity":66,"rain":0.0,"pressure":1003.6,"uv_index":9.05,"wind_gusts":25.2,"aqi":87,"pm10":23.5,"pm2_5":20.7,"mosquito_risk":7,"arthritis_risk":5,"migraine_risk":4,"frizz_risk":1,"updated_at":"2026-03-06T10:14:24.114017+05:30"},{"city":"Salem","state":"Tamil Nadu","latitude":11.6643,"longitude":78.146,"temp":29.9,"humidity":54,"rain":0.0,"pressure":981.0,"uv_index":9.05,"wind_gusts":15.8,"aqi":98,"pm10":34.5,"pm2_5":30.0,"mosquito_risk":4,"arthritis_risk":5,"migraine_risk":7,"frizz_risk":1,"updated_at":"2026-03-06T10:14:24.114025+05:30"},{"city":"Tirunelveli","state":"Tamil Nadu","latitude":8.7139,"longitude":77.7567,"temp":31.7,"humidity":49,"rain":0.0,"pressure":1006.9,"uv_index":9.15,"wind_gusts":49.3,"aqi":89,"pm10":34.7,"pm2_5":32.5,"mosquito_risk":0,"arthritis_risk":5,"migraine_risk":4,"frizz_risk":1,"updated_at":"2026-03-06T10:14:24.114031+05:30"},{"city":"Vellore","state":"Tamil Nadu","latitude":12.9165,"longitude":79.1325,"temp":30.6,"humidity":49,"rain":0.0,"pressure":988.1,"uv_index":8.95,"wind_gusts":32.4,"aqi":116,"pm10":40.7,"pm2_5":37.4,"mosquito_risk":0,"arthritis_risk":5,"migraine_risk":7,"frizz_risk":1,"updated_at":"2026-03-06T10:14:24.114038+05:30"},{"city":"Erode","state":"Tamil Nadu","latitude":11.341,"longitude":77.7172,"temp":29.8,"humidity":59,"rain":0.0,"pressure":992.7,"uv_index":9.05,"wind_gusts":19.4,"aqi":92,"pm10":38.1,"pm2_5":35.6,"mosquito_risk":4,"arthritis_risk":5,"migraine_risk":7,"frizz_risk":1,"updated_at":"2026-03-06T10:14:24.114045+05:30"},{"city":"Kochi","state":"Kerala","latitude":9.9312,"longitude":76.2673,"temp":27.5,"humidity":81,"rain":0.0,"pressure":1011.9,"uv_index":9.0,"wind_gusts":33.8,"aqi":139,"pm10":44.7,"pm2_5":42.3,"mosquito_risk":7,"arthritis_risk":0,"migraine_risk":4,"frizz_risk":1,"updated_at":"2026-03-06T10:14:24.114052+05:30"},{"city":"Thiruvananthapuram","state":"Kerala","latitude":8.5241,"longitude":76.9366,"temp":27.8,"humidity":77,"rain":0.0,"pressure":1011.3,"uv_index":9.0,"wind_gusts":33.1,"aqi":86,"pm10":28.1,"pm2_5":25.8,"mosquito_risk":7,"arthritis_risk":0,"migraine_risk":4,"frizz_risk":1,"updated_at":"2026-03-06T10:14:24.114059+05:30"},{"city":"Kozhikode","state":"Kerala","latitude":11.2588,"longitude":75.7804,"temp":29.1,"humidity":75,"rain":0.0,"pressure":1010.7,"uv_index":8.9,"wind_gusts":27.7,"aqi":112,"pm10":49.0,"pm2_5":46.1,"mosquito_risk":7,"arthritis_risk":0,"migraine_risk":4,"frizz_risk":1,"updated_at":"2026-03-06T10:14:24.114066+05:30"},{"city":"Thrissur","state":"Kerala","latitude":10.5276,"longitude":76.2144,"temp":30.3,"humidity":69,"rain":0.0,"pressure":1010.0,"uv_index":8.95,"wind_gusts":34.6,"aqi":128,"pm10":44.9,"pm2_5":42.3,"mosquito_risk":3,"arthritis_risk":0,"migraine_risk":4,"frizz_risk":1,"updated_at":"2026-03-06T10:14:24.114074+05:30"},{"city":"Kannur","state":"Kerala","latitude":11.8745,"longitude":75.3704,"temp":30.3,"humidity":64,"rain":0.0,"pressure":1009.9,"uv_index":8.85,"wind_gusts":32.0,"aqi":115,"pm10":46.0,"pm2_5":43.4,"mosquito_risk":3,"arthritis_risk":0,"migraine_risk":4,"frizz_risk":1,"updated_at":"2026-03-06T10:14:24.114080+05:30"},{"city":"Patna","state":"Bihar","latitude":25.5941,"longitude":85.1376,"temp":27.4,"humidity":58,"rain":0.0,"pressure":1005.6,"uv_index":7.25,"wind_gusts":21.6,"aqi":163,"pm10":103.1,"pm2_5":92.4,"mosquito_risk":4,"arthritis_risk":5,"migraine_risk":4,"frizz_risk":1,"updated_at":"2026-03-06T10:14:24.114087+05:30"},{"city":"Gaya","state":"Bihar","latitude":24.7914,"longitude":85.0002,"temp":26.7,"humidity":68,"rain":0.0,"pressure":998.4,"uv_index":7.35,"wind_gusts":21.6,"aqi":155,"pm10":86.4,"pm2_5":67.5,"mosquito_risk":7,"arthritis_risk":5,"migraine_risk":7,"frizz_risk":1,"updated_at":"2026-03-06T10:14:24.114093+05:30"},{"city":"Muzaffarpur","state":"Bihar","latitude":26.1209,"longitude":85.3647,"temp":28.1,"humidity":56,"rain":0.0,"pressure":1005.9,"uv_index":7.2,"wind_gusts":20.5,"aqi":170,"pm10":104.5,"pm2_5":94.1,"mosquito_risk":4,"arthritis_risk":5,"migraine_risk":4,"frizz_risk":1,"updated_at":"2026-03-06T10:14:24.114099+05:30"},{"city":"Bhagalpur","state":"Bihar","latitude":25.2425,"longitude":87.0117,"temp":28.0,"humidity":64,"rain":0.0,"pressure":1006.5,"uv_index":7.3,"wind_gusts":17.3,"aqi":162,"pm10":80.1,"pm2_5":70.1,"mosquito_risk":7,"arthritis_risk":5,"migraine_risk":4,"frizz_risk":1,"updated_at":"2026-03-06T10:14:24.114106+05:30"},{"city":"Ranchi","state":"Jharkhand","latitude":23.3441,"longitude":85.3096,"temp":26.8,"humidity":44,"rain":0.0,"pressure":941.3,"uv_index":8.0,"wind_gusts":31.0,"aqi":131,"pm10":84.8,"pm2_5":59.8,"mosquito_risk":4,"arthritis_risk":5,"migraine_risk":7,"frizz_risk":0,"updated_at":"2026-03-06T10:14:24.114113+05:30"},{"city":"Jamshedpur","state":"Jharkhand","latitude":22.8046,"longitude":86.2029,"temp":27.8,"humidity":59,"rain":0.0,"pressure":995.1,"uv_index":7.9,"wind_gusts":24.5,"aqi":153,"pm10":95.5,"pm2_5":56.7,"mosquito_risk":4,"arthritis_risk":5,"migraine_risk":7,"frizz_risk":1,"updated_at":"2026-03-06T10:14:24.114119+05:30"},{"city":"Dhanbad","state":"Jharkhand","latitude":23.7957,"longitude":86.4304,"temp":29.3,"humidity":42,"rain":0.0,"pressure":984.4,"uv_index":7.75,"wind_gusts":27.4,"aqi":170,"pm10":115.0,"pm2_5":88.9,"mosquito_risk":4,"arthritis_risk":5,"migraine_risk":7,"frizz_risk":0,"updated_at":"2026-03-06T10:14:24.114125+05:30"},{"city":"Bokaro","state":"Jharkhand","latitude":23.6693,"longitude":86.1511,"temp":29.0,"humidity":44,"rain":0.0,"pressure":988.2,"uv_index":7.8,"wind_gusts":29.5,"aqi":174,"pm10":120.1,"pm2_5":88.7,"mosquito_risk":4,"arthritis_risk":5,"migraine_risk":7,"frizz_risk":0,"updated_at":"2026-03-06T10:14:24.114132+05:30"},{"city":"Bhubaneswar","state":"Odisha","latitude":20.2961,"longitude":85.8245,"temp":29.5,"humidity":64,"rain":0.0,"pressure":1006.2,"uv_index":8.2,"wind_gusts":31.7,"aqi":149,"pm10":70.3,"pm2_5":54.6,"mosquito_risk":7,"arthritis_risk":5,"migraine_risk":4,"frizz_risk":1,"updated_at":"2026-03-06T10:14:24.114139+05:30"},{"city":"Cuttack","state":"Odisha","latitude":20.4625,"longitude":85.8828,"temp":29.6,"humidity":64,"rain":0.0,"pressure":1008.2,"uv_index":8.25,"wind_gusts":35.6,"aqi":149,"pm10":70.3,"pm2_5":54.6,"mosquito_risk":7,"arthritis_risk":0,"migraine_risk":4,"frizz_risk":1,"updated_at":"2026-03-06T10:14:24.114145+05:30"},{"city":"Rourkela","state":"Odisha","latitude":22.2604,"longitude":84.8536,"temp":29.3,"humidity":44,"rain":0.0,"pressure":988.7,"uv_index":7.8,"wind_gusts":11.9,"aqi":125,"pm10":90.3,"pm2_5":62.6,"mosquito_risk":4,"arthritis_risk":5,"migraine_risk":7,"frizz_risk":0,"updated_at":"2026-03-06T10:14:24.114151+05:30"},{"city":"Raipur","state":"Chhattisgarh","latitude":21.2514,"longitude":81.6296,"temp":31.2,"humidity":31,"rain":0.0,"pressure":978.7,"uv_index":7.9,"wind_gusts":23.0,"aqi":86,"pm10":43.0,"pm2_5":33.4,"mosquito_risk":0,"arthritis_risk":5,"migraine_risk":7,"frizz_risk":0,"updated_at":"2026-03-06T10:14:24.114157+05:30"},{"city":"Bhilai","state":"Chhattisgarh","latitude":21.1938,"longitude":81.3509,"temp":31.8,"humidity":32,"rain":0.0,"pressure":979.0,"uv_index":7.95,"wind_gusts":25.6,"aqi":75,"pm10":46.1,"pm2_5":34.3,"mosquito_risk":0,"arthritis_risk":5,"migraine_risk":7,"frizz_risk":0,"updated_at":"2026-03-06T10:14:24.114162+05:30"},{"city":"Guwahati","state":"Assam","latitude":26.1158,"longitude":91.7086,"temp":28.9,"humidity":61,"rain":0.0,"pressure":1006.7,"uv_index":7.25,"wind_gusts":21.2,"aqi":151,"pm10":65.7,"pm2_5":57.3,"mosquito_risk":7,"arthritis_risk":5,"migraine_risk":4,"frizz_risk":1,"updated_at":"2026-03-06T10:14:24.114169+05:30"},{"city":"Agartala","state":"Tripura","latitude":23.8315,"longitude":91.2868,"temp":29.4,"humidity":61,"rain":0.0,"pressure":1010.7,"uv_index":7.6,"wind_gusts":16.9,"aqi":160,"pm10":73.3,"pm2_5":60.8,"mosquito_risk":7,"arthritis_risk":0,"migraine_risk":4,"frizz_risk":1,"updated_at":"2026-03-06T10:14:24.114175+05:30"},{"city":"Shillong","state":"Meghalaya","latitude":25.5788,"longitude":91.8933,"temp":19.7,"humidity":43,"rain":0.0,"pressure":861.7,"uv_index":7.6,"wind_gusts":33.1,"aqi":126,"pm10":50.3,"pm2_5":41.0,"mosquito_risk":0,"arthritis_risk":5,"migraine_risk":7,"frizz_risk":0,"updated_at":"2026-03-06T10:14:24.114181+05:30"},{"city":"Imphal","state":"Manipur","latitude":24.817,"longitude":93.9368,"temp":24.4,"humidity":50,"rain":0.0,"pressure":928.1,"uv_index":7.8,"wind_gusts":34.6,"aqi":152,"pm10":49.2,"pm2_5":44.1,"mosquito_risk":0,"arthritis_risk":5,"migraine_risk":7,"frizz_risk":0,"updated_at":"2026-03-06T10:14:24.114188+05:30"},{"city":"Aizawl","state":"Mizoram","latitude":23.7271,"longitude":92.7176,"temp":25.2,"humidity":50,"rain":0.0,"pressure":897.4,"uv_index":7.75,"wind_gusts":33.1,"aqi":175,"pm10":83.8,"pm2_5":73.1,"mosquito_risk":4,"arthritis_risk":5,"migraine_risk":7,"frizz_risk":0,"updated_at":"2026-03-06T10:14:24.114195+05:30"},{"city":"Kohima","state":"Nagaland","latitude":25.6701,"longitude":94.1077,"temp":20.7,"humidity":54,"rain":0.0,"pressure":860.4,"uv_index":7.65,"wind_gusts":41.8,"aqi":151,"pm10":57.7,"pm2_5":51.0,"mosquito_risk":0,"arthritis_risk":5,"migraine_risk":7,"frizz_risk":0,"updated_at":"2026-03-06T10:14:24.114201+05:30"},{"city":"Gangtok","state":"Sikkim","latitude":27.3314,"longitude":88.6138,"temp":17.1,"humidity":78,"rain":0.0,"pressure":842.7,"uv_index":7.55,"wind_gusts":16.9,"aqi":98,"pm10":39.8,"pm2_5":34.1,"mosquito_risk":3,"arthritis_risk":5,"migraine_risk":7,"frizz_risk":0,"updated_at":"2026-03-06T10:14:24.114207+05:30"},{"city":"Siliguri","state":"West Bengal","latitude":26.7271,"longitude":88.3953,"temp":24.0,"humidity":66,"rain":0.0,"pressure":999.4,"uv_index":7.2,"wind_gusts":15.1,"aqi":134,"pm10":59.8,"pm2_5":50.9,"mosquito_risk":3,"arthritis_risk":5,"migraine_risk":7,"frizz_risk":1,"updated_at":"2026-03-06T10:14:27.364649+05:30"},{"city":"Durgapur","state":"West Bengal","latitude":23.5204,"longitude":87.3119,"temp":30.4,"humidity":45,"rain":0.0,"pressure":999.7,"uv_index":7.75,"wind_gusts":24.1,"aqi":161,"pm10":111.1,"pm2_5":87.3,"mosquito_risk":0,"arthritis_risk":5,"migraine_risk":7,"frizz_risk":1,"updated_at":"2026-03-06T10:14:27.364705+05:30"},{"city":"Asansol","state":"West Bengal","latitude":23.6739,"longitude":86.9524,"temp":30.2,"humidity":44,"rain":0.0,"pressure":998.1,"uv_index":7.75,"wind_gusts":21.6,"aqi":160,"pm10":109.9,"pm2_5":86.8,"mosquito_risk":0,"arthritis_risk":5,"migraine_risk":7,"frizz_risk":1,"updated_at":"2026-03-06T10:14:27.364716+05:30"},{"city":"Pondicherry","state":"Puducherry","latitude":11.9139,"longitude":79.8145,"temp":30.2,"humidity":60,"rain":0.0,"pressure":1012.0,"uv_index":8.9,"wind_gusts":27.0,"aqi":67,"pm10":27.9,"pm2_5":25.5,"mosquito_risk":0,"arthritis_risk":0,"migraine_risk":4,"frizz_risk":1,"updated_at":"2026-03-06T10:14:27.364726+05:30"},{"city":"Port Blair","state":"Andaman and Nicobar Islands","latitude":11.6234,"longitude":92.7265,"temp":26.8,"humidity":70,"rain":0.0,"pressure":1010.8,"uv_index":8.85,"wind_gusts":14.4,"aqi":51,"pm10":21.9,"pm2_5":13.5,"mosquito_risk":7,"arthritis_risk":0,"migraine_risk":4,"frizz_risk":1,"updated_at":"2026-03-06T10:14:27.364735+05:30"},{"city":"Haridwar","state":"Uttarakhand","latitude":29.9457,"longitude":78.1642,"temp":25.8,"humidity":66,"rain":0.0,"pressure":978.7,"uv_index":5.7,"wind_gusts":22.7,"aqi":151,"pm10":96.4,"pm2_5":63.6,"mosquito_risk":7,"arthritis_risk":5,"migraine_risk":3,"frizz_risk":1,"updated_at":"2026-03-06T10:14:27.364744+05:30"},{"city":"Rishikesh","state":"Uttarakhand","latitude":30.0869,"longitude":78.2676,"temp":25.6,"humidity":65,"rain":0.0,"pressure":971.3,"uv_index":5.75,"wind_gusts":23.0,"aqi":139,"pm10":86.8,"pm2_5":56.7,"mosquito_risk":7,"arthritis_risk":5,"migraine_risk":3,"frizz_risk":1,"updated_at":"2026-03-06T10:14:27.364752+05:30"},{"city":"Nainital","state":"Uttarakhand","latitude":29.3919,"longitude":79.4542,"temp":19.5,"humidity":68,"rain":0.0,"pressure":809.7,"uv_index":6.55,"wind_gusts":46.4,"aqi":158,"pm10":107.6,"pm2_5":65.0,"mosquito_risk":3,"arthritis_risk":5,"migraine_risk":7,"frizz_risk":0,"updated_at":"2026-03-06T10:14:27.364761+05:30"},{"city":"Mussoorie","state":"Uttarakhand","latitude":30.4599,"longitude":78.0664,"temp":18.0,"humidity":70,"rain":0.0,"pressure":805.9,"uv_index":6.05,"wind_gusts":40.3,"aqi":131,"pm10":103.4,"pm2_5":54.2,"mosquito_risk":3,"arthritis_risk":5,"migraine_risk":7,"frizz_risk":0,"updated_at":"2026-03-06T10:14:27.364770+05:30"},{"city":"Dharamshala","state":"Himachal Pradesh","latitude":32.219,"longitude":76.3234,"temp":24.8,"humidity":35,"rain":0.0,"pressure":873.0,"uv_index":5.6,"wind_gusts":20.9,"aqi":56,"pm10":21.8,"pm2_5":9.8,"mosquito_risk":0,"arthritis_risk":5,"migraine_risk":3,"frizz_risk":0,"updated_at":"2026-03-06T10:14:27.364778+05:30"},{"city":"Dalhousie","state":"Himachal Pradesh","latitude":32.5387,"longitude":75.971,"temp":23.4,"humidity":23,"rain":0.0,"pressure":808.7,"uv_index":5.8,"wind_gusts":22.3,"aqi":92,"pm10":36.1,"pm2_5":23.0,"mosquito_risk":0,"arthritis_risk":5,"migraine_risk":3,"frizz_risk":0,"updated_at":"2026-03-06T10:14:27.364787+05:30"},{"city":"Patiala","state":"Punjab","latitude":30.3398,"longitude":76.3869,"temp":25.7,"humidity":73,"rain":0.0,"pressure":982.2,"uv_index":5.7,"wind_gusts":12.6,"aqi":181,"pm10":96.2,"pm2_5":85.7,"mosquito_risk":7,"arthritis_risk":5,"migraine_risk":3,"frizz_risk":1,"updated_at":"2026-03-06T10:14:27.364795+05:30"},{"city":"Bhatinda","state":"Punjab","latitude":30.211,"longitude":74.9455,"temp":26.0,"humidity":64,"rain":0.0,"pressure":987.4,"uv_index":6.4,"wind_gusts":18.0,"aqi":150,"pm10":84.8,"pm2_5":77.3,"mosquito_risk":7,"arthritis_risk":5,"migraine_risk":7,"frizz_risk":1,"updated_at":"2026-03-06T10:14:27.364803+05:30"},{"city":"Rohtak","state":"Haryana","latitude":28.8955,"longitude":76.6066,"temp":24.9,"humidity":65,"rain":0.0,"pressure":986.2,"uv_index":5.9,"wind_gusts":19.4,"aqi":469,"pm10":189.1,"pm2_5":75.0,"mosquito_risk":3,"arthritis_risk":5,"migraine_risk":3,"frizz_risk":1,"updated_at":"2026-03-06T10:14:27.364811+05:30"},{"city":"Panipat","state":"Haryana","latitude":29.3909,"longitude":76.9635,"temp":25.1,"humidity":76,"rain":0.0,"pressure":984.7,"uv_index":5.7,"wind_gusts":14.0,"aqi":934,"pm10":311.1,"pm2_5":95.5,"mosquito_risk":7,"arthritis_risk":5,"migraine_risk":3,"frizz_risk":1,"updated_at":"2026-03-06T10:14:27.364819+05:30"},{"city":"Mathura","state":"Uttar Pradesh","latitude":27.4924,"longitude":77.6737,"temp":26.9,"humidity":58,"rain":0.0,"pressure":991.3,"uv_index":6.2,"wind_gusts":19.1,"aqi":604,"pm10":334.3,"pm2_5":87.5,"mosquito_risk":4,"arthritis_risk":5,"migraine_risk":7,"frizz_risk":1,"updated_at":"2026-03-06T10:14:27.364827+05:30"},{"city":"Vrindavan","state":"Uttar Pradesh","latitude":27.5823,"longitude":77.7027,"temp":26.7,"humidity":59,"rain":0.0,"pressure":991.8,"uv_index":6.15,"wind_gusts":17.6,"aqi":604,"pm10":334.3,"pm2_5":87.5,"mosquito_risk":4,"arthritis_risk":5,"migraine_risk":7,"frizz_risk":1,"updated_at":"2026-03-06T10:14:27.364834+05:30"},{"city":"Ayodhya","state":"Uttar Pradesh","latitude":26.7922,"longitude":82.1998,"temp":26.7,"humidity":67,"rain":0.0,"pressure":1000.6,"uv_index":6.55,"wind_gusts":19.8,"aqi":167,"pm10":121.5,"pm2_5":95.9,"mosquito_risk":7,"arthritis_risk":5,"migraine_risk":4,"frizz_risk":1,"updated_at":"2026-03-06T10:14:27.364842+05:30"},{"city":"Ratlam","state":"Madhya Pradesh","latitude":23.3315,"longitude":75.0367,"temp":26.4,"humidity":44,"rain":0.0,"pressure":959.5,"uv_index":7.4,"wind_gusts":21.2,"aqi":70,"pm10":13.0,"pm2_5":12.4,"mosquito_risk":4,"arthritis_risk":5,"migraine_risk":7,"frizz_risk":0,"updated_at":"2026-03-06T10:14:27.364850+05:30"},{"city":"Sagar","state":"Madhya Pradesh","latitude":23.8388,"longitude":78.7378,"temp":28.6,"humidity":42,"rain":0.0,"pressure":954.9,"uv_index":7.35,"wind_gusts":22.0,"aqi":57,"pm10":42.1,"pm2_5":15.9,"mosquito_risk":4,"arthritis_risk":5,"migraine_risk":7,"frizz_risk":0,"updated_at":"2026-03-06T10:14:27.364858+05:30"},{"city":"Satna","state":"Madhya Pradesh","latitude":24.6005,"longitude":80.8322,"temp":29.0,"humidity":47,"rain":0.0,"pressure":975.6,"uv_index":7.3,"wind_gusts":32.4,"aqi":77,"pm10":271.9,"pm2_5":54.4,"mosquito_risk":4,"arthritis_risk":5,"migraine_risk":7,"frizz_risk":1,"updated_at":"2026-03-06T10:14:27.364865+05:30"},{"city":"Akola","state":"Maharashtra","latitude":20.7002,"longitude":77.0082,"temp":29.8,"humidity":41,"rain":0.0,"pressure":980.2,"uv_index":7.85,"wind_gusts":18.7,"aqi":76,"pm10":31.1,"pm2_5":24.7,"mosquito_risk":4,"arthritis_risk":5,"migraine_risk":7,"frizz_risk":0,"updated_at":"2026-03-06T10:14:27.364873+05:30"},{"city":"Amravati","state":"Maharashtra","latitude":20.9374,"longitude":77.7796,"temp":30.4,"humidity":33,"rain":0.0,"pressure":972.5,"uv_index":7.8,"wind_gusts":15.5,"aqi":75,"pm10":31.0,"pm2_5":23.3,"mosquito_risk":0,"arthritis_risk":5,"migraine_risk":7,"frizz_risk":0,"updated_at":"2026-03-06T10:14:27.364882+05:30"},{"city":"Latur","state":"Maharashtra","latitude":18.4088,"longitude":76.5604,"temp":29.5,"humidity":31,"rain":0.0,"pressure":944.3,"uv_index":8.3,"wind_gusts":31.7,"aqi":75,"pm10":25.8,"pm2_5":23.1,"mosquito_risk":4,"arthritis_risk":5,"migraine_risk":7,"frizz_risk":0,"updated_at":"2026-03-06T10:14:27.364889+05:30"},{"city":"Nanded","state":"Maharashtra","latitude":19.1383,"longitude":77.3091,"temp":30.2,"humidity":33,"rain":0.0,"pressure":973.4,"uv_index":8.1,"wind_gusts":21.2,"aqi":93,"pm10":29.8,"pm2_5":26.6,"mosquito_risk":0,"arthritis_risk":5,"migraine_risk":7,"frizz_risk":0,"updated_at":"2026-03-06T10:14:27.364897+05:30"},{"city":"Gulbarga","state":"Karnataka","latitude":17.3297,"longitude":76.8343,"temp":31.6,"humidity":24,"rain":0.0,"pressure":963.0,"uv_index":8.4,"wind_gusts":33.1,"aqi":77,"pm10":27.5,"pm2_5":25.5,"mosquito_risk":0,"arthritis_risk":5,"migraine_risk":7,"frizz_risk":0,"updated_at":"2026-03-06T10:14:27.364905+05:30"},{"city":"Bidar","state":"Karnataka","latitude":17.9104,"longitude":77.5199,"temp":30.1,"humidity":26,"rain":0.0,"pressure":939.9,"uv_index":8.35,"wind_gusts":32.8,"aqi":78,"pm10":24.9,"pm2_5":22.9,"mosquito_risk":0,"arthritis_risk":5,"migraine_risk":7,"frizz_risk":0,"updated_at":"2026-03-06T10:14:27.364912+05:30"},{"city":"Hospet","state":"Karnataka","latitude":15.2689,"longitude":76.3909,"temp":27.7,"humidity":56,"rain":0.0,"pressure":959.5,"uv_index":8.75,"wind_gusts":23.0,"aqi":102,"pm10":36.6,"pm2_5":34.3,"mosquito_risk":4,"arthritis_risk":5,"migraine_risk":7,"frizz_risk":1,"updated_at":"2026-03-06T10:14:27.364920+05:30"},{"city":"Tirupur","state":"Tamil Nadu","latitude":11.1085,"longitude":77.3411,"temp":29.9,"humidity":52,"rain":0.0,"pressure":978.9,"uv_index":9.2,"wind_gusts":32.4,"aqi":118,"pm10":49.2,"pm2_5":47.0,"mosquito_risk":4,"arthritis_risk":5,"migraine_risk":7,"frizz_risk":1,"updated_at":"2026-03-06T10:14:27.364926+05:30"},{"city":"Alappuzha","state":"Kerala","latitude":9.4981,"longitude":76.3388,"temp":27.5,"humidity":81,"rain":0.0,"pressure":1012.0,"uv_index":9.0,"wind_gusts":30.6,"aqi":118,"pm10":40.5,"pm2_5":37.8,"mosquito_risk":7,"arthritis_risk":0,"migraine_risk":4,"frizz_risk":1,"updated_at":"2026-03-06T10:14:27.364932+05:30"},{"city":"Munnar","state":"Kerala","latitude":10.0889,"longitude":77.0595,"temp":25.1,"humidity":59,"rain":0.0,"pressure":860.6,"uv_index":9.5,"wind_gusts":29.5,"aqi":94,"pm10":27.9,"pm2_5":25.7,"mosquito_risk":4,"arthritis_risk":5,"migraine_risk":7,"frizz_risk":1,"updated_at":"2026-03-06T10:14:27.364938+05:30"},{"city":"Silchar","state":"Assam","latitude":24.8333,"longitude":92.7789,"temp":28.7,"humidity":55,"rain":0.0,"pressure":1009.9,"uv_index":7.55,"wind_gusts":12.6,"aqi":164,"pm10":81.5,"pm2_5":73.8,"mosquito_risk":4,"arthritis_risk":0,"migraine_risk":4,"frizz_risk":1,"updated_at":"2026-03-06T10:14:27.364944+05:30"},{"city":"Dibrugarh","state":"Assam","latitude":27.4728,"longitude":94.912,"temp":26.2,"humidity":62,"rain":0.0,"pressure":1000.8,"uv_index":7.25,"wind_gusts":14.4,"aqi":110,"pm10":37.8,"pm2_5":32.1,"mosquito_risk":7,"arthritis_risk":5,"migraine_risk":4,"frizz_risk":1,"updated_at":"2026-03-06T10:14:27.364950+05:30"}]