[{"city":"Delhi","state":"Delhi","latitude":28.6139,"longitude":77.209,"temp":31.5,"humidity":58,"rain":0.0,"pressure":978.2,"uv_index":7.8,"wind_gusts":43.6,"aqi":383,"pm10":517.8,"pm2_5":94.8,"no2":15.9,"co":495.0,"o3":160.0,"so2":24.5,"mosquito_risk":0,"arthritis_risk":5,"migraine_risk":7,"frizz_risk":1,"updated_at":"2026-06-12T17:57:03.162592+05:30"},{"city":"Mumbai","state":"Maharashtra","latitude":19.076,"longitude":72.8777,"temp":31.5,"humidity":65,"rain":0.0,"pressure":1006.0,"uv_index":7.7,"wind_gusts":47.5,"aqi":84,"pm10":53.0,"pm2_5":25.4,"no2":7.5,"co":163.0,"o3":61.0,"so2":6.0,"mosquito_risk":3,"arthritis_risk":5,"migraine_risk":4,"frizz_risk":1,"updated_at":"2026-06-12T17:57:03.162647+05:30"},{"city":"Bangalore","state":"Karnataka","latitude":12.9716,"longitude":77.5946,"temp":22.9,"humidity":85,"rain":0.2,"pressure":911.2,"uv_index":3.6,"wind_gusts":48.2,"aqi":52,"pm10":14.3,"pm2_5":10.5,"no2":21.9,"co":896.0,"o3":58.0,"so2":3.6,"mosquito_risk":6,"arthritis_risk":5,"migraine_risk":3,"frizz_risk":1,"updated_at":"2026-06-12T17:57:03.162664+05:30"},{"city":"Hyderabad","state":"Telangana","latitude":17.385,"longitude":78.4867,"temp":34.3,"humidity":40,"rain":0.0,"pressure":950.0,"uv_index":9.0,"wind_gusts":33.8,"aqi":74,"pm10":43.9,"pm2_5":22.9,"no2":4.9,"co":293.0,"o3":113.0,"so2":3.5,"mosquito_risk":0,"arthritis_risk":5,"migraine_risk":7,"frizz_risk":1,"updated_at":"2026-06-12T17:57:03.162675+05:30"},{"city":"Chennai","state":"Tamil Nadu","latitude":13.0827,"longitude":80.2707,"temp":33.7,"humidity":49,"rain":0.0,"pressure":1004.8,"uv_index":7.9,"wind_gusts":36.7,"aqi":91,"pm10":33.5,"pm2_5":23.0,"no2":6.6,"co":335.0,"o3":133.0,"so2":7.1,"mosquito_risk":0,"arthritis_risk":5,"migraine_risk":4,"frizz_risk":1,"updated_at":"2026-06-12T17:57:03.162683+05:30"},{"city":"Kolkata","state":"West Bengal","latitude":22.5726,"longitude":88.3639,"temp":31.9,"humidity":67,"rain":0.0,"pressure":1001.7,"uv_index":7.75,"wind_gusts":42.5,"aqi":176,"pm10":93.1,"pm2_5":71.5,"no2":15.6,"co":542.0,"o3":147.0,"so2":18.3,"mosquito_risk":3,"arthritis_risk":5,"migraine_risk":4,"frizz_risk":1,"updated_at":"2026-06-12T17:57:03.162692+05:30"},{"city":"Pune","state":"Maharashtra","latitude":18.5204,"longitude":73.8567,"temp":31.0,"humidity":52,"rain":0.0,"pressure":946.4,"uv_index":8.3,"wind_gusts":49.0,"aqi":66,"pm10":62.4,"pm2_5":23.2,"no2":3.0,"co":139.0,"o3":79.0,"so2":3.5,"mosquito_risk":0,"arthritis_risk":5,"migraine_risk":7,"frizz_risk":1,"updated_at":"2026-06-12T17:57:03.162699+05:30"},{"city":"Ahmedabad","state":"Gujarat","latitude":23.0225,"longitude":72.5714,"temp":39.3,"humidity":39,"rain":0.0,"pressure":994.2,"uv_index":8.05,"wind_gusts":46.4,"aqi":72,"pm10":84.1,"pm2_5":26.1,"no2":2.5,"co":147.0,"o3":98.0,"so2":3.3,"mosquito_risk":0,"arthritis_risk":5,"migraine_risk":10,"frizz_risk":1,"updated_at":"2026-06-12T17:57:03.162706+05:30"},{"city":"Jaipur","state":"Rajasthan","latitude":26.9124,"longitude":75.7873,"temp":34.8,"humidity":49,"rain":0.0,"pressure":954.1,"uv_index":8.25,"wind_gusts":57.6,"aqi":157,"pm10":156.0,"pm2_5":47.1,"no2":2.3,"co":254.0,"o3":127.0,"so2":5.9,"mosquito_risk":0,"arthritis_risk":5,"migraine_risk":7,"frizz_risk":1,"updated_at":"2026-06-12T17:57:03.162713+05:30"},{"city":"Lucknow","state":"Uttar Pradesh","latitude":26.8467,"longitude":80.9462,"temp":32.7,"humidity":62,"rain":0.0,"pressure":988.1,"uv_index":8.35,"wind_gusts":41.0,"aqi":167,"pm10":71.0,"pm2_5":44.4,"no2":3.9,"co":288.0,"o3":174.0,"so2":10.1,"mosquito_risk":3,"arthritis_risk":5,"migraine_risk":7,"frizz_risk":1,"updated_at":"2026-06-12T17:57:03.162722+05:30"},{"city":"Kanpur","state":"Uttar Pradesh","latitude":26.4499,"longitude":80.3319,"temp":36.0,"humidity":42,"rain":0.0,"pressure":985.8,"uv_index":8.35,"wind_gusts":53.3,"aqi":162,"pm10":125.7,"pm2_5":55.5,"no2":4.2,"co":277.0,"o3":174.0,"so2":11.6,"mosquito_risk":0,"arthritis_risk":5,"migraine_risk":10,"frizz_risk":1,"updated_at":"2026-06-12T17:57:03.162729+05:30"},{"city":"Chandigarh","state":"Chandigarh","latitude":30.7333,"longitude":76.7794,"temp":27.9,"humidity":62,"rain":0.0,"pressure":966.3,"uv_index":7.8,"wind_gusts":52.9,"aqi":105,"pm10":76.1,"pm2_5":30.3,"no2":3.9,"co":325.0,"o3":139.0,"so2":4.8,"mosquito_risk":7,"arthritis_risk":5,"migraine_risk":7,"frizz_risk":1,"updated_at":"2026-06-12T17:57:03.162736+05:30"},{"city":"Srinagar","state":"Jammu and Kashmir","latitude":34.0837,"longitude":74.7973,"temp":22.7,"humidity":49,"rain":0.0,"pressure":842.2,"uv_index":9.0,"wind_gusts":29.5,"aqi":130,"pm10":25.6,"pm2_5":18.5,"no2":3.5,"co":323.0,"o3":151.0,"so2":2.8,"mosquito_risk":0,"arthritis_risk":5,"migraine_risk":7,"frizz_risk":0,"updated_at":"2026-06-12T17:57:03.162743+05:30"},{"city":"Jammu","state":"Jammu and Kashmir","latitude":32.7266,"longitude":74.857,"temp":30.7,"humidity":49,"rain":0.0,"pressure":970.2,"uv_index":8.55,"wind_gusts":53.3,"aqi":132,"pm10":72.2,"pm2_5":28.3,"no2":3.9,"co":257.0,"o3":159.0,"so2":2.9,"mosquito_risk":0,"arthritis_risk":5,"migraine_risk":7,"frizz_risk":1,"updated_at":"2026-06-12T17:57:03.162749+05:30"},{"city":"Amritsar","state":"Punjab","latitude":31.634,"longitude":74.8723,"temp":29.4,"humidity":60,"rain":0.0,"pressure":977.8,"uv_index":8.45,"wind_gusts":51.5,"aqi":200,"pm10":553.2,"pm2_5":109.4,"no2":2.6,"co":253.0,"o3":132.0,"so2":3.5,"mosquito_risk":4,"arthritis_risk":5,"migraine_risk":7,"frizz_risk":1,"updated_at":"2026-06-12T17:57:03.162757+05:30"},{"city":"Ludhiana","state":"Punjab","latitude":30.901,"longitude":75.8573,"temp":30.6,"humidity":49,"rain":0.0,"pressure":974.8,"uv_index":8.0,"wind_gusts":55.4,"aqi":517,"pm10":899.7,"pm2_5":135.0,"no2":3.5,"co":346.0,"o3":127.0,"so2":4.9,"mosquito_risk":0,"arthritis_risk":5,"migraine_risk":7,"frizz_risk":1,"updated_at":"2026-06-12T17:57:03.162764+05:30"},{"city":"Jalandhar","state":"Punjab","latitude":31.326,"longitude":75.5762,"temp":31.3,"humidity":45,"rain":0.0,"pressure":975.8,"uv_index":8.25,"wind_gusts":55.8,"aqi":227,"pm10":726.4,"pm2_5":121.1,"no2":3.1,"co":404.0,"o3":129.0,"so2":4.2,"mosquito_risk":0,"arthritis_risk":5,"migraine_risk":7,"frizz_risk":1,"updated_at":"2026-06-12T17:57:03.162770+05:30"},{"city":"Dehradun","state":"Uttarakhand","latitude":30.6284,"longitude":78.0322,"temp":16.7,"humidity":98,"rain":0.1,"pressure":829.6,"uv_index":6.65,"wind_gusts":36.4,"aqi":93,"pm10":55.8,"pm2_5":21.4,"no2":2.8,"co":162.0,"o3":133.0,"so2":1.3,"mosquito_risk":6,"arthritis_risk":10,"migraine_risk":7,"frizz_risk":1,"updated_at":"2026-06-12T17:57:03.162777+05:30"},{"city":"Shimla","state":"Himachal Pradesh","latitude":31.1048,"longitude":77.1734,"temp":13.5,"humidity":98,"rain":0.0,"pressure":783.1,"uv_index":7.45,"wind_gusts":33.5,"aqi":112,"pm10":46.1,"pm2_5":28.3,"no2":3.2,"co":197.0,"o3":164.0,"so2":3.3,"mosquito_risk":3,"arthritis_risk":10,"migraine_risk":7,"frizz_risk":0,"updated_at":"2026-06-12T17:57:03.162783+05:30"},{"city":"Manali","state":"Himachal Pradesh","latitude":32.2396,"longitude":77.1887,"temp":17.9,"humidity":92,"rain":0.1,"pressure":819.1,"uv_index":5.95,"wind_gusts":41.8,"aqi":134,"pm10":12.5,"pm2_5":8.4,"no2":11.0,"co":165.0,"o3":152.0,"so2":0.6,"mosquito_risk":6,"arthritis_risk":10,"migraine_risk":3,"frizz_risk":1,"updated_at":"2026-06-12T17:57:03.162789+05:30"},{"city":"Gurgaon","state":"Haryana","latitude":28.4595,"longitude":77.0266,"temp":33.8,"humidity":47,"rain":0.0,"pressure":976.5,"uv_index":7.3,"wind_gusts":55.4,"aqi":1276,"pm10":1445.4,"pm2_5":194.6,"no2":12.0,"co":385.0,"o3":154.0,"so2":15.2,"mosquito_risk":0,"arthritis_risk":5,"migraine_risk":7,"frizz_risk":1,"updated_at":"2026-06-12T17:57:03.162795+05:30"},{"city":"Noida","state":"Uttar Pradesh","latitude":28.5355,"longitude":77.391,"temp":31.9,"humidity":55,"rain":0.0,"pressure":979.8,"uv_index":7.85,"wind_gusts":44.6,"aqi":1276,"pm10":1445.4,"pm2_5":194.6,"no2":12.0,"co":333.0,"o3":154.0,"so2":15.2,"mosquito_risk":0,"arthritis_risk":5,"migraine_risk":7,"frizz_risk":1,"updated_at":"2026-06-12T17:57:03.162800+05:30"},{"city":"Ghaziabad","state":"Uttar Pradesh","latitude":28.6692,"longitude":77.4538,"temp":31.3,"humidity":60,"rain":0.0,"pressure":978.0,"uv_index":7.8,"wind_gusts":43.6,"aqi":153,"pm10":156.0,"pm2_5":38.9,"no2":5.9,"co":260.0,"o3":147.0,"so2":10.0,"mosquito_risk":0,"arthritis_risk":5,"migraine_risk":7,"frizz_risk":1,"updated_at":"2026-06-12T17:57:03.162806+05:30"},{"city":"Faridabad","state":"Haryana","latitude":28.4089,"longitude":77.3178,"temp":33.0,"humidity":49,"rain":0.0,"pressure":978.9,"uv_index":7.85,"wind_gusts":51.1,"aqi":1276,"pm10":1445.4,"pm2_5":194.6,"no2":12.0,"co":330.0,"o3":154.0,"so2":15.2,"mosquito_risk":0,"arthritis_risk":5,"migraine_risk":7,"frizz_risk":1,"updated_at":"2026-06-12T17:57:03.162811+05:30"},{"city":"Meerut","state":"Uttar Pradesh","latitude":28.9845,"longitude":77.7064,"temp":30.9,"humidity":64,"rain":0.0,"pressure":977.1,"uv_index":7.75,"wind_gusts":49.0,"aqi":153,"pm10":156.0,"pm2_5":38.9,"no2":5.9,"co":298.0,"o3":147.0,"so2":10.0,"mosquito_risk":3,"arthritis_risk":5,"migraine_risk":7,"frizz_risk":1,"updated_at":"2026-06-12T17:57:03.162816+05:30"},{"city":"Agra","state":"Uttar Pradesh","latitude":27.1767,"longitude":78.0081,"temp":35.0,"humidity":49,"rain":0.0,"pressure":981.9,"uv_index":8.15,"wind_gusts":42.5,"aqi":1152,"pm10":175.1,"pm2_5":56.7,"no2":5.3,"co":305.0,"o3":161.0,"so2":7.4,"mosquito_risk":0,"arthritis_risk":5,"migraine_risk":7,"frizz_risk":1,"updated_at":"2026-06-12T17:57:03.162833+05:30"},{"city":"Varanasi","state":"Uttar Pradesh","latitude":25.3176,"longitude":82.9739,"temp":34.9,"humidity":50,"rain":0.0,"pressure":992.1,"uv_index":8.75,"wind_gusts":27.7,"aqi":184,"pm10":74.7,"pm2_5":59.0,"no2":4.4,"co":362.0,"o3":182.0,"so2":14.5,"mosquito_risk":0,"arthritis_risk":5,"migraine_risk":7,"frizz_risk":1,"updated_at":"2026-06-12T17:57:03.162841+05:30"},{"city":"Prayagraj","state":"Uttar Pradesh","latitude":25.4358,"longitude":81.8463,"temp":34.8,"humidity":47,"rain":0.0,"pressure":990.3,"uv_index":8.4,"wind_gusts":33.5,"aqi":183,"pm10":77.5,"pm2_5":60.1,"no2":3.9,"co":310.0,"o3":192.0,"so2":13.9,"mosquito_risk":0,"arthritis_risk":5,"migraine_risk":7,"frizz_risk":1,"updated_at":"2026-06-12T17:57:03.162846+05:30"},{"city":"Gorakhpur","state":"Uttar Pradesh","latitude":26.7606,"longitude":83.3732,"temp":32.5,"humidity":59,"rain":0.0,"pressure":992.4,"uv_index":8.65,"wind_gusts":36.7,"aqi":158,"pm10":52.2,"pm2_5":31.7,"no2":3.6,"co":286.0,"o3":169.0,"so2":8.5,"mosquito_risk":0,"arthritis_risk":5,"migraine_risk":7,"frizz_risk":1,"updated_at":"2026-06-12T17:57:03.162852+05:30"},{"city":"Bareilly","state":"Uttar Pradesh","latitude":28.367,"longitude":79.4304,"temp":31.9,"humidity":61,"rain":0.0,"pressure":982.4,"uv_index":7.5,"wind_gusts":43.6,"aqi":107,"pm10":93.8,"pm2_5":32.7,"no2":3.3,"co":298.0,"o3":138.0,"so2":4.4,"mosquito_risk":3,"arthritis_risk":5,"migraine_risk":7,"frizz_risk":1,"updated_at":"2026-06-12T17:57:03.162857+05:30"},{"city":"Aligarh","state":"Uttar Pradesh","latitude":27.8974,"longitude":78.088,"temp":33.4,"humidity":52,"rain":0.0,"pressure":980.5,"uv_index":8.0,"wind_gusts":49.7,"aqi":512,"pm10":310.1,"pm2_5":59.5,"no2":5.0,"co":223.0,"o3":165.0,"so2":11.2,"mosquito_risk":0,"arthritis_risk":5,"migraine_risk":7,"frizz_risk":1,"updated_at":"2026-06-12T17:57:03.162862+05:30"},{"city":"Moradabad","state":"Uttar Pradesh","latitude":28.8386,"longitude":78.7733,"temp":31.7,"humidity":60,"rain":0.0,"pressure":979.7,"uv_index":7.95,"wind_gusts":42.8,"aqi":115,"pm10":74.5,"pm2_5":30.7,"no2":4.8,"co":283.0,"o3":138.0,"so2":8.4,"mosquito_risk":0,"arthritis_risk":5,"migraine_risk":7,"frizz_risk":1,"updated_at":"2026-06-12T17:57:03.162868+05:30"},{"city":"Saharanpur","state":"Uttar Pradesh","latitude":29.9637,"longitude":77.546,"temp":30.4,"humidity":57,"rain":0.0,"pressure":973.1,"uv_index":7.45,"wind_gusts":45.4,"aqi":136,"pm10":94.5,"pm2_5":35.5,"no2":3.3,"co":296.0,"o3":127.0,"so2":3.5,"mosquito_risk":0,"arthritis_risk":5,"migraine_risk":7,"frizz_risk":1,"updated_at":"2026-06-12T17:57:03.162873+05:30"},{"city":"Jhansi","state":"Uttar Pradesh","latitude":25.4484,"longitude":78.5685,"temp":29.4,"humidity":72,"rain":0.0,"pressure":972.9,"uv_index":8.55,"wind_gusts":66.6,"aqi":110,"pm10":57.9,"pm2_5":34.3,"no2":3.4,"co":155.0,"o3":132.0,"so2":10.7,"mosquito_risk":7,"arthritis_risk":5,"migraine_risk":7,"frizz_risk":1,"updated_at":"2026-06-12T17:57:06.439918+05:30"},{"city":"Surat","state":"Gujarat","latitude":21.1702,"longitude":72.8311,"temp":32.6,"humidity":65,"rain":0.0,"pressure":1002.2,"uv_index":7.6,"wind_gusts":60.8,"aqi":87,"pm10":43.2,"pm2_5":23.3,"no2":10.7,"co":165.0,"o3":46.0,"so2":26.0,"mosquito_risk":3,"arthritis_risk":5,"migraine_risk":4,"frizz_risk":1,"updated_at":"2026-06-12T17:57:06.439951+05:30"},{"city":"Vadodara","state":"Gujarat","latitude":22.3072,"longitude":73.1812,"temp":35.8,"humidity":50,"rain":0.0,"pressure":997.8,"uv_index":8.0,"wind_gusts":57.2,"aqi":81,"pm10":43.4,"pm2_5":23.7,"no2":3.6,"co":149.0,"o3":95.0,"so2":7.3,"mosquito_risk":0,"arthritis_risk":5,"migraine_risk":10,"frizz_risk":1,"updated_at":"2026-06-12T17:57:06.439961+05:30"},{"city":"Rajkot","state":"Gujarat","latitude":22.3039,"longitude":70.8022,"temp":37.6,"humidity":40,"rain":0.0,"pressure":987.8,"uv_index":7.55,"wind_gusts":52.9,"aqi":64,"pm10":58.1,"pm2_5":21.6,"no2":1.8,"co":107.0,"o3":87.0,"so2":4.4,"mosquito_risk":0,"arthritis_risk":5,"migraine_risk":10,"frizz_risk":1,"updated_at":"2026-06-12T17:57:06.439968+05:30"},{"city":"Thane","state":"Maharashtra","latitude":19.2183,"longitude":72.9781,"temp":32.6,"humidity":58,"rain":0.0,"pressure":1005.1,"uv_index":7.7,"wind_gusts":43.9,"aqi":84,"pm10":53.0,"pm2_5":25.4,"no2":7.5,"co":151.0,"o3":61.0,"so2":6.0,"mosquito_risk":0,"arthritis_risk":5,"migraine_risk":4,"frizz_risk":1,"updated_at":"2026-06-12T17:57:06.439976+05:30"},{"city":"Nagpur","state":"Maharashtra","latitude":21.1458,"longitude":79.0882,"temp":38.2,"humidity":32,"rain":0.0,"pressure":967.4,"uv_index":8.9,"wind_gusts":53.6,"aqi":144,"pm10":78.9,"pm2_5":35.2,"no2":6.6,"co":174.0,"o3":126.0,"so2":17.0,"mosquito_risk":0,"arthritis_risk":5,"migraine_risk":10,"frizz_risk":1,"updated_at":"2026-06-12T17:57:06.439981+05:30"},{"city":"Nashik","state":"Maharashtra","latitude":19.9975,"longitude":73.7898,"temp":31.2,"humidity":50,"rain":0.0,"pressure":943.0,"uv_index":8.05,"wind_gusts":52.9,"aqi":71,"pm10":61.7,"pm2_5":24.2,"no2":2.0,"co":117.0,"o3":74.0,"so2":1.8,"mosquito_risk":0,"arthritis_risk":5,"migraine_risk":7,"frizz_risk":1,"updated_at":"2026-06-12T17:57:06.439988+05:30"},{"city":"Aurangabad","state":"Maharashtra","latitude":19.8762,"longitude":75.3433,"temp":35.7,"humidity":31,"rain":0.0,"pressure":940.5,"uv_index":8.95,"wind_gusts":50.8,"aqi":76,"pm10":69.6,"pm2_5":28.7,"no2":2.0,"co":132.0,"o3":121.0,"so2":4.6,"mosquito_risk":0,"arthritis_risk":5,"migraine_risk":10,"frizz_risk":1,"updated_at":"2026-06-12T17:57:06.439994+05:30"},{"city":"Solapur","state":"Maharashtra","latitude":17.6599,"longitude":75.9064,"temp":36.9,"humidity":29,"rain":0.0,"pressure":953.3,"uv_index":8.85,"wind_gusts":49.3,"aqi":65,"pm10":51.2,"pm2_5":19.4,"no2":1.8,"co":130.0,"o3":109.0,"so2":1.8,"mosquito_risk":0,"arthritis_risk":5,"migraine_risk":10,"frizz_risk":0,"updated_at":"2026-06-12T17:57:06.440000+05:30"},{"city":"Kolhapur","state":"Maharashtra","latitude":16.705,"longitude":74.2433,"temp":28.2,"humidity":67,"rain":0.0,"pressure":946.8,"uv_index":8.45,"wind_gusts":49.7,"aqi":59,"pm10":28.2,"pm2_5":15.0,"no2":3.3,"co":128.0,"o3":69.0,"so2":1.9,"mosquito_risk":7,"arthritis_risk":5,"migraine_risk":7,"frizz_risk":1,"updated_at":"2026-06-12T17:57:06.440006+05:30"},{"city":"Goa","state":"Goa","latitude":15.2993,"longitude":74.124,"temp":29.4,"humidity":80,"rain":0.0,"pressure":996.8,"uv_index":7.1,"wind_gusts":32.4,"aqi":69,"pm10":36.6,"pm2_5":16.6,"no2":1.5,"co":134.0,"o3":55.0,"so2":1.1,"mosquito_risk":7,"arthritis_risk":5,"migraine_risk":7,"frizz_risk":1,"updated_at":"2026-06-12T17:57:06.440011+05:30"},{"city":"Jodhpur","state":"Rajasthan","latitude":26.2389,"longitude":73.0243,"temp":39.1,"humidity":34,"rain":0.0,"pressure":974.7,"uv_index":8.45,"wind_gusts":49.7,"aqi":143,"pm10":342.7,"pm2_5":60.8,"no2":1.3,"co":117.0,"o3":98.0,"so2":2.2,"mosquito_risk":0,"arthritis_risk":5,"migraine_risk":10,"frizz_risk":1,"updated_at":"2026-06-12T17:57:06.440016+05:30"},{"city":"Udaipur","state":"Rajasthan","latitude":24.5854,"longitude":73.7125,"temp":35.3,"humidity":40,"rain":0.0,"pressure":940.9,"uv_index":8.8,"wind_gusts":48.6,"aqi":78,"pm10":71.7,"pm2_5":24.2,"no2":1.0,"co":116.0,"o3":101.0,"so2":3.5,"mosquito_risk":0,"arthritis_risk":5,"migraine_risk":10,"frizz_risk":1,"updated_at":"2026-06-12T17:57:06.440022+05:30"},{"city":"Kota","state":"Rajasthan","latitude":25.2138,"longitude":75.8648,"temp":30.1,"humidity":80,"rain":0.0,"pressure":972.7,"uv_index":8.4,"wind_gusts":61.6,"aqi":94,"pm10":110.1,"pm2_5":37.4,"no2":1.7,"co":140.0,"o3":117.0,"so2":5.6,"mosquito_risk":3,"arthritis_risk":5,"migraine_risk":7,"frizz_risk":1,"updated_at":"2026-06-12T17:57:06.440027+05:30"},{"city":"Bikaner","state":"Rajasthan","latitude":28.0229,"longitude":73.3119,"temp":40.8,"humidity":22,"rain":0.0,"pressure":973.6,"uv_index":8.45,"wind_gusts":67.0,"aqi":154,"pm10":146.2,"pm2_5":43.9,"no2":0.8,"co":129.0,"o3":110.0,"so2":2.9,"mosquito_risk":0,"arthritis_risk":5,"migraine_risk":10,"frizz_risk":0,"updated_at":"2026-06-12T17:57:06.440033+05:30"},{"city":"Ajmer","state":"Rajasthan","latitude":26.4499,"longitude":74.6399,"temp":36.5,"humidity":37,"rain":0.0,"pressure":948.3,"uv_index":8.35,"wind_gusts":69.5,"aqi":93,"pm10":101.3,"pm2_5":34.1,"no2":1.4,"co":128.0,"o3":122.0,"so2":4.1,"mosquito_risk":0,"arthritis_risk":5,"migraine_risk":10,"frizz_risk":1,"updated_at":"2026-06-12T17:57:06.440038+05:30"},{"city":"Gwalior","state":"Madhya Pradesh","latitude":26.2183,"longitude":78.1828,"temp":31.8,"humidity":55,"rain":0.1,"pressure":978.3,"uv_index":8.3,"wind_gusts":39.2,"aqi":133,"pm10":114.6,"pm2_5":47.3,"no2":2.2,"co":207.0,"o3":143.0,"so2":6.3,"mosquito_risk":3,"arthritis_risk":5,"migraine_risk":7,"frizz_risk":1,"updated_at":"2026-06-12T17:57:06.440044+05:30"},{"city":"Indore","state":"Madhya Pradesh","latitude":22.7196,"longitude":75.8577,"temp":36.1,"humidity":33,"rain":0.0,"pressure":943.3,"uv_index":8.65,"wind_gusts":47.9,"aqi":87,"pm10":83.6,"pm2_5":31.3,"no2":1.9,"co":185.0,"o3":108.0,"so2":4.1,"mosquito_risk":0,"arthritis_risk":5,"migraine_risk":10,"frizz_risk":1,"updated_at":"2026-06-12T17:57:06.440049+05:30"},{"city":"Bhopal","state":"Madhya Pradesh","latitude":23.2599,"longitude":77.4126,"temp":31.9,"humidity":55,"rain":0.1,"pressure":948.7,"uv_index":8.7,"wind_gusts":44.3,"aqi":87,"pm10":68.0,"pm2_5":26.5,"no2":1.5,"co":168.0,"o3":106.0,"so2":1.9,"mosquito_risk":3,"arthritis_risk":5,"migraine_risk":7,"frizz_risk":1,"updated_at":"2026-06-12T17:57:06.440054+05:30"},{"city":"Jabalpur","state":"Madhya Pradesh","latitude":23.1815,"longitude":79.9864,"temp":33.0,"humidity":50,"rain":0.1,"pressure":957.0,"uv_index":8.9,"wind_gusts":41.0,"aqi":87,"pm10":79.2,"pm2_5":33.3,"no2":2.1,"co":145.0,"o3":113.0,"so2":4.2,"mosquito_risk":3,"arthritis_risk":5,"migraine_risk":7,"frizz_risk":1,"updated_at":"2026-06-12T17:57:06.440060+05:30"},{"city":"Ujjain","state":"Madhya Pradesh","latitude":23.1765,"longitude":75.7885,"temp":36.4,"humidity":34,"rain":0.0,"pressure":948.5,"uv_index":8.6,"wind_gusts":46.8,"aqi":87,"pm10":92.0,"pm2_5":33.2,"no2":1.1,"co":141.0,"o3":110.0,"so2":4.7,"mosquito_risk":0,"arthritis_risk":5,"migraine_risk":10,"frizz_risk":1,"updated_at":"2026-06-12T17:57:06.440066+05:30"},{"city":"Visakhapatnam","state":"Andhra Pradesh","latitude":17.6868,"longitude":83.2185,"temp":32.1,"humidity":73,"rain":0.0,"pressure":999.1,"uv_index":9.0,"wind_gusts":41.0,"aqi":104,"pm10":43.8,"pm2_5":33.1,"no2":17.5,"co":318.0,"o3":127.0,"so2":37.9,"mosquito_risk":3,"arthritis_risk":5,"migraine_risk":7,"frizz_risk":1,"updated_at":"2026-06-12T17:57:06.440072+05:30"},{"city":"Vijayawada","state":"Andhra Pradesh","latitude":16.5062,"longitude":80.648,"temp":34.2,"humidity":51,"rain":0.0,"pressure":997.9,"uv_index":8.2,"wind_gusts":32.8,"aqi":87,"pm10":44.0,"pm2_5":31.3,"no2":8.3,"co":190.0,"o3":101.0,"so2":6.8,"mosquito_risk":0,"arthritis_risk":5,"migraine_risk":7,"frizz_risk":1,"updated_at":"2026-06-12T17:57:06.440077+05:30"},{"city":"Guntur","state":"Andhra Pradesh","latitude":16.3067,"longitude":80.4365,"temp":32.8,"humidity":59,"rain":0.0,"pressure":999.2,"uv_index":8.25,"wind_gusts":34.2,"aqi":90,"pm10":44.0,"pm2_5":28.6,"no2":5.3,"co":180.0,"o3":107.0,"so2":5.3,"mosquito_risk":0,"arthritis_risk":5,"migraine_risk":7,"frizz_risk":1,"updated_at":"2026-06-12T17:57:06.440082+05:30"},{"city":"Nellore","state":"Andhra Pradesh","latitude":14.4426,"longitude":79.9865,"temp":34.3,"humidity":55,"rain":0.0,"pressure":1002.0,"uv_index":8.5,"wind_gusts":34.2,"aqi":76,"pm10":37.5,"pm2_5":24.3,"no2":3.5,"co":220.0,"o3":133.0,"so2":3.4,"mosquito_risk":0,"arthritis_risk":5,"migraine_risk":4,"frizz_risk":1,"updated_at":"2026-06-12T17:57:06.440088+05:30"},{"city":"Kurnool","state":"Andhra Pradesh","latitude":15.8281,"longitude":78.0373,"temp":35.7,"humidity":39,"rain":0.0,"pressure":973.0,"uv_index":8.5,"wind_gusts":46.8,"aqi":71,"pm10":50.2,"pm2_5":25.4,"no2":2.1,"co":144.0,"o3":123.0,"so2":6.8,"mosquito_risk":0,"arthritis_risk":5,"migraine_risk":10,"frizz_risk":1,"updated_at":"2026-06-12T17:57:06.440095+05:30"},{"city":"Kakinada","state":"Andhra Pradesh","latitude":16.9891,"longitude":82.2475,"temp":33.8,"humidity":54,"rain":0.0,"pressure":1002.8,"uv_index":8.85,"wind_gusts":38.9,"aqi":86,"pm10":41.1,"pm2_5":28.5,"no2":4.1,"co":259.0,"o3":127.0,"so2":3.4,"mosquito_risk":0,"arthritis_risk":5,"migraine_risk":4,"frizz_risk":1,"updated_at":"2026-06-12T17:57:06.440100+05:30"},{"city":"Tirupati","state":"Andhra Pradesh","latitude":13.6288,"longitude":79.4192,"temp":26.5,"humidity":96,"rain":0.1,"pressure":989.4,"uv_index":6.4,"wind_gusts":47.5,"aqi":70,"pm10":28.5,"pm2_5":18.5,"no2":10.8,"co":220.0,"o3":83.0,"so2":1.7,"mosquito_risk":10,"arthritis_risk":5,"migraine_risk":7,"frizz_risk":1,"updated_at":"2026-06-12T17:57:06.440105+05:30"},{"city":"Warangal","state":"Telangana","latitude":17.9689,"longitude":79.5941,"temp":34.5,"humidity":53,"rain":0.0,"pressure":974.1,"uv_index":9.0,"wind_gusts":36.0,"aqi":99,"pm10":63.8,"pm2_5":35.9,"no2":3.1,"co":235.0,"o3":123.0,"so2":5.6,"mosquito_risk":0,"arthritis_risk":5,"migraine_risk":7,"frizz_risk":1,"updated_at":"2026-06-12T17:57:06.440111+05:30"},{"city":"Nizamabad","state":"Telangana","latitude":18.6725,"longitude":78.0941,"temp":37.1,"humidity":31,"rain":0.0,"pressure":960.4,"uv_index":8.85,"wind_gusts":37.1,"aqi":88,"pm10":69.6,"pm2_5":31.1,"no2":1.9,"co":147.0,"o3":121.0,"so2":5.0,"mosquito_risk":0,"arthritis_risk":5,"migraine_risk":10,"frizz_risk":1,"updated_at":"2026-06-12T17:57:06.440116+05:30"},{"city":"Mysore","state":"Karnataka","latitude":12.2958,"longitude":76.6396,"temp":24.2,"humidity":85,"rain":0.0,"pressure":928.1,"uv_index":8.85,"wind_gusts":42.1,"aqi":37,"pm10":8.4,"pm2_5":6.0,"no2":8.3,"co":175.0,"o3":63.0,"so2":1.8,"mosquito_risk":3,"arthritis_risk":5,"migraine_risk":7,"frizz_risk":1,"updated_at":"2026-06-12T17:57:06.440121+05:30"},{"city":"Mangalore","state":"Karnataka","latitude":12.9141,"longitude":74.856,"temp":26.4,"humidity":88,"rain":0.0,"pressure":1007.3,"uv_index":8.7,"wind_gusts":38.5,"aqi":43,"pm10":11.8,"pm2_5":6.2,"no2":3.1,"co":131.0,"o3":60.0,"so2":1.3,"mosquito_risk":7,"arthritis_risk":5,"migraine_risk":4,"frizz_risk":1,"updated_at":"2026-06-12T17:57:06.440127+05:30"},{"city":"Hubli-Dharwad","state":"Karnataka","latitude":15.3647,"longitude":75.124,"temp":28.4,"humidity":65,"rain":0.0,"pressure":939.7,"uv_index":7.4,"wind_gusts":47.9,"aqi":36,"pm10":22.1,"pm2_5":12.0,"no2":3.1,"co":123.0,"o3":65.0,"so2":1.1,"mosquito_risk":7,"arthritis_risk":5,"migraine_risk":7,"frizz_risk":1,"updated_at":"2026-06-12T17:57:06.440132+05:30"},{"city":"Belgaum","state":"Karnataka","latitude":15.8497,"longitude":74.4977,"temp":26.6,"humidity":72,"rain":0.0,"pressure":924.8,"uv_index":8.65,"wind_gusts":47.5,"aqi":57,"pm10":23.3,"pm2_5":10.6,"no2":2.6,"co":112.0,"o3":58.0,"so2":1.3,"mosquito_risk":7,"arthritis_risk":5,"migraine_risk":7,"frizz_risk":1,"updated_at":"2026-06-12T17:57:09.732057+05:30"},{"city":"Coimbatore","state":"Tamil Nadu","latitude":11.0168,"longitude":76.9558,"temp":26.1,"humidity":76,"rain":0.0,"pressure":961.4,"uv_index":6.55,"wind_gusts":47.2,"aqi":36,"pm10":8.4,"pm2_5":5.8,"no2":8.8,"co":194.0,"o3":55.0,"so2":2.8,"mosquito_risk":7,"arthritis_risk":5,"migraine_risk":7,"frizz_risk":1,"updated_at":"2026-06-12T17:57:09.732090+05:30"},{"city":"Madurai","state":"Tamil Nadu","latitude":9.9252,"longitude":78.1198,"temp":32.9,"humidity":43,"rain":0.0,"pressure":992.2,"uv_index":7.05,"wind_gusts":52.9,"aqi":48,"pm10":11.8,"pm2_5":6.2,"no2":4.4,"co":158.0,"o3":71.0,"so2":1.5,"mosquito_risk":0,"arthritis_risk":5,"migraine_risk":7,"frizz_risk":1,"updated_at":"2026-06-12T17:57:09.732098+05:30"},{"city":"Trichy","state":"Tamil Nadu","latitude":10.7905,"longitude":78.7047,"temp":32.7,"humidity":44,"rain":0.0,"pressure":999.0,"uv_index":6.1,"wind_gusts":59.4,"aqi":40,"pm10":15.1,"pm2_5":9.2,"no2":4.1,"co":138.0,"o3":79.0,"so2":2.0,"mosquito_risk":0,"arthritis_risk":5,"migraine_risk":7,"frizz_risk":1,"updated_at":"2026-06-12T17:57:09.732106+05:30"},{"city":"Salem","state":"Tamil Nadu","latitude":11.6643,"longitude":78.146,"temp":26.9,"humidity":87,"rain":0.1,"pressure":976.7,"uv_index":8.1,"wind_gusts":40.7,"aqi":59,"pm10":20.9,"pm2_5":13.0,"no2":10.0,"co":203.0,"o3":79.0,"so2":7.0,"mosquito_risk":10,"arthritis_risk":5,"migraine_risk":7,"frizz_risk":1,"updated_at":"2026-06-12T17:57:09.732113+05:30"},{"city":"Tirunelveli","state":"Tamil Nadu","latitude":8.7139,"longitude":77.7567,"temp":31.4,"humidity":57,"rain":0.0,"pressure":1003.4,"uv_index":7.35,"wind_gusts":37.8,"aqi":32,"pm10":3.8,"pm2_5":2.9,"no2":3.6,"co":112.0,"o3":64.0,"so2":1.0,"mosquito_risk":0,"arthritis_risk":5,"migraine_risk":4,"frizz_risk":1,"updated_at":"2026-06-12T17:57:09.732119+05:30"},{"city":"Vellore","state":"Tamil Nadu","latitude":12.9165,"longitude":79.1325,"temp":28.5,"humidity":79,"rain":0.0,"pressure":983.2,"uv_index":6.5,"wind_gusts":36.7,"aqi":74,"pm10":18.3,"pm2_5":13.3,"no2":9.2,"co":248.0,"o3":80.0,"so2":2.3,"mosquito_risk":7,"arthritis_risk":5,"migraine_risk":7,"frizz_risk":1,"updated_at":"2026-06-12T17:57:09.732125+05:30"},{"city":"Erode","state":"Tamil Nadu","latitude":11.341,"longitude":77.7172,"temp":31.5,"humidity":51,"rain":0.0,"pressure":988.3,"uv_index":8.6,"wind_gusts":42.5,"aqi":51,"pm10":18.6,"pm2_5":11.6,"no2":10.1,"co":244.0,"o3":69.0,"so2":3.0,"mosquito_risk":0,"arthritis_risk":5,"migraine_risk":7,"frizz_risk":1,"updated_at":"2026-06-12T17:57:09.732131+05:30"},{"city":"Kochi","state":"Kerala","latitude":9.9312,"longitude":76.2673,"temp":26.9,"humidity":82,"rain":0.0,"pressure":1010.3,"uv_index":2.6,"wind_gusts":27.4,"aqi":51,"pm10":10.7,"pm2_5":8.7,"no2":12.8,"co":156.0,"o3":52.0,"so2":4.5,"mosquito_risk":7,"arthritis_risk":0,"migraine_risk":0,"frizz_risk":1,"updated_at":"2026-06-12T17:57:09.732138+05:30"},{"city":"Thiruvananthapuram","state":"Kerala","latitude":8.5241,"longitude":76.9366,"temp":24.8,"humidity":95,"rain":0.0,"pressure":1010.2,"uv_index":6.45,"wind_gusts":38.2,"aqi":27,"pm10":10.5,"pm2_5":5.3,"no2":1.6,"co":129.0,"o3":59.0,"so2":0.6,"mosquito_risk":3,"arthritis_risk":0,"migraine_risk":4,"frizz_risk":1,"updated_at":"2026-06-12T17:57:09.732143+05:30"},{"city":"Kozhikode","state":"Kerala","latitude":11.2588,"longitude":75.7804,"temp":25.4,"humidity":97,"rain":0.1,"pressure":1008.6,"uv_index":4.85,"wind_gusts":27.0,"aqi":30,"pm10":13.4,"pm2_5":6.0,"no2":1.4,"co":194.0,"o3":60.0,"so2":0.6,"mosquito_risk":10,"arthritis_risk":0,"migraine_risk":0,"frizz_risk":1,"updated_at":"2026-06-12T17:57:09.732149+05:30"},{"city":"Thrissur","state":"Kerala","latitude":10.5276,"longitude":76.2144,"temp":25.3,"humidity":97,"rain":0.2,"pressure":1008.3,"uv_index":3.95,"wind_gusts":21.6,"aqi":55,"pm10":9.8,"pm2_5":7.7,"no2":7.8,"co":206.0,"o3":57.0,"so2":3.6,"mosquito_risk":10,"arthritis_risk":0,"migraine_risk":0,"frizz_risk":1,"updated_at":"2026-06-12T17:57:09.732156+05:30"},{"city":"Kannur","state":"Kerala","latitude":11.8745,"longitude":75.3704,"temp":25.0,"humidity":99,"rain":0.0,"pressure":1007.7,"uv_index":3.75,"wind_gusts":27.4,"aqi":37,"pm10":10.7,"pm2_5":5.5,"no2":3.8,"co":123.0,"o3":57.0,"so2":1.3,"mosquito_risk":7,"arthritis_risk":5,"migraine_risk":0,"frizz_risk":1,"updated_at":"2026-06-12T17:57:09.732161+05:30"},{"city":"Patna","state":"Bihar","latitude":25.5941,"longitude":85.1376,"temp":32.2,"humidity":63,"rain":0.0,"pressure":995.3,"uv_index":8.85,"wind_gusts":34.2,"aqi":186,"pm10":96.4,"pm2_5":73.6,"no2":12.0,"co":435.0,"o3":167.0,"so2":17.6,"mosquito_risk":3,"arthritis_risk":5,"migraine_risk":7,"frizz_risk":1,"updated_at":"2026-06-12T17:57:09.732166+05:30"},{"city":"Gaya","state":"Bihar","latitude":24.7914,"longitude":85.0002,"temp":34.2,"humidity":51,"rain":0.0,"pressure":988.6,"uv_index":8.9,"wind_gusts":23.4,"aqi":180,"pm10":88.0,"pm2_5":67.1,"no2":7.7,"co":388.0,"o3":169.0,"so2":14.6,"mosquito_risk":0,"arthritis_risk":5,"migraine_risk":7,"frizz_risk":1,"updated_at":"2026-06-12T17:57:09.732172+05:30"},{"city":"Muzaffarpur","state":"Bihar","latitude":26.1209,"longitude":85.3647,"temp":30.2,"humidity":74,"rain":0.0,"pressure":995.6,"uv_index":8.85,"wind_gusts":36.0,"aqi":178,"pm10":106.4,"pm2_5":75.7,"no2":12.4,"co":382.0,"o3":165.0,"so2":18.1,"mosquito_risk":3,"arthritis_risk":5,"migraine_risk":7,"frizz_risk":1,"updated_at":"2026-06-12T17:57:09.732178+05:30"},{"city":"Bhagalpur","state":"Bihar","latitude":25.2425,"longitude":87.0117,"temp":31.8,"humidity":66,"rain":0.0,"pressure":996.6,"uv_index":8.65,"wind_gusts":27.4,"aqi":188,"pm10":118.0,"pm2_5":68.9,"no2":9.1,"co":373.0,"o3":184.0,"so2":20.4,"mosquito_risk":3,"arthritis_risk":5,"migraine_risk":7,"frizz_risk":1,"updated_at":"2026-06-12T17:57:09.732183+05:30"},{"city":"Ranchi","state":"Jharkhand","latitude":23.3441,"longitude":85.3096,"temp":27.0,"humidity":82,"rain":0.0,"pressure":934.7,"uv_index":9.25,"wind_gusts":36.0,"aqi":152,"pm10":57.7,"pm2_5":46.8,"no2":7.9,"co":238.0,"o3":118.0,"so2":5.6,"mosquito_risk":7,"arthritis_risk":5,"migraine_risk":7,"frizz_risk":1,"updated_at":"2026-06-12T17:57:09.732189+05:30"},{"city":"Jamshedpur","state":"Jharkhand","latitude":22.8046,"longitude":86.2029,"temp":25.2,"humidity":99,"rain":0.7,"pressure":988.6,"uv_index":9.1,"wind_gusts":40.3,"aqi":189,"pm10":96.6,"pm2_5":75.2,"no2":8.0,"co":388.0,"o3":176.0,"so2":20.5,"mosquito_risk":10,"arthritis_risk":5,"migraine_risk":7,"frizz_risk":1,"updated_at":"2026-06-12T17:57:09.732194+05:30"},{"city":"Dhanbad","state":"Jharkhand","latitude":23.7957,"longitude":86.4304,"temp":25.0,"humidity":98,"rain":0.5,"pressure":977.1,"uv_index":9.05,"wind_gusts":42.5,"aqi":183,"pm10":122.5,"pm2_5":100.8,"no2":29.3,"co":1422.0,"o3":185.0,"so2":90.1,"mosquito_risk":10,"arthritis_risk":5,"migraine_risk":7,"frizz_risk":1,"updated_at":"2026-06-12T17:57:09.732200+05:30"},{"city":"Bokaro","state":"Jharkhand","latitude":23.6693,"longitude":86.1511,"temp":26.8,"humidity":93,"rain":0.1,"pressure":980.5,"uv_index":9.1,"wind_gusts":42.1,"aqi":192,"pm10":122.9,"pm2_5":103.8,"no2":27.4,"co":1459.0,"o3":197.0,"so2":93.7,"mosquito_risk":10,"arthritis_risk":5,"migraine_risk":7,"frizz_risk":1,"updated_at":"2026-06-12T17:57:09.732206+05:30"},{"city":"Bhubaneswar","state":"Odisha","latitude":20.2961,"longitude":85.8245,"temp":27.3,"humidity":92,"rain":0.2,"pressure":999.0,"uv_index":8.65,"wind_gusts":29.9,"aqi":133,"pm10":52.5,"pm2_5":42.0,"no2":10.6,"co":452.0,"o3":109.0,"so2":6.4,"mosquito_risk":10,"arthritis_risk":5,"migraine_risk":7,"frizz_risk":1,"updated_at":"2026-06-12T17:57:09.732211+05:30"},{"city":"Cuttack","state":"Odisha","latitude":20.4625,"longitude":85.8828,"temp":27.6,"humidity":90,"rain":0.2,"pressure":1000.7,"uv_index":8.7,"wind_gusts":28.8,"aqi":133,"pm10":52.5,"pm2_5":42.0,"no2":10.6,"co":378.0,"o3":109.0,"so2":6.4,"mosquito_risk":10,"arthritis_risk":5,"migraine_risk":4,"frizz_risk":1,"updated_at":"2026-06-12T17:57:09.732217+05:30"},{"city":"Rourkela","state":"Odisha","latitude":22.2604,"longitude":84.8536,"temp":29.6,"humidity":71,"rain":0.0,"pressure":981.8,"uv_index":9.0,"wind_gusts":37.4,"aqi":166,"pm10":65.9,"pm2_5":50.3,"no2":7.7,"co":301.0,"o3":147.0,"so2":8.3,"mosquito_risk":7,"arthritis_risk":5,"migraine_risk":7,"frizz_risk":1,"updated_at":"2026-06-12T17:57:09.732223+05:30"},{"city":"Raipur","state":"Chhattisgarh","latitude":21.2514,"longitude":81.6296,"temp":35.5,"humidity":36,"rain":0.1,"pressure":970.2,"uv_index":8.95,"wind_gusts":54.4,"aqi":131,"pm10":48.1,"pm2_5":31.5,"no2":11.1,"co":178.0,"o3":133.0,"so2":28.0,"mosquito_risk":3,"arthritis_risk":5,"migraine_risk":10,"frizz_risk":1,"updated_at":"2026-06-12T17:57:09.732229+05:30"},{"city":"Bhilai","state":"Chhattisgarh","latitude":21.1938,"longitude":81.3509,"temp":34.6,"humidity":43,"rain":0.1,"pressure":970.0,"uv_index":8.95,"wind_gusts":56.5,"aqi":125,"pm10":46.9,"pm2_5":30.9,"no2":12.3,"co":290.0,"o3":124.0,"so2":26.5,"mosquito_risk":3,"arthritis_risk":5,"migraine_risk":7,"frizz_risk":1,"updated_at":"2026-06-12T17:57:09.732234+05:30"},{"city":"Guwahati","state":"Assam","latitude":26.1158,"longitude":91.7086,"temp":28.6,"humidity":85,"rain":0.0,"pressure":998.0,"uv_index":8.6,"wind_gusts":20.5,"aqi":86,"pm10":21.7,"pm2_5":17.9,"no2":4.2,"co":349.0,"o3":100.0,"so2":1.7,"mosquito_risk":7,"arthritis_risk":5,"migraine_risk":7,"frizz_risk":1,"updated_at":"2026-06-12T17:57:09.732240+05:30"},{"city":"Agartala","state":"Tripura","latitude":23.8315,"longitude":91.2868,"temp":27.9,"humidity":84,"rain":0.0,"pressure":1002.8,"uv_index":7.55,"wind_gusts":30.2,"aqi":154,"pm10":48.5,"pm2_5":40.0,"no2":16.5,"co":256.0,"o3":146.0,"so2":7.7,"mosquito_risk":7,"arthritis_risk":5,"migraine_risk":4,"frizz_risk":1,"updated_at":"2026-06-12T17:57:09.732245+05:30"},{"city":"Shillong","state":"Meghalaya","latitude":25.5788,"longitude":91.8933,"temp":20.3,"humidity":97,"rain":0.1,"pressure":855.9,"uv_index":8.45,"wind_gusts":20.2,"aqi":77,"pm10":28.5,"pm2_5":20.4,"no2":5.8,"co":322.0,"o3":99.0,"so2":1.8,"mosquito_risk":6,"arthritis_risk":5,"migraine_risk":7,"frizz_risk":1,"updated_at":"2026-06-12T17:57:09.732251+05:30"},{"city":"Imphal","state":"Manipur","latitude":24.817,"longitude":93.9368,"temp":23.0,"humidity":92,"rain":0.2,"pressure":921.2,"uv_index":8.7,"wind_gusts":16.6,"aqi":59,"pm10":6.8,"pm2_5":6.7,"no2":8.6,"co":298.0,"o3":60.0,"so2":1.5,"mosquito_risk":6,"arthritis_risk":5,"migraine_risk":7,"frizz_risk":1,"updated_at":"2026-06-12T17:57:09.732257+05:30"},{"city":"Aizawl","state":"Mizoram","latitude":23.7271,"longitude":92.7176,"temp":21.0,"humidity":97,"rain":0.1,"pressure":890.3,"uv_index":4.2,"wind_gusts":21.6,"aqi":74,"pm10":13.2,"pm2_5":12.0,"no2":6.8,"co":193.0,"o3":52.0,"so2":0.5,"mosquito_risk":6,"arthritis_risk":5,"migraine_risk":3,"frizz_risk":1,"updated_at":"2026-06-12T17:57:09.732262+05:30"},{"city":"Kohima","state":"Nagaland","latitude":25.6701,"longitude":94.1077,"temp":21.0,"humidity":97,"rain":0.2,"pressure":854.0,"uv_index":3.55,"wind_gusts":18.0,"aqi":67,"pm10":13.6,"pm2_5":11.8,"no2":6.0,"co":258.0,"o3":70.0,"so2":0.7,"mosquito_risk":6,"arthritis_risk":5,"migraine_risk":3,"frizz_risk":1,"updated_at":"2026-06-12T17:57:09.732268+05:30"},{"city":"Gangtok","state":"Sikkim","latitude":27.3314,"longitude":88.6138,"temp":20.5,"humidity":82,"rain":0.0,"pressure":836.4,"uv_index":9.25,"wind_gusts":35.6,"aqi":88,"pm10":10.7,"pm2_5":7.5,"no2":5.5,"co":290.0,"o3":118.0,"so2":1.8,"mosquito_risk":3,"arthritis_risk":5,"migraine_risk":7,"frizz_risk":1,"updated_at":"2026-06-12T17:57:09.732273+05:30"},{"city":"Siliguri","state":"West Bengal","latitude":26.7271,"longitude":88.3953,"temp":28.7,"humidity":82,"rain":0.0,"pressure":989.2,"uv_index":8.7,"wind_gusts":28.8,"aqi":110,"pm10":45.3,"pm2_5":29.0,"no2":9.5,"co":526.0,"o3":111.0,"so2":2.7,"mosquito_risk":7,"arthritis_risk":5,"migraine_risk":7,"frizz_risk":1,"updated_at":"2026-06-12T17:57:13.006892+05:30"},{"city":"Durgapur","state":"West Bengal","latitude":23.5204,"longitude":87.3119,"temp":31.3,"humidity":68,"rain":0.0,"pressure":991.0,"uv_index":9.0,"wind_gusts":21.2,"aqi":186,"pm10":114.3,"pm2_5":91.5,"no2":23.3,"co":709.0,"o3":168.0,"so2":47.8,"mosquito_risk":3,"arthritis_risk":5,"migraine_risk":7,"frizz_risk":1,"updated_at":"2026-06-12T17:57:13.006924+05:30"},{"city":"Asansol","state":"West Bengal","latitude":23.6739,"longitude":86.9524,"temp":31.8,"humidity":62,"rain":0.0,"pressure":989.7,"uv_index":9.0,"wind_gusts":26.3,"aqi":179,"pm10":109.9,"pm2_5":89.9,"no2":23.1,"co":425.0,"o3":168.0,"so2":49.4,"mosquito_risk":3,"arthritis_risk":5,"migraine_risk":7,"frizz_risk":1,"updated_at":"2026-06-12T17:57:13.006934+05:30"},{"city":"Pondicherry","state":"Puducherry","latitude":11.9139,"longitude":79.8145,"temp":28.5,"humidity":82,"rain":0.1,"pressure":1007.0,"uv_index":8.2,"wind_gusts":41.4,"aqi":84,"pm10":25.1,"pm2_5":17.8,"no2":9.6,"co":323.0,"o3":105.0,"so2":7.4,"mosquito_risk":10,"arthritis_risk":5,"migraine_risk":4,"frizz_risk":1,"updated_at":"2026-06-12T17:57:13.006942+05:30"},{"city":"Port Blair","state":"Andaman and Nicobar Islands","latitude":11.6234,"longitude":92.7265,"temp":26.5,"humidity":90,"rain":0.0,"pressure":1009.0,"uv_index":8.0,"wind_gusts":41.8,"aqi":28,"pm10":6.3,"pm2_5":3.6,"no2":0.7,"co":100.0,"o3":45.0,"so2":0.3,"mosquito_risk":7,"arthritis_risk":0,"migraine_risk":4,"frizz_risk":1,"updated_at":"2026-06-12T17:57:13.006950+05:30"},{"city":"Haridwar","state":"Uttarakhand","latitude":29.9457,"longitude":78.1642,"temp":30.7,"humidity":54,"rain":0.0,"pressure":971.0,"uv_index":7.55,"wind_gusts":49.0,"aqi":131,"pm10":75.7,"pm2_5":30.4,"no2":2.1,"co":240.0,"o3":128.0,"so2":3.7,"mosquito_risk":0,"arthritis_risk":5,"migraine_risk":7,"frizz_risk":1,"updated_at":"2026-06-12T17:57:13.006957+05:30"},{"city":"Rishikesh","state":"Uttarakhand","latitude":30.0869,"longitude":78.2676,"temp":29.4,"humidity":56,"rain":0.0,"pressure":964.0,"uv_index":7.75,"wind_gusts":43.6,"aqi":101,"pm10":68.9,"pm2_5":27.0,"no2":1.4,"co":216.0,"o3":130.0,"so2":2.9,"mosquito_risk":4,"arthritis_risk":5,"migraine_risk":7,"frizz_risk":1,"updated_at":"2026-06-12T17:57:13.006964+05:30"},{"city":"Nainital","state":"Uttarakhand","latitude":29.3919,"longitude":79.4542,"temp":19.0,"humidity":73,"rain":0.0,"pressure":805.5,"uv_index":8.3,"wind_gusts":27.0,"aqi":85,"pm10":67.8,"pm2_5":23.2,"no2":1.4,"co":182.0,"o3":120.0,"so2":1.4,"mosquito_risk":3,"arthritis_risk":5,"migraine_risk":7,"frizz_risk":0,"updated_at":"2026-06-12T17:57:13.006971+05:30"},{"city":"Mussoorie","state":"Uttarakhand","latitude":30.4599,"longitude":78.0664,"temp":15.3,"humidity":94,"rain":0.2,"pressure":801.8,"uv_index":7.95,"wind_gusts":54.7,"aqi":116,"pm10":62.4,"pm2_5":25.1,"no2":3.1,"co":198.0,"o3":131.0,"so2":2.6,"mosquito_risk":6,"arthritis_risk":10,"migraine_risk":7,"frizz_risk":0,"updated_at":"2026-06-12T17:57:13.006977+05:30"},{"city":"Dharamshala","state":"Himachal Pradesh","latitude":32.219,"longitude":76.3234,"temp":22.2,"humidity":61,"rain":0.0,"pressure":867.6,"uv_index":8.5,"wind_gusts":41.8,"aqi":118,"pm10":26.5,"pm2_5":12.7,"no2":1.2,"co":231.0,"o3":150.0,"so2":1.5,"mosquito_risk":3,"arthritis_risk":5,"migraine_risk":7,"frizz_risk":0,"updated_at":"2026-06-12T17:57:13.006983+05:30"},{"city":"Dalhousie","state":"Himachal Pradesh","latitude":32.5387,"longitude":75.971,"temp":18.5,"humidity":71,"rain":0.0,"pressure":804.2,"uv_index":8.35,"wind_gusts":29.9,"aqi":140,"pm10":60.8,"pm2_5":27.9,"no2":3.3,"co":343.0,"o3":168.0,"so2":3.1,"mosquito_risk":3,"arthritis_risk":5,"migraine_risk":7,"frizz_risk":0,"updated_at":"2026-06-12T17:57:13.006990+05:30"},{"city":"Patiala","state":"Punjab","latitude":30.3398,"longitude":76.3869,"temp":30.7,"humidity":53,"rain":0.2,"pressure":975.5,"uv_index":7.7,"wind_gusts":61.6,"aqi":1625,"pm10":1356.0,"pm2_5":171.4,"no2":2.8,"co":223.0,"o3":130.0,"so2":5.7,"mosquito_risk":3,"arthritis_risk":5,"migraine_risk":7,"frizz_risk":1,"updated_at":"2026-06-12T17:57:13.006996+05:30"},{"city":"Bhatinda","state":"Punjab","latitude":30.211,"longitude":74.9455,"temp":31.3,"humidity":53,"rain":0.0,"pressure":979.2,"uv_index":8.3,"wind_gusts":55.4,"aqi":1283,"pm10":2078.7,"pm2_5":332.5,"no2":5.2,"co":227.0,"o3":139.0,"so2":10.6,"mosquito_risk":0,"arthritis_risk":5,"migraine_risk":7,"frizz_risk":1,"updated_at":"2026-06-12T17:57:13.007002+05:30"},{"city":"Rohtak","state":"Haryana","latitude":28.8955,"longitude":76.6066,"temp":32.2,"humidity":55,"rain":0.0,"pressure":977.1,"uv_index":7.25,"wind_gusts":49.3,"aqi":1235,"pm10":1054.3,"pm2_5":162.1,"no2":8.8,"co":316.0,"o3":172.0,"so2":16.3,"mosquito_risk":0,"arthritis_risk":5,"migraine_risk":7,"frizz_risk":1,"updated_at":"2026-06-12T17:57:13.007007+05:30"},{"city":"Panipat","state":"Haryana","latitude":29.3909,"longitude":76.9635,"temp":30.3,"humidity":62,"rain":0.0,"pressure":977.0,"uv_index":7.7,"wind_gusts":47.9,"aqi":1458,"pm10":1311.3,"pm2_5":163.0,"no2":7.0,"co":229.0,"o3":161.0,"so2":16.7,"mosquito_risk":3,"arthritis_risk":5,"migraine_risk":7,"frizz_risk":1,"updated_at":"2026-06-12T17:57:13.007013+05:30"},{"city":"Mathura","state":"Uttar Pradesh","latitude":27.4924,"longitude":77.6737,"temp":34.4,"humidity":51,"rain":0.0,"pressure":981.1,"uv_index":8.1,"wind_gusts":45.4,"aqi":1308,"pm10":495.5,"pm2_5":78.2,"no2":5.6,"co":265.0,"o3":162.0,"so2":6.8,"mosquito_risk":0,"arthritis_risk":5,"migraine_risk":7,"frizz_risk":1,"updated_at":"2026-06-12T17:57:13.007019+05:30"},{"city":"Vrindavan","state":"Uttar Pradesh","latitude":27.5823,"longitude":77.7027,"temp":34.4,"humidity":51,"rain":0.0,"pressure":981.7,"uv_index":8.05,"wind_gusts":46.4,"aqi":1308,"pm10":495.5,"pm2_5":78.2,"no2":5.6,"co":269.0,"o3":162.0,"so2":6.8,"mosquito_risk":0,"arthritis_risk":5,"migraine_risk":7,"frizz_risk":1,"updated_at":"2026-06-12T17:57:13.007024+05:30"},{"city":"Ayodhya","state":"Uttar Pradesh","latitude":26.7922,"longitude":82.1998,"temp":32.6,"humidity":56,"rain":0.0,"pressure":990.1,"uv_index":8.4,"wind_gusts":35.3,"aqi":163,"pm10":78.5,"pm2_5":33.8,"no2":3.4,"co":318.0,"o3":165.0,"so2":7.1,"mosquito_risk":0,"arthritis_risk":5,"migraine_risk":7,"frizz_risk":1,"updated_at":"2026-06-12T17:57:13.007030+05:30"},{"city":"Ratlam","state":"Madhya Pradesh","latitude":23.3315,"longitude":75.0367,"temp":35.9,"humidity":39,"rain":0.0,"pressure":949.5,"uv_index":8.55,"wind_gusts":50.0,"aqi":85,"pm10":83.8,"pm2_5":31.9,"no2":0.8,"co":121.0,"o3":112.0,"so2":5.0,"mosquito_risk":0,"arthritis_risk":5,"migraine_risk":10,"frizz_risk":1,"updated_at":"2026-06-12T17:57:13.007036+05:30"},{"city":"Sagar","state":"Madhya Pradesh","latitude":23.8388,"longitude":78.7378,"temp":29.4,"humidity":68,"rain":0.0,"pressure":945.6,"uv_index":8.75,"wind_gusts":46.1,"aqi":87,"pm10":65.2,"pm2_5":27.8,"no2":1.3,"co":136.0,"o3":110.0,"so2":3.2,"mosquito_risk":7,"arthritis_risk":5,"migraine_risk":7,"frizz_risk":1,"updated_at":"2026-06-12T17:57:13.007042+05:30"},{"city":"Satna","state":"Madhya Pradesh","latitude":24.6005,"longitude":80.8322,"temp":34.9,"humidity":45,"rain":0.0,"pressure":965.8,"uv_index":8.8,"wind_gusts":50.8,"aqi":103,"pm10":66.6,"pm2_5":34.3,"no2":2.0,"co":186.0,"o3":114.0,"so2":3.2,"mosquito_risk":0,"arthritis_risk":5,"migraine_risk":7,"frizz_risk":1,"updated_at":"2026-06-12T17:57:13.007048+05:30"},{"city":"Akola","state":"Maharashtra","latitude":20.7002,"longitude":77.0082,"temp":40.4,"humidity":22,"rain":0.0,"pressure":968.7,"uv_index":8.8,"wind_gusts":40.7,"aqi":77,"pm10":73.1,"pm2_5":29.7,"no2":2.5,"co":126.0,"o3":122.0,"so2":7.1,"mosquito_risk":0,"arthritis_risk":5,"migraine_risk":10,"frizz_risk":0,"updated_at":"2026-06-12T17:57:13.007055+05:30"},{"city":"Amravati","state":"Maharashtra","latitude":20.9374,"longitude":77.7796,"temp":39.1,"humidity":27,"rain":0.0,"pressure":961.6,"uv_index":8.85,"wind_gusts":41.8,"aqi":80,"pm10":67.1,"pm2_5":28.7,"no2":2.8,"co":137.0,"o3":124.0,"so2":7.6,"mosquito_risk":0,"arthritis_risk":5,"migraine_risk":10,"frizz_risk":1,"updated_at":"2026-06-12T17:57:13.007061+05:30"},{"city":"Latur","state":"Maharashtra","latitude":18.4088,"longitude":76.5604,"temp":34.7,"humidity":33,"rain":0.0,"pressure":936.4,"uv_index":8.9,"wind_gusts":34.6,"aqi":70,"pm10":55.4,"pm2_5":21.2,"no2":1.5,"co":135.0,"o3":109.0,"so2":1.7,"mosquito_risk":0,"arthritis_risk":5,"migraine_risk":7,"frizz_risk":1,"updated_at":"2026-06-12T17:57:13.007067+05:30"},{"city":"Nanded","state":"Maharashtra","latitude":19.1383,"longitude":77.3091,"temp":37.8,"humidity":30,"rain":0.0,"pressure":963.9,"uv_index":8.85,"wind_gusts":38.5,"aqi":89,"pm10":71.9,"pm2_5":27.7,"no2":2.0,"co":141.0,"o3":110.0,"so2":3.1,"mosquito_risk":0,"arthritis_risk":5,"migraine_risk":10,"frizz_risk":1,"updated_at":"2026-06-12T17:57:13.007074+05:30"},{"city":"Gulbarga","state":"Karnataka","latitude":17.3297,"longitude":76.8343,"temp":35.2,"humidity":38,"rain":0.0,"pressure":955.1,"uv_index":8.5,"wind_gusts":39.6,"aqi":65,"pm10":43.2,"pm2_5":19.3,"no2":2.7,"co":153.0,"o3":116.0,"so2":2.3,"mosquito_risk":0,"arthritis_risk":5,"migraine_risk":10,"frizz_risk":1,"updated_at":"2026-06-12T17:57:13.007079+05:30"},{"city":"Bidar","state":"Karnataka","latitude":17.9104,"longitude":77.5199,"temp":33.4,"humidity":44,"rain":0.0,"pressure":932.5,"uv_index":9.0,"wind_gusts":39.2,"aqi":71,"pm10":45.2,"pm2_5":21.1,"no2":3.0,"co":155.0,"o3":114.0,"so2":1.8,"mosquito_risk":0,"arthritis_risk":5,"migraine_risk":7,"frizz_risk":1,"updated_at":"2026-06-12T17:57:13.007085+05:30"},{"city":"Hospet","state":"Karnataka","latitude":15.2689,"longitude":76.3909,"temp":32.6,"humidity":47,"rain":0.0,"pressure":953.0,"uv_index":8.9,"wind_gusts":55.1,"aqi":45,"pm10":22.6,"pm2_5":11.7,"no2":3.2,"co":143.0,"o3":100.0,"so2":1.9,"mosquito_risk":0,"arthritis_risk":5,"migraine_risk":7,"frizz_risk":1,"updated_at":"2026-06-12T17:57:13.007091+05:30"},{"city":"Tirupur","state":"Tamil Nadu","latitude":11.1085,"longitude":77.3411,"temp":28.3,"humidity":63,"rain":0.0,"pressure":974.8,"uv_index":8.6,"wind_gusts":50.0,"aqi":53,"pm10":17.1,"pm2_5":11.6,"no2":12.3,"co":171.0,"o3":65.0,"so2":4.3,"mosquito_risk":7,"arthritis_risk":5,"migraine_risk":7,"frizz_risk":1,"updated_at":"2026-06-12T17:57:13.007097+05:30"},{"city":"Alappuzha","state":"Kerala","latitude":9.4981,"longitude":76.3388,"temp":26.2,"humidity":90,"rain":0.2,"pressure":1010.7,"uv_index":4.15,"wind_gusts":31.0,"aqi":33,"pm10":6.8,"pm2_5":5.3,"no2":7.7,"co":95.0,"o3":54.0,"so2":1.6,"mosquito_risk":10,"arthritis_risk":0,"migraine_risk":0,"frizz_risk":1,"updated_at":"2026-06-12T17:57:13.007102+05:30"},{"city":"Munnar","state":"Kerala","latitude":10.0889,"longitude":77.0595,"temp":17.4,"humidity":93,"rain":0.1,"pressure":857.4,"uv_index":7.25,"wind_gusts":42.1,"aqi":30,"pm10":8.6,"pm2_5":5.4,"no2":4.7,"co":125.0,"o3":64.0,"so2":1.3,"mosquito_risk":6,"arthritis_risk":10,"migraine_risk":7,"frizz_risk":1,"updated_at":"2026-06-12T17:57:13.007108+05:30"},{"city":"Silchar","state":"Assam","latitude":24.8333,"longitude":92.7789,"temp":29.1,"humidity":81,"rain":0.0,"pressure":1001.7,"uv_index":8.8,"wind_gusts":20.9,"aqi":144,"pm10":41.6,"pm2_5":34.0,"no2":6.8,"co":285.0,"o3":109.0,"so2":3.9,"mosquito_risk":7,"arthritis_risk":5,"migraine_risk":4,"frizz_risk":1,"updated_at":"2026-06-12T17:57:13.007115+05:30"},{"city":"Dibrugarh","state":"Assam","latitude":27.4728,"longitude":94.912,"temp":28.7,"humidity":76,"rain":0.0,"pressure":991.7,"uv_index":8.25,"wind_gusts":25.6,"aqi":94,"pm10":13.1,"pm2_5":11.9,"no2":6.2,"co":274.0,"o3":83.0,"so2":1.5,"mosquito_risk":7,"arthritis_risk":5,"migraine_risk":7,"frizz_risk":1,"updated_at":"2026-06-12T17:57:13.007120+05:30"}]