[{"city":"Delhi","state":"Delhi","latitude":28.6139,"longitude":77.209,"temp":26.4,"humidity":43,"rain":0.0,"pressure":979.4,"uv_index":7.4,"wind_gusts":30.6,"aqi":341,"pm10":497.3,"pm2_5":92.9,"mosquito_risk":4,"arthritis_risk":5,"migraine_risk":7,"frizz_risk":0,"updated_at":"2026-04-23T03:28:52.157426+05:30"},{"city":"Mumbai","state":"Maharashtra","latitude":19.076,"longitude":72.8777,"temp":29.2,"humidity":73,"rain":0.0,"pressure":1005.8,"uv_index":8.05,"wind_gusts":24.5,"aqi":83,"pm10":33.4,"pm2_5":21.2,"mosquito_risk":7,"arthritis_risk":5,"migraine_risk":4,"frizz_risk":1,"updated_at":"2026-04-23T03:28:52.157465+05:30"},{"city":"Bangalore","state":"Karnataka","latitude":12.9716,"longitude":77.5946,"temp":23.7,"humidity":69,"rain":0.0,"pressure":909.4,"uv_index":9.35,"wind_gusts":27.0,"aqi":71,"pm10":22.3,"pm2_5":20.7,"mosquito_risk":3,"arthritis_risk":5,"migraine_risk":7,"frizz_risk":1,"updated_at":"2026-04-23T03:28:52.157481+05:30"},{"city":"Hyderabad","state":"Telangana","latitude":17.385,"longitude":78.4867,"temp":27.0,"humidity":65,"rain":0.0,"pressure":950.7,"uv_index":7.5,"wind_gusts":30.2,"aqi":120,"pm10":42.8,"pm2_5":38.4,"mosquito_risk":7,"arthritis_risk":5,"migraine_risk":7,"frizz_risk":1,"updated_at":"2026-04-23T03:28:52.157491+05:30"},{"city":"Chennai","state":"Tamil Nadu","latitude":13.0827,"longitude":80.2707,"temp":28.1,"humidity":85,"rain":0.0,"pressure":1004.7,"uv_index":9.1,"wind_gusts":34.9,"aqi":30,"pm10":9.3,"pm2_5":6.5,"mosquito_risk":7,"arthritis_risk":5,"migraine_risk":4,"frizz_risk":1,"updated_at":"2026-04-23T03:28:52.157499+05:30"},{"city":"Kolkata","state":"West Bengal","latitude":22.5726,"longitude":88.3639,"temp":27.3,"humidity":93,"rain":0.0,"pressure":1002.8,"uv_index":8.55,"wind_gusts":26.6,"aqi":96,"pm10":32.2,"pm2_5":26.8,"mosquito_risk":7,"arthritis_risk":5,"migraine_risk":4,"frizz_risk":1,"updated_at":"2026-04-23T03:28:52.157512+05:30"},{"city":"Pune","state":"Maharashtra","latitude":18.5204,"longitude":73.8567,"temp":24.9,"humidity":82,"rain":0.0,"pressure":946.2,"uv_index":8.65,"wind_gusts":31.7,"aqi":123,"pm10":44.0,"pm2_5":37.1,"mosquito_risk":3,"arthritis_risk":5,"migraine_risk":7,"frizz_risk":1,"updated_at":"2026-04-23T03:28:52.157520+05:30"},{"city":"Ahmedabad","state":"Gujarat","latitude":23.0225,"longitude":72.5714,"temp":25.6,"humidity":42,"rain":0.0,"pressure":1000.5,"uv_index":8.2,"wind_gusts":24.8,"aqi":43,"pm10":14.8,"pm2_5":8.6,"mosquito_risk":4,"arthritis_risk":5,"migraine_risk":4,"frizz_risk":0,"updated_at":"2026-04-23T03:28:52.157528+05:30"},{"city":"Jaipur","state":"Rajasthan","latitude":26.9124,"longitude":75.7873,"temp":26.6,"humidity":22,"rain":0.0,"pressure":957.7,"uv_index":8.05,"wind_gusts":29.2,"aqi":139,"pm10":307.3,"pm2_5":42.3,"mosquito_risk":4,"arthritis_risk":5,"migraine_risk":7,"frizz_risk":0,"updated_at":"2026-04-23T03:28:52.157535+05:30"},{"city":"Lucknow","state":"Uttar Pradesh","latitude":26.8467,"longitude":80.9462,"temp":26.7,"humidity":52,"rain":0.0,"pressure":989.3,"uv_index":7.85,"wind_gusts":34.2,"aqi":221,"pm10":404.2,"pm2_5":82.4,"mosquito_risk":4,"arthritis_risk":5,"migraine_risk":7,"frizz_risk":0,"updated_at":"2026-04-23T03:28:52.157543+05:30"},{"city":"Kanpur","state":"Uttar Pradesh","latitude":26.4499,"longitude":80.3319,"temp":25.2,"humidity":57,"rain":0.0,"pressure":988.0,"uv_index":7.85,"wind_gusts":31.0,"aqi":393,"pm10":409.8,"pm2_5":76.1,"mosquito_risk":4,"arthritis_risk":5,"migraine_risk":7,"frizz_risk":1,"updated_at":"2026-04-23T03:28:52.157550+05:30"},{"city":"Chandigarh","state":"Chandigarh","latitude":30.7333,"longitude":76.7794,"temp":23.0,"humidity":52,"rain":0.0,"pressure":964.2,"uv_index":7.4,"wind_gusts":29.2,"aqi":59,"pm10":23.1,"pm2_5":19.4,"mosquito_risk":0,"arthritis_risk":5,"migraine_risk":7,"frizz_risk":0,"updated_at":"2026-04-23T03:28:52.157557+05:30"},{"city":"Srinagar","state":"Jammu and Kashmir","latitude":34.0837,"longitude":74.7973,"temp":13.0,"humidity":78,"rain":0.0,"pressure":840.0,"uv_index":8.6,"wind_gusts":26.6,"aqi":71,"pm10":39.3,"pm2_5":30.3,"mosquito_risk":3,"arthritis_risk":5,"migraine_risk":7,"frizz_risk":0,"updated_at":"2026-04-23T03:28:52.157564+05:30"},{"city":"Jammu","state":"Jammu and Kashmir","latitude":32.7266,"longitude":74.857,"temp":23.3,"humidity":62,"rain":0.0,"pressure":968.9,"uv_index":8.2,"wind_gusts":28.1,"aqi":71,"pm10":22.4,"pm2_5":19.7,"mosquito_risk":3,"arthritis_risk":5,"migraine_risk":7,"frizz_risk":0,"updated_at":"2026-04-23T03:28:52.157571+05:30"},{"city":"Amritsar","state":"Punjab","latitude":31.634,"longitude":74.8723,"temp":25.1,"humidity":62,"rain":0.0,"pressure":976.8,"uv_index":8.1,"wind_gusts":34.2,"aqi":97,"pm10":64.0,"pm2_5":52.9,"mosquito_risk":7,"arthritis_risk":5,"migraine_risk":7,"frizz_risk":1,"updated_at":"2026-04-23T03:28:52.157578+05:30"},{"city":"Ludhiana","state":"Punjab","latitude":30.901,"longitude":75.8573,"temp":25.9,"humidity":51,"rain":0.0,"pressure":974.9,"uv_index":7.7,"wind_gusts":24.8,"aqi":80,"pm10":39.0,"pm2_5":35.3,"mosquito_risk":4,"arthritis_risk":5,"migraine_risk":7,"frizz_risk":0,"updated_at":"2026-04-23T03:28:52.157587+05:30"},{"city":"Jalandhar","state":"Punjab","latitude":31.326,"longitude":75.5762,"temp":25.3,"humidity":50,"rain":0.0,"pressure":975.8,"uv_index":7.85,"wind_gusts":27.4,"aqi":86,"pm10":47.8,"pm2_5":41.2,"mosquito_risk":4,"arthritis_risk":5,"migraine_risk":7,"frizz_risk":0,"updated_at":"2026-04-23T03:28:52.157593+05:30"},{"city":"Dehradun","state":"Uttarakhand","latitude":30.6284,"longitude":78.0322,"temp":18.1,"humidity":54,"rain":0.0,"pressure":828.9,"uv_index":7.85,"wind_gusts":42.5,"aqi":47,"pm10":16.4,"pm2_5":13.1,"mosquito_risk":0,"arthritis_risk":5,"migraine_risk":7,"frizz_risk":0,"updated_at":"2026-04-23T03:28:52.157600+05:30"},{"city":"Shimla","state":"Himachal Pradesh","latitude":31.1048,"longitude":77.1734,"temp":15.3,"humidity":46,"rain":0.0,"pressure":782.9,"uv_index":7.9,"wind_gusts":53.6,"aqi":62,"pm10":28.6,"pm2_5":17.9,"mosquito_risk":0,"arthritis_risk":5,"migraine_risk":7,"frizz_risk":0,"updated_at":"2026-04-23T03:28:52.157607+05:30"},{"city":"Manali","state":"Himachal Pradesh","latitude":32.2396,"longitude":77.1887,"temp":19.0,"humidity":41,"rain":0.0,"pressure":820.7,"uv_index":9.3,"wind_gusts":31.7,"aqi":60,"pm10":37.3,"pm2_5":25.4,"mosquito_risk":0,"arthritis_risk":5,"migraine_risk":7,"frizz_risk":0,"updated_at":"2026-04-23T03:28:52.157614+05:30"},{"city":"Gurgaon","state":"Haryana","latitude":28.4595,"longitude":77.0266,"temp":24.5,"humidity":50,"rain":0.0,"pressure":977.6,"uv_index":7.5,"wind_gusts":26.3,"aqi":910,"pm10":1616.8,"pm2_5":197.0,"mosquito_risk":0,"arthritis_risk":5,"migraine_risk":7,"frizz_risk":0,"updated_at":"2026-04-23T03:28:52.157620+05:30"},{"city":"Noida","state":"Uttar Pradesh","latitude":28.5355,"longitude":77.391,"temp":26.6,"humidity":42,"rain":0.0,"pressure":980.8,"uv_index":7.4,"wind_gusts":31.3,"aqi":910,"pm10":1616.8,"pm2_5":197.0,"mosquito_risk":4,"arthritis_risk":5,"migraine_risk":7,"frizz_risk":0,"updated_at":"2026-04-23T03:28:52.157626+05:30"},{"city":"Ghaziabad","state":"Uttar Pradesh","latitude":28.6692,"longitude":77.4538,"temp":25.1,"humidity":46,"rain":0.0,"pressure":978.8,"uv_index":7.4,"wind_gusts":29.9,"aqi":278,"pm10":453.6,"pm2_5":84.1,"mosquito_risk":4,"arthritis_risk":5,"migraine_risk":7,"frizz_risk":0,"updated_at":"2026-04-23T03:28:52.157633+05:30"},{"city":"Faridabad","state":"Haryana","latitude":28.4089,"longitude":77.3178,"temp":28.6,"humidity":31,"rain":0.0,"pressure":980.0,"uv_index":7.45,"wind_gusts":32.0,"aqi":910,"pm10":1616.8,"pm2_5":197.0,"mosquito_risk":4,"arthritis_risk":5,"migraine_risk":7,"frizz_risk":0,"updated_at":"2026-04-23T03:28:52.157642+05:30"},{"city":"Meerut","state":"Uttar Pradesh","latitude":28.9845,"longitude":77.7064,"temp":24.4,"humidity":50,"rain":0.0,"pressure":977.0,"uv_index":7.3,"wind_gusts":29.5,"aqi":278,"pm10":453.6,"pm2_5":84.1,"mosquito_risk":0,"arthritis_risk":5,"migraine_risk":7,"frizz_risk":0,"updated_at":"2026-04-23T03:28:52.157648+05:30"},{"city":"Agra","state":"Uttar Pradesh","latitude":27.1767,"longitude":78.0081,"temp":24.3,"humidity":54,"rain":0.0,"pressure":983.9,"uv_index":7.75,"wind_gusts":29.5,"aqi":634,"pm10":815.8,"pm2_5":85.7,"mosquito_risk":0,"arthritis_risk":5,"migraine_risk":7,"frizz_risk":0,"updated_at":"2026-04-23T03:28:52.157657+05:30"},{"city":"Varanasi","state":"Uttar Pradesh","latitude":25.3176,"longitude":82.9739,"temp":26.4,"humidity":41,"rain":0.0,"pressure":993.8,"uv_index":8.5,"wind_gusts":34.9,"aqi":113,"pm10":149.9,"pm2_5":50.1,"mosquito_risk":4,"arthritis_risk":5,"migraine_risk":7,"frizz_risk":0,"updated_at":"2026-04-23T03:28:52.157665+05:30"},{"city":"Prayagraj","state":"Uttar Pradesh","latitude":25.4358,"longitude":81.8463,"temp":27.7,"humidity":42,"rain":0.0,"pressure":992.5,"uv_index":8.35,"wind_gusts":32.4,"aqi":124,"pm10":202.1,"pm2_5":56.5,"mosquito_risk":4,"arthritis_risk":5,"migraine_risk":7,"frizz_risk":0,"updated_at":"2026-04-23T03:28:52.157672+05:30"},{"city":"Gorakhpur","state":"Uttar Pradesh","latitude":26.7606,"longitude":83.3732,"temp":26.4,"humidity":41,"rain":0.0,"pressure":992.9,"uv_index":8.25,"wind_gusts":26.6,"aqi":115,"pm10":173.7,"pm2_5":45.4,"mosquito_risk":4,"arthritis_risk":5,"migraine_risk":7,"frizz_risk":0,"updated_at":"2026-04-23T03:28:52.157679+05:30"},{"city":"Bareilly","state":"Uttar Pradesh","latitude":28.367,"longitude":79.4304,"temp":24.0,"humidity":56,"rain":0.0,"pressure":982.5,"uv_index":7.65,"wind_gusts":27.7,"aqi":99,"pm10":217.9,"pm2_5":50.1,"mosquito_risk":0,"arthritis_risk":5,"migraine_risk":7,"frizz_risk":0,"updated_at":"2026-04-23T03:28:52.157686+05:30"},{"city":"Aligarh","state":"Uttar Pradesh","latitude":27.8974,"longitude":78.088,"temp":24.7,"humidity":44,"rain":0.0,"pressure":981.3,"uv_index":7.55,"wind_gusts":32.0,"aqi":614,"pm10":629.6,"pm2_5":112.0,"mosquito_risk":0,"arthritis_risk":5,"migraine_risk":7,"frizz_risk":0,"updated_at":"2026-04-23T03:28:52.157692+05:30"},{"city":"Moradabad","state":"Uttar Pradesh","latitude":28.8386,"longitude":78.7733,"temp":24.8,"humidity":52,"rain":0.0,"pressure":979.2,"uv_index":7.5,"wind_gusts":28.8,"aqi":118,"pm10":286.8,"pm2_5":68.0,"mosquito_risk":0,"arthritis_risk":5,"migraine_risk":7,"frizz_risk":0,"updated_at":"2026-04-23T03:28:52.157698+05:30"},{"city":"Saharanpur","state":"Uttar Pradesh","latitude":29.9637,"longitude":77.546,"temp":24.1,"humidity":51,"rain":0.0,"pressure":971.3,"uv_index":7.1,"wind_gusts":33.5,"aqi":97,"pm10":96.4,"pm2_5":41.2,"mosquito_risk":0,"arthritis_risk":5,"migraine_risk":7,"frizz_risk":0,"updated_at":"2026-04-23T03:28:52.157704+05:30"},{"city":"Jhansi","state":"Uttar Pradesh","latitude":25.4484,"longitude":78.5685,"temp":27.2,"humidity":30,"rain":0.0,"pressure":975.0,"uv_index":8.25,"wind_gusts":31.3,"aqi":50,"pm10":10.2,"pm2_5":6.9,"mosquito_risk":4,"arthritis_risk":5,"migraine_risk":7,"frizz_risk":0,"updated_at":"2026-04-23T03:28:55.432857+05:30"},{"city":"Surat","state":"Gujarat","latitude":21.1702,"longitude":72.8311,"temp":25.9,"humidity":92,"rain":0.0,"pressure":1004.5,"uv_index":7.9,"wind_gusts":20.5,"aqi":103,"pm10":33.8,"pm2_5":28.9,"mosquito_risk":7,"arthritis_risk":5,"migraine_risk":4,"frizz_risk":1,"updated_at":"2026-04-23T03:28:55.432884+05:30"},{"city":"Vadodara","state":"Gujarat","latitude":22.3072,"longitude":73.1812,"temp":27.3,"humidity":69,"rain":0.0,"pressure":1002.5,"uv_index":8.2,"wind_gusts":23.0,"aqi":86,"pm10":35.9,"pm2_5":32.2,"mosquito_risk":7,"arthritis_risk":5,"migraine_risk":4,"frizz_risk":1,"updated_at":"2026-04-23T03:28:55.432894+05:30"},{"city":"Rajkot","state":"Gujarat","latitude":22.3039,"longitude":70.8022,"temp":24.1,"humidity":87,"rain":0.0,"pressure":993.0,"uv_index":7.9,"wind_gusts":29.9,"aqi":54,"pm10":24.0,"pm2_5":12.3,"mosquito_risk":3,"arthritis_risk":5,"migraine_risk":7,"frizz_risk":1,"updated_at":"2026-04-23T03:28:55.432902+05:30"},{"city":"Thane","state":"Maharashtra","latitude":19.2183,"longitude":72.9781,"temp":27.1,"humidity":77,"rain":0.0,"pressure":1005.4,"uv_index":8.05,"wind_gusts":38.9,"aqi":83,"pm10":33.4,"pm2_5":21.2,"mosquito_risk":7,"arthritis_risk":5,"migraine_risk":4,"frizz_risk":1,"updated_at":"2026-04-23T03:28:55.432909+05:30"},{"city":"Nagpur","state":"Maharashtra","latitude":21.1458,"longitude":79.0882,"temp":28.6,"humidity":47,"rain":0.0,"pressure":970.4,"uv_index":8.95,"wind_gusts":24.8,"aqi":78,"pm10":34.2,"pm2_5":30.2,"mosquito_risk":4,"arthritis_risk":5,"migraine_risk":7,"frizz_risk":1,"updated_at":"2026-04-23T03:28:55.432916+05:30"},{"city":"Nashik","state":"Maharashtra","latitude":19.9975,"longitude":73.7898,"temp":24.7,"humidity":50,"rain":0.0,"pressure":943.8,"uv_index":8.35,"wind_gusts":28.1,"aqi":90,"pm10":42.7,"pm2_5":33.2,"mosquito_risk":0,"arthritis_risk":5,"migraine_risk":7,"frizz_risk":0,"updated_at":"2026-04-23T03:28:55.432923+05:30"},{"city":"Aurangabad","state":"Maharashtra","latitude":19.8762,"longitude":75.3433,"temp":28.5,"humidity":37,"rain":0.0,"pressure":942.4,"uv_index":9.05,"wind_gusts":29.9,"aqi":88,"pm10":32.2,"pm2_5":26.4,"mosquito_risk":4,"arthritis_risk":5,"migraine_risk":7,"frizz_risk":0,"updated_at":"2026-04-23T03:28:55.432930+05:30"},{"city":"Solapur","state":"Maharashtra","latitude":17.6599,"longitude":75.9064,"temp":27.4,"humidity":64,"rain":0.0,"pressure":954.7,"uv_index":9.1,"wind_gusts":32.4,"aqi":115,"pm10":58.4,"pm2_5":52.3,"mosquito_risk":7,"arthritis_risk":5,"migraine_risk":7,"frizz_risk":1,"updated_at":"2026-04-23T03:28:55.432937+05:30"},{"city":"Kolhapur","state":"Maharashtra","latitude":16.705,"longitude":74.2433,"temp":23.4,"humidity":94,"rain":0.0,"pressure":945.2,"uv_index":8.8,"wind_gusts":43.9,"aqi":115,"pm10":61.5,"pm2_5":58.0,"mosquito_risk":3,"arthritis_risk":5,"migraine_risk":7,"frizz_risk":1,"updated_at":"2026-04-23T03:28:55.432943+05:30"},{"city":"Goa","state":"Goa","latitude":15.2993,"longitude":74.124,"temp":27.8,"humidity":88,"rain":0.0,"pressure":994.1,"uv_index":9.05,"wind_gusts":32.0,"aqi":84,"pm10":50.1,"pm2_5":37.5,"mosquito_risk":7,"arthritis_risk":5,"migraine_risk":7,"frizz_risk":1,"updated_at":"2026-04-23T03:28:55.432950+05:30"},{"city":"Jodhpur","state":"Rajasthan","latitude":26.2389,"longitude":73.0243,"temp":26.3,"humidity":42,"rain":0.0,"pressure":980.6,"uv_index":8.1,"wind_gusts":24.1,"aqi":90,"pm10":89.2,"pm2_5":16.1,"mosquito_risk":4,"arthritis_risk":5,"migraine_risk":7,"frizz_risk":0,"updated_at":"2026-04-23T03:28:55.432957+05:30"},{"city":"Udaipur","state":"Rajasthan","latitude":24.5854,"longitude":73.7125,"temp":24.3,"humidity":44,"rain":0.0,"pressure":945.2,"uv_index":8.8,"wind_gusts":28.1,"aqi":45,"pm10":17.2,"pm2_5":9.9,"mosquito_risk":0,"arthritis_risk":5,"migraine_risk":7,"frizz_risk":0,"updated_at":"2026-04-23T03:28:55.432964+05:30"},{"city":"Kota","state":"Rajasthan","latitude":25.2138,"longitude":75.8648,"temp":26.1,"humidity":35,"rain":0.0,"pressure":977.3,"uv_index":8.3,"wind_gusts":30.6,"aqi":45,"pm10":17.2,"pm2_5":15.5,"mosquito_risk":4,"arthritis_risk":5,"migraine_risk":7,"frizz_risk":0,"updated_at":"2026-04-23T03:28:55.432970+05:30"},{"city":"Bikaner","state":"Rajasthan","latitude":28.0229,"longitude":73.3119,"temp":29.9,"humidity":28,"rain":0.0,"pressure":978.5,"uv_index":8.0,"wind_gusts":24.5,"aqi":76,"pm10":77.5,"pm2_5":15.9,"mosquito_risk":4,"arthritis_risk":5,"migraine_risk":7,"frizz_risk":0,"updated_at":"2026-04-23T03:28:55.432976+05:30"},{"city":"Ajmer","state":"Rajasthan","latitude":26.4499,"longitude":74.6399,"temp":23.1,"humidity":35,"rain":0.0,"pressure":952.6,"uv_index":8.0,"wind_gusts":31.7,"aqi":45,"pm10":9.0,"pm2_5":6.8,"mosquito_risk":0,"arthritis_risk":5,"migraine_risk":7,"frizz_risk":0,"updated_at":"2026-04-23T03:28:55.432982+05:30"},{"city":"Gwalior","state":"Madhya Pradesh","latitude":26.2183,"longitude":78.1828,"temp":28.5,"humidity":26,"rain":0.0,"pressure":980.2,"uv_index":8.0,"wind_gusts":39.2,"aqi":56,"pm10":9.1,"pm2_5":6.9,"mosquito_risk":4,"arthritis_risk":5,"migraine_risk":7,"frizz_risk":0,"updated_at":"2026-04-23T03:28:55.432988+05:30"},{"city":"Indore","state":"Madhya Pradesh","latitude":22.7196,"longitude":75.8577,"temp":25.1,"humidity":45,"rain":0.0,"pressure":946.5,"uv_index":8.65,"wind_gusts":35.3,"aqi":59,"pm10":22.4,"pm2_5":20.4,"mosquito_risk":4,"arthritis_risk":5,"migraine_risk":7,"frizz_risk":0,"updated_at":"2026-04-23T03:28:55.432994+05:30"},{"city":"Bhopal","state":"Madhya Pradesh","latitude":23.2599,"longitude":77.4126,"temp":25.2,"humidity":41,"rain":0.0,"pressure":952.2,"uv_index":8.65,"wind_gusts":29.9,"aqi":56,"pm10":20.0,"pm2_5":18.6,"mosquito_risk":4,"arthritis_risk":5,"migraine_risk":7,"frizz_risk":0,"updated_at":"2026-04-23T03:28:55.433001+05:30"},{"city":"Jabalpur","state":"Madhya Pradesh","latitude":23.1815,"longitude":79.9864,"temp":26.6,"humidity":44,"rain":0.0,"pressure":959.0,"uv_index":8.8,"wind_gusts":22.7,"aqi":58,"pm10":21.4,"pm2_5":19.1,"mosquito_risk":4,"arthritis_risk":5,"migraine_risk":7,"frizz_risk":0,"updated_at":"2026-04-23T03:28:55.433007+05:30"},{"city":"Ujjain","state":"Madhya Pradesh","latitude":23.1765,"longitude":75.7885,"temp":25.8,"humidity":41,"rain":0.0,"pressure":952.4,"uv_index":8.6,"wind_gusts":34.6,"aqi":61,"pm10":21.6,"pm2_5":19.5,"mosquito_risk":4,"arthritis_risk":5,"migraine_risk":7,"frizz_risk":0,"updated_at":"2026-04-23T03:28:55.433014+05:30"},{"city":"Visakhapatnam","state":"Andhra Pradesh","latitude":17.6868,"longitude":83.2185,"temp":27.0,"humidity":88,"rain":0.0,"pressure":1000.4,"uv_index":9.2,"wind_gusts":36.7,"aqi":62,"pm10":20.5,"pm2_5":17.9,"mosquito_risk":7,"arthritis_risk":5,"migraine_risk":4,"frizz_risk":1,"updated_at":"2026-04-23T03:28:55.433021+05:30"},{"city":"Vijayawada","state":"Andhra Pradesh","latitude":16.5062,"longitude":80.648,"temp":26.8,"humidity":91,"rain":0.0,"pressure":1000.0,"uv_index":8.8,"wind_gusts":26.3,"aqi":57,"pm10":13.0,"pm2_5":10.7,"mosquito_risk":7,"arthritis_risk":5,"migraine_risk":4,"frizz_risk":1,"updated_at":"2026-04-23T03:28:55.433027+05:30"},{"city":"Guntur","state":"Andhra Pradesh","latitude":16.3067,"longitude":80.4365,"temp":26.7,"humidity":93,"rain":0.0,"pressure":1001.2,"uv_index":9.0,"wind_gusts":29.9,"aqi":59,"pm10":12.3,"pm2_5":10.0,"mosquito_risk":7,"arthritis_risk":5,"migraine_risk":4,"frizz_risk":1,"updated_at":"2026-04-23T03:28:55.433033+05:30"},{"city":"Nellore","state":"Andhra Pradesh","latitude":14.4426,"longitude":79.9865,"temp":26.3,"humidity":93,"rain":0.0,"pressure":1002.9,"uv_index":9.2,"wind_gusts":34.6,"aqi":45,"pm10":9.1,"pm2_5":7.6,"mosquito_risk":7,"arthritis_risk":5,"migraine_risk":4,"frizz_risk":1,"updated_at":"2026-04-23T03:28:55.433040+05:30"},{"city":"Kurnool","state":"Andhra Pradesh","latitude":15.8281,"longitude":78.0373,"temp":29.8,"humidity":58,"rain":0.0,"pressure":973.8,"uv_index":8.95,"wind_gusts":36.0,"aqi":108,"pm10":24.4,"pm2_5":22.3,"mosquito_risk":4,"arthritis_risk":5,"migraine_risk":7,"frizz_risk":1,"updated_at":"2026-04-23T03:28:55.433046+05:30"},{"city":"Kakinada","state":"Andhra Pradesh","latitude":16.9891,"longitude":82.2475,"temp":26.8,"humidity":93,"rain":0.0,"pressure":1004.7,"uv_index":9.25,"wind_gusts":31.3,"aqi":41,"pm10":14.1,"pm2_5":10.2,"mosquito_risk":7,"arthritis_risk":5,"migraine_risk":4,"frizz_risk":1,"updated_at":"2026-04-23T03:28:55.433053+05:30"},{"city":"Tirupati","state":"Andhra Pradesh","latitude":13.6288,"longitude":79.4192,"temp":25.4,"humidity":83,"rain":0.0,"pressure":989.5,"uv_index":8.95,"wind_gusts":33.1,"aqi":64,"pm10":22.4,"pm2_5":20.8,"mosquito_risk":7,"arthritis_risk":5,"migraine_risk":7,"frizz_risk":1,"updated_at":"2026-04-23T03:28:55.433058+05:30"},{"city":"Warangal","state":"Telangana","latitude":17.9689,"longitude":79.5941,"temp":29.0,"humidity":66,"rain":0.0,"pressure":975.5,"uv_index":8.7,"wind_gusts":17.3,"aqi":107,"pm10":35.3,"pm2_5":33.5,"mosquito_risk":7,"arthritis_risk":5,"migraine_risk":7,"frizz_risk":1,"updated_at":"2026-04-23T03:28:55.433064+05:30"},{"city":"Nizamabad","state":"Telangana","latitude":18.6725,"longitude":78.0941,"temp":28.3,"humidity":58,"rain":0.0,"pressure":962.3,"uv_index":7.4,"wind_gusts":34.2,"aqi":120,"pm10":58.2,"pm2_5":53.7,"mosquito_risk":4,"arthritis_risk":5,"migraine_risk":7,"frizz_risk":1,"updated_at":"2026-04-23T03:28:55.433070+05:30"},{"city":"Mysore","state":"Karnataka","latitude":12.2958,"longitude":76.6396,"temp":23.7,"humidity":91,"rain":0.0,"pressure":926.1,"uv_index":8.9,"wind_gusts":40.0,"aqi":74,"pm10":29.2,"pm2_5":27.6,"mosquito_risk":3,"arthritis_risk":5,"migraine_risk":7,"frizz_risk":1,"updated_at":"2026-04-23T03:28:55.433076+05:30"},{"city":"Mangalore","state":"Karnataka","latitude":12.9141,"longitude":74.856,"temp":28.6,"humidity":83,"rain":0.0,"pressure":1003.5,"uv_index":9.1,"wind_gusts":26.3,"aqi":81,"pm10":32.4,"pm2_5":24.6,"mosquito_risk":7,"arthritis_risk":5,"migraine_risk":4,"frizz_risk":1,"updated_at":"2026-04-23T03:28:55.433083+05:30"},{"city":"Hubli-Dharwad","state":"Karnataka","latitude":15.3647,"longitude":75.124,"temp":25.2,"humidity":80,"rain":0.0,"pressure":937.9,"uv_index":9.25,"wind_gusts":50.0,"aqi":102,"pm10":34.7,"pm2_5":31.2,"mosquito_risk":7,"arthritis_risk":5,"migraine_risk":7,"frizz_risk":1,"updated_at":"2026-04-23T03:28:55.433089+05:30"},{"city":"Belgaum","state":"Karnataka","latitude":15.8497,"longitude":74.4977,"temp":23.2,"humidity":88,"rain":0.0,"pressure":922.7,"uv_index":9.25,"wind_gusts":42.5,"aqi":103,"pm10":52.7,"pm2_5":46.2,"mosquito_risk":3,"arthritis_risk":5,"migraine_risk":7,"frizz_risk":1,"updated_at":"2026-04-23T03:28:58.706592+05:30"},{"city":"Coimbatore","state":"Tamil Nadu","latitude":11.0168,"longitude":76.9558,"temp":24.8,"humidity":92,"rain":0.0,"pressure":959.2,"uv_index":9.05,"wind_gusts":34.9,"aqi":74,"pm10":39.7,"pm2_5":38.1,"mosquito_risk":3,"arthritis_risk":5,"migraine_risk":7,"frizz_risk":1,"updated_at":"2026-04-23T03:28:58.706622+05:30"},{"city":"Madurai","state":"Tamil Nadu","latitude":9.9252,"longitude":78.1198,"temp":27.5,"humidity":87,"rain":0.0,"pressure":990.5,"uv_index":9.3,"wind_gusts":37.4,"aqi":53,"pm10":14.1,"pm2_5":13.1,"mosquito_risk":7,"arthritis_risk":5,"migraine_risk":7,"frizz_risk":1,"updated_at":"2026-04-23T03:28:58.706633+05:30"},{"city":"Trichy","state":"Tamil Nadu","latitude":10.7905,"longitude":78.7047,"temp":27.6,"humidity":89,"rain":0.0,"pressure":997.4,"uv_index":9.3,"wind_gusts":20.9,"aqi":55,"pm10":15.5,"pm2_5":14.3,"mosquito_risk":7,"arthritis_risk":5,"migraine_risk":7,"frizz_risk":1,"updated_at":"2026-04-23T03:28:58.706641+05:30"},{"city":"Salem","state":"Tamil Nadu","latitude":11.6643,"longitude":78.146,"temp":26.1,"humidity":83,"rain":0.0,"pressure":975.0,"uv_index":9.4,"wind_gusts":27.7,"aqi":64,"pm10":27.5,"pm2_5":26.7,"mosquito_risk":7,"arthritis_risk":5,"migraine_risk":7,"frizz_risk":1,"updated_at":"2026-04-23T03:28:58.706650+05:30"},{"city":"Tirunelveli","state":"Tamil Nadu","latitude":8.7139,"longitude":77.7567,"temp":26.6,"humidity":87,"rain":0.0,"pressure":1000.5,"uv_index":9.1,"wind_gusts":41.4,"aqi":66,"pm10":24.7,"pm2_5":23.0,"mosquito_risk":7,"arthritis_risk":5,"migraine_risk":4,"frizz_risk":1,"updated_at":"2026-04-23T03:28:58.706658+05:30"},{"city":"Vellore","state":"Tamil Nadu","latitude":12.9165,"longitude":79.1325,"temp":24.6,"humidity":83,"rain":0.0,"pressure":982.4,"uv_index":9.4,"wind_gusts":31.7,"aqi":77,"pm10":37.0,"pm2_5":35.9,"mosquito_risk":3,"arthritis_risk":5,"migraine_risk":7,"frizz_risk":1,"updated_at":"2026-04-23T03:28:58.706667+05:30"},{"city":"Erode","state":"Tamil Nadu","latitude":11.341,"longitude":77.7172,"temp":27.7,"humidity":79,"rain":0.0,"pressure":986.7,"uv_index":9.3,"wind_gusts":28.8,"aqi":52,"pm10":10.9,"pm2_5":10.3,"mosquito_risk":7,"arthritis_risk":5,"migraine_risk":7,"frizz_risk":1,"updated_at":"2026-04-23T03:28:58.706676+05:30"},{"city":"Kochi","state":"Kerala","latitude":9.9312,"longitude":76.2673,"temp":28.4,"humidity":85,"rain":0.0,"pressure":1005.7,"uv_index":8.9,"wind_gusts":33.5,"aqi":75,"pm10":36.2,"pm2_5":34.5,"mosquito_risk":7,"arthritis_risk":5,"migraine_risk":4,"frizz_risk":1,"updated_at":"2026-04-23T03:28:58.706684+05:30"},{"city":"Thiruvananthapuram","state":"Kerala","latitude":8.5241,"longitude":76.9366,"temp":28.3,"humidity":84,"rain":0.0,"pressure":1004.9,"uv_index":8.95,"wind_gusts":23.4,"aqi":62,"pm10":18.6,"pm2_5":15.0,"mosquito_risk":7,"arthritis_risk":5,"migraine_risk":4,"frizz_risk":1,"updated_at":"2026-04-23T03:28:58.706691+05:30"},{"city":"Kozhikode","state":"Kerala","latitude":11.2588,"longitude":75.7804,"temp":28.4,"humidity":81,"rain":0.0,"pressure":1005.0,"uv_index":8.9,"wind_gusts":30.2,"aqi":69,"pm10":29.2,"pm2_5":23.7,"mosquito_risk":7,"arthritis_risk":5,"migraine_risk":4,"frizz_risk":1,"updated_at":"2026-04-23T03:28:58.706699+05:30"},{"city":"Thrissur","state":"Kerala","latitude":10.5276,"longitude":76.2144,"temp":27.7,"humidity":89,"rain":0.0,"pressure":1004.1,"uv_index":8.95,"wind_gusts":39.6,"aqi":73,"pm10":44.9,"pm2_5":41.6,"mosquito_risk":7,"arthritis_risk":5,"migraine_risk":4,"frizz_risk":1,"updated_at":"2026-04-23T03:28:58.706707+05:30"},{"city":"Kannur","state":"Kerala","latitude":11.8745,"longitude":75.3704,"temp":28.5,"humidity":79,"rain":0.0,"pressure":1004.3,"uv_index":8.9,"wind_gusts":31.7,"aqi":80,"pm10":31.2,"pm2_5":27.1,"mosquito_risk":7,"arthritis_risk":5,"migraine_risk":4,"frizz_risk":1,"updated_at":"2026-04-23T03:28:58.706715+05:30"},{"city":"Patna","state":"Bihar","latitude":25.5941,"longitude":85.1376,"temp":26.9,"humidity":64,"rain":0.0,"pressure":995.9,"uv_index":8.65,"wind_gusts":19.4,"aqi":136,"pm10":167.2,"pm2_5":84.1,"mosquito_risk":7,"arthritis_risk":5,"migraine_risk":7,"frizz_risk":1,"updated_at":"2026-04-23T03:28:58.706722+05:30"},{"city":"Gaya","state":"Bihar","latitude":24.7914,"longitude":85.0002,"temp":28.5,"humidity":41,"rain":0.0,"pressure":989.7,"uv_index":8.75,"wind_gusts":24.8,"aqi":116,"pm10":110.1,"pm2_5":44.1,"mosquito_risk":4,"arthritis_risk":5,"migraine_risk":7,"frizz_risk":0,"updated_at":"2026-04-23T03:28:58.706730+05:30"},{"city":"Muzaffarpur","state":"Bihar","latitude":26.1209,"longitude":85.3647,"temp":24.2,"humidity":71,"rain":0.0,"pressure":996.5,"uv_index":8.6,"wind_gusts":24.1,"aqi":141,"pm10":138.8,"pm2_5":75.4,"mosquito_risk":3,"arthritis_risk":5,"migraine_risk":7,"frizz_risk":1,"updated_at":"2026-04-23T03:28:58.706738+05:30"},{"city":"Bhagalpur","state":"Bihar","latitude":25.2425,"longitude":87.0117,"temp":25.7,"humidity":74,"rain":0.0,"pressure":996.8,"uv_index":8.65,"wind_gusts":15.1,"aqi":117,"pm10":122.9,"pm2_5":55.8,"mosquito_risk":7,"arthritis_risk":5,"migraine_risk":7,"frizz_risk":1,"updated_at":"2026-04-23T03:28:58.706746+05:30"},{"city":"Ranchi","state":"Jharkhand","latitude":23.3441,"longitude":85.3096,"temp":25.9,"humidity":36,"rain":0.0,"pressure":935.3,"uv_index":8.75,"wind_gusts":34.6,"aqi":90,"pm10":112.7,"pm2_5":39.8,"mosquito_risk":4,"arthritis_risk":5,"migraine_risk":7,"frizz_risk":0,"updated_at":"2026-04-23T03:28:58.706754+05:30"},{"city":"Jamshedpur","state":"Jharkhand","latitude":22.8046,"longitude":86.2029,"temp":28.6,"humidity":76,"rain":0.0,"pressure":987.3,"uv_index":9.0,"wind_gusts":22.0,"aqi":126,"pm10":128.5,"pm2_5":54.9,"mosquito_risk":7,"arthritis_risk":5,"migraine_risk":7,"frizz_risk":1,"updated_at":"2026-04-23T03:28:58.706762+05:30"},{"city":"Dhanbad","state":"Jharkhand","latitude":23.7957,"longitude":86.4304,"temp":28.6,"humidity":73,"rain":0.0,"pressure":976.4,"uv_index":8.7,"wind_gusts":36.0,"aqi":155,"pm10":204.9,"pm2_5":111.1,"mosquito_risk":7,"arthritis_risk":5,"migraine_risk":7,"frizz_risk":1,"updated_at":"2026-04-23T03:28:58.706769+05:30"},{"city":"Bokaro","state":"Jharkhand","latitude":23.6693,"longitude":86.1511,"temp":25.9,"humidity":57,"rain":0.0,"pressure":980.6,"uv_index":8.45,"wind_gusts":34.6,"aqi":152,"pm10":184.9,"pm2_5":90.6,"mosquito_risk":4,"arthritis_risk":5,"migraine_risk":7,"frizz_risk":1,"updated_at":"2026-04-23T03:28:58.706777+05:30"},{"city":"Bhubaneswar","state":"Odisha","latitude":20.2961,"longitude":85.8245,"temp":26.7,"humidity":94,"rain":0.0,"pressure":998.8,"uv_index":9.2,"wind_gusts":32.4,"aqi":87,"pm10":23.3,"pm2_5":20.7,"mosquito_risk":7,"arthritis_risk":5,"migraine_risk":7,"frizz_risk":1,"updated_at":"2026-04-23T03:28:58.706785+05:30"},{"city":"Cuttack","state":"Odisha","latitude":20.4625,"longitude":85.8828,"temp":27.0,"humidity":91,"rain":0.0,"pressure":1000.9,"uv_index":9.2,"wind_gusts":26.6,"aqi":87,"pm10":23.3,"pm2_5":20.7,"mosquito_risk":7,"arthritis_risk":5,"migraine_risk":4,"frizz_risk":1,"updated_at":"2026-04-23T03:28:58.706792+05:30"},{"city":"Rourkela","state":"Odisha","latitude":22.2604,"longitude":84.8536,"temp":27.1,"humidity":58,"rain":0.0,"pressure":981.1,"uv_index":8.55,"wind_gusts":20.9,"aqi":108,"pm10":82.0,"pm2_5":48.8,"mosquito_risk":4,"arthritis_risk":5,"migraine_risk":7,"frizz_risk":1,"updated_at":"2026-04-23T03:28:58.706825+05:30"},{"city":"Raipur","state":"Chhattisgarh","latitude":21.2514,"longitude":81.6296,"temp":29.8,"humidity":40,"rain":0.0,"pressure":971.2,"uv_index":8.05,"wind_gusts":25.9,"aqi":107,"pm10":46.9,"pm2_5":41.6,"mosquito_risk":4,"arthritis_risk":5,"migraine_risk":7,"frizz_risk":0,"updated_at":"2026-04-23T03:28:58.706835+05:30"},{"city":"Bhilai","state":"Chhattisgarh","latitude":21.1938,"longitude":81.3509,"temp":28.8,"humidity":46,"rain":0.0,"pressure":971.6,"uv_index":8.45,"wind_gusts":23.4,"aqi":100,"pm10":45.9,"pm2_5":39.9,"mosquito_risk":4,"arthritis_risk":5,"migraine_risk":7,"frizz_risk":1,"updated_at":"2026-04-23T03:28:58.706842+05:30"},{"city":"Guwahati","state":"Assam","latitude":26.1158,"longitude":91.7086,"temp":24.3,"humidity":91,"rain":0.0,"pressure":999.8,"uv_index":8.6,"wind_gusts":19.1,"aqi":101,"pm10":43.9,"pm2_5":30.6,"mosquito_risk":3,"arthritis_risk":5,"migraine_risk":7,"frizz_risk":1,"updated_at":"2026-04-23T03:28:58.706848+05:30"},{"city":"Agartala","state":"Tripura","latitude":23.8315,"longitude":91.2868,"temp":26.4,"humidity":95,"rain":0.0,"pressure":1004.0,"uv_index":8.25,"wind_gusts":19.8,"aqi":80,"pm10":19.2,"pm2_5":17.6,"mosquito_risk":7,"arthritis_risk":5,"migraine_risk":4,"frizz_risk":1,"updated_at":"2026-04-23T03:28:58.706854+05:30"},{"city":"Shillong","state":"Meghalaya","latitude":25.5788,"longitude":91.8933,"temp":14.9,"humidity":89,"rain":0.0,"pressure":854.1,"uv_index":8.95,"wind_gusts":38.2,"aqi":64,"pm10":64.7,"pm2_5":29.3,"mosquito_risk":3,"arthritis_risk":10,"migraine_risk":7,"frizz_risk":0,"updated_at":"2026-04-23T03:28:58.706861+05:30"},{"city":"Imphal","state":"Manipur","latitude":24.817,"longitude":93.9368,"temp":20.0,"humidity":86,"rain":0.0,"pressure":921.5,"uv_index":8.9,"wind_gusts":56.9,"aqi":113,"pm10":57.2,"pm2_5":36.0,"mosquito_risk":3,"arthritis_risk":5,"migraine_risk":7,"frizz_risk":1,"updated_at":"2026-04-23T03:28:58.706867+05:30"},{"city":"Aizawl","state":"Mizoram","latitude":23.7271,"longitude":92.7176,"temp":20.0,"humidity":95,"rain":0.0,"pressure":890.7,"uv_index":9.05,"wind_gusts":35.6,"aqi":95,"pm10":47.3,"pm2_5":33.5,"mosquito_risk":3,"arthritis_risk":5,"migraine_risk":7,"frizz_risk":1,"updated_at":"2026-04-23T03:28:58.706873+05:30"},{"city":"Kohima","state":"Nagaland","latitude":25.6701,"longitude":94.1077,"temp":16.6,"humidity":77,"rain":0.0,"pressure":853.2,"uv_index":9.1,"wind_gusts":51.8,"aqi":85,"pm10":35.6,"pm2_5":15.4,"mosquito_risk":3,"arthritis_risk":5,"migraine_risk":7,"frizz_risk":0,"updated_at":"2026-04-23T03:28:58.706879+05:30"},{"city":"Gangtok","state":"Sikkim","latitude":27.3314,"longitude":88.6138,"temp":15.3,"humidity":86,"rain":0.0,"pressure":835.3,"uv_index":8.9,"wind_gusts":21.6,"aqi":80,"pm10":47.8,"pm2_5":29.7,"mosquito_risk":3,"arthritis_risk":10,"migraine_risk":7,"frizz_risk":0,"updated_at":"2026-04-23T03:28:58.706885+05:30"},{"city":"Siliguri","state":"West Bengal","latitude":26.7271,"longitude":88.3953,"temp":23.0,"humidity":78,"rain":0.0,"pressure":991.7,"uv_index":8.55,"wind_gusts":22.0,"aqi":128,"pm10":104.5,"pm2_5":71.2,"mosquito_risk":3,"arthritis_risk":5,"migraine_risk":7,"frizz_risk":1,"updated_at":"2026-04-23T03:29:01.993271+05:30"},{"city":"Durgapur","state":"West Bengal","latitude":23.5204,"longitude":87.3119,"temp":27.6,"humidity":85,"rain":0.0,"pressure":991.4,"uv_index":8.9,"wind_gusts":31.7,"aqi":158,"pm10":121.1,"pm2_5":69.2,"mosquito_risk":7,"arthritis_risk":5,"migraine_risk":7,"frizz_risk":1,"updated_at":"2026-04-23T03:29:01.993300+05:30"},{"city":"Asansol","state":"West Bengal","latitude":23.6739,"longitude":86.9524,"temp":28.6,"humidity":76,"rain":0.0,"pressure":989.8,"uv_index":8.95,"wind_gusts":33.8,"aqi":151,"pm10":146.7,"pm2_5":73.1,"mosquito_risk":7,"arthritis_risk":5,"migraine_risk":7,"frizz_risk":1,"updated_at":"2026-04-23T03:29:01.993309+05:30"},{"city":"Pondicherry","state":"Puducherry","latitude":11.9139,"longitude":79.8145,"temp":26.8,"humidity":95,"rain":0.0,"pressure":1006.1,"uv_index":8.95,"wind_gusts":31.0,"aqi":25,"pm10":7.3,"pm2_5":4.7,"mosquito_risk":7,"arthritis_risk":5,"migraine_risk":4,"frizz_risk":1,"updated_at":"2026-04-23T03:29:01.993317+05:30"},{"city":"Port Blair","state":"Andaman and Nicobar Islands","latitude":11.6234,"longitude":92.7265,"temp":30.2,"humidity":67,"rain":0.0,"pressure":1004.4,"uv_index":9.15,"wind_gusts":20.9,"aqi":34,"pm10":16.6,"pm2_5":10.9,"mosquito_risk":3,"arthritis_risk":5,"migraine_risk":4,"frizz_risk":1,"updated_at":"2026-04-23T03:29:01.993325+05:30"},{"city":"Haridwar","state":"Uttarakhand","latitude":29.9457,"longitude":78.1642,"temp":22.0,"humidity":61,"rain":0.0,"pressure":970.0,"uv_index":7.2,"wind_gusts":37.4,"aqi":72,"pm10":32.8,"pm2_5":28.6,"mosquito_risk":3,"arthritis_risk":5,"migraine_risk":7,"frizz_risk":0,"updated_at":"2026-04-23T03:29:01.993332+05:30"},{"city":"Rishikesh","state":"Uttarakhand","latitude":30.0869,"longitude":78.2676,"temp":23.3,"humidity":61,"rain":0.0,"pressure":963.2,"uv_index":7.3,"wind_gusts":36.7,"aqi":69,"pm10":30.5,"pm2_5":23.2,"mosquito_risk":3,"arthritis_risk":5,"migraine_risk":7,"frizz_risk":0,"updated_at":"2026-04-23T03:29:01.993338+05:30"},{"city":"Nainital","state":"Uttarakhand","latitude":29.3919,"longitude":79.4542,"temp":23.2,"humidity":35,"rain":0.0,"pressure":805.6,"uv_index":8.15,"wind_gusts":50.8,"aqi":84,"pm10":23.1,"pm2_5":17.9,"mosquito_risk":0,"arthritis_risk":5,"migraine_risk":7,"frizz_risk":0,"updated_at":"2026-04-23T03:29:01.993346+05:30"},{"city":"Mussoorie","state":"Uttarakhand","latitude":30.4599,"longitude":78.0664,"temp":20.7,"humidity":46,"rain":0.0,"pressure":802.1,"uv_index":7.7,"wind_gusts":40.0,"aqi":63,"pm10":27.9,"pm2_5":25.0,"mosquito_risk":0,"arthritis_risk":5,"migraine_risk":7,"frizz_risk":0,"updated_at":"2026-04-23T03:29:01.993353+05:30"},{"city":"Dharamshala","state":"Himachal Pradesh","latitude":32.219,"longitude":76.3234,"temp":24.2,"humidity":42,"rain":0.0,"pressure":868.1,"uv_index":8.05,"wind_gusts":32.0,"aqi":61,"pm10":19.1,"pm2_5":11.8,"mosquito_risk":0,"arthritis_risk":5,"migraine_risk":7,"frizz_risk":0,"updated_at":"2026-04-23T03:29:01.993359+05:30"},{"city":"Dalhousie","state":"Himachal Pradesh","latitude":32.5387,"longitude":75.971,"temp":20.8,"humidity":44,"rain":0.0,"pressure":803.3,"uv_index":8.35,"wind_gusts":36.7,"aqi":59,"pm10":24.2,"pm2_5":21.2,"mosquito_risk":0,"arthritis_risk":5,"migraine_risk":7,"frizz_risk":0,"updated_at":"2026-04-23T03:29:01.993365+05:30"},{"city":"Patiala","state":"Punjab","latitude":30.3398,"longitude":76.3869,"temp":24.2,"humidity":58,"rain":0.0,"pressure":974.1,"uv_index":7.3,"wind_gusts":20.2,"aqi":200,"pm10":316.6,"pm2_5":62.9,"mosquito_risk":0,"arthritis_risk":5,"migraine_risk":7,"frizz_risk":0,"updated_at":"2026-04-23T03:29:01.993372+05:30"},{"city":"Bhatinda","state":"Punjab","latitude":30.211,"longitude":74.9455,"temp":28.1,"humidity":44,"rain":0.0,"pressure":979.6,"uv_index":8.0,"wind_gusts":24.8,"aqi":77,"pm10":49.4,"pm2_5":29.2,"mosquito_risk":4,"arthritis_risk":5,"migraine_risk":7,"frizz_risk":0,"updated_at":"2026-04-23T03:29:01.993378+05:30"},{"city":"Rohtak","state":"Haryana","latitude":28.8955,"longitude":76.6066,"temp":24.1,"humidity":52,"rain":0.0,"pressure":977.9,"uv_index":7.4,"wind_gusts":26.6,"aqi":444,"pm10":510.4,"pm2_5":88.9,"mosquito_risk":0,"arthritis_risk":5,"migraine_risk":7,"frizz_risk":0,"updated_at":"2026-04-23T03:29:01.993384+05:30"},{"city":"Panipat","state":"Haryana","latitude":29.3909,"longitude":76.9635,"temp":24.1,"humidity":54,"rain":0.0,"pressure":975.8,"uv_index":7.25,"wind_gusts":24.5,"aqi":811,"pm10":720.8,"pm2_5":107.3,"mosquito_risk":0,"arthritis_risk":5,"migraine_risk":7,"frizz_risk":0,"updated_at":"2026-04-23T03:29:01.993391+05:30"},{"city":"Mathura","state":"Uttar Pradesh","latitude":27.4924,"longitude":77.6737,"temp":26.0,"humidity":46,"rain":0.0,"pressure":982.8,"uv_index":7.7,"wind_gusts":28.1,"aqi":653,"pm10":599.8,"pm2_5":81.3,"mosquito_risk":4,"arthritis_risk":5,"migraine_risk":7,"frizz_risk":0,"updated_at":"2026-04-23T03:29:01.993397+05:30"},{"city":"Vrindavan","state":"Uttar Pradesh","latitude":27.5823,"longitude":77.7027,"temp":24.6,"humidity":51,"rain":0.0,"pressure":983.3,"uv_index":7.65,"wind_gusts":29.5,"aqi":653,"pm10":599.8,"pm2_5":81.3,"mosquito_risk":0,"arthritis_risk":5,"migraine_risk":7,"frizz_risk":0,"updated_at":"2026-04-23T03:29:01.993403+05:30"},{"city":"Ayodhya","state":"Uttar Pradesh","latitude":26.7922,"longitude":82.1998,"temp":25.1,"humidity":44,"rain":0.0,"pressure":991.0,"uv_index":8.05,"wind_gusts":32.4,"aqi":146,"pm10":250.5,"pm2_5":58.2,"mosquito_risk":4,"arthritis_risk":5,"migraine_risk":7,"frizz_risk":0,"updated_at":"2026-04-23T03:29:01.993409+05:30"},{"city":"Ratlam","state":"Madhya Pradesh","latitude":23.3315,"longitude":75.0367,"temp":26.9,"humidity":40,"rain":0.0,"pressure":953.2,"uv_index":8.5,"wind_gusts":31.3,"aqi":59,"pm10":21.5,"pm2_5":18.7,"mosquito_risk":4,"arthritis_risk":5,"migraine_risk":7,"frizz_risk":0,"updated_at":"2026-04-23T03:29:01.993416+05:30"},{"city":"Sagar","state":"Madhya Pradesh","latitude":23.8388,"longitude":78.7378,"temp":26.7,"humidity":36,"rain":0.0,"pressure":948.7,"uv_index":8.65,"wind_gusts":31.7,"aqi":49,"pm10":15.5,"pm2_5":15.0,"mosquito_risk":4,"arthritis_risk":5,"migraine_risk":7,"frizz_risk":0,"updated_at":"2026-04-23T03:29:01.993422+05:30"},{"city":"Satna","state":"Madhya Pradesh","latitude":24.6005,"longitude":80.8322,"temp":28.6,"humidity":38,"rain":0.0,"pressure":968.7,"uv_index":8.65,"wind_gusts":33.1,"aqi":62,"pm10":18.3,"pm2_5":9.7,"mosquito_risk":4,"arthritis_risk":5,"migraine_risk":7,"frizz_risk":0,"updated_at":"2026-04-23T03:29:01.993429+05:30"},{"city":"Akola","state":"Maharashtra","latitude":20.7002,"longitude":77.0082,"temp":28.9,"humidity":46,"rain":0.0,"pressure":972.5,"uv_index":8.9,"wind_gusts":24.5,"aqi":77,"pm10":33.3,"pm2_5":27.7,"mosquito_risk":4,"arthritis_risk":5,"migraine_risk":7,"frizz_risk":1,"updated_at":"2026-04-23T03:29:01.993436+05:30"},{"city":"Amravati","state":"Maharashtra","latitude":20.9374,"longitude":77.7796,"temp":28.6,"humidity":48,"rain":0.0,"pressure":964.6,"uv_index":8.9,"wind_gusts":23.0,"aqi":81,"pm10":34.6,"pm2_5":29.8,"mosquito_risk":4,"arthritis_risk":5,"migraine_risk":7,"frizz_risk":1,"updated_at":"2026-04-23T03:29:01.993442+05:30"},{"city":"Latur","state":"Maharashtra","latitude":18.4088,"longitude":76.5604,"temp":25.4,"humidity":65,"rain":0.0,"pressure":937.6,"uv_index":9.1,"wind_gusts":44.3,"aqi":116,"pm10":50.3,"pm2_5":44.8,"mosquito_risk":7,"arthritis_risk":5,"migraine_risk":7,"frizz_risk":1,"updated_at":"2026-04-23T03:29:01.993449+05:30"},{"city":"Nanded","state":"Maharashtra","latitude":19.1383,"longitude":77.3091,"temp":28.1,"humidity":60,"rain":0.0,"pressure":966.1,"uv_index":9.0,"wind_gusts":31.3,"aqi":110,"pm10":62.9,"pm2_5":58.6,"mosquito_risk":4,"arthritis_risk":5,"migraine_risk":7,"frizz_risk":1,"updated_at":"2026-04-23T03:29:01.993455+05:30"},{"city":"Gulbarga","state":"Karnataka","latitude":17.3297,"longitude":76.8343,"temp":27.8,"humidity":62,"rain":0.0,"pressure":956.5,"uv_index":9.15,"wind_gusts":31.3,"aqi":99,"pm10":41.6,"pm2_5":38.2,"mosquito_risk":7,"arthritis_risk":5,"migraine_risk":7,"frizz_risk":1,"updated_at":"2026-04-23T03:29:01.993461+05:30"},{"city":"Bidar","state":"Karnataka","latitude":17.9104,"longitude":77.5199,"temp":26.6,"humidity":61,"rain":0.0,"pressure":933.0,"uv_index":8.4,"wind_gusts":34.6,"aqi":111,"pm10":44.6,"pm2_5":41.7,"mosquito_risk":7,"arthritis_risk":5,"migraine_risk":7,"frizz_risk":1,"updated_at":"2026-04-23T03:29:01.993467+05:30"},{"city":"Hospet","state":"Karnataka","latitude":15.2689,"longitude":76.3909,"temp":28.0,"humidity":64,"rain":0.0,"pressure":953.4,"uv_index":9.15,"wind_gusts":27.4,"aqi":114,"pm10":41.1,"pm2_5":37.6,"mosquito_risk":7,"arthritis_risk":5,"migraine_risk":7,"frizz_risk":1,"updated_at":"2026-04-23T03:29:01.993473+05:30"},{"city":"Tirupur","state":"Tamil Nadu","latitude":11.1085,"longitude":77.3411,"temp":27.0,"humidity":83,"rain":0.0,"pressure":972.9,"uv_index":9.4,"wind_gusts":32.4,"aqi":63,"pm10":22.5,"pm2_5":21.4,"mosquito_risk":7,"arthritis_risk":5,"migraine_risk":7,"frizz_risk":1,"updated_at":"2026-04-23T03:29:01.993479+05:30"},{"city":"Alappuzha","state":"Kerala","latitude":9.4981,"longitude":76.3388,"temp":28.2,"humidity":85,"rain":0.0,"pressure":1005.7,"uv_index":8.6,"wind_gusts":28.8,"aqi":74,"pm10":33.8,"pm2_5":29.2,"mosquito_risk":7,"arthritis_risk":5,"migraine_risk":4,"frizz_risk":1,"updated_at":"2026-04-23T03:29:01.993485+05:30"},{"city":"Munnar","state":"Kerala","latitude":10.0889,"longitude":77.0595,"temp":21.5,"humidity":90,"rain":0.0,"pressure":854.5,"uv_index":9.65,"wind_gusts":27.7,"aqi":71,"pm10":28.1,"pm2_5":26.7,"mosquito_risk":3,"arthritis_risk":5,"migraine_risk":7,"frizz_risk":1,"updated_at":"2026-04-23T03:29:01.993492+05:30"},{"city":"Silchar","state":"Assam","latitude":24.8333,"longitude":92.7789,"temp":23.7,"humidity":92,"rain":0.0,"pressure":1003.5,"uv_index":8.8,"wind_gusts":23.0,"aqi":124,"pm10":68.7,"pm2_5":43.8,"mosquito_risk":3,"arthritis_risk":5,"migraine_risk":4,"frizz_risk":1,"updated_at":"2026-04-23T03:29:01.993498+05:30"},{"city":"Dibrugarh","state":"Assam","latitude":27.4728,"longitude":94.912,"temp":22.3,"humidity":94,"rain":0.0,"pressure":994.8,"uv_index":8.65,"wind_gusts":10.4,"aqi":66,"pm10":39.2,"pm2_5":36.6,"mosquito_risk":3,"arthritis_risk":5,"migraine_risk":7,"frizz_risk":1,"updated_at":"2026-04-23T03:29:01.993504+05:30"}]