[{"city":"Delhi","state":"Delhi","latitude":28.6139,"longitude":77.209,"temp":33.5,"humidity":43,"rain":0.0,"pressure":979.2,"uv_index":7.8,"wind_gusts":26.6,"aqi":339,"pm10":444.2,"pm2_5":119.0,"no2":53.8,"co":513.0,"o3":59.0,"so2":24.5,"mosquito_risk":0,"arthritis_risk":5,"migraine_risk":7,"frizz_risk":1,"updated_at":"2026-06-17T21:09:22.695692+05:30"},{"city":"Mumbai","state":"Maharashtra","latitude":19.076,"longitude":72.8777,"temp":30.4,"humidity":65,"rain":0.0,"pressure":1008.6,"uv_index":7.65,"wind_gusts":51.5,"aqi":56,"pm10":24.5,"pm2_5":12.5,"no2":7.8,"co":163.0,"o3":44.0,"so2":5.2,"mosquito_risk":3,"arthritis_risk":0,"migraine_risk":4,"frizz_risk":1,"updated_at":"2026-06-17T21:09:22.695737+05:30"},{"city":"Bangalore","state":"Karnataka","latitude":12.9716,"longitude":77.5946,"temp":25.5,"humidity":65,"rain":0.0,"pressure":911.9,"uv_index":8.7,"wind_gusts":32.8,"aqi":85,"pm10":33.6,"pm2_5":23.8,"no2":40.3,"co":569.0,"o3":40.0,"so2":8.5,"mosquito_risk":7,"arthritis_risk":5,"migraine_risk":7,"frizz_risk":1,"updated_at":"2026-06-17T21:09:22.695753+05:30"},{"city":"Hyderabad","state":"Telangana","latitude":17.385,"longitude":78.4867,"temp":32.5,"humidity":40,"rain":0.0,"pressure":952.5,"uv_index":9.05,"wind_gusts":34.6,"aqi":101,"pm10":55.9,"pm2_5":39.3,"no2":41.3,"co":333.0,"o3":47.0,"so2":10.7,"mosquito_risk":0,"arthritis_risk":5,"migraine_risk":7,"frizz_risk":1,"updated_at":"2026-06-17T21:09:22.695762+05:30"},{"city":"Chennai","state":"Tamil Nadu","latitude":13.0827,"longitude":80.2707,"temp":31.2,"humidity":71,"rain":0.0,"pressure":1005.6,"uv_index":7.0,"wind_gusts":32.8,"aqi":108,"pm10":38.1,"pm2_5":28.0,"no2":16.0,"co":347.0,"o3":110.0,"so2":9.1,"mosquito_risk":3,"arthritis_risk":5,"migraine_risk":4,"frizz_risk":1,"updated_at":"2026-06-17T21:09:22.695771+05:30"},{"city":"Kolkata","state":"West Bengal","latitude":22.5726,"longitude":88.3639,"temp":30.6,"humidity":81,"rain":0.0,"pressure":1003.2,"uv_index":9.0,"wind_gusts":28.4,"aqi":120,"pm10":40.4,"pm2_5":32.9,"no2":10.1,"co":450.0,"o3":75.0,"so2":8.3,"mosquito_risk":3,"arthritis_risk":5,"migraine_risk":4,"frizz_risk":1,"updated_at":"2026-06-17T21:09:22.695778+05:30"},{"city":"Pune","state":"Maharashtra","latitude":18.5204,"longitude":73.8567,"temp":25.6,"humidity":76,"rain":0.0,"pressure":948.8,"uv_index":8.3,"wind_gusts":50.4,"aqi":50,"pm10":16.4,"pm2_5":9.8,"no2":7.0,"co":143.0,"o3":51.0,"so2":6.0,"mosquito_risk":7,"arthritis_risk":5,"migraine_risk":7,"frizz_risk":1,"updated_at":"2026-06-17T21:09:22.695786+05:30"},{"city":"Ahmedabad","state":"Gujarat","latitude":23.0225,"longitude":72.5714,"temp":28.6,"humidity":82,"rain":0.1,"pressure":1000.1,"uv_index":8.0,"wind_gusts":36.0,"aqi":63,"pm10":52.6,"pm2_5":24.0,"no2":8.4,"co":320.0,"o3":72.0,"so2":4.6,"mosquito_risk":10,"arthritis_risk":5,"migraine_risk":4,"frizz_risk":1,"updated_at":"2026-06-17T21:09:22.695793+05:30"},{"city":"Jaipur","state":"Rajasthan","latitude":26.9124,"longitude":75.7873,"temp":30.6,"humidity":63,"rain":0.0,"pressure":956.9,"uv_index":8.2,"wind_gusts":25.6,"aqi":109,"pm10":124.8,"pm2_5":50.2,"no2":26.3,"co":355.0,"o3":45.0,"so2":9.8,"mosquito_risk":3,"arthritis_risk":5,"migraine_risk":7,"frizz_risk":1,"updated_at":"2026-06-17T21:09:22.695804+05:30"},{"city":"Lucknow","state":"Uttar Pradesh","latitude":26.8467,"longitude":80.9462,"temp":34.2,"humidity":49,"rain":0.0,"pressure":989.6,"uv_index":8.35,"wind_gusts":33.1,"aqi":162,"pm10":157.4,"pm2_5":60.1,"no2":25.1,"co":424.0,"o3":60.0,"so2":9.5,"mosquito_risk":0,"arthritis_risk":5,"migraine_risk":7,"frizz_risk":1,"updated_at":"2026-06-17T21:09:22.695812+05:30"},{"city":"Kanpur","state":"Uttar Pradesh","latitude":26.4499,"longitude":80.3319,"temp":36.1,"humidity":35,"rain":0.0,"pressure":988.0,"uv_index":8.15,"wind_gusts":33.1,"aqi":184,"pm10":229.6,"pm2_5":68.0,"no2":24.2,"co":299.0,"o3":62.0,"so2":8.9,"mosquito_risk":0,"arthritis_risk":5,"migraine_risk":10,"frizz_risk":1,"updated_at":"2026-06-17T21:09:22.695819+05:30"},{"city":"Chandigarh","state":"Chandigarh","latitude":30.7333,"longitude":76.7794,"temp":28.7,"humidity":62,"rain":0.0,"pressure":964.8,"uv_index":7.8,"wind_gusts":19.8,"aqi":152,"pm10":198.4,"pm2_5":80.1,"no2":44.7,"co":1056.0,"o3":83.0,"so2":14.1,"mosquito_risk":7,"arthritis_risk":5,"migraine_risk":7,"frizz_risk":1,"updated_at":"2026-06-17T21:09:22.695826+05:30"},{"city":"Srinagar","state":"Jammu and Kashmir","latitude":34.0837,"longitude":74.7973,"temp":19.7,"humidity":78,"rain":0.0,"pressure":841.9,"uv_index":8.8,"wind_gusts":25.2,"aqi":95,"pm10":33.4,"pm2_5":25.8,"no2":24.0,"co":776.0,"o3":72.0,"so2":3.3,"mosquito_risk":3,"arthritis_risk":5,"migraine_risk":7,"frizz_risk":0,"updated_at":"2026-06-17T21:09:22.695832+05:30"},{"city":"Jammu","state":"Jammu and Kashmir","latitude":32.7266,"longitude":74.857,"temp":30.8,"humidity":51,"rain":0.0,"pressure":968.6,"uv_index":8.65,"wind_gusts":22.3,"aqi":144,"pm10":53.0,"pm2_5":41.0,"no2":46.6,"co":510.0,"o3":96.0,"so2":6.9,"mosquito_risk":0,"arthritis_risk":5,"migraine_risk":7,"frizz_risk":1,"updated_at":"2026-06-17T21:09:22.695839+05:30"},{"city":"Amritsar","state":"Punjab","latitude":31.634,"longitude":74.8723,"temp":29.1,"humidity":76,"rain":0.0,"pressure":976.5,"uv_index":8.45,"wind_gusts":16.2,"aqi":142,"pm10":74.7,"pm2_5":60.5,"no2":33.0,"co":1004.0,"o3":93.0,"so2":8.4,"mosquito_risk":7,"arthritis_risk":5,"migraine_risk":7,"frizz_risk":1,"updated_at":"2026-06-17T21:09:22.695845+05:30"},{"city":"Ludhiana","state":"Punjab","latitude":30.901,"longitude":75.8573,"temp":31.0,"humidity":55,"rain":0.0,"pressure":974.8,"uv_index":8.05,"wind_gusts":31.0,"aqi":154,"pm10":115.7,"pm2_5":63.3,"no2":37.7,"co":616.0,"o3":64.0,"so2":9.7,"mosquito_risk":0,"arthritis_risk":5,"migraine_risk":7,"frizz_risk":1,"updated_at":"2026-06-17T21:09:22.695850+05:30"},{"city":"Jalandhar","state":"Punjab","latitude":31.326,"longitude":75.5762,"temp":29.9,"humidity":62,"rain":0.0,"pressure":975.6,"uv_index":8.25,"wind_gusts":22.3,"aqi":151,"pm10":89.4,"pm2_5":61.9,"no2":39.8,"co":1094.0,"o3":66.0,"so2":7.2,"mosquito_risk":7,"arthritis_risk":5,"migraine_risk":7,"frizz_risk":1,"updated_at":"2026-06-17T21:09:22.695857+05:30"},{"city":"Dehradun","state":"Uttarakhand","latitude":30.6284,"longitude":78.0322,"temp":17.7,"humidity":91,"rain":0.0,"pressure":828.4,"uv_index":6.65,"wind_gusts":28.8,"aqi":98,"pm10":44.8,"pm2_5":28.3,"no2":19.8,"co":251.0,"o3":83.0,"so2":2.8,"mosquito_risk":3,"arthritis_risk":10,"migraine_risk":7,"frizz_risk":1,"updated_at":"2026-06-17T21:09:22.695863+05:30"},{"city":"Shimla","state":"Himachal Pradesh","latitude":31.1048,"longitude":77.1734,"temp":14.7,"humidity":89,"rain":0.0,"pressure":782.4,"uv_index":7.65,"wind_gusts":27.4,"aqi":129,"pm10":105.0,"pm2_5":51.8,"no2":19.9,"co":513.0,"o3":101.0,"so2":1.6,"mosquito_risk":3,"arthritis_risk":10,"migraine_risk":7,"frizz_risk":0,"updated_at":"2026-06-17T21:09:22.695869+05:30"},{"city":"Manali","state":"Himachal Pradesh","latitude":32.2396,"longitude":77.1887,"temp":17.7,"humidity":82,"rain":0.0,"pressure":817.3,"uv_index":9.85,"wind_gusts":31.7,"aqi":58,"pm10":4.6,"pm2_5":4.1,"no2":93.0,"co":282.0,"o3":28.0,"so2":0.3,"mosquito_risk":3,"arthritis_risk":10,"migraine_risk":7,"frizz_risk":0,"updated_at":"2026-06-17T21:09:22.695877+05:30"},{"city":"Gurgaon","state":"Haryana","latitude":28.4595,"longitude":77.0266,"temp":31.4,"humidity":51,"rain":0.0,"pressure":977.5,"uv_index":7.85,"wind_gusts":23.4,"aqi":404,"pm10":443.3,"pm2_5":106.9,"no2":71.0,"co":946.0,"o3":43.0,"so2":21.4,"mosquito_risk":0,"arthritis_risk":5,"migraine_risk":7,"frizz_risk":1,"updated_at":"2026-06-17T21:09:22.695899+05:30"},{"city":"Noida","state":"Uttar Pradesh","latitude":28.5355,"longitude":77.391,"temp":29.5,"humidity":66,"rain":0.0,"pressure":980.5,"uv_index":7.85,"wind_gusts":16.9,"aqi":404,"pm10":443.3,"pm2_5":106.9,"no2":71.0,"co":770.0,"o3":43.0,"so2":21.4,"mosquito_risk":7,"arthritis_risk":5,"migraine_risk":7,"frizz_risk":1,"updated_at":"2026-06-17T21:09:22.695906+05:30"},{"city":"Ghaziabad","state":"Uttar Pradesh","latitude":28.6692,"longitude":77.4538,"temp":29.0,"humidity":69,"rain":0.0,"pressure":978.7,"uv_index":7.8,"wind_gusts":21.2,"aqi":356,"pm10":456.3,"pm2_5":144.4,"no2":40.3,"co":516.0,"o3":87.0,"so2":26.1,"mosquito_risk":7,"arthritis_risk":5,"migraine_risk":7,"frizz_risk":1,"updated_at":"2026-06-17T21:09:22.695916+05:30"},{"city":"Faridabad","state":"Haryana","latitude":28.4089,"longitude":77.3178,"temp":32.5,"humidity":41,"rain":0.0,"pressure":979.9,"uv_index":7.85,"wind_gusts":26.6,"aqi":404,"pm10":443.3,"pm2_5":106.9,"no2":71.0,"co":1075.0,"o3":43.0,"so2":21.4,"mosquito_risk":0,"arthritis_risk":5,"migraine_risk":7,"frizz_risk":1,"updated_at":"2026-06-17T21:09:22.695922+05:30"},{"city":"Meerut","state":"Uttar Pradesh","latitude":28.9845,"longitude":77.7064,"temp":31.9,"humidity":55,"rain":0.0,"pressure":977.5,"uv_index":7.7,"wind_gusts":22.7,"aqi":356,"pm10":456.3,"pm2_5":144.4,"no2":40.3,"co":486.0,"o3":87.0,"so2":26.1,"mosquito_risk":0,"arthritis_risk":5,"migraine_risk":7,"frizz_risk":1,"updated_at":"2026-06-17T21:09:22.695928+05:30"},{"city":"Agra","state":"Uttar Pradesh","latitude":27.1767,"longitude":78.0081,"temp":34.4,"humidity":39,"rain":0.0,"pressure":984.0,"uv_index":8.15,"wind_gusts":31.7,"aqi":260,"pm10":357.6,"pm2_5":95.5,"no2":59.3,"co":457.0,"o3":34.0,"so2":16.9,"mosquito_risk":0,"arthritis_risk":5,"migraine_risk":7,"frizz_risk":1,"updated_at":"2026-06-17T21:09:22.695935+05:30"},{"city":"Varanasi","state":"Uttar Pradesh","latitude":25.3176,"longitude":82.9739,"temp":33.7,"humidity":54,"rain":0.0,"pressure":993.9,"uv_index":8.75,"wind_gusts":43.6,"aqi":156,"pm10":162.5,"pm2_5":82.7,"no2":30.9,"co":352.0,"o3":86.0,"so2":20.0,"mosquito_risk":0,"arthritis_risk":5,"migraine_risk":7,"frizz_risk":1,"updated_at":"2026-06-17T21:09:22.695941+05:30"},{"city":"Prayagraj","state":"Uttar Pradesh","latitude":25.4358,"longitude":81.8463,"temp":34.9,"humidity":48,"rain":0.0,"pressure":992.0,"uv_index":8.7,"wind_gusts":37.1,"aqi":156,"pm10":138.3,"pm2_5":69.4,"no2":21.5,"co":213.0,"o3":85.0,"so2":15.5,"mosquito_risk":0,"arthritis_risk":5,"migraine_risk":7,"frizz_risk":1,"updated_at":"2026-06-17T21:09:22.695948+05:30"},{"city":"Gorakhpur","state":"Uttar Pradesh","latitude":26.7606,"longitude":83.3732,"temp":31.6,"humidity":56,"rain":0.0,"pressure":993.2,"uv_index":8.65,"wind_gusts":34.6,"aqi":170,"pm10":117.3,"pm2_5":63.3,"no2":20.6,"co":370.0,"o3":78.0,"so2":10.8,"mosquito_risk":0,"arthritis_risk":5,"migraine_risk":7,"frizz_risk":1,"updated_at":"2026-06-17T21:09:22.695954+05:30"},{"city":"Bareilly","state":"Uttar Pradesh","latitude":28.367,"longitude":79.4304,"temp":30.0,"humidity":57,"rain":0.0,"pressure":982.7,"uv_index":8.15,"wind_gusts":30.6,"aqi":160,"pm10":191.9,"pm2_5":78.0,"no2":19.8,"co":356.0,"o3":109.0,"so2":15.1,"mosquito_risk":4,"arthritis_risk":5,"migraine_risk":7,"frizz_risk":1,"updated_at":"2026-06-17T21:09:22.695962+05:30"},{"city":"Aligarh","state":"Uttar Pradesh","latitude":27.8974,"longitude":78.088,"temp":31.8,"humidity":50,"rain":0.0,"pressure":981.6,"uv_index":8.0,"wind_gusts":27.0,"aqi":228,"pm10":482.4,"pm2_5":120.6,"no2":51.7,"co":461.0,"o3":74.0,"so2":19.2,"mosquito_risk":0,"arthritis_risk":5,"migraine_risk":7,"frizz_risk":1,"updated_at":"2026-06-17T21:09:22.695969+05:30"},{"city":"Moradabad","state":"Uttar Pradesh","latitude":28.8386,"longitude":78.7733,"temp":31.0,"humidity":58,"rain":0.0,"pressure":979.7,"uv_index":7.95,"wind_gusts":25.9,"aqi":173,"pm10":324.1,"pm2_5":116.4,"no2":33.8,"co":555.0,"o3":78.0,"so2":15.8,"mosquito_risk":0,"arthritis_risk":5,"migraine_risk":7,"frizz_risk":1,"updated_at":"2026-06-17T21:09:22.695975+05:30"},{"city":"Saharanpur","state":"Uttar Pradesh","latitude":29.9637,"longitude":77.546,"temp":30.8,"humidity":53,"rain":0.0,"pressure":971.5,"uv_index":7.55,"wind_gusts":20.5,"aqi":283,"pm10":418.2,"pm2_5":149.9,"no2":61.3,"co":459.0,"o3":69.0,"so2":28.2,"mosquito_risk":0,"arthritis_risk":5,"migraine_risk":7,"frizz_risk":1,"updated_at":"2026-06-17T21:09:22.695981+05:30"},{"city":"Jhansi","state":"Uttar Pradesh","latitude":25.4484,"longitude":78.5685,"temp":31.6,"humidity":57,"rain":0.0,"pressure":975.1,"uv_index":8.5,"wind_gusts":44.3,"aqi":94,"pm10":44.2,"pm2_5":27.0,"no2":7.2,"co":192.0,"o3":67.0,"so2":3.2,"mosquito_risk":0,"arthritis_risk":5,"migraine_risk":7,"frizz_risk":1,"updated_at":"2026-06-17T21:09:25.925484+05:30"},{"city":"Surat","state":"Gujarat","latitude":21.1702,"longitude":72.8311,"temp":30.1,"humidity":72,"rain":0.0,"pressure":1005.7,"uv_index":7.55,"wind_gusts":54.0,"aqi":62,"pm10":40.0,"pm2_5":22.0,"no2":18.2,"co":231.0,"o3":30.0,"so2":30.7,"mosquito_risk":3,"arthritis_risk":5,"migraine_risk":4,"frizz_risk":1,"updated_at":"2026-06-17T21:09:25.925518+05:30"},{"city":"Vadodara","state":"Gujarat","latitude":22.3072,"longitude":73.1812,"temp":30.1,"humidity":70,"rain":0.0,"pressure":1002.7,"uv_index":8.0,"wind_gusts":50.0,"aqi":57,"pm10":25.4,"pm2_5":15.3,"no2":11.2,"co":149.0,"o3":46.0,"so2":12.2,"mosquito_risk":3,"arthritis_risk":5,"migraine_risk":4,"frizz_risk":1,"updated_at":"2026-06-17T21:09:25.925528+05:30"},{"city":"Rajkot","state":"Gujarat","latitude":22.3039,"longitude":70.8022,"temp":31.0,"humidity":56,"rain":0.0,"pressure":992.3,"uv_index":7.5,"wind_gusts":51.8,"aqi":53,"pm10":39.1,"pm2_5":17.2,"no2":3.8,"co":110.0,"o3":49.0,"so2":4.1,"mosquito_risk":0,"arthritis_risk":5,"migraine_risk":7,"frizz_risk":1,"updated_at":"2026-06-17T21:09:25.925537+05:30"},{"city":"Thane","state":"Maharashtra","latitude":19.2183,"longitude":72.9781,"temp":30.6,"humidity":64,"rain":0.0,"pressure":1008.0,"uv_index":7.65,"wind_gusts":45.7,"aqi":56,"pm10":24.5,"pm2_5":12.5,"no2":7.8,"co":158.0,"o3":44.0,"so2":5.2,"mosquito_risk":3,"arthritis_risk":0,"migraine_risk":4,"frizz_risk":1,"updated_at":"2026-06-17T21:09:25.925544+05:30"},{"city":"Nagpur","state":"Maharashtra","latitude":21.1458,"longitude":79.0882,"temp":31.9,"humidity":54,"rain":0.0,"pressure":971.9,"uv_index":8.85,"wind_gusts":52.2,"aqi":101,"pm10":38.5,"pm2_5":27.5,"no2":9.8,"co":226.0,"o3":86.0,"so2":11.2,"mosquito_risk":0,"arthritis_risk":5,"migraine_risk":7,"frizz_risk":1,"updated_at":"2026-06-17T21:09:25.925552+05:30"},{"city":"Nashik","state":"Maharashtra","latitude":19.9975,"longitude":73.7898,"temp":26.0,"humidity":72,"rain":0.0,"pressure":945.7,"uv_index":8.0,"wind_gusts":49.0,"aqi":43,"pm10":16.9,"pm2_5":8.6,"no2":3.1,"co":124.0,"o3":53.0,"so2":1.3,"mosquito_risk":7,"arthritis_risk":5,"migraine_risk":7,"frizz_risk":1,"updated_at":"2026-06-17T21:09:25.925559+05:30"},{"city":"Aurangabad","state":"Maharashtra","latitude":19.8762,"longitude":75.3433,"temp":30.9,"humidity":44,"rain":0.0,"pressure":943.8,"uv_index":8.9,"wind_gusts":48.2,"aqi":52,"pm10":23.8,"pm2_5":12.7,"no2":4.2,"co":142.0,"o3":74.0,"so2":3.7,"mosquito_risk":0,"arthritis_risk":5,"migraine_risk":7,"frizz_risk":1,"updated_at":"2026-06-17T21:09:25.925566+05:30"},{"city":"Solapur","state":"Maharashtra","latitude":17.6599,"longitude":75.9064,"temp":33.1,"humidity":29,"rain":0.0,"pressure":956.1,"uv_index":8.4,"wind_gusts":52.2,"aqi":61,"pm10":43.0,"pm2_5":24.9,"no2":16.1,"co":224.0,"o3":73.0,"so2":4.9,"mosquito_risk":0,"arthritis_risk":5,"migraine_risk":7,"frizz_risk":0,"updated_at":"2026-06-17T21:09:25.925573+05:30"},{"city":"Kolhapur","state":"Maharashtra","latitude":16.705,"longitude":74.2433,"temp":25.4,"humidity":76,"rain":0.0,"pressure":948.8,"uv_index":8.55,"wind_gusts":45.7,"aqi":50,"pm10":20.4,"pm2_5":12.5,"no2":5.6,"co":143.0,"o3":52.0,"so2":2.5,"mosquito_risk":7,"arthritis_risk":5,"migraine_risk":7,"frizz_risk":1,"updated_at":"2026-06-17T21:09:25.925580+05:30"},{"city":"Goa","state":"Goa","latitude":15.2993,"longitude":74.124,"temp":28.0,"humidity":77,"rain":0.0,"pressure":998.8,"uv_index":7.75,"wind_gusts":29.9,"aqi":55,"pm10":25.6,"pm2_5":13.2,"no2":3.1,"co":243.0,"o3":49.0,"so2":1.6,"mosquito_risk":7,"arthritis_risk":5,"migraine_risk":7,"frizz_risk":1,"updated_at":"2026-06-17T21:09:25.925587+05:30"},{"city":"Jodhpur","state":"Rajasthan","latitude":26.2389,"longitude":73.0243,"temp":33.6,"humidity":48,"rain":0.0,"pressure":980.0,"uv_index":8.4,"wind_gusts":33.8,"aqi":111,"pm10":130.4,"pm2_5":31.2,"no2":5.7,"co":190.0,"o3":66.0,"so2":1.9,"mosquito_risk":0,"arthritis_risk":5,"migraine_risk":7,"frizz_risk":1,"updated_at":"2026-06-17T21:09:25.925595+05:30"},{"city":"Udaipur","state":"Rajasthan","latitude":24.5854,"longitude":73.7125,"temp":28.9,"humidity":63,"rain":0.0,"pressure":944.8,"uv_index":8.8,"wind_gusts":37.8,"aqi":68,"pm10":43.8,"pm2_5":21.8,"no2":8.1,"co":173.0,"o3":68.0,"so2":3.1,"mosquito_risk":7,"arthritis_risk":5,"migraine_risk":7,"frizz_risk":1,"updated_at":"2026-06-17T21:09:25.925601+05:30"},{"city":"Kota","state":"Rajasthan","latitude":25.2138,"longitude":75.8648,"temp":32.0,"humidity":50,"rain":0.0,"pressure":976.2,"uv_index":8.35,"wind_gusts":31.0,"aqi":86,"pm10":54.9,"pm2_5":32.0,"no2":9.3,"co":207.0,"o3":71.0,"so2":5.0,"mosquito_risk":0,"arthritis_risk":5,"migraine_risk":7,"frizz_risk":1,"updated_at":"2026-06-17T21:09:25.925608+05:30"},{"city":"Bikaner","state":"Rajasthan","latitude":28.0229,"longitude":73.3119,"temp":32.9,"humidity":53,"rain":0.0,"pressure":978.3,"uv_index":8.45,"wind_gusts":24.5,"aqi":127,"pm10":128.1,"pm2_5":45.2,"no2":4.4,"co":179.0,"o3":63.0,"so2":1.9,"mosquito_risk":0,"arthritis_risk":5,"migraine_risk":7,"frizz_risk":1,"updated_at":"2026-06-17T21:09:25.925614+05:30"},{"city":"Ajmer","state":"Rajasthan","latitude":26.4499,"longitude":74.6399,"temp":30.0,"humidity":57,"rain":0.0,"pressure":952.3,"uv_index":8.35,"wind_gusts":37.8,"aqi":91,"pm10":67.8,"pm2_5":31.0,"no2":8.6,"co":198.0,"o3":62.0,"so2":3.4,"mosquito_risk":4,"arthritis_risk":5,"migraine_risk":7,"frizz_risk":1,"updated_at":"2026-06-17T21:09:25.925621+05:30"},{"city":"Gwalior","state":"Madhya Pradesh","latitude":26.2183,"longitude":78.1828,"temp":33.8,"humidity":44,"rain":0.0,"pressure":979.8,"uv_index":7.7,"wind_gusts":31.3,"aqi":130,"pm10":89.9,"pm2_5":36.0,"no2":11.2,"co":234.0,"o3":60.0,"so2":4.0,"mosquito_risk":0,"arthritis_risk":5,"migraine_risk":7,"frizz_risk":1,"updated_at":"2026-06-17T21:09:25.925627+05:30"},{"city":"Indore","state":"Madhya Pradesh","latitude":22.7196,"longitude":75.8577,"temp":29.7,"humidity":57,"rain":0.0,"pressure":947.1,"uv_index":8.55,"wind_gusts":51.1,"aqi":75,"pm10":35.6,"pm2_5":29.9,"no2":19.1,"co":614.0,"o3":54.0,"so2":6.0,"mosquito_risk":4,"arthritis_risk":5,"migraine_risk":7,"frizz_risk":1,"updated_at":"2026-06-17T21:09:25.925634+05:30"},{"city":"Bhopal","state":"Madhya Pradesh","latitude":23.2599,"longitude":77.4126,"temp":28.1,"humidity":73,"rain":0.0,"pressure":952.2,"uv_index":8.45,"wind_gusts":42.1,"aqi":91,"pm10":48.7,"pm2_5":33.2,"no2":15.9,"co":565.0,"o3":63.0,"so2":5.2,"mosquito_risk":7,"arthritis_risk":5,"migraine_risk":7,"frizz_risk":1,"updated_at":"2026-06-17T21:09:25.925641+05:30"},{"city":"Jabalpur","state":"Madhya Pradesh","latitude":23.1815,"longitude":79.9864,"temp":24.8,"humidity":94,"rain":0.0,"pressure":960.4,"uv_index":8.7,"wind_gusts":49.0,"aqi":102,"pm10":34.7,"pm2_5":26.1,"no2":8.5,"co":222.0,"o3":77.0,"so2":2.8,"mosquito_risk":3,"arthritis_risk":5,"migraine_risk":7,"frizz_risk":1,"updated_at":"2026-06-17T21:09:25.925648+05:30"},{"city":"Ujjain","state":"Madhya Pradesh","latitude":23.1765,"longitude":75.7885,"temp":29.5,"humidity":57,"rain":0.0,"pressure":952.4,"uv_index":8.5,"wind_gusts":56.5,"aqi":71,"pm10":46.3,"pm2_5":31.1,"no2":9.3,"co":335.0,"o3":68.0,"so2":3.8,"mosquito_risk":4,"arthritis_risk":5,"migraine_risk":7,"frizz_risk":1,"updated_at":"2026-06-17T21:09:25.925656+05:30"},{"city":"Visakhapatnam","state":"Andhra Pradesh","latitude":17.6868,"longitude":83.2185,"temp":30.0,"humidity":93,"rain":0.0,"pressure":1001.9,"uv_index":8.9,"wind_gusts":40.7,"aqi":145,"pm10":73.6,"pm2_5":53.4,"no2":43.3,"co":665.0,"o3":70.0,"so2":58.9,"mosquito_risk":7,"arthritis_risk":5,"migraine_risk":4,"frizz_risk":1,"updated_at":"2026-06-17T21:09:25.925663+05:30"},{"city":"Vijayawada","state":"Andhra Pradesh","latitude":16.5062,"longitude":80.648,"temp":32.6,"humidity":66,"rain":0.0,"pressure":1000.1,"uv_index":8.9,"wind_gusts":31.3,"aqi":146,"pm10":74.7,"pm2_5":58.9,"no2":27.1,"co":710.0,"o3":67.0,"so2":11.3,"mosquito_risk":3,"arthritis_risk":5,"migraine_risk":4,"frizz_risk":1,"updated_at":"2026-06-17T21:09:25.925669+05:30"},{"city":"Guntur","state":"Andhra Pradesh","latitude":16.3067,"longitude":80.4365,"temp":32.2,"humidity":66,"rain":0.0,"pressure":1001.2,"uv_index":8.9,"wind_gusts":33.8,"aqi":131,"pm10":111.3,"pm2_5":83.6,"no2":47.2,"co":833.0,"o3":46.0,"so2":14.2,"mosquito_risk":3,"arthritis_risk":5,"migraine_risk":4,"frizz_risk":1,"updated_at":"2026-06-17T21:09:25.925676+05:30"},{"city":"Nellore","state":"Andhra Pradesh","latitude":14.4426,"longitude":79.9865,"temp":32.1,"humidity":66,"rain":0.0,"pressure":1003.6,"uv_index":8.5,"wind_gusts":38.9,"aqi":119,"pm10":47.0,"pm2_5":32.7,"no2":6.1,"co":294.0,"o3":135.0,"so2":6.4,"mosquito_risk":3,"arthritis_risk":5,"migraine_risk":4,"frizz_risk":1,"updated_at":"2026-06-17T21:09:25.925684+05:30"},{"city":"Kurnool","state":"Andhra Pradesh","latitude":15.8281,"longitude":78.0373,"temp":31.7,"humidity":53,"rain":0.0,"pressure":975.2,"uv_index":8.25,"wind_gusts":40.7,"aqi":80,"pm10":53.6,"pm2_5":36.3,"no2":23.0,"co":384.0,"o3":74.0,"so2":11.5,"mosquito_risk":0,"arthritis_risk":5,"migraine_risk":7,"frizz_risk":1,"updated_at":"2026-06-17T21:09:25.925692+05:30"},{"city":"Kakinada","state":"Andhra Pradesh","latitude":16.9891,"longitude":82.2475,"temp":31.8,"humidity":77,"rain":0.0,"pressure":1005.4,"uv_index":8.6,"wind_gusts":27.7,"aqi":106,"pm10":52.2,"pm2_5":33.1,"no2":2.8,"co":595.0,"o3":120.0,"so2":5.0,"mosquito_risk":3,"arthritis_risk":5,"migraine_risk":4,"frizz_risk":1,"updated_at":"2026-06-17T21:09:25.925699+05:30"},{"city":"Tirupati","state":"Andhra Pradesh","latitude":13.6288,"longitude":79.4192,"temp":28.9,"humidity":72,"rain":0.0,"pressure":989.8,"uv_index":7.1,"wind_gusts":30.2,"aqi":102,"pm10":50.2,"pm2_5":35.3,"no2":32.0,"co":302.0,"o3":52.0,"so2":6.4,"mosquito_risk":7,"arthritis_risk":5,"migraine_risk":7,"frizz_risk":1,"updated_at":"2026-06-17T21:09:25.925705+05:30"},{"city":"Warangal","state":"Telangana","latitude":17.9689,"longitude":79.5941,"temp":31.8,"humidity":60,"rain":0.0,"pressure":976.8,"uv_index":8.7,"wind_gusts":32.4,"aqi":147,"pm10":85.0,"pm2_5":62.6,"no2":36.6,"co":632.0,"o3":51.0,"so2":11.6,"mosquito_risk":0,"arthritis_risk":5,"migraine_risk":7,"frizz_risk":1,"updated_at":"2026-06-17T21:09:25.925712+05:30"},{"city":"Nizamabad","state":"Telangana","latitude":18.6725,"longitude":78.0941,"temp":32.4,"humidity":40,"rain":0.0,"pressure":963.1,"uv_index":8.95,"wind_gusts":34.6,"aqi":94,"pm10":54.4,"pm2_5":30.0,"no2":16.8,"co":287.0,"o3":61.0,"so2":4.5,"mosquito_risk":0,"arthritis_risk":5,"migraine_risk":7,"frizz_risk":1,"updated_at":"2026-06-17T21:09:25.925718+05:30"},{"city":"Mysore","state":"Karnataka","latitude":12.2958,"longitude":76.6396,"temp":22.7,"humidity":93,"rain":0.0,"pressure":929.2,"uv_index":8.5,"wind_gusts":38.9,"aqi":59,"pm10":13.9,"pm2_5":10.8,"no2":16.6,"co":203.0,"o3":54.0,"so2":2.9,"mosquito_risk":3,"arthritis_risk":5,"migraine_risk":7,"frizz_risk":1,"updated_at":"2026-06-17T21:09:25.925724+05:30"},{"city":"Mangalore","state":"Karnataka","latitude":12.9141,"longitude":74.856,"temp":27.7,"humidity":79,"rain":0.0,"pressure":1008.1,"uv_index":8.55,"wind_gusts":38.2,"aqi":54,"pm10":31.0,"pm2_5":18.2,"no2":10.5,"co":458.0,"o3":37.0,"so2":3.3,"mosquito_risk":7,"arthritis_risk":0,"migraine_risk":4,"frizz_risk":1,"updated_at":"2026-06-17T21:09:25.925731+05:30"},{"city":"Hubli-Dharwad","state":"Karnataka","latitude":15.3647,"longitude":75.124,"temp":25.1,"humidity":78,"rain":0.0,"pressure":941.5,"uv_index":7.55,"wind_gusts":37.8,"aqi":41,"pm10":18.3,"pm2_5":11.5,"no2":7.1,"co":158.0,"o3":51.0,"so2":1.9,"mosquito_risk":7,"arthritis_risk":5,"migraine_risk":7,"frizz_risk":1,"updated_at":"2026-06-17T21:09:25.925738+05:30"},{"city":"Belgaum","state":"Karnataka","latitude":15.8497,"longitude":74.4977,"temp":23.5,"humidity":85,"rain":0.0,"pressure":926.7,"uv_index":8.05,"wind_gusts":38.9,"aqi":47,"pm10":19.0,"pm2_5":11.3,"no2":5.9,"co":148.0,"o3":47.0,"so2":1.8,"mosquito_risk":3,"arthritis_risk":5,"migraine_risk":7,"frizz_risk":1,"updated_at":"2026-06-17T21:09:29.155294+05:30"},{"city":"Coimbatore","state":"Tamil Nadu","latitude":11.0168,"longitude":76.9558,"temp":24.7,"humidity":87,"rain":0.0,"pressure":962.1,"uv_index":8.85,"wind_gusts":45.4,"aqi":44,"pm10":10.2,"pm2_5":8.1,"no2":11.0,"co":237.0,"o3":48.0,"so2":3.5,"mosquito_risk":3,"arthritis_risk":5,"migraine_risk":7,"frizz_risk":1,"updated_at":"2026-06-17T21:09:29.155330+05:30"},{"city":"Madurai","state":"Tamil Nadu","latitude":9.9252,"longitude":78.1198,"temp":30.3,"humidity":62,"rain":0.0,"pressure":993.3,"uv_index":8.65,"wind_gusts":38.5,"aqi":89,"pm10":33.5,"pm2_5":23.3,"no2":20.6,"co":313.0,"o3":63.0,"so2":4.9,"mosquito_risk":3,"arthritis_risk":5,"migraine_risk":7,"frizz_risk":1,"updated_at":"2026-06-17T21:09:29.155341+05:30"},{"city":"Trichy","state":"Tamil Nadu","latitude":10.7905,"longitude":78.7047,"temp":29.3,"humidity":85,"rain":0.1,"pressure":1000.0,"uv_index":8.55,"wind_gusts":42.5,"aqi":74,"pm10":28.2,"pm2_5":20.8,"no2":14.4,"co":257.0,"o3":77.0,"so2":4.2,"mosquito_risk":10,"arthritis_risk":5,"migraine_risk":4,"frizz_risk":1,"updated_at":"2026-06-17T21:09:29.155350+05:30"},{"city":"Salem","state":"Tamil Nadu","latitude":11.6643,"longitude":78.146,"temp":26.5,"humidity":84,"rain":0.1,"pressure":978.1,"uv_index":8.7,"wind_gusts":28.8,"aqi":92,"pm10":22.9,"pm2_5":16.5,"no2":13.5,"co":347.0,"o3":80.0,"so2":6.5,"mosquito_risk":10,"arthritis_risk":5,"migraine_risk":7,"frizz_risk":1,"updated_at":"2026-06-17T21:09:29.155359+05:30"},{"city":"Tirunelveli","state":"Tamil Nadu","latitude":8.7139,"longitude":77.7567,"temp":29.9,"humidity":57,"rain":0.0,"pressure":1003.3,"uv_index":7.25,"wind_gusts":36.7,"aqi":46,"pm10":16.7,"pm2_5":10.8,"no2":6.6,"co":177.0,"o3":59.0,"so2":2.3,"mosquito_risk":4,"arthritis_risk":5,"migraine_risk":4,"frizz_risk":1,"updated_at":"2026-06-17T21:09:29.155367+05:30"},{"city":"Vellore","state":"Tamil Nadu","latitude":12.9165,"longitude":79.1325,"temp":28.1,"humidity":73,"rain":0.0,"pressure":983.7,"uv_index":8.45,"wind_gusts":33.8,"aqi":118,"pm10":43.5,"pm2_5":31.5,"no2":22.7,"co":244.0,"o3":65.0,"so2":5.5,"mosquito_risk":7,"arthritis_risk":5,"migraine_risk":7,"frizz_risk":1,"updated_at":"2026-06-17T21:09:29.155375+05:30"},{"city":"Erode","state":"Tamil Nadu","latitude":11.341,"longitude":77.7172,"temp":27.7,"humidity":72,"rain":0.0,"pressure":989.3,"uv_index":8.8,"wind_gusts":42.1,"aqi":64,"pm10":20.0,"pm2_5":14.4,"no2":14.3,"co":255.0,"o3":63.0,"so2":3.2,"mosquito_risk":7,"arthritis_risk":5,"migraine_risk":7,"frizz_risk":1,"updated_at":"2026-06-17T21:09:29.155382+05:30"},{"city":"Kochi","state":"Kerala","latitude":9.9312,"longitude":76.2673,"temp":27.5,"humidity":89,"rain":0.0,"pressure":1010.1,"uv_index":6.9,"wind_gusts":32.4,"aqi":57,"pm10":31.3,"pm2_5":25.0,"no2":33.8,"co":346.0,"o3":11.0,"so2":7.4,"mosquito_risk":7,"arthritis_risk":0,"migraine_risk":4,"frizz_risk":1,"updated_at":"2026-06-17T21:09:29.155389+05:30"},{"city":"Thiruvananthapuram","state":"Kerala","latitude":8.5241,"longitude":76.9366,"temp":25.2,"humidity":93,"rain":0.0,"pressure":1009.5,"uv_index":7.45,"wind_gusts":35.6,"aqi":47,"pm10":23.7,"pm2_5":11.9,"no2":4.8,"co":272.0,"o3":53.0,"so2":1.9,"mosquito_risk":7,"arthritis_risk":0,"migraine_risk":4,"frizz_risk":1,"updated_at":"2026-06-17T21:09:29.155396+05:30"},{"city":"Kozhikode","state":"Kerala","latitude":11.2588,"longitude":75.7804,"temp":26.4,"humidity":95,"rain":0.0,"pressure":1009.3,"uv_index":8.3,"wind_gusts":34.2,"aqi":50,"pm10":26.2,"pm2_5":12.3,"no2":2.1,"co":358.0,"o3":60.0,"so2":1.3,"mosquito_risk":7,"arthritis_risk":0,"migraine_risk":4,"frizz_risk":1,"updated_at":"2026-06-17T21:09:29.155403+05:30"},{"city":"Thrissur","state":"Kerala","latitude":10.5276,"longitude":76.2144,"temp":26.8,"humidity":87,"rain":0.0,"pressure":1008.4,"uv_index":8.2,"wind_gusts":33.5,"aqi":53,"pm10":35.5,"pm2_5":28.0,"no2":26.6,"co":433.0,"o3":23.0,"so2":6.2,"mosquito_risk":7,"arthritis_risk":0,"migraine_risk":4,"frizz_risk":1,"updated_at":"2026-06-17T21:09:29.155410+05:30"},{"city":"Kannur","state":"Kerala","latitude":11.8745,"longitude":75.3704,"temp":25.7,"humidity":93,"rain":0.0,"pressure":1008.5,"uv_index":8.6,"wind_gusts":34.9,"aqi":50,"pm10":26.5,"pm2_5":16.2,"no2":14.8,"co":370.0,"o3":33.0,"so2":2.9,"mosquito_risk":7,"arthritis_risk":0,"migraine_risk":4,"frizz_risk":1,"updated_at":"2026-06-17T21:09:29.155417+05:30"},{"city":"Patna","state":"Bihar","latitude":25.5941,"longitude":85.1376,"temp":32.5,"humidity":75,"rain":0.0,"pressure":996.7,"uv_index":8.85,"wind_gusts":29.2,"aqi":160,"pm10":145.3,"pm2_5":96.4,"no2":55.6,"co":816.0,"o3":61.0,"so2":25.5,"mosquito_risk":3,"arthritis_risk":5,"migraine_risk":7,"frizz_risk":1,"updated_at":"2026-06-17T21:09:29.155424+05:30"},{"city":"Gaya","state":"Bihar","latitude":24.7914,"longitude":85.0002,"temp":32.8,"humidity":53,"rain":0.0,"pressure":990.4,"uv_index":8.95,"wind_gusts":29.5,"aqi":155,"pm10":143.4,"pm2_5":83.1,"no2":34.9,"co":466.0,"o3":82.0,"so2":18.1,"mosquito_risk":0,"arthritis_risk":5,"migraine_risk":7,"frizz_risk":1,"updated_at":"2026-06-17T21:09:29.155430+05:30"},{"city":"Muzaffarpur","state":"Bihar","latitude":26.1209,"longitude":85.3647,"temp":30.6,"humidity":80,"rain":0.0,"pressure":996.5,"uv_index":8.85,"wind_gusts":28.1,"aqi":163,"pm10":136.0,"pm2_5":98.5,"no2":44.6,"co":855.0,"o3":70.0,"so2":21.6,"mosquito_risk":3,"arthritis_risk":5,"migraine_risk":7,"frizz_risk":1,"updated_at":"2026-06-17T21:09:29.155436+05:30"},{"city":"Bhagalpur","state":"Bihar","latitude":25.2425,"longitude":87.0117,"temp":32.8,"humidity":66,"rain":0.0,"pressure":997.5,"uv_index":8.85,"wind_gusts":21.6,"aqi":170,"pm10":135.0,"pm2_5":86.4,"no2":17.8,"co":746.0,"o3":134.0,"so2":20.8,"mosquito_risk":3,"arthritis_risk":5,"migraine_risk":7,"frizz_risk":1,"updated_at":"2026-06-17T21:09:29.155442+05:30"},{"city":"Ranchi","state":"Jharkhand","latitude":23.3441,"longitude":85.3096,"temp":27.4,"humidity":63,"rain":0.0,"pressure":936.1,"uv_index":9.05,"wind_gusts":28.1,"aqi":154,"pm10":75.4,"pm2_5":53.7,"no2":12.5,"co":235.0,"o3":103.0,"so2":9.0,"mosquito_risk":7,"arthritis_risk":5,"migraine_risk":7,"frizz_risk":1,"updated_at":"2026-06-17T21:09:29.155449+05:30"},{"city":"Jamshedpur","state":"Jharkhand","latitude":22.8046,"longitude":86.2029,"temp":31.3,"humidity":60,"rain":0.0,"pressure":987.9,"uv_index":9.05,"wind_gusts":33.8,"aqi":164,"pm10":110.6,"pm2_5":78.9,"no2":19.4,"co":410.0,"o3":109.0,"so2":29.5,"mosquito_risk":0,"arthritis_risk":5,"migraine_risk":7,"frizz_risk":1,"updated_at":"2026-06-17T21:09:29.155456+05:30"},{"city":"Dhanbad","state":"Jharkhand","latitude":23.7957,"longitude":86.4304,"temp":33.2,"humidity":54,"rain":0.0,"pressure":977.0,"uv_index":9.05,"wind_gusts":28.4,"aqi":168,"pm10":142.0,"pm2_5":104.3,"no2":61.6,"co":525.0,"o3":81.0,"so2":142.7,"mosquito_risk":0,"arthritis_risk":5,"migraine_risk":7,"frizz_risk":1,"updated_at":"2026-06-17T21:09:29.155462+05:30"},{"city":"Bokaro","state":"Jharkhand","latitude":23.6693,"longitude":86.1511,"temp":31.6,"humidity":60,"rain":0.0,"pressure":980.8,"uv_index":9.1,"wind_gusts":27.0,"aqi":166,"pm10":134.6,"pm2_5":94.5,"no2":63.3,"co":1274.0,"o3":55.0,"so2":107.5,"mosquito_risk":0,"arthritis_risk":5,"migraine_risk":7,"frizz_risk":1,"updated_at":"2026-06-17T21:09:29.155468+05:30"},{"city":"Bhubaneswar","state":"Odisha","latitude":20.2961,"longitude":85.8245,"temp":29.5,"humidity":84,"rain":0.0,"pressure":1000.0,"uv_index":9.0,"wind_gusts":32.0,"aqi":115,"pm10":46.1,"pm2_5":38.3,"no2":11.0,"co":305.0,"o3":119.0,"so2":11.7,"mosquito_risk":7,"arthritis_risk":5,"migraine_risk":4,"frizz_risk":1,"updated_at":"2026-06-17T21:09:29.155475+05:30"},{"city":"Cuttack","state":"Odisha","latitude":20.4625,"longitude":85.8828,"temp":29.9,"humidity":82,"rain":0.0,"pressure":1001.7,"uv_index":9.1,"wind_gusts":29.5,"aqi":115,"pm10":46.1,"pm2_5":38.3,"no2":11.0,"co":486.0,"o3":119.0,"so2":11.7,"mosquito_risk":7,"arthritis_risk":5,"migraine_risk":4,"frizz_risk":1,"updated_at":"2026-06-17T21:09:29.155481+05:30"},{"city":"Rourkela","state":"Odisha","latitude":22.2604,"longitude":84.8536,"temp":28.8,"humidity":83,"rain":0.0,"pressure":982.5,"uv_index":9.0,"wind_gusts":34.9,"aqi":159,"pm10":107.6,"pm2_5":66.8,"no2":9.1,"co":524.0,"o3":143.0,"so2":11.4,"mosquito_risk":7,"arthritis_risk":5,"migraine_risk":7,"frizz_risk":1,"updated_at":"2026-06-17T21:09:29.155488+05:30"},{"city":"Raipur","state":"Chhattisgarh","latitude":21.2514,"longitude":81.6296,"temp":28.2,"humidity":82,"rain":0.0,"pressure":972.4,"uv_index":8.9,"wind_gusts":44.3,"aqi":159,"pm10":88.9,"pm2_5":59.3,"no2":30.9,"co":330.0,"o3":88.0,"so2":60.5,"mosquito_risk":7,"arthritis_risk":5,"migraine_risk":7,"frizz_risk":1,"updated_at":"2026-06-17T21:09:29.155495+05:30"},{"city":"Bhilai","state":"Chhattisgarh","latitude":21.1938,"longitude":81.3509,"temp":28.6,"humidity":85,"rain":0.0,"pressure":973.0,"uv_index":8.9,"wind_gusts":43.6,"aqi":156,"pm10":79.9,"pm2_5":53.2,"no2":32.7,"co":305.0,"o3":69.0,"so2":49.5,"mosquito_risk":7,"arthritis_risk":5,"migraine_risk":7,"frizz_risk":1,"updated_at":"2026-06-17T21:09:29.155501+05:30"},{"city":"Guwahati","state":"Assam","latitude":26.1158,"longitude":91.7086,"temp":26.4,"humidity":94,"rain":0.0,"pressure":999.4,"uv_index":8.75,"wind_gusts":29.5,"aqi":88,"pm10":31.7,"pm2_5":29.7,"no2":15.3,"co":659.0,"o3":46.0,"so2":4.1,"mosquito_risk":7,"arthritis_risk":5,"migraine_risk":7,"frizz_risk":1,"updated_at":"2026-06-17T21:09:29.155507+05:30"},{"city":"Agartala","state":"Tripura","latitude":23.8315,"longitude":91.2868,"temp":27.5,"humidity":87,"rain":0.0,"pressure":1004.8,"uv_index":8.75,"wind_gusts":25.6,"aqi":72,"pm10":27.9,"pm2_5":24.9,"no2":13.0,"co":207.0,"o3":53.0,"so2":2.8,"mosquito_risk":7,"arthritis_risk":5,"migraine_risk":4,"frizz_risk":1,"updated_at":"2026-06-17T21:09:29.155514+05:30"},{"city":"Shillong","state":"Meghalaya","latitude":25.5788,"longitude":91.8933,"temp":19.2,"humidity":92,"rain":0.0,"pressure":856.5,"uv_index":7.2,"wind_gusts":23.0,"aqi":62,"pm10":21.9,"pm2_5":18.6,"no2":9.2,"co":392.0,"o3":73.0,"so2":1.9,"mosquito_risk":3,"arthritis_risk":10,"migraine_risk":7,"frizz_risk":1,"updated_at":"2026-06-17T21:09:29.155521+05:30"},{"city":"Imphal","state":"Manipur","latitude":24.817,"longitude":93.9368,"temp":23.8,"humidity":88,"rain":0.0,"pressure":922.3,"uv_index":8.25,"wind_gusts":31.7,"aqi":51,"pm10":21.0,"pm2_5":20.1,"no2":18.5,"co":460.0,"o3":35.0,"so2":3.7,"mosquito_risk":3,"arthritis_risk":5,"migraine_risk":7,"frizz_risk":1,"updated_at":"2026-06-17T21:09:29.155528+05:30"},{"city":"Aizawl","state":"Mizoram","latitude":23.7271,"longitude":92.7176,"temp":20.3,"humidity":93,"rain":0.0,"pressure":892.0,"uv_index":9.05,"wind_gusts":28.8,"aqi":36,"pm10":10.9,"pm2_5":9.7,"no2":5.2,"co":173.0,"o3":58.0,"so2":1.3,"mosquito_risk":3,"arthritis_risk":5,"migraine_risk":7,"frizz_risk":1,"updated_at":"2026-06-17T21:09:29.155535+05:30"},{"city":"Kohima","state":"Nagaland","latitude":25.6701,"longitude":94.1077,"temp":19.9,"humidity":99,"rain":0.1,"pressure":855.1,"uv_index":8.7,"wind_gusts":24.8,"aqi":49,"pm10":13.1,"pm2_5":12.1,"no2":12.2,"co":399.0,"o3":49.0,"so2":1.8,"mosquito_risk":6,"arthritis_risk":10,"migraine_risk":7,"frizz_risk":1,"updated_at":"2026-06-17T21:09:29.155541+05:30"},{"city":"Gangtok","state":"Sikkim","latitude":27.3314,"longitude":88.6138,"temp":18.9,"humidity":90,"rain":0.0,"pressure":837.1,"uv_index":8.9,"wind_gusts":40.3,"aqi":82,"pm10":10.1,"pm2_5":9.4,"no2":12.9,"co":504.0,"o3":94.0,"so2":2.8,"mosquito_risk":3,"arthritis_risk":10,"migraine_risk":7,"frizz_risk":1,"updated_at":"2026-06-17T21:09:29.155548+05:30"},{"city":"Siliguri","state":"West Bengal","latitude":26.7271,"longitude":88.3953,"temp":24.5,"humidity":97,"rain":0.0,"pressure":991.4,"uv_index":8.75,"wind_gusts":27.0,"aqi":133,"pm10":57.5,"pm2_5":48.2,"no2":13.0,"co":808.0,"o3":112.0,"so2":7.0,"mosquito_risk":3,"arthritis_risk":5,"migraine_risk":7,"frizz_risk":1,"updated_at":"2026-06-17T21:09:32.389930+05:30"},{"city":"Durgapur","state":"West Bengal","latitude":23.5204,"longitude":87.3119,"temp":30.2,"humidity":77,"rain":0.0,"pressure":992.0,"uv_index":9.0,"wind_gusts":25.6,"aqi":205,"pm10":144.4,"pm2_5":118.0,"no2":34.3,"co":572.0,"o3":111.0,"so2":64.3,"mosquito_risk":3,"arthritis_risk":5,"migraine_risk":7,"frizz_risk":1,"updated_at":"2026-06-17T21:09:32.389966+05:30"},{"city":"Asansol","state":"West Bengal","latitude":23.6739,"longitude":86.9524,"temp":30.7,"humidity":73,"rain":0.0,"pressure":990.7,"uv_index":9.05,"wind_gusts":27.4,"aqi":183,"pm10":127.1,"pm2_5":101.7,"no2":29.0,"co":1042.0,"o3":122.0,"so2":54.9,"mosquito_risk":3,"arthritis_risk":5,"migraine_risk":7,"frizz_risk":1,"updated_at":"2026-06-17T21:09:32.389976+05:30"},{"city":"Pondicherry","state":"Puducherry","latitude":11.9139,"longitude":79.8145,"temp":30.0,"humidity":79,"rain":0.0,"pressure":1007.8,"uv_index":8.65,"wind_gusts":40.3,"aqi":118,"pm10":33.3,"pm2_5":23.4,"no2":12.5,"co":416.0,"o3":90.0,"so2":6.9,"mosquito_risk":7,"arthritis_risk":5,"migraine_risk":4,"frizz_risk":1,"updated_at":"2026-06-17T21:09:32.389984+05:30"},{"city":"Port Blair","state":"Andaman and Nicobar Islands","latitude":11.6234,"longitude":92.7265,"temp":27.6,"humidity":84,"rain":0.0,"pressure":1009.3,"uv_index":8.05,"wind_gusts":37.8,"aqi":24,"pm10":12.6,"pm2_5":6.7,"no2":0.4,"co":98.0,"o3":40.0,"so2":0.3,"mosquito_risk":7,"arthritis_risk":0,"migraine_risk":4,"frizz_risk":1,"updated_at":"2026-06-17T21:09:32.389992+05:30"},{"city":"Haridwar","state":"Uttarakhand","latitude":29.9457,"longitude":78.1642,"temp":29.4,"humidity":72,"rain":0.0,"pressure":969.9,"uv_index":7.65,"wind_gusts":20.2,"aqi":167,"pm10":267.3,"pm2_5":100.6,"no2":26.9,"co":498.0,"o3":109.0,"so2":17.4,"mosquito_risk":7,"arthritis_risk":5,"migraine_risk":7,"frizz_risk":1,"updated_at":"2026-06-17T21:09:32.390000+05:30"},{"city":"Rishikesh","state":"Uttarakhand","latitude":30.0869,"longitude":78.2676,"temp":29.3,"humidity":61,"rain":0.0,"pressure":962.9,"uv_index":6.25,"wind_gusts":22.0,"aqi":152,"pm10":151.8,"pm2_5":63.1,"no2":13.8,"co":421.0,"o3":109.0,"so2":7.7,"mosquito_risk":7,"arthritis_risk":5,"migraine_risk":7,"frizz_risk":1,"updated_at":"2026-06-17T21:09:32.390007+05:30"},{"city":"Nainital","state":"Uttarakhand","latitude":29.3919,"longitude":79.4542,"temp":15.9,"humidity":96,"rain":0.0,"pressure":803.7,"uv_index":6.05,"wind_gusts":29.9,"aqi":154,"pm10":136.9,"pm2_5":63.1,"no2":11.3,"co":426.0,"o3":126.0,"so2":13.6,"mosquito_risk":3,"arthritis_risk":10,"migraine_risk":7,"frizz_risk":0,"updated_at":"2026-06-17T21:09:32.390015+05:30"},{"city":"Mussoorie","state":"Uttarakhand","latitude":30.4599,"longitude":78.0664,"temp":15.4,"humidity":95,"rain":0.0,"pressure":800.7,"uv_index":7.0,"wind_gusts":32.4,"aqi":131,"pm10":117.3,"pm2_5":62.4,"no2":34.2,"co":321.0,"o3":89.0,"so2":12.9,"mosquito_risk":3,"arthritis_risk":10,"migraine_risk":7,"frizz_risk":0,"updated_at":"2026-06-17T21:09:32.390024+05:30"},{"city":"Dharamshala","state":"Himachal Pradesh","latitude":32.219,"longitude":76.3234,"temp":21.0,"humidity":75,"rain":0.0,"pressure":867.0,"uv_index":8.55,"wind_gusts":41.8,"aqi":103,"pm10":18.2,"pm2_5":13.3,"no2":11.6,"co":489.0,"o3":91.0,"so2":1.1,"mosquito_risk":3,"arthritis_risk":5,"migraine_risk":7,"frizz_risk":1,"updated_at":"2026-06-17T21:09:32.390031+05:30"},{"city":"Dalhousie","state":"Himachal Pradesh","latitude":32.5387,"longitude":75.971,"temp":15.1,"humidity":92,"rain":0.0,"pressure":802.2,"uv_index":8.8,"wind_gusts":30.2,"aqi":162,"pm10":61.9,"pm2_5":33.6,"no2":18.4,"co":647.0,"o3":139.0,"so2":4.7,"mosquito_risk":3,"arthritis_risk":10,"migraine_risk":7,"frizz_risk":0,"updated_at":"2026-06-17T21:09:32.390039+05:30"},{"city":"Patiala","state":"Punjab","latitude":30.3398,"longitude":76.3869,"temp":31.1,"humidity":55,"rain":0.0,"pressure":974.3,"uv_index":7.55,"wind_gusts":28.1,"aqi":275,"pm10":184.9,"pm2_5":69.6,"no2":17.6,"co":462.0,"o3":73.0,"so2":7.2,"mosquito_risk":0,"arthritis_risk":5,"migraine_risk":7,"frizz_risk":1,"updated_at":"2026-06-17T21:09:32.390047+05:30"},{"city":"Bhatinda","state":"Punjab","latitude":30.211,"longitude":74.9455,"temp":32.4,"humidity":48,"rain":0.0,"pressure":979.6,"uv_index":8.3,"wind_gusts":20.9,"aqi":117,"pm10":71.9,"pm2_5":45.9,"no2":22.5,"co":361.0,"o3":82.0,"so2":10.6,"mosquito_risk":0,"arthritis_risk":5,"migraine_risk":7,"frizz_risk":1,"updated_at":"2026-06-17T21:09:32.390054+05:30"},{"city":"Rohtak","state":"Haryana","latitude":28.8955,"longitude":76.6066,"temp":30.7,"humidity":57,"rain":0.0,"pressure":977.7,"uv_index":7.8,"wind_gusts":20.5,"aqi":353,"pm10":295.2,"pm2_5":89.6,"no2":76.9,"co":469.0,"o3":17.0,"so2":12.3,"mosquito_risk":0,"arthritis_risk":5,"migraine_risk":7,"frizz_risk":1,"updated_at":"2026-06-17T21:09:32.390060+05:30"},{"city":"Panipat","state":"Haryana","latitude":29.3909,"longitude":76.9635,"temp":30.6,"humidity":58,"rain":0.0,"pressure":976.4,"uv_index":7.65,"wind_gusts":18.0,"aqi":674,"pm10":510.4,"pm2_5":122.9,"no2":57.1,"co":344.0,"o3":38.0,"so2":17.1,"mosquito_risk":0,"arthritis_risk":5,"migraine_risk":7,"frizz_risk":1,"updated_at":"2026-06-17T21:09:32.390066+05:30"},{"city":"Mathura","state":"Uttar Pradesh","latitude":27.4924,"longitude":77.6737,"temp":31.2,"humidity":55,"rain":0.0,"pressure":982.8,"uv_index":8.1,"wind_gusts":25.6,"aqi":166,"pm10":315.7,"pm2_5":85.2,"no2":74.0,"co":490.0,"o3":17.0,"so2":9.1,"mosquito_risk":0,"arthritis_risk":5,"migraine_risk":7,"frizz_risk":1,"updated_at":"2026-06-17T21:09:32.390073+05:30"},{"city":"Vrindavan","state":"Uttar Pradesh","latitude":27.5823,"longitude":77.7027,"temp":30.8,"humidity":55,"rain":0.0,"pressure":983.2,"uv_index":8.05,"wind_gusts":25.6,"aqi":166,"pm10":315.7,"pm2_5":85.2,"no2":74.0,"co":483.0,"o3":17.0,"so2":9.1,"mosquito_risk":0,"arthritis_risk":5,"migraine_risk":7,"frizz_risk":1,"updated_at":"2026-06-17T21:09:32.390079+05:30"},{"city":"Ayodhya","state":"Uttar Pradesh","latitude":26.7922,"longitude":82.1998,"temp":31.2,"humidity":63,"rain":0.0,"pressure":991.3,"uv_index":8.4,"wind_gusts":34.9,"aqi":160,"pm10":110.1,"pm2_5":57.5,"no2":20.3,"co":393.0,"o3":70.0,"so2":9.0,"mosquito_risk":3,"arthritis_risk":5,"migraine_risk":7,"frizz_risk":1,"updated_at":"2026-06-17T21:09:32.390085+05:30"},{"city":"Ratlam","state":"Madhya Pradesh","latitude":23.3315,"longitude":75.0367,"temp":29.1,"humidity":60,"rain":0.0,"pressure":953.2,"uv_index":8.45,"wind_gusts":42.8,"aqi":68,"pm10":51.2,"pm2_5":25.2,"no2":2.2,"co":160.0,"o3":89.0,"so2":3.1,"mosquito_risk":4,"arthritis_risk":5,"migraine_risk":7,"frizz_risk":1,"updated_at":"2026-06-17T21:09:32.390092+05:30"},{"city":"Sagar","state":"Madhya Pradesh","latitude":23.8388,"longitude":78.7378,"temp":27.7,"humidity":66,"rain":0.0,"pressure":948.8,"uv_index":7.75,"wind_gusts":43.6,"aqi":92,"pm10":36.7,"pm2_5":26.6,"no2":9.5,"co":218.0,"o3":66.0,"so2":2.2,"mosquito_risk":7,"arthritis_risk":5,"migraine_risk":7,"frizz_risk":1,"updated_at":"2026-06-17T21:09:32.390098+05:30"},{"city":"Satna","state":"Madhya Pradesh","latitude":24.6005,"longitude":80.8322,"temp":32.1,"humidity":54,"rain":0.0,"pressure":968.6,"uv_index":8.8,"wind_gusts":31.7,"aqi":102,"pm10":52.4,"pm2_5":35.2,"no2":17.8,"co":273.0,"o3":53.0,"so2":3.6,"mosquito_risk":0,"arthritis_risk":5,"migraine_risk":7,"frizz_risk":1,"updated_at":"2026-06-17T21:09:32.390104+05:30"},{"city":"Akola","state":"Maharashtra","latitude":20.7002,"longitude":77.0082,"temp":32.3,"humidity":45,"rain":0.0,"pressure":973.9,"uv_index":8.8,"wind_gusts":42.8,"aqi":73,"pm10":40.0,"pm2_5":22.3,"no2":8.4,"co":147.0,"o3":85.0,"so2":6.1,"mosquito_risk":0,"arthritis_risk":5,"migraine_risk":7,"frizz_risk":1,"updated_at":"2026-06-17T21:09:32.390111+05:30"},{"city":"Amravati","state":"Maharashtra","latitude":20.9374,"longitude":77.7796,"temp":28.9,"humidity":65,"rain":0.0,"pressure":966.3,"uv_index":8.4,"wind_gusts":48.6,"aqi":77,"pm10":40.5,"pm2_5":23.3,"no2":9.6,"co":224.0,"o3":78.0,"so2":6.1,"mosquito_risk":7,"arthritis_risk":5,"migraine_risk":7,"frizz_risk":1,"updated_at":"2026-06-17T21:09:32.390118+05:30"},{"city":"Latur","state":"Maharashtra","latitude":18.4088,"longitude":76.5604,"temp":31.1,"humidity":32,"rain":0.0,"pressure":938.6,"uv_index":8.85,"wind_gusts":36.7,"aqi":73,"pm10":60.3,"pm2_5":35.3,"no2":23.4,"co":503.0,"o3":62.0,"so2":5.2,"mosquito_risk":0,"arthritis_risk":5,"migraine_risk":7,"frizz_risk":0,"updated_at":"2026-06-17T21:09:32.390124+05:30"},{"city":"Nanded","state":"Maharashtra","latitude":19.1383,"longitude":77.3091,"temp":33.4,"humidity":38,"rain":0.0,"pressure":966.6,"uv_index":8.8,"wind_gusts":34.9,"aqi":76,"pm10":51.8,"pm2_5":27.6,"no2":18.3,"co":560.0,"o3":60.0,"so2":3.9,"mosquito_risk":0,"arthritis_risk":5,"migraine_risk":7,"frizz_risk":1,"updated_at":"2026-06-17T21:09:32.390131+05:30"},{"city":"Gulbarga","state":"Karnataka","latitude":17.3297,"longitude":76.8343,"temp":31.6,"humidity":41,"rain":0.0,"pressure":957.5,"uv_index":7.7,"wind_gusts":34.9,"aqi":69,"pm10":49.2,"pm2_5":30.3,"no2":34.4,"co":293.0,"o3":53.0,"so2":6.0,"mosquito_risk":0,"arthritis_risk":5,"migraine_risk":7,"frizz_risk":1,"updated_at":"2026-06-17T21:09:32.390137+05:30"},{"city":"Bidar","state":"Karnataka","latitude":17.9104,"longitude":77.5199,"temp":30.0,"humidity":44,"rain":0.0,"pressure":934.3,"uv_index":8.95,"wind_gusts":34.9,"aqi":92,"pm10":61.9,"pm2_5":40.3,"no2":39.2,"co":357.0,"o3":44.0,"so2":6.1,"mosquito_risk":4,"arthritis_risk":5,"migraine_risk":7,"frizz_risk":1,"updated_at":"2026-06-17T21:09:32.390144+05:30"},{"city":"Hospet","state":"Karnataka","latitude":15.2689,"longitude":76.3909,"temp":28.1,"humidity":62,"rain":0.0,"pressure":956.0,"uv_index":8.65,"wind_gusts":33.8,"aqi":54,"pm10":14.6,"pm2_5":10.3,"no2":6.6,"co":201.0,"o3":69.0,"so2":2.0,"mosquito_risk":7,"arthritis_risk":5,"migraine_risk":7,"frizz_risk":1,"updated_at":"2026-06-17T21:09:32.390150+05:30"},{"city":"Tirupur","state":"Tamil Nadu","latitude":11.1085,"longitude":77.3411,"temp":26.4,"humidity":77,"rain":0.0,"pressure":975.4,"uv_index":8.7,"wind_gusts":46.4,"aqi":64,"pm10":22.0,"pm2_5":15.9,"no2":16.1,"co":196.0,"o3":56.0,"so2":4.4,"mosquito_risk":7,"arthritis_risk":5,"migraine_risk":7,"frizz_risk":1,"updated_at":"2026-06-17T21:09:32.390156+05:30"},{"city":"Alappuzha","state":"Kerala","latitude":9.4981,"longitude":76.3388,"temp":27.1,"humidity":86,"rain":0.0,"pressure":1010.2,"uv_index":5.5,"wind_gusts":28.4,"aqi":57,"pm10":31.4,"pm2_5":19.8,"no2":19.6,"co":104.0,"o3":37.0,"so2":5.3,"mosquito_risk":7,"arthritis_risk":0,"migraine_risk":0,"frizz_risk":1,"updated_at":"2026-06-17T21:09:32.390162+05:30"},{"city":"Munnar","state":"Kerala","latitude":10.0889,"longitude":77.0595,"temp":16.8,"humidity":100,"rain":0.0,"pressure":857.4,"uv_index":5.9,"wind_gusts":32.4,"aqi":32,"pm10":7.2,"pm2_5":5.9,"no2":9.7,"co":119.0,"o3":44.0,"so2":2.0,"mosquito_risk":3,"arthritis_risk":10,"migraine_risk":3,"frizz_risk":1,"updated_at":"2026-06-17T21:09:32.390169+05:30"},{"city":"Silchar","state":"Assam","latitude":24.8333,"longitude":92.7789,"temp":26.3,"humidity":97,"rain":0.0,"pressure":1004.0,"uv_index":8.6,"wind_gusts":26.3,"aqi":85,"pm10":43.5,"pm2_5":37.0,"no2":10.7,"co":414.0,"o3":67.0,"so2":5.7,"mosquito_risk":7,"arthritis_risk":5,"migraine_risk":4,"frizz_risk":1,"updated_at":"2026-06-17T21:09:32.390175+05:30"},{"city":"Dibrugarh","state":"Assam","latitude":27.4728,"longitude":94.912,"temp":25.9,"humidity":98,"rain":0.0,"pressure":993.8,"uv_index":7.8,"wind_gusts":28.4,"aqi":70,"pm10":23.9,"pm2_5":22.5,"no2":11.9,"co":299.0,"o3":79.0,"so2":2.4,"mosquito_risk":7,"arthritis_risk":5,"migraine_risk":7,"frizz_risk":1,"updated_at":"2026-06-17T21:09:32.390181+05:30"}]