[{"city":"Delhi","state":"Delhi","latitude":28.6139,"longitude":77.209,"temp":19.7,"humidity":91,"rain":0.0,"pressure":984.8,"uv_index":6.85,"wind_gusts":18.0,"aqi":129,"pm10":238.4,"pm2_5":64.0,"mosquito_risk":3,"arthritis_risk":10,"migraine_risk":7,"frizz_risk":1,"updated_at":"2026-04-01T02:17:38.025983+05:30"},{"city":"Mumbai","state":"Maharashtra","latitude":19.076,"longitude":72.8777,"temp":27.2,"humidity":82,"rain":0.0,"pressure":1008.9,"uv_index":7.85,"wind_gusts":25.2,"aqi":57,"pm10":25.9,"pm2_5":13.4,"mosquito_risk":7,"arthritis_risk":0,"migraine_risk":4,"frizz_risk":1,"updated_at":"2026-04-01T02:17:38.026022+05:30"},{"city":"Bangalore","state":"Karnataka","latitude":12.9716,"longitude":77.5946,"temp":23.2,"humidity":77,"rain":0.0,"pressure":911.7,"uv_index":9.55,"wind_gusts":27.7,"aqi":88,"pm10":26.3,"pm2_5":24.1,"mosquito_risk":3,"arthritis_risk":5,"migraine_risk":7,"frizz_risk":1,"updated_at":"2026-04-01T02:17:38.026038+05:30"},{"city":"Hyderabad","state":"Telangana","latitude":17.385,"longitude":78.4867,"temp":24.0,"humidity":82,"rain":0.0,"pressure":953.4,"uv_index":9.1,"wind_gusts":19.4,"aqi":116,"pm10":34.2,"pm2_5":30.4,"mosquito_risk":3,"arthritis_risk":5,"migraine_risk":7,"frizz_risk":1,"updated_at":"2026-04-01T02:17:38.026048+05:30"},{"city":"Chennai","state":"Tamil Nadu","latitude":13.0827,"longitude":80.2707,"temp":26.6,"humidity":77,"rain":0.0,"pressure":1008.0,"uv_index":9.25,"wind_gusts":29.5,"aqi":48,"pm10":17.1,"pm2_5":13.1,"mosquito_risk":7,"arthritis_risk":0,"migraine_risk":4,"frizz_risk":1,"updated_at":"2026-04-01T02:17:38.026057+05:30"},{"city":"Kolkata","state":"West Bengal","latitude":22.5726,"longitude":88.3639,"temp":25.0,"humidity":97,"rain":0.0,"pressure":1007.3,"uv_index":8.55,"wind_gusts":18.7,"aqi":82,"pm10":28.4,"pm2_5":23.9,"mosquito_risk":7,"arthritis_risk":5,"migraine_risk":4,"frizz_risk":1,"updated_at":"2026-04-01T02:17:38.026085+05:30"},{"city":"Pune","state":"Maharashtra","latitude":18.5204,"longitude":73.8567,"temp":24.3,"humidity":95,"rain":0.0,"pressure":948.4,"uv_index":8.4,"wind_gusts":29.5,"aqi":111,"pm10":62.9,"pm2_5":56.6,"mosquito_risk":3,"arthritis_risk":5,"migraine_risk":7,"frizz_risk":1,"updated_at":"2026-04-01T02:17:38.026099+05:30"},{"city":"Ahmedabad","state":"Gujarat","latitude":23.0225,"longitude":72.5714,"temp":26.7,"humidity":62,"rain":0.0,"pressure":1002.8,"uv_index":7.8,"wind_gusts":24.8,"aqi":70,"pm10":36.7,"pm2_5":23.3,"mosquito_risk":7,"arthritis_risk":5,"migraine_risk":4,"frizz_risk":1,"updated_at":"2026-04-01T02:17:38.026107+05:30"},{"city":"Jaipur","state":"Rajasthan","latitude":26.9124,"longitude":75.7873,"temp":21.3,"humidity":80,"rain":0.0,"pressure":961.1,"uv_index":6.55,"wind_gusts":34.2,"aqi":70,"pm10":293.4,"pm2_5":43.0,"mosquito_risk":3,"arthritis_risk":5,"migraine_risk":7,"frizz_risk":1,"updated_at":"2026-04-01T02:17:38.026114+05:30"},{"city":"Lucknow","state":"Uttar Pradesh","latitude":26.8467,"longitude":80.9462,"temp":25.2,"humidity":63,"rain":0.0,"pressure":995.6,"uv_index":7.05,"wind_gusts":42.5,"aqi":145,"pm10":146.2,"pm2_5":41.3,"mosquito_risk":7,"arthritis_risk":5,"migraine_risk":7,"frizz_risk":1,"updated_at":"2026-04-01T02:17:38.026122+05:30"},{"city":"Kanpur","state":"Uttar Pradesh","latitude":26.4499,"longitude":80.3319,"temp":22.9,"humidity":82,"rain":0.3,"pressure":993.7,"uv_index":7.4,"wind_gusts":47.9,"aqi":259,"pm10":253.3,"pm2_5":49.4,"mosquito_risk":6,"arthritis_risk":5,"migraine_risk":7,"frizz_risk":1,"updated_at":"2026-04-01T02:17:38.026130+05:30"},{"city":"Chandigarh","state":"Chandigarh","latitude":30.7333,"longitude":76.7794,"temp":19.4,"humidity":77,"rain":0.0,"pressure":970.1,"uv_index":6.45,"wind_gusts":16.6,"aqi":87,"pm10":65.7,"pm2_5":38.4,"mosquito_risk":3,"arthritis_risk":5,"migraine_risk":7,"frizz_risk":0,"updated_at":"2026-04-01T02:17:38.026142+05:30"},{"city":"Srinagar","state":"Jammu and Kashmir","latitude":34.0837,"longitude":74.7973,"temp":8.2,"humidity":83,"rain":0.0,"pressure":840.4,"uv_index":7.3,"wind_gusts":20.5,"aqi":72,"pm10":66.6,"pm2_5":53.3,"mosquito_risk":3,"arthritis_risk":10,"migraine_risk":7,"frizz_risk":0,"updated_at":"2026-04-01T02:17:38.026151+05:30"},{"city":"Jammu","state":"Jammu and Kashmir","latitude":32.7266,"longitude":74.857,"temp":19.6,"humidity":68,"rain":0.0,"pressure":973.9,"uv_index":6.5,"wind_gusts":18.7,"aqi":73,"pm10":39.9,"pm2_5":28.4,"mosquito_risk":3,"arthritis_risk":5,"migraine_risk":7,"frizz_risk":0,"updated_at":"2026-04-01T02:17:38.026157+05:30"},{"city":"Amritsar","state":"Punjab","latitude":31.634,"longitude":74.8723,"temp":19.5,"humidity":77,"rain":0.0,"pressure":982.7,"uv_index":5.9,"wind_gusts":14.4,"aqi":110,"pm10":111.1,"pm2_5":50.9,"mosquito_risk":3,"arthritis_risk":5,"migraine_risk":3,"frizz_risk":0,"updated_at":"2026-04-01T02:17:38.026164+05:30"},{"city":"Ludhiana","state":"Punjab","latitude":30.901,"longitude":75.8573,"temp":20.7,"humidity":77,"rain":0.0,"pressure":980.6,"uv_index":6.6,"wind_gusts":15.5,"aqi":154,"pm10":125.3,"pm2_5":57.3,"mosquito_risk":3,"arthritis_risk":5,"migraine_risk":7,"frizz_risk":1,"updated_at":"2026-04-01T02:17:38.026170+05:30"},{"city":"Jalandhar","state":"Punjab","latitude":31.326,"longitude":75.5762,"temp":20.2,"humidity":75,"rain":0.0,"pressure":981.8,"uv_index":6.5,"wind_gusts":15.8,"aqi":146,"pm10":106.2,"pm2_5":53.0,"mosquito_risk":3,"arthritis_risk":5,"migraine_risk":7,"frizz_risk":0,"updated_at":"2026-04-01T02:17:38.026179+05:30"},{"city":"Dehradun","state":"Uttarakhand","latitude":30.6284,"longitude":78.0322,"temp":13.0,"humidity":64,"rain":0.0,"pressure":829.8,"uv_index":6.55,"wind_gusts":33.8,"aqi":40,"pm10":18.6,"pm2_5":11.7,"mosquito_risk":3,"arthritis_risk":5,"migraine_risk":7,"frizz_risk":0,"updated_at":"2026-04-01T02:17:38.026186+05:30"},{"city":"Shimla","state":"Himachal Pradesh","latitude":31.1048,"longitude":77.1734,"temp":10.9,"humidity":70,"rain":0.0,"pressure":783.2,"uv_index":5.95,"wind_gusts":31.7,"aqi":54,"pm10":26.0,"pm2_5":18.8,"mosquito_risk":3,"arthritis_risk":5,"migraine_risk":3,"frizz_risk":0,"updated_at":"2026-04-01T02:17:38.026193+05:30"},{"city":"Manali","state":"Himachal Pradesh","latitude":32.2396,"longitude":77.1887,"temp":13.8,"humidity":55,"rain":0.0,"pressure":819.5,"uv_index":7.7,"wind_gusts":30.2,"aqi":40,"pm10":16.7,"pm2_5":13.8,"mosquito_risk":0,"arthritis_risk":5,"migraine_risk":7,"frizz_risk":0,"updated_at":"2026-04-01T02:17:38.026202+05:30"},{"city":"Gurgaon","state":"Haryana","latitude":28.4595,"longitude":77.0266,"temp":18.3,"humidity":95,"rain":0.0,"pressure":983.0,"uv_index":6.85,"wind_gusts":14.4,"aqi":192,"pm10":257.0,"pm2_5":69.4,"mosquito_risk":3,"arthritis_risk":10,"migraine_risk":7,"frizz_risk":1,"updated_at":"2026-04-01T02:17:38.026208+05:30"},{"city":"Noida","state":"Uttar Pradesh","latitude":28.5355,"longitude":77.391,"temp":20.0,"humidity":87,"rain":0.0,"pressure":986.3,"uv_index":6.85,"wind_gusts":16.2,"aqi":192,"pm10":257.0,"pm2_5":69.4,"mosquito_risk":3,"arthritis_risk":5,"migraine_risk":7,"frizz_risk":1,"updated_at":"2026-04-01T02:17:38.026214+05:30"},{"city":"Ghaziabad","state":"Uttar Pradesh","latitude":28.6692,"longitude":77.4538,"temp":19.2,"humidity":92,"rain":0.0,"pressure":984.4,"uv_index":6.85,"wind_gusts":18.0,"aqi":126,"pm10":209.5,"pm2_5":57.3,"mosquito_risk":3,"arthritis_risk":10,"migraine_risk":7,"frizz_risk":1,"updated_at":"2026-04-01T02:17:38.026220+05:30"},{"city":"Faridabad","state":"Haryana","latitude":28.4089,"longitude":77.3178,"temp":19.1,"humidity":86,"rain":0.0,"pressure":985.4,"uv_index":6.8,"wind_gusts":18.7,"aqi":192,"pm10":257.0,"pm2_5":69.4,"mosquito_risk":3,"arthritis_risk":10,"migraine_risk":7,"frizz_risk":1,"updated_at":"2026-04-01T02:17:38.026226+05:30"},{"city":"Meerut","state":"Uttar Pradesh","latitude":28.9845,"longitude":77.7064,"temp":18.6,"humidity":92,"rain":0.0,"pressure":983.1,"uv_index":6.7,"wind_gusts":19.8,"aqi":126,"pm10":209.5,"pm2_5":57.3,"mosquito_risk":3,"arthritis_risk":10,"migraine_risk":7,"frizz_risk":1,"updated_at":"2026-04-01T02:17:38.026232+05:30"},{"city":"Agra","state":"Uttar Pradesh","latitude":27.1767,"longitude":78.0081,"temp":20.1,"humidity":91,"rain":0.0,"pressure":989.6,"uv_index":6.85,"wind_gusts":28.1,"aqi":272,"pm10":624.0,"pm2_5":86.8,"mosquito_risk":3,"arthritis_risk":5,"migraine_risk":7,"frizz_risk":1,"updated_at":"2026-04-01T02:17:38.026239+05:30"},{"city":"Varanasi","state":"Uttar Pradesh","latitude":25.3176,"longitude":82.9739,"temp":24.1,"humidity":70,"rain":0.0,"pressure":1000.0,"uv_index":7.45,"wind_gusts":31.7,"aqi":151,"pm10":116.9,"pm2_5":65.4,"mosquito_risk":3,"arthritis_risk":5,"migraine_risk":4,"frizz_risk":1,"updated_at":"2026-04-01T02:17:38.026247+05:30"},{"city":"Prayagraj","state":"Uttar Pradesh","latitude":25.4358,"longitude":81.8463,"temp":23.9,"humidity":70,"rain":0.0,"pressure":999.1,"uv_index":7.6,"wind_gusts":43.9,"aqi":151,"pm10":75.9,"pm2_5":29.1,"mosquito_risk":3,"arthritis_risk":5,"migraine_risk":7,"frizz_risk":1,"updated_at":"2026-04-01T02:17:38.026254+05:30"},{"city":"Gorakhpur","state":"Uttar Pradesh","latitude":26.7606,"longitude":83.3732,"temp":23.2,"humidity":82,"rain":0.0,"pressure":998.4,"uv_index":7.75,"wind_gusts":25.9,"aqi":153,"pm10":77.8,"pm2_5":64.0,"mosquito_risk":3,"arthritis_risk":5,"migraine_risk":7,"frizz_risk":1,"updated_at":"2026-04-01T02:17:38.026260+05:30"},{"city":"Bareilly","state":"Uttar Pradesh","latitude":28.367,"longitude":79.4304,"temp":20.9,"humidity":78,"rain":0.0,"pressure":988.3,"uv_index":6.65,"wind_gusts":22.0,"aqi":87,"pm10":78.0,"pm2_5":37.1,"mosquito_risk":3,"arthritis_risk":5,"migraine_risk":7,"frizz_risk":1,"updated_at":"2026-04-01T02:17:38.026268+05:30"},{"city":"Aligarh","state":"Uttar Pradesh","latitude":27.8974,"longitude":78.088,"temp":19.7,"humidity":90,"rain":0.0,"pressure":987.2,"uv_index":7.0,"wind_gusts":18.0,"aqi":195,"pm10":341.8,"pm2_5":79.2,"mosquito_risk":3,"arthritis_risk":10,"migraine_risk":7,"frizz_risk":1,"updated_at":"2026-04-01T02:17:38.026275+05:30"},{"city":"Moradabad","state":"Uttar Pradesh","latitude":28.8386,"longitude":78.7733,"temp":19.8,"humidity":82,"rain":0.0,"pressure":985.3,"uv_index":6.9,"wind_gusts":19.8,"aqi":93,"pm10":98.5,"pm2_5":38.9,"mosquito_risk":3,"arthritis_risk":10,"migraine_risk":7,"frizz_risk":1,"updated_at":"2026-04-01T02:17:38.026281+05:30"},{"city":"Saharanpur","state":"Uttar Pradesh","latitude":29.9637,"longitude":77.546,"temp":19.1,"humidity":87,"rain":0.0,"pressure":977.2,"uv_index":6.4,"wind_gusts":16.9,"aqi":137,"pm10":157.9,"pm2_5":62.6,"mosquito_risk":3,"arthritis_risk":10,"migraine_risk":7,"frizz_risk":1,"updated_at":"2026-04-01T02:17:38.026287+05:30"},{"city":"Jhansi","state":"Uttar Pradesh","latitude":25.4484,"longitude":78.5685,"temp":21.5,"humidity":84,"rain":0.0,"pressure":980.0,"uv_index":7.65,"wind_gusts":33.5,"aqi":46,"pm10":13.7,"pm2_5":9.5,"mosquito_risk":3,"arthritis_risk":5,"migraine_risk":7,"frizz_risk":1,"updated_at":"2026-04-01T02:17:41.250957+05:30"},{"city":"Surat","state":"Gujarat","latitude":21.1702,"longitude":72.8311,"temp":26.3,"humidity":87,"rain":0.0,"pressure":1007.2,"uv_index":7.65,"wind_gusts":26.3,"aqi":81,"pm10":41.1,"pm2_5":26.1,"mosquito_risk":7,"arthritis_risk":5,"migraine_risk":4,"frizz_risk":1,"updated_at":"2026-04-01T02:17:41.250988+05:30"},{"city":"Vadodara","state":"Gujarat","latitude":22.3072,"longitude":73.1812,"temp":26.4,"humidity":74,"rain":0.0,"pressure":1004.8,"uv_index":7.85,"wind_gusts":27.4,"aqi":70,"pm10":18.3,"pm2_5":14.6,"mosquito_risk":7,"arthritis_risk":5,"migraine_risk":4,"frizz_risk":1,"updated_at":"2026-04-01T02:17:41.251000+05:30"},{"city":"Rajkot","state":"Gujarat","latitude":22.3039,"longitude":70.8022,"temp":23.9,"humidity":74,"rain":0.0,"pressure":995.6,"uv_index":7.5,"wind_gusts":37.4,"aqi":67,"pm10":19.2,"pm2_5":11.4,"mosquito_risk":3,"arthritis_risk":5,"migraine_risk":7,"frizz_risk":1,"updated_at":"2026-04-01T02:17:41.251009+05:30"},{"city":"Thane","state":"Maharashtra","latitude":19.2183,"longitude":72.9781,"temp":25.8,"humidity":87,"rain":0.0,"pressure":1008.4,"uv_index":7.85,"wind_gusts":37.1,"aqi":57,"pm10":25.9,"pm2_5":13.4,"mosquito_risk":7,"arthritis_risk":0,"migraine_risk":4,"frizz_risk":1,"updated_at":"2026-04-01T02:17:41.251017+05:30"},{"city":"Nagpur","state":"Maharashtra","latitude":21.1458,"longitude":79.0882,"temp":25.1,"humidity":70,"rain":0.0,"pressure":974.0,"uv_index":8.6,"wind_gusts":24.8,"aqi":73,"pm10":46.3,"pm2_5":41.2,"mosquito_risk":7,"arthritis_risk":5,"migraine_risk":7,"frizz_risk":1,"updated_at":"2026-04-01T02:17:41.251025+05:30"},{"city":"Nashik","state":"Maharashtra","latitude":19.9975,"longitude":73.7898,"temp":23.0,"humidity":91,"rain":0.0,"pressure":945.7,"uv_index":8.1,"wind_gusts":32.0,"aqi":59,"pm10":17.3,"pm2_5":11.5,"mosquito_risk":3,"arthritis_risk":5,"migraine_risk":7,"frizz_risk":1,"updated_at":"2026-04-01T02:17:41.251033+05:30"},{"city":"Aurangabad","state":"Maharashtra","latitude":19.8762,"longitude":75.3433,"temp":24.9,"humidity":71,"rain":0.0,"pressure":943.9,"uv_index":8.75,"wind_gusts":28.4,"aqi":77,"pm10":49.6,"pm2_5":39.1,"mosquito_risk":3,"arthritis_risk":5,"migraine_risk":7,"frizz_risk":1,"updated_at":"2026-04-01T02:17:41.251040+05:30"},{"city":"Solapur","state":"Maharashtra","latitude":17.6599,"longitude":75.9064,"temp":26.3,"humidity":65,"rain":0.0,"pressure":957.0,"uv_index":8.9,"wind_gusts":33.1,"aqi":97,"pm10":56.0,"pm2_5":49.0,"mosquito_risk":7,"arthritis_risk":5,"migraine_risk":7,"frizz_risk":1,"updated_at":"2026-04-01T02:17:41.251048+05:30"},{"city":"Kolhapur","state":"Maharashtra","latitude":16.705,"longitude":74.2433,"temp":23.3,"humidity":97,"rain":0.0,"pressure":947.7,"uv_index":8.85,"wind_gusts":31.0,"aqi":128,"pm10":88.7,"pm2_5":83.1,"mosquito_risk":3,"arthritis_risk":5,"migraine_risk":7,"frizz_risk":1,"updated_at":"2026-04-01T02:17:41.251056+05:30"},{"city":"Goa","state":"Goa","latitude":15.2993,"longitude":74.124,"temp":28.1,"humidity":83,"rain":0.0,"pressure":997.8,"uv_index":8.85,"wind_gusts":32.0,"aqi":81,"pm10":44.1,"pm2_5":33.2,"mosquito_risk":7,"arthritis_risk":5,"migraine_risk":7,"frizz_risk":1,"updated_at":"2026-04-01T02:17:41.251096+05:30"},{"city":"Jodhpur","state":"Rajasthan","latitude":26.2389,"longitude":73.0243,"temp":23.8,"humidity":57,"rain":0.0,"pressure":983.6,"uv_index":7.5,"wind_gusts":27.7,"aqi":73,"pm10":190.9,"pm2_5":31.7,"mosquito_risk":0,"arthritis_risk":5,"migraine_risk":7,"frizz_risk":0,"updated_at":"2026-04-01T02:17:41.251106+05:30"},{"city":"Udaipur","state":"Rajasthan","latitude":24.5854,"longitude":73.7125,"temp":22.6,"humidity":67,"rain":0.0,"pressure":946.9,"uv_index":8.2,"wind_gusts":33.5,"aqi":42,"pm10":31.2,"pm2_5":13.2,"mosquito_risk":3,"arthritis_risk":5,"migraine_risk":7,"frizz_risk":1,"updated_at":"2026-04-01T02:17:41.251113+05:30"},{"city":"Kota","state":"Rajasthan","latitude":25.2138,"longitude":75.8648,"temp":23.6,"humidity":77,"rain":0.0,"pressure":980.4,"uv_index":7.15,"wind_gusts":28.1,"aqi":52,"pm10":21.3,"pm2_5":16.0,"mosquito_risk":3,"arthritis_risk":5,"migraine_risk":7,"frizz_risk":1,"updated_at":"2026-04-01T02:17:41.251119+05:30"},{"city":"Bikaner","state":"Rajasthan","latitude":28.0229,"longitude":73.3119,"temp":23.2,"humidity":74,"rain":0.0,"pressure":982.7,"uv_index":7.2,"wind_gusts":22.7,"aqi":54,"pm10":14.2,"pm2_5":9.3,"mosquito_risk":3,"arthritis_risk":5,"migraine_risk":7,"frizz_risk":1,"updated_at":"2026-04-01T02:17:41.251125+05:30"},{"city":"Ajmer","state":"Rajasthan","latitude":26.4499,"longitude":74.6399,"temp":22.8,"humidity":72,"rain":0.0,"pressure":955.9,"uv_index":7.2,"wind_gusts":27.7,"aqi":47,"pm10":29.2,"pm2_5":19.0,"mosquito_risk":3,"arthritis_risk":5,"migraine_risk":7,"frizz_risk":1,"updated_at":"2026-04-01T02:17:41.251131+05:30"},{"city":"Gwalior","state":"Madhya Pradesh","latitude":26.2183,"longitude":78.1828,"temp":21.6,"humidity":85,"rain":0.0,"pressure":985.0,"uv_index":7.35,"wind_gusts":20.9,"aqi":42,"pm10":92.7,"pm2_5":26.9,"mosquito_risk":3,"arthritis_risk":5,"migraine_risk":7,"frizz_risk":1,"updated_at":"2026-04-01T02:17:41.251137+05:30"},{"city":"Indore","state":"Madhya Pradesh","latitude":22.7196,"longitude":75.8577,"temp":24.3,"humidity":66,"rain":0.0,"pressure":947.9,"uv_index":8.3,"wind_gusts":30.6,"aqi":65,"pm10":23.4,"pm2_5":20.9,"mosquito_risk":3,"arthritis_risk":5,"migraine_risk":7,"frizz_risk":1,"updated_at":"2026-04-01T02:17:41.251143+05:30"},{"city":"Bhopal","state":"Madhya Pradesh","latitude":23.2599,"longitude":77.4126,"temp":24.3,"humidity":60,"rain":0.0,"pressure":953.9,"uv_index":8.25,"wind_gusts":35.3,"aqi":59,"pm10":32.1,"pm2_5":28.6,"mosquito_risk":0,"arthritis_risk":5,"migraine_risk":7,"frizz_risk":1,"updated_at":"2026-04-01T02:17:41.251148+05:30"},{"city":"Jabalpur","state":"Madhya Pradesh","latitude":23.1815,"longitude":79.9864,"temp":23.1,"humidity":70,"rain":0.0,"pressure":963.4,"uv_index":8.1,"wind_gusts":56.5,"aqi":73,"pm10":59.6,"pm2_5":32.9,"mosquito_risk":3,"arthritis_risk":5,"migraine_risk":7,"frizz_risk":1,"updated_at":"2026-04-01T02:17:41.251154+05:30"},{"city":"Ujjain","state":"Madhya Pradesh","latitude":23.1765,"longitude":75.7885,"temp":24.9,"humidity":62,"rain":0.0,"pressure":953.6,"uv_index":8.2,"wind_gusts":25.2,"aqi":65,"pm10":19.7,"pm2_5":16.2,"mosquito_risk":3,"arthritis_risk":5,"migraine_risk":7,"frizz_risk":1,"updated_at":"2026-04-01T02:17:41.251160+05:30"},{"city":"Visakhapatnam","state":"Andhra Pradesh","latitude":17.6868,"longitude":83.2185,"temp":26.0,"humidity":90,"rain":0.0,"pressure":1004.8,"uv_index":9.05,"wind_gusts":32.8,"aqi":68,"pm10":21.6,"pm2_5":18.2,"mosquito_risk":7,"arthritis_risk":5,"migraine_risk":4,"frizz_risk":1,"updated_at":"2026-04-01T02:17:41.251167+05:30"},{"city":"Vijayawada","state":"Andhra Pradesh","latitude":16.5062,"longitude":80.648,"temp":25.6,"humidity":90,"rain":0.0,"pressure":1003.6,"uv_index":9.1,"wind_gusts":30.2,"aqi":59,"pm10":16.6,"pm2_5":14.4,"mosquito_risk":7,"arthritis_risk":5,"migraine_risk":4,"frizz_risk":1,"updated_at":"2026-04-01T02:17:41.251173+05:30"},{"city":"Guntur","state":"Andhra Pradesh","latitude":16.3067,"longitude":80.4365,"temp":25.6,"humidity":89,"rain":0.0,"pressure":1004.7,"uv_index":9.1,"wind_gusts":31.0,"aqi":58,"pm10":14.1,"pm2_5":12.1,"mosquito_risk":7,"arthritis_risk":5,"migraine_risk":4,"frizz_risk":1,"updated_at":"2026-04-01T02:17:41.251179+05:30"},{"city":"Nellore","state":"Andhra Pradesh","latitude":14.4426,"longitude":79.9865,"temp":25.5,"humidity":86,"rain":0.0,"pressure":1006.7,"uv_index":9.2,"wind_gusts":29.5,"aqi":51,"pm10":12.6,"pm2_5":9.8,"mosquito_risk":7,"arthritis_risk":5,"migraine_risk":4,"frizz_risk":1,"updated_at":"2026-04-01T02:17:41.251186+05:30"},{"city":"Kurnool","state":"Andhra Pradesh","latitude":15.8281,"longitude":78.0373,"temp":27.3,"humidity":76,"rain":0.0,"pressure":977.0,"uv_index":9.1,"wind_gusts":18.7,"aqi":82,"pm10":21.6,"pm2_5":19.4,"mosquito_risk":7,"arthritis_risk":5,"migraine_risk":7,"frizz_risk":1,"updated_at":"2026-04-01T02:17:41.251192+05:30"},{"city":"Kakinada","state":"Andhra Pradesh","latitude":16.9891,"longitude":82.2475,"temp":24.9,"humidity":91,"rain":0.0,"pressure":1008.5,"uv_index":9.05,"wind_gusts":32.0,"aqi":52,"pm10":17.5,"pm2_5":13.4,"mosquito_risk":3,"arthritis_risk":0,"migraine_risk":4,"frizz_risk":1,"updated_at":"2026-04-01T02:17:41.251199+05:30"},{"city":"Tirupati","state":"Andhra Pradesh","latitude":13.6288,"longitude":79.4192,"temp":23.3,"humidity":88,"rain":0.0,"pressure":992.9,"uv_index":9.3,"wind_gusts":34.9,"aqi":67,"pm10":20.2,"pm2_5":17.8,"mosquito_risk":3,"arthritis_risk":5,"migraine_risk":7,"frizz_risk":1,"updated_at":"2026-04-01T02:17:41.251207+05:30"},{"city":"Warangal","state":"Telangana","latitude":17.9689,"longitude":79.5941,"temp":26.7,"humidity":76,"rain":0.0,"pressure":979.0,"uv_index":8.95,"wind_gusts":26.6,"aqi":135,"pm10":30.9,"pm2_5":29.2,"mosquito_risk":7,"arthritis_risk":5,"migraine_risk":7,"frizz_risk":1,"updated_at":"2026-04-01T02:17:41.251213+05:30"},{"city":"Nizamabad","state":"Telangana","latitude":18.6725,"longitude":78.0941,"temp":25.4,"humidity":76,"rain":0.0,"pressure":965.1,"uv_index":8.85,"wind_gusts":37.1,"aqi":120,"pm10":76.1,"pm2_5":67.8,"mosquito_risk":7,"arthritis_risk":5,"migraine_risk":7,"frizz_risk":1,"updated_at":"2026-04-01T02:17:41.251218+05:30"},{"city":"Mysore","state":"Karnataka","latitude":12.2958,"longitude":76.6396,"temp":22.9,"humidity":83,"rain":0.0,"pressure":928.3,"uv_index":9.5,"wind_gusts":28.8,"aqi":107,"pm10":37.8,"pm2_5":33.4,"mosquito_risk":3,"arthritis_risk":5,"migraine_risk":7,"frizz_risk":1,"updated_at":"2026-04-01T02:17:41.251224+05:30"},{"city":"Mangalore","state":"Karnataka","latitude":12.9141,"longitude":74.856,"temp":28.6,"humidity":80,"rain":0.0,"pressure":1006.4,"uv_index":9.15,"wind_gusts":21.2,"aqi":82,"pm10":31.5,"pm2_5":26.1,"mosquito_risk":7,"arthritis_risk":5,"migraine_risk":4,"frizz_risk":1,"updated_at":"2026-04-01T02:17:41.251230+05:30"},{"city":"Hubli-Dharwad","state":"Karnataka","latitude":15.3647,"longitude":75.124,"temp":23.3,"humidity":82,"rain":0.0,"pressure":940.6,"uv_index":9.15,"wind_gusts":34.2,"aqi":99,"pm10":61.9,"pm2_5":56.6,"mosquito_risk":3,"arthritis_risk":5,"migraine_risk":7,"frizz_risk":1,"updated_at":"2026-04-01T02:17:41.251236+05:30"},{"city":"Belgaum","state":"Karnataka","latitude":15.8497,"longitude":74.4977,"temp":22.4,"humidity":96,"rain":0.0,"pressure":925.4,"uv_index":9.1,"wind_gusts":27.4,"aqi":107,"pm10":69.2,"pm2_5":60.8,"mosquito_risk":3,"arthritis_risk":5,"migraine_risk":7,"frizz_risk":1,"updated_at":"2026-04-01T02:17:44.475250+05:30"},{"city":"Coimbatore","state":"Tamil Nadu","latitude":11.0168,"longitude":76.9558,"temp":24.8,"humidity":81,"rain":0.0,"pressure":961.8,"uv_index":9.45,"wind_gusts":40.3,"aqi":85,"pm10":27.2,"pm2_5":23.1,"mosquito_risk":3,"arthritis_risk":5,"migraine_risk":7,"frizz_risk":1,"updated_at":"2026-04-01T02:17:44.475282+05:30"},{"city":"Madurai","state":"Tamil Nadu","latitude":9.9252,"longitude":78.1198,"temp":25.5,"humidity":83,"rain":0.0,"pressure":993.7,"uv_index":8.4,"wind_gusts":27.0,"aqi":64,"pm10":25.1,"pm2_5":23.2,"mosquito_risk":7,"arthritis_risk":5,"migraine_risk":7,"frizz_risk":1,"updated_at":"2026-04-01T02:17:44.475299+05:30"},{"city":"Trichy","state":"Tamil Nadu","latitude":10.7905,"longitude":78.7047,"temp":24.1,"humidity":91,"rain":0.0,"pressure":1000.5,"uv_index":7.95,"wind_gusts":27.4,"aqi":57,"pm10":19.6,"pm2_5":17.1,"mosquito_risk":3,"arthritis_risk":5,"migraine_risk":4,"frizz_risk":1,"updated_at":"2026-04-01T02:17:44.475309+05:30"},{"city":"Salem","state":"Tamil Nadu","latitude":11.6643,"longitude":78.146,"temp":25.4,"humidity":75,"rain":0.0,"pressure":977.7,"uv_index":9.4,"wind_gusts":34.2,"aqi":69,"pm10":31.0,"pm2_5":28.7,"mosquito_risk":7,"arthritis_risk":5,"migraine_risk":7,"frizz_risk":1,"updated_at":"2026-04-01T02:17:44.475318+05:30"},{"city":"Tirunelveli","state":"Tamil Nadu","latitude":8.7139,"longitude":77.7567,"temp":25.0,"humidity":89,"rain":0.0,"pressure":1003.4,"uv_index":9.35,"wind_gusts":40.0,"aqi":77,"pm10":26.4,"pm2_5":24.9,"mosquito_risk":7,"arthritis_risk":5,"migraine_risk":4,"frizz_risk":1,"updated_at":"2026-04-01T02:17:44.475327+05:30"},{"city":"Vellore","state":"Tamil Nadu","latitude":12.9165,"longitude":79.1325,"temp":23.7,"humidity":83,"rain":0.0,"pressure":985.7,"uv_index":9.4,"wind_gusts":34.9,"aqi":80,"pm10":30.7,"pm2_5":28.2,"mosquito_risk":3,"arthritis_risk":5,"migraine_risk":7,"frizz_risk":1,"updated_at":"2026-04-01T02:17:44.475334+05:30"},{"city":"Erode","state":"Tamil Nadu","latitude":11.341,"longitude":77.7172,"temp":26.2,"humidity":78,"rain":0.0,"pressure":989.5,"uv_index":9.35,"wind_gusts":22.7,"aqi":55,"pm10":15.2,"pm2_5":13.4,"mosquito_risk":7,"arthritis_risk":5,"migraine_risk":7,"frizz_risk":1,"updated_at":"2026-04-01T02:17:44.475342+05:30"},{"city":"Kochi","state":"Kerala","latitude":9.9312,"longitude":76.2673,"temp":27.0,"humidity":83,"rain":0.0,"pressure":1008.6,"uv_index":9.2,"wind_gusts":34.2,"aqi":112,"pm10":45.3,"pm2_5":43.5,"mosquito_risk":7,"arthritis_risk":0,"migraine_risk":4,"frizz_risk":1,"updated_at":"2026-04-01T02:17:44.475350+05:30"},{"city":"Thiruvananthapuram","state":"Kerala","latitude":8.5241,"longitude":76.9366,"temp":28.4,"humidity":80,"rain":0.0,"pressure":1007.4,"uv_index":9.05,"wind_gusts":27.0,"aqi":81,"pm10":24.6,"pm2_5":20.5,"mosquito_risk":7,"arthritis_risk":5,"migraine_risk":4,"frizz_risk":1,"updated_at":"2026-04-01T02:17:44.475358+05:30"},{"city":"Kozhikode","state":"Kerala","latitude":11.2588,"longitude":75.7804,"temp":28.4,"humidity":82,"rain":0.0,"pressure":1007.4,"uv_index":9.15,"wind_gusts":26.6,"aqi":103,"pm10":30.9,"pm2_5":23.5,"mosquito_risk":7,"arthritis_risk":5,"migraine_risk":4,"frizz_risk":1,"updated_at":"2026-04-01T02:17:44.475366+05:30"},{"city":"Thrissur","state":"Kerala","latitude":10.5276,"longitude":76.2144,"temp":25.8,"humidity":91,"rain":0.0,"pressure":1006.9,"uv_index":9.2,"wind_gusts":34.6,"aqi":115,"pm10":39.0,"pm2_5":36.6,"mosquito_risk":7,"arthritis_risk":5,"migraine_risk":4,"frizz_risk":1,"updated_at":"2026-04-01T02:17:44.475375+05:30"},{"city":"Kannur","state":"Kerala","latitude":11.8745,"longitude":75.3704,"temp":27.4,"humidity":82,"rain":0.0,"pressure":1006.6,"uv_index":9.1,"wind_gusts":24.8,"aqi":103,"pm10":43.8,"pm2_5":39.6,"mosquito_risk":7,"arthritis_risk":5,"migraine_risk":4,"frizz_risk":1,"updated_at":"2026-04-01T02:17:44.475383+05:30"},{"city":"Patna","state":"Bihar","latitude":25.5941,"longitude":85.1376,"temp":25.2,"humidity":88,"rain":0.0,"pressure":1001.4,"uv_index":8.1,"wind_gusts":21.2,"aqi":159,"pm10":99.9,"pm2_5":84.1,"mosquito_risk":7,"arthritis_risk":5,"migraine_risk":4,"frizz_risk":1,"updated_at":"2026-04-01T02:17:44.475391+05:30"},{"city":"Gaya","state":"Bihar","latitude":24.7914,"longitude":85.0002,"temp":25.1,"humidity":77,"rain":0.0,"pressure":994.2,"uv_index":7.95,"wind_gusts":22.7,"aqi":128,"pm10":101.0,"pm2_5":55.9,"mosquito_risk":7,"arthritis_risk":5,"migraine_risk":7,"frizz_risk":1,"updated_at":"2026-04-01T02:17:44.475398+05:30"},{"city":"Muzaffarpur","state":"Bihar","latitude":26.1209,"longitude":85.3647,"temp":23.4,"humidity":90,"rain":0.0,"pressure":1001.6,"uv_index":8.15,"wind_gusts":28.4,"aqi":163,"pm10":98.0,"pm2_5":84.8,"mosquito_risk":3,"arthritis_risk":5,"migraine_risk":4,"frizz_risk":1,"updated_at":"2026-04-01T02:17:44.475406+05:30"},{"city":"Bhagalpur","state":"Bihar","latitude":25.2425,"longitude":87.0117,"temp":24.7,"humidity":89,"rain":0.0,"pressure":1002.3,"uv_index":8.2,"wind_gusts":29.9,"aqi":161,"pm10":87.3,"pm2_5":78.0,"mosquito_risk":3,"arthritis_risk":5,"migraine_risk":4,"frizz_risk":1,"updated_at":"2026-04-01T02:17:44.475413+05:30"},{"city":"Ranchi","state":"Jharkhand","latitude":23.3441,"longitude":85.3096,"temp":22.1,"humidity":85,"rain":0.0,"pressure":938.8,"uv_index":8.85,"wind_gusts":32.8,"aqi":74,"pm10":49.9,"pm2_5":25.7,"mosquito_risk":3,"arthritis_risk":5,"migraine_risk":7,"frizz_risk":1,"updated_at":"2026-04-01T02:17:44.475421+05:30"},{"city":"Jamshedpur","state":"Jharkhand","latitude":22.8046,"longitude":86.2029,"temp":25.2,"humidity":90,"rain":0.0,"pressure":992.1,"uv_index":8.65,"wind_gusts":23.0,"aqi":130,"pm10":54.6,"pm2_5":45.1,"mosquito_risk":7,"arthritis_risk":5,"migraine_risk":7,"frizz_risk":1,"updated_at":"2026-04-01T02:17:44.475428+05:30"},{"city":"Dhanbad","state":"Jharkhand","latitude":23.7957,"longitude":86.4304,"temp":24.4,"humidity":83,"rain":0.0,"pressure":981.0,"uv_index":8.6,"wind_gusts":27.4,"aqi":161,"pm10":121.5,"pm2_5":112.0,"mosquito_risk":3,"arthritis_risk":5,"migraine_risk":7,"frizz_risk":1,"updated_at":"2026-04-01T02:17:44.475435+05:30"},{"city":"Bokaro","state":"Jharkhand","latitude":23.6693,"longitude":86.1511,"temp":23.9,"humidity":90,"rain":0.0,"pressure":985.3,"uv_index":8.6,"wind_gusts":31.7,"aqi":156,"pm10":110.6,"pm2_5":92.2,"mosquito_risk":3,"arthritis_risk":5,"migraine_risk":7,"frizz_risk":1,"updated_at":"2026-04-01T02:17:44.475443+05:30"},{"city":"Bhubaneswar","state":"Odisha","latitude":20.2961,"longitude":85.8245,"temp":26.0,"humidity":93,"rain":0.0,"pressure":1003.7,"uv_index":8.85,"wind_gusts":25.6,"aqi":88,"pm10":24.6,"pm2_5":21.5,"mosquito_risk":7,"arthritis_risk":5,"migraine_risk":4,"frizz_risk":1,"updated_at":"2026-04-01T02:17:44.475451+05:30"},{"city":"Cuttack","state":"Odisha","latitude":20.4625,"longitude":85.8828,"temp":26.0,"humidity":93,"rain":0.0,"pressure":1005.8,"uv_index":8.9,"wind_gusts":18.0,"aqi":88,"pm10":24.6,"pm2_5":21.5,"mosquito_risk":7,"arthritis_risk":5,"migraine_risk":4,"frizz_risk":1,"updated_at":"2026-04-01T02:17:44.475458+05:30"},{"city":"Rourkela","state":"Odisha","latitude":22.2604,"longitude":84.8536,"temp":25.1,"humidity":91,"rain":0.0,"pressure":986.1,"uv_index":8.6,"wind_gusts":15.5,"aqi":99,"pm10":61.2,"pm2_5":47.7,"mosquito_risk":7,"arthritis_risk":5,"migraine_risk":7,"frizz_risk":1,"updated_at":"2026-04-01T02:17:44.475466+05:30"},{"city":"Raipur","state":"Chhattisgarh","latitude":21.2514,"longitude":81.6296,"temp":25.7,"humidity":59,"rain":0.0,"pressure":975.1,"uv_index":8.65,"wind_gusts":25.6,"aqi":127,"pm10":149.9,"pm2_5":72.2,"mosquito_risk":4,"arthritis_risk":5,"migraine_risk":7,"frizz_risk":1,"updated_at":"2026-04-01T02:17:44.475474+05:30"},{"city":"Bhilai","state":"Chhattisgarh","latitude":21.1938,"longitude":81.3509,"temp":25.3,"humidity":60,"rain":0.0,"pressure":975.4,"uv_index":8.65,"wind_gusts":23.0,"aqi":110,"pm10":128.5,"pm2_5":62.9,"mosquito_risk":4,"arthritis_risk":5,"migraine_risk":7,"frizz_risk":1,"updated_at":"2026-04-01T02:17:44.475481+05:30"},{"city":"Guwahati","state":"Assam","latitude":26.1158,"longitude":91.7086,"temp":22.5,"humidity":92,"rain":0.0,"pressure":1003.2,"uv_index":8.05,"wind_gusts":38.2,"aqi":106,"pm10":34.3,"pm2_5":27.9,"mosquito_risk":3,"arthritis_risk":5,"migraine_risk":4,"frizz_risk":1,"updated_at":"2026-04-01T02:17:44.475486+05:30"},{"city":"Agartala","state":"Tripura","latitude":23.8315,"longitude":91.2868,"temp":22.8,"humidity":96,"rain":0.0,"pressure":1007.5,"uv_index":8.35,"wind_gusts":23.4,"aqi":86,"pm10":54.2,"pm2_5":51.2,"mosquito_risk":3,"arthritis_risk":5,"migraine_risk":4,"frizz_risk":1,"updated_at":"2026-04-01T02:17:44.475492+05:30"},{"city":"Shillong","state":"Meghalaya","latitude":25.5788,"longitude":91.8933,"temp":13.1,"humidity":92,"rain":0.0,"pressure":855.6,"uv_index":7.4,"wind_gusts":50.8,"aqi":74,"pm10":14.7,"pm2_5":12.0,"mosquito_risk":3,"arthritis_risk":10,"migraine_risk":7,"frizz_risk":0,"updated_at":"2026-04-01T02:17:44.475499+05:30"},{"city":"Imphal","state":"Manipur","latitude":24.817,"longitude":93.9368,"temp":17.7,"humidity":89,"rain":0.0,"pressure":923.7,"uv_index":8.1,"wind_gusts":64.1,"aqi":68,"pm10":40.9,"pm2_5":37.8,"mosquito_risk":3,"arthritis_risk":10,"migraine_risk":7,"frizz_risk":0,"updated_at":"2026-04-01T02:17:44.475506+05:30"},{"city":"Aizawl","state":"Mizoram","latitude":23.7271,"longitude":92.7176,"temp":17.6,"humidity":98,"rain":0.0,"pressure":893.0,"uv_index":8.6,"wind_gusts":37.4,"aqi":111,"pm10":43.8,"pm2_5":38.1,"mosquito_risk":3,"arthritis_risk":10,"migraine_risk":7,"frizz_risk":1,"updated_at":"2026-04-01T02:17:44.475512+05:30"},{"city":"Kohima","state":"Nagaland","latitude":25.6701,"longitude":94.1077,"temp":14.4,"humidity":84,"rain":0.0,"pressure":854.4,"uv_index":8.55,"wind_gusts":70.2,"aqi":54,"pm10":16.4,"pm2_5":14.0,"mosquito_risk":3,"arthritis_risk":10,"migraine_risk":7,"frizz_risk":0,"updated_at":"2026-04-01T02:17:44.475519+05:30"},{"city":"Gangtok","state":"Sikkim","latitude":27.3314,"longitude":88.6138,"temp":14.1,"humidity":93,"rain":0.1,"pressure":837.2,"uv_index":8.45,"wind_gusts":16.2,"aqi":91,"pm10":12.9,"pm2_5":11.3,"mosquito_risk":6,"arthritis_risk":10,"migraine_risk":7,"frizz_risk":0,"updated_at":"2026-04-01T02:17:44.475526+05:30"},{"city":"Siliguri","state":"West Bengal","latitude":26.7271,"longitude":88.3953,"temp":19.5,"humidity":83,"rain":0.0,"pressure":995.6,"uv_index":8.05,"wind_gusts":22.3,"aqi":159,"pm10":74.3,"pm2_5":60.8,"mosquito_risk":3,"arthritis_risk":10,"migraine_risk":7,"frizz_risk":1,"updated_at":"2026-04-01T02:17:47.708447+05:30"},{"city":"Durgapur","state":"West Bengal","latitude":23.5204,"longitude":87.3119,"temp":25.4,"humidity":92,"rain":0.0,"pressure":996.2,"uv_index":8.55,"wind_gusts":36.7,"aqi":158,"pm10":62.9,"pm2_5":58.3,"mosquito_risk":7,"arthritis_risk":5,"migraine_risk":7,"frizz_risk":1,"updated_at":"2026-04-01T02:17:47.708479+05:30"},{"city":"Asansol","state":"West Bengal","latitude":23.6739,"longitude":86.9524,"temp":25.6,"humidity":87,"rain":0.0,"pressure":994.8,"uv_index":8.55,"wind_gusts":28.4,"aqi":154,"pm10":64.5,"pm2_5":59.5,"mosquito_risk":7,"arthritis_risk":5,"migraine_risk":7,"frizz_risk":1,"updated_at":"2026-04-01T02:17:47.708491+05:30"},{"city":"Pondicherry","state":"Puducherry","latitude":11.9139,"longitude":79.8145,"temp":24.2,"humidity":91,"rain":0.0,"pressure":1009.3,"uv_index":8.4,"wind_gusts":27.7,"aqi":45,"pm10":15.8,"pm2_5":11.5,"mosquito_risk":3,"arthritis_risk":0,"migraine_risk":4,"frizz_risk":1,"updated_at":"2026-04-01T02:17:47.708501+05:30"},{"city":"Port Blair","state":"Andaman and Nicobar Islands","latitude":11.6234,"longitude":92.7265,"temp":27.7,"humidity":83,"rain":0.0,"pressure":1006.7,"uv_index":7.4,"wind_gusts":14.4,"aqi":36,"pm10":7.1,"pm2_5":5.0,"mosquito_risk":7,"arthritis_risk":5,"migraine_risk":4,"frizz_risk":1,"updated_at":"2026-04-01T02:17:47.708510+05:30"},{"city":"Haridwar","state":"Uttarakhand","latitude":29.9457,"longitude":78.1642,"temp":18.5,"humidity":80,"rain":0.0,"pressure":975.7,"uv_index":6.5,"wind_gusts":23.8,"aqi":85,"pm10":82.9,"pm2_5":42.8,"mosquito_risk":3,"arthritis_risk":5,"migraine_risk":7,"frizz_risk":0,"updated_at":"2026-04-01T02:17:47.708518+05:30"},{"city":"Rishikesh","state":"Uttarakhand","latitude":30.0869,"longitude":78.2676,"temp":19.2,"humidity":63,"rain":0.0,"pressure":968.4,"uv_index":6.5,"wind_gusts":31.3,"aqi":63,"pm10":78.7,"pm2_5":30.0,"mosquito_risk":3,"arthritis_risk":5,"migraine_risk":7,"frizz_risk":0,"updated_at":"2026-04-01T02:17:47.708527+05:30"},{"city":"Nainital","state":"Uttarakhand","latitude":29.3919,"longitude":79.4542,"temp":18.9,"humidity":34,"rain":0.0,"pressure":807.1,"uv_index":7.15,"wind_gusts":37.4,"aqi":67,"pm10":42.4,"pm2_5":23.6,"mosquito_risk":0,"arthritis_risk":5,"migraine_risk":7,"frizz_risk":0,"updated_at":"2026-04-01T02:17:47.708534+05:30"},{"city":"Mussoorie","state":"Uttarakhand","latitude":30.4599,"longitude":78.0664,"temp":15.1,"humidity":61,"rain":0.0,"pressure":802.7,"uv_index":6.85,"wind_gusts":36.4,"aqi":67,"pm10":59.8,"pm2_5":32.0,"mosquito_risk":3,"arthritis_risk":5,"migraine_risk":7,"frizz_risk":0,"updated_at":"2026-04-01T02:17:47.708542+05:30"},{"city":"Dharamshala","state":"Himachal Pradesh","latitude":32.219,"longitude":76.3234,"temp":18.4,"humidity":52,"rain":0.0,"pressure":869.7,"uv_index":6.0,"wind_gusts":25.9,"aqi":37,"pm10":14.4,"pm2_5":8.6,"mosquito_risk":0,"arthritis_risk":5,"migraine_risk":3,"frizz_risk":0,"updated_at":"2026-04-01T02:17:47.708549+05:30"},{"city":"Dalhousie","state":"Himachal Pradesh","latitude":32.5387,"longitude":75.971,"temp":14.6,"humidity":54,"rain":0.0,"pressure":803.5,"uv_index":6.05,"wind_gusts":24.5,"aqi":65,"pm10":30.7,"pm2_5":23.3,"mosquito_risk":0,"arthritis_risk":5,"migraine_risk":7,"frizz_risk":0,"updated_at":"2026-04-01T02:17:47.708556+05:30"},{"city":"Patiala","state":"Punjab","latitude":30.3398,"longitude":76.3869,"temp":19.6,"humidity":85,"rain":0.0,"pressure":980.0,"uv_index":6.2,"wind_gusts":12.6,"aqi":202,"pm10":199.8,"pm2_5":56.6,"mosquito_risk":3,"arthritis_risk":10,"migraine_risk":7,"frizz_risk":1,"updated_at":"2026-04-01T02:17:47.708563+05:30"},{"city":"Bhatinda","state":"Punjab","latitude":30.211,"longitude":74.9455,"temp":19.5,"humidity":85,"rain":0.0,"pressure":985.5,"uv_index":6.05,"wind_gusts":14.4,"aqi":103,"pm10":114.3,"pm2_5":42.7,"mosquito_risk":3,"arthritis_risk":10,"migraine_risk":7,"frizz_risk":1,"updated_at":"2026-04-01T02:17:47.708569+05:30"},{"city":"Rohtak","state":"Haryana","latitude":28.8955,"longitude":76.6066,"temp":17.7,"humidity":93,"rain":0.0,"pressure":983.3,"uv_index":6.8,"wind_gusts":14.8,"aqi":123,"pm10":234.7,"pm2_5":61.2,"mosquito_risk":3,"arthritis_risk":10,"migraine_risk":7,"frizz_risk":1,"updated_at":"2026-04-01T02:17:47.708576+05:30"},{"city":"Panipat","state":"Haryana","latitude":29.3909,"longitude":76.9635,"temp":18.4,"humidity":96,"rain":0.0,"pressure":982.0,"uv_index":6.6,"wind_gusts":14.0,"aqi":150,"pm10":345.5,"pm2_5":74.7,"mosquito_risk":3,"arthritis_risk":10,"migraine_risk":7,"frizz_risk":1,"updated_at":"2026-04-01T02:17:47.708582+05:30"},{"city":"Mathura","state":"Uttar Pradesh","latitude":27.4924,"longitude":77.6737,"temp":19.5,"humidity":92,"rain":0.0,"pressure":988.5,"uv_index":7.05,"wind_gusts":28.4,"aqi":162,"pm10":786.0,"pm2_5":104.8,"mosquito_risk":3,"arthritis_risk":10,"migraine_risk":7,"frizz_risk":1,"updated_at":"2026-04-01T02:17:47.708588+05:30"},{"city":"Vrindavan","state":"Uttar Pradesh","latitude":27.5823,"longitude":77.7027,"temp":19.4,"humidity":92,"rain":0.0,"pressure":988.9,"uv_index":7.1,"wind_gusts":31.3,"aqi":162,"pm10":786.0,"pm2_5":104.8,"mosquito_risk":3,"arthritis_risk":10,"migraine_risk":7,"frizz_risk":1,"updated_at":"2026-04-01T02:17:47.708594+05:30"},{"city":"Ayodhya","state":"Uttar Pradesh","latitude":26.7922,"longitude":82.1998,"temp":23.6,"humidity":75,"rain":0.0,"pressure":997.1,"uv_index":7.45,"wind_gusts":31.7,"aqi":118,"pm10":141.6,"pm2_5":40.7,"mosquito_risk":3,"arthritis_risk":5,"migraine_risk":7,"frizz_risk":1,"updated_at":"2026-04-01T02:17:47.708600+05:30"},{"city":"Ratlam","state":"Madhya Pradesh","latitude":23.3315,"longitude":75.0367,"temp":26.1,"humidity":60,"rain":0.0,"pressure":954.6,"uv_index":8.15,"wind_gusts":27.7,"aqi":56,"pm10":20.3,"pm2_5":15.1,"mosquito_risk":4,"arthritis_risk":5,"migraine_risk":7,"frizz_risk":1,"updated_at":"2026-04-01T02:17:47.708606+05:30"},{"city":"Sagar","state":"Madhya Pradesh","latitude":23.8388,"longitude":78.7378,"temp":22.5,"humidity":74,"rain":0.0,"pressure":951.1,"uv_index":8.2,"wind_gusts":25.9,"aqi":46,"pm10":18.5,"pm2_5":13.2,"mosquito_risk":3,"arthritis_risk":5,"migraine_risk":7,"frizz_risk":1,"updated_at":"2026-04-01T02:17:47.708612+05:30"},{"city":"Satna","state":"Madhya Pradesh","latitude":24.6005,"longitude":80.8322,"temp":26.1,"humidity":56,"rain":0.0,"pressure":973.9,"uv_index":7.5,"wind_gusts":31.0,"aqi":123,"pm10":82.7,"pm2_5":25.6,"mosquito_risk":4,"arthritis_risk":5,"migraine_risk":7,"frizz_risk":1,"updated_at":"2026-04-01T02:17:47.708619+05:30"},{"city":"Akola","state":"Maharashtra","latitude":20.7002,"longitude":77.0082,"temp":25.8,"humidity":71,"rain":0.0,"pressure":975.1,"uv_index":8.55,"wind_gusts":13.0,"aqi":72,"pm10":44.7,"pm2_5":39.0,"mosquito_risk":7,"arthritis_risk":5,"migraine_risk":7,"frizz_risk":1,"updated_at":"2026-04-01T02:17:47.708626+05:30"},{"city":"Amravati","state":"Maharashtra","latitude":20.9374,"longitude":77.7796,"temp":25.7,"humidity":71,"rain":0.0,"pressure":967.2,"uv_index":8.6,"wind_gusts":33.5,"aqi":66,"pm10":39.0,"pm2_5":35.4,"mosquito_risk":7,"arthritis_risk":5,"migraine_risk":7,"frizz_risk":1,"updated_at":"2026-04-01T02:17:47.708633+05:30"},{"city":"Latur","state":"Maharashtra","latitude":18.4088,"longitude":76.5604,"temp":24.1,"humidity":74,"rain":0.0,"pressure":939.8,"uv_index":8.9,"wind_gusts":23.8,"aqi":98,"pm10":70.3,"pm2_5":57.3,"mosquito_risk":3,"arthritis_risk":5,"migraine_risk":7,"frizz_risk":1,"updated_at":"2026-04-01T02:17:47.708639+05:30"},{"city":"Nanded","state":"Maharashtra","latitude":19.1383,"longitude":77.3091,"temp":26.0,"humidity":74,"rain":0.0,"pressure":968.6,"uv_index":8.75,"wind_gusts":23.0,"aqi":90,"pm10":53.8,"pm2_5":45.9,"mosquito_risk":7,"arthritis_risk":5,"migraine_risk":7,"frizz_risk":1,"updated_at":"2026-04-01T02:17:47.708646+05:30"},{"city":"Gulbarga","state":"Karnataka","latitude":17.3297,"longitude":76.8343,"temp":25.4,"humidity":75,"rain":0.0,"pressure":958.9,"uv_index":8.95,"wind_gusts":34.9,"aqi":113,"pm10":59.8,"pm2_5":51.3,"mosquito_risk":7,"arthritis_risk":5,"migraine_risk":7,"frizz_risk":1,"updated_at":"2026-04-01T02:17:47.708651+05:30"},{"city":"Bidar","state":"Karnataka","latitude":17.9104,"longitude":77.5199,"temp":23.7,"humidity":79,"rain":0.0,"pressure":935.4,"uv_index":8.95,"wind_gusts":28.4,"aqi":129,"pm10":62.4,"pm2_5":56.2,"mosquito_risk":3,"arthritis_risk":5,"migraine_risk":7,"frizz_risk":1,"updated_at":"2026-04-01T02:17:47.708657+05:30"},{"city":"Hospet","state":"Karnataka","latitude":15.2689,"longitude":76.3909,"temp":24.8,"humidity":77,"rain":0.0,"pressure":956.5,"uv_index":9.15,"wind_gusts":23.8,"aqi":98,"pm10":47.3,"pm2_5":42.3,"mosquito_risk":3,"arthritis_risk":5,"migraine_risk":7,"frizz_risk":1,"updated_at":"2026-04-01T02:17:47.708663+05:30"},{"city":"Tirupur","state":"Tamil Nadu","latitude":11.1085,"longitude":77.3411,"temp":26.0,"humidity":75,"rain":0.0,"pressure":975.7,"uv_index":9.5,"wind_gusts":27.0,"aqi":71,"pm10":19.7,"pm2_5":16.6,"mosquito_risk":7,"arthritis_risk":5,"migraine_risk":7,"frizz_risk":1,"updated_at":"2026-04-01T02:17:47.708669+05:30"},{"city":"Alappuzha","state":"Kerala","latitude":9.4981,"longitude":76.3388,"temp":27.2,"humidity":83,"rain":0.0,"pressure":1008.6,"uv_index":9.2,"wind_gusts":29.9,"aqi":112,"pm10":38.9,"pm2_5":36.1,"mosquito_risk":7,"arthritis_risk":0,"migraine_risk":4,"frizz_risk":1,"updated_at":"2026-04-01T02:17:47.708675+05:30"},{"city":"Munnar","state":"Kerala","latitude":10.0889,"longitude":77.0595,"temp":20.1,"humidity":94,"rain":0.0,"pressure":855.9,"uv_index":9.65,"wind_gusts":19.4,"aqi":75,"pm10":35.6,"pm2_5":31.2,"mosquito_risk":3,"arthritis_risk":5,"migraine_risk":7,"frizz_risk":1,"updated_at":"2026-04-01T02:17:47.708682+05:30"},{"city":"Silchar","state":"Assam","latitude":24.8333,"longitude":92.7789,"temp":22.5,"humidity":94,"rain":0.0,"pressure":1006.5,"uv_index":8.35,"wind_gusts":20.9,"aqi":83,"pm10":43.2,"pm2_5":36.1,"mosquito_risk":3,"arthritis_risk":5,"migraine_risk":4,"frizz_risk":1,"updated_at":"2026-04-01T02:17:47.708688+05:30"},{"city":"Dibrugarh","state":"Assam","latitude":27.4728,"longitude":94.912,"temp":21.5,"humidity":90,"rain":0.0,"pressure":997.3,"uv_index":7.8,"wind_gusts":26.3,"aqi":79,"pm10":30.2,"pm2_5":27.1,"mosquito_risk":3,"arthritis_risk":5,"migraine_risk":7,"frizz_risk":1,"updated_at":"2026-04-01T02:17:47.708694+05:30"}]