[{"city":"Delhi","state":"Delhi","latitude":28.6139,"longitude":77.209,"temp":27.4,"humidity":53,"rain":0.0,"pressure":982.3,"uv_index":7.65,"wind_gusts":27.4,"aqi":157,"pm10":205.8,"pm2_5":66.8,"no2":18.2,"co":505.0,"o3":111.0,"so2":21.0,"mosquito_risk":4,"arthritis_risk":5,"migraine_risk":7,"frizz_risk":1,"updated_at":"2026-05-11T03:21:35.645468+05:30"},{"city":"Mumbai","state":"Maharashtra","latitude":19.076,"longitude":72.8777,"temp":28.8,"humidity":81,"rain":0.0,"pressure":1004.1,"uv_index":7.9,"wind_gusts":50.0,"aqi":91,"pm10":50.4,"pm2_5":23.0,"no2":15.1,"co":343.0,"o3":68.0,"so2":11.0,"mosquito_risk":7,"arthritis_risk":5,"migraine_risk":4,"frizz_risk":1,"updated_at":"2026-05-11T03:21:35.645522+05:30"},{"city":"Bangalore","state":"Karnataka","latitude":12.9716,"longitude":77.5946,"temp":21.4,"humidity":91,"rain":0.0,"pressure":908.7,"uv_index":9.3,"wind_gusts":41.0,"aqi":62,"pm10":19.0,"pm2_5":18.0,"no2":16.9,"co":240.0,"o3":56.0,"so2":9.1,"mosquito_risk":3,"arthritis_risk":5,"migraine_risk":7,"frizz_risk":1,"updated_at":"2026-05-11T03:21:35.645536+05:30"},{"city":"Hyderabad","state":"Telangana","latitude":17.385,"longitude":78.4867,"temp":25.6,"humidity":70,"rain":0.0,"pressure":950.9,"uv_index":9.25,"wind_gusts":40.0,"aqi":60,"pm10":8.6,"pm2_5":6.7,"no2":6.0,"co":174.0,"o3":52.0,"so2":2.7,"mosquito_risk":7,"arthritis_risk":5,"migraine_risk":7,"frizz_risk":1,"updated_at":"2026-05-11T03:21:35.645545+05:30"},{"city":"Chennai","state":"Tamil Nadu","latitude":13.0827,"longitude":80.2707,"temp":26.6,"humidity":88,"rain":0.0,"pressure":1003.9,"uv_index":9.15,"wind_gusts":40.0,"aqi":19,"pm10":8.4,"pm2_5":6.9,"no2":10.3,"co":339.0,"o3":35.0,"so2":2.8,"mosquito_risk":7,"arthritis_risk":5,"migraine_risk":4,"frizz_risk":1,"updated_at":"2026-05-11T03:21:35.645554+05:30"},{"city":"Kolkata","state":"West Bengal","latitude":22.5726,"longitude":88.3639,"temp":24.6,"humidity":90,"rain":0.0,"pressure":1005.8,"uv_index":8.8,"wind_gusts":38.5,"aqi":155,"pm10":112.5,"pm2_5":106.6,"no2":59.0,"co":495.0,"o3":10.0,"so2":21.7,"mosquito_risk":3,"arthritis_risk":5,"migraine_risk":4,"frizz_risk":1,"updated_at":"2026-05-11T03:21:35.645562+05:30"},{"city":"Pune","state":"Maharashtra","latitude":18.5204,"longitude":73.8567,"temp":27.3,"humidity":55,"rain":0.0,"pressure":944.2,"uv_index":8.5,"wind_gusts":39.6,"aqi":69,"pm10":33.8,"pm2_5":26.2,"no2":23.3,"co":321.0,"o3":76.0,"so2":14.9,"mosquito_risk":4,"arthritis_risk":5,"migraine_risk":7,"frizz_risk":1,"updated_at":"2026-05-11T03:21:35.645569+05:30"},{"city":"Ahmedabad","state":"Gujarat","latitude":23.0225,"longitude":72.5714,"temp":33.0,"humidity":32,"rain":0.0,"pressure":997.7,"uv_index":8.15,"wind_gusts":35.6,"aqi":61,"pm10":21.7,"pm2_5":11.4,"no2":3.6,"co":174.0,"o3":67.0,"so2":4.1,"mosquito_risk":0,"arthritis_risk":5,"migraine_risk":7,"frizz_risk":0,"updated_at":"2026-05-11T03:21:35.645579+05:30"},{"city":"Jaipur","state":"Rajasthan","latitude":26.9124,"longitude":75.7873,"temp":27.4,"humidity":51,"rain":0.0,"pressure":958.0,"uv_index":8.2,"wind_gusts":44.3,"aqi":179,"pm10":366.9,"pm2_5":72.4,"no2":5.1,"co":361.0,"o3":115.0,"so2":8.4,"mosquito_risk":4,"arthritis_risk":5,"migraine_risk":7,"frizz_risk":1,"updated_at":"2026-05-11T03:21:35.645586+05:30"},{"city":"Lucknow","state":"Uttar Pradesh","latitude":26.8467,"longitude":80.9462,"temp":25.8,"humidity":57,"rain":0.0,"pressure":993.1,"uv_index":8.15,"wind_gusts":28.8,"aqi":112,"pm10":43.0,"pm2_5":35.6,"no2":13.3,"co":368.0,"o3":94.0,"so2":9.5,"mosquito_risk":4,"arthritis_risk":5,"migraine_risk":7,"frizz_risk":1,"updated_at":"2026-05-11T03:21:35.645594+05:30"},{"city":"Kanpur","state":"Uttar Pradesh","latitude":26.4499,"longitude":80.3319,"temp":27.0,"humidity":52,"rain":0.0,"pressure":991.0,"uv_index":8.15,"wind_gusts":32.4,"aqi":135,"pm10":176.5,"pm2_5":44.2,"no2":9.1,"co":339.0,"o3":101.0,"so2":8.8,"mosquito_risk":4,"arthritis_risk":5,"migraine_risk":7,"frizz_risk":1,"updated_at":"2026-05-11T03:21:35.645601+05:30"},{"city":"Chandigarh","state":"Chandigarh","latitude":30.7333,"longitude":76.7794,"temp":24.4,"humidity":69,"rain":0.0,"pressure":967.7,"uv_index":7.7,"wind_gusts":42.5,"aqi":147,"pm10":88.2,"pm2_5":57.0,"no2":18.8,"co":398.0,"o3":82.0,"so2":9.0,"mosquito_risk":3,"arthritis_risk":5,"migraine_risk":7,"frizz_risk":1,"updated_at":"2026-05-11T03:21:35.645608+05:30"},{"city":"Srinagar","state":"Jammu and Kashmir","latitude":34.0837,"longitude":74.7973,"temp":14.1,"humidity":83,"rain":0.0,"pressure":841.0,"uv_index":8.85,"wind_gusts":32.8,"aqi":108,"pm10":68.2,"pm2_5":44.0,"no2":19.0,"co":497.0,"o3":66.0,"so2":4.4,"mosquito_risk":3,"arthritis_risk":10,"migraine_risk":7,"frizz_risk":0,"updated_at":"2026-05-11T03:21:35.645616+05:30"},{"city":"Jammu","state":"Jammu and Kashmir","latitude":32.7266,"longitude":74.857,"temp":26.5,"humidity":56,"rain":0.0,"pressure":970.5,"uv_index":8.45,"wind_gusts":31.7,"aqi":157,"pm10":112.5,"pm2_5":61.9,"no2":23.7,"co":396.0,"o3":41.0,"so2":5.2,"mosquito_risk":4,"arthritis_risk":5,"migraine_risk":7,"frizz_risk":1,"updated_at":"2026-05-11T03:21:35.645623+05:30"},{"city":"Amritsar","state":"Punjab","latitude":31.634,"longitude":74.8723,"temp":27.4,"humidity":58,"rain":0.0,"pressure":979.1,"uv_index":8.35,"wind_gusts":49.7,"aqi":171,"pm10":192.8,"pm2_5":72.2,"no2":6.8,"co":583.0,"o3":107.0,"so2":12.8,"mosquito_risk":4,"arthritis_risk":5,"migraine_risk":7,"frizz_risk":1,"updated_at":"2026-05-11T03:21:35.645629+05:30"},{"city":"Ludhiana","state":"Punjab","latitude":30.901,"longitude":75.8573,"temp":26.8,"humidity":60,"rain":0.0,"pressure":976.7,"uv_index":7.9,"wind_gusts":36.7,"aqi":174,"pm10":286.8,"pm2_5":80.1,"no2":8.4,"co":501.0,"o3":113.0,"so2":9.5,"mosquito_risk":4,"arthritis_risk":5,"migraine_risk":7,"frizz_risk":1,"updated_at":"2026-05-11T03:21:35.645634+05:30"},{"city":"Jalandhar","state":"Punjab","latitude":31.326,"longitude":75.5762,"temp":26.3,"humidity":61,"rain":0.0,"pressure":977.6,"uv_index":8.1,"wind_gusts":34.2,"aqi":169,"pm10":200.7,"pm2_5":71.7,"no2":9.2,"co":639.0,"o3":108.0,"so2":17.7,"mosquito_risk":7,"arthritis_risk":5,"migraine_risk":7,"frizz_risk":1,"updated_at":"2026-05-11T03:21:35.645641+05:30"},{"city":"Dehradun","state":"Uttarakhand","latitude":30.6284,"longitude":78.0322,"temp":12.3,"humidity":99,"rain":0.0,"pressure":828.6,"uv_index":6.15,"wind_gusts":31.7,"aqi":98,"pm10":70.5,"pm2_5":40.4,"no2":25.8,"co":311.0,"o3":44.0,"so2":1.3,"mosquito_risk":3,"arthritis_risk":10,"migraine_risk":7,"frizz_risk":0,"updated_at":"2026-05-11T03:21:35.645649+05:30"},{"city":"Shimla","state":"Himachal Pradesh","latitude":31.1048,"longitude":77.1734,"temp":11.9,"humidity":90,"rain":0.0,"pressure":782.6,"uv_index":7.65,"wind_gusts":42.5,"aqi":151,"pm10":137.4,"pm2_5":68.9,"no2":17.9,"co":377.0,"o3":100.0,"so2":10.7,"mosquito_risk":3,"arthritis_risk":10,"migraine_risk":7,"frizz_risk":0,"updated_at":"2026-05-11T03:21:35.645656+05:30"},{"city":"Manali","state":"Himachal Pradesh","latitude":32.2396,"longitude":77.1887,"temp":12.5,"humidity":68,"rain":0.0,"pressure":817.0,"uv_index":9.5,"wind_gusts":37.1,"aqi":74,"pm10":31.2,"pm2_5":20.0,"no2":40.6,"co":229.0,"o3":95.0,"so2":0.6,"mosquito_risk":3,"arthritis_risk":5,"migraine_risk":7,"frizz_risk":0,"updated_at":"2026-05-11T03:21:35.645662+05:30"},{"city":"Gurgaon","state":"Haryana","latitude":28.4595,"longitude":77.0266,"temp":26.5,"humidity":56,"rain":0.0,"pressure":980.3,"uv_index":7.75,"wind_gusts":31.3,"aqi":671,"pm10":631.4,"pm2_5":109.2,"no2":14.5,"co":437.0,"o3":109.0,"so2":18.3,"mosquito_risk":4,"arthritis_risk":5,"migraine_risk":7,"frizz_risk":1,"updated_at":"2026-05-11T03:21:35.645669+05:30"},{"city":"Noida","state":"Uttar Pradesh","latitude":28.5355,"longitude":77.391,"temp":24.1,"humidity":67,"rain":0.0,"pressure":983.6,"uv_index":7.65,"wind_gusts":24.8,"aqi":671,"pm10":631.4,"pm2_5":109.2,"no2":14.5,"co":495.0,"o3":109.0,"so2":18.3,"mosquito_risk":3,"arthritis_risk":5,"migraine_risk":7,"frizz_risk":1,"updated_at":"2026-05-11T03:21:35.645676+05:30"},{"city":"Ghaziabad","state":"Uttar Pradesh","latitude":28.6692,"longitude":77.4538,"temp":24.9,"humidity":64,"rain":0.0,"pressure":981.9,"uv_index":7.65,"wind_gusts":28.1,"aqi":145,"pm10":106.2,"pm2_5":56.7,"no2":10.2,"co":439.0,"o3":108.0,"so2":16.1,"mosquito_risk":3,"arthritis_risk":5,"migraine_risk":7,"frizz_risk":1,"updated_at":"2026-05-11T03:21:35.645683+05:30"},{"city":"Faridabad","state":"Haryana","latitude":28.4089,"longitude":77.3178,"temp":26.1,"humidity":58,"rain":0.0,"pressure":982.9,"uv_index":7.7,"wind_gusts":25.6,"aqi":671,"pm10":631.4,"pm2_5":109.2,"no2":14.5,"co":445.0,"o3":109.0,"so2":18.3,"mosquito_risk":4,"arthritis_risk":5,"migraine_risk":7,"frizz_risk":1,"updated_at":"2026-05-11T03:21:35.645688+05:30"},{"city":"Meerut","state":"Uttar Pradesh","latitude":28.9845,"longitude":77.7064,"temp":24.2,"humidity":68,"rain":0.0,"pressure":980.8,"uv_index":7.55,"wind_gusts":28.8,"aqi":145,"pm10":106.2,"pm2_5":56.7,"no2":10.2,"co":477.0,"o3":108.0,"so2":16.1,"mosquito_risk":3,"arthritis_risk":5,"migraine_risk":7,"frizz_risk":1,"updated_at":"2026-05-11T03:21:35.645694+05:30"},{"city":"Agra","state":"Uttar Pradesh","latitude":27.1767,"longitude":78.0081,"temp":26.5,"humidity":58,"rain":0.0,"pressure":986.6,"uv_index":8.0,"wind_gusts":25.2,"aqi":367,"pm10":501.1,"pm2_5":77.8,"no2":7.8,"co":349.0,"o3":99.0,"so2":10.8,"mosquito_risk":4,"arthritis_risk":5,"migraine_risk":7,"frizz_risk":1,"updated_at":"2026-05-11T03:21:35.645700+05:30"},{"city":"Varanasi","state":"Uttar Pradesh","latitude":25.3176,"longitude":82.9739,"temp":24.6,"humidity":68,"rain":0.0,"pressure":996.8,"uv_index":8.65,"wind_gusts":25.6,"aqi":111,"pm10":54.2,"pm2_5":46.0,"no2":12.0,"co":445.0,"o3":115.0,"so2":17.2,"mosquito_risk":3,"arthritis_risk":5,"migraine_risk":7,"frizz_risk":1,"updated_at":"2026-05-11T03:21:35.645706+05:30"},{"city":"Prayagraj","state":"Uttar Pradesh","latitude":25.4358,"longitude":81.8463,"temp":26.0,"humidity":54,"rain":0.0,"pressure":995.1,"uv_index":8.55,"wind_gusts":27.0,"aqi":117,"pm10":54.9,"pm2_5":47.6,"no2":14.8,"co":421.0,"o3":103.0,"so2":15.6,"mosquito_risk":4,"arthritis_risk":5,"migraine_risk":7,"frizz_risk":0,"updated_at":"2026-05-11T03:21:35.645715+05:30"},{"city":"Gorakhpur","state":"Uttar Pradesh","latitude":26.7606,"longitude":83.3732,"temp":23.5,"humidity":68,"rain":0.0,"pressure":997.7,"uv_index":8.5,"wind_gusts":31.0,"aqi":100,"pm10":52.7,"pm2_5":45.8,"no2":12.9,"co":457.0,"o3":105.0,"so2":13.0,"mosquito_risk":3,"arthritis_risk":5,"migraine_risk":7,"frizz_risk":1,"updated_at":"2026-05-11T03:21:35.645720+05:30"},{"city":"Bareilly","state":"Uttar Pradesh","latitude":28.367,"longitude":79.4304,"temp":23.5,"humidity":72,"rain":0.0,"pressure":986.6,"uv_index":7.95,"wind_gusts":25.2,"aqi":107,"pm10":40.6,"pm2_5":30.9,"no2":12.6,"co":345.0,"o3":81.0,"so2":4.2,"mosquito_risk":3,"arthritis_risk":5,"migraine_risk":7,"frizz_risk":1,"updated_at":"2026-05-11T03:21:35.645726+05:30"},{"city":"Aligarh","state":"Uttar Pradesh","latitude":27.8974,"longitude":78.088,"temp":25.1,"humidity":61,"rain":0.0,"pressure":984.6,"uv_index":7.8,"wind_gusts":29.2,"aqi":185,"pm10":278.5,"pm2_5":65.2,"no2":10.0,"co":379.0,"o3":100.0,"so2":15.2,"mosquito_risk":7,"arthritis_risk":5,"migraine_risk":7,"frizz_risk":1,"updated_at":"2026-05-11T03:21:35.645731+05:30"},{"city":"Moradabad","state":"Uttar Pradesh","latitude":28.8386,"longitude":78.7733,"temp":24.0,"humidity":70,"rain":0.0,"pressure":983.6,"uv_index":7.75,"wind_gusts":26.3,"aqi":126,"pm10":61.0,"pm2_5":50.5,"no2":17.9,"co":453.0,"o3":82.0,"so2":7.9,"mosquito_risk":3,"arthritis_risk":5,"migraine_risk":7,"frizz_risk":1,"updated_at":"2026-05-11T03:21:35.645737+05:30"},{"city":"Saharanpur","state":"Uttar Pradesh","latitude":29.9637,"longitude":77.546,"temp":24.1,"humidity":72,"rain":0.0,"pressure":975.1,"uv_index":7.4,"wind_gusts":32.0,"aqi":150,"pm10":85.9,"pm2_5":64.5,"no2":27.2,"co":504.0,"o3":45.0,"so2":9.2,"mosquito_risk":3,"arthritis_risk":5,"migraine_risk":7,"frizz_risk":1,"updated_at":"2026-05-11T03:21:35.645742+05:30"},{"city":"Jhansi","state":"Uttar Pradesh","latitude":25.4484,"longitude":78.5685,"temp":26.4,"humidity":56,"rain":0.0,"pressure":976.7,"uv_index":8.45,"wind_gusts":31.3,"aqi":113,"pm10":63.8,"pm2_5":36.7,"no2":4.3,"co":359.0,"o3":106.0,"so2":8.7,"mosquito_risk":4,"arthritis_risk":5,"migraine_risk":7,"frizz_risk":1,"updated_at":"2026-05-11T03:21:38.995023+05:30"},{"city":"Surat","state":"Gujarat","latitude":21.1702,"longitude":72.8311,"temp":30.3,"humidity":56,"rain":0.0,"pressure":1001.3,"uv_index":7.75,"wind_gusts":33.8,"aqi":101,"pm10":35.0,"pm2_5":21.9,"no2":21.3,"co":206.0,"o3":70.0,"so2":35.0,"mosquito_risk":0,"arthritis_risk":5,"migraine_risk":4,"frizz_risk":1,"updated_at":"2026-05-11T03:21:38.995057+05:30"},{"city":"Vadodara","state":"Gujarat","latitude":22.3072,"longitude":73.1812,"temp":31.5,"humidity":26,"rain":0.0,"pressure":999.8,"uv_index":8.1,"wind_gusts":35.6,"aqi":78,"pm10":31.9,"pm2_5":18.4,"no2":11.0,"co":224.0,"o3":64.0,"so2":9.3,"mosquito_risk":0,"arthritis_risk":5,"migraine_risk":7,"frizz_risk":0,"updated_at":"2026-05-11T03:21:38.995066+05:30"},{"city":"Rajkot","state":"Gujarat","latitude":22.3039,"longitude":70.8022,"temp":26.0,"humidity":87,"rain":0.0,"pressure":990.8,"uv_index":7.75,"wind_gusts":39.2,"aqi":53,"pm10":36.9,"pm2_5":12.3,"no2":6.0,"co":151.0,"o3":58.0,"so2":5.7,"mosquito_risk":7,"arthritis_risk":5,"migraine_risk":7,"frizz_risk":1,"updated_at":"2026-05-11T03:21:38.995073+05:30"},{"city":"Thane","state":"Maharashtra","latitude":19.2183,"longitude":72.9781,"temp":28.3,"humidity":75,"rain":0.0,"pressure":1003.3,"uv_index":7.9,"wind_gusts":47.2,"aqi":91,"pm10":50.4,"pm2_5":23.0,"no2":15.1,"co":506.0,"o3":68.0,"so2":11.0,"mosquito_risk":7,"arthritis_risk":5,"migraine_risk":4,"frizz_risk":1,"updated_at":"2026-05-11T03:21:38.995080+05:30"},{"city":"Nagpur","state":"Maharashtra","latitude":21.1458,"longitude":79.0882,"temp":29.6,"humidity":39,"rain":0.0,"pressure":970.4,"uv_index":8.95,"wind_gusts":34.9,"aqi":95,"pm10":70.5,"pm2_5":46.8,"no2":27.3,"co":351.0,"o3":73.0,"so2":16.0,"mosquito_risk":4,"arthritis_risk":5,"migraine_risk":7,"frizz_risk":0,"updated_at":"2026-05-11T03:21:38.995086+05:30"},{"city":"Nashik","state":"Maharashtra","latitude":19.9975,"longitude":73.7898,"temp":28.5,"humidity":36,"rain":0.0,"pressure":941.6,"uv_index":8.2,"wind_gusts":44.6,"aqi":82,"pm10":46.9,"pm2_5":28.5,"no2":25.4,"co":240.0,"o3":76.0,"so2":20.5,"mosquito_risk":4,"arthritis_risk":5,"migraine_risk":7,"frizz_risk":0,"updated_at":"2026-05-11T03:21:38.995092+05:30"},{"city":"Aurangabad","state":"Maharashtra","latitude":19.8762,"longitude":75.3433,"temp":31.5,"humidity":26,"rain":0.0,"pressure":940.3,"uv_index":9.05,"wind_gusts":43.2,"aqi":67,"pm10":30.6,"pm2_5":16.1,"no2":9.4,"co":211.0,"o3":94.0,"so2":10.0,"mosquito_risk":0,"arthritis_risk":5,"migraine_risk":7,"frizz_risk":0,"updated_at":"2026-05-11T03:21:38.995098+05:30"},{"city":"Solapur","state":"Maharashtra","latitude":17.6599,"longitude":75.9064,"temp":30.5,"humidity":39,"rain":0.0,"pressure":953.4,"uv_index":9.1,"wind_gusts":31.3,"aqi":71,"pm10":33.4,"pm2_5":23.1,"no2":12.0,"co":263.0,"o3":77.0,"so2":9.3,"mosquito_risk":0,"arthritis_risk":5,"migraine_risk":7,"frizz_risk":0,"updated_at":"2026-05-11T03:21:38.995105+05:30"},{"city":"Kolhapur","state":"Maharashtra","latitude":16.705,"longitude":74.2433,"temp":25.5,"humidity":74,"rain":0.0,"pressure":944.6,"uv_index":8.05,"wind_gusts":48.6,"aqi":111,"pm10":35.9,"pm2_5":28.3,"no2":17.5,"co":229.0,"o3":56.0,"so2":7.5,"mosquito_risk":7,"arthritis_risk":5,"migraine_risk":7,"frizz_risk":1,"updated_at":"2026-05-11T03:21:38.995110+05:30"},{"city":"Goa","state":"Goa","latitude":15.2993,"longitude":74.124,"temp":27.3,"humidity":93,"rain":0.0,"pressure":994.3,"uv_index":8.9,"wind_gusts":36.4,"aqi":83,"pm10":58.2,"pm2_5":40.2,"no2":17.5,"co":381.0,"o3":54.0,"so2":4.7,"mosquito_risk":7,"arthritis_risk":5,"migraine_risk":7,"frizz_risk":1,"updated_at":"2026-05-11T03:21:38.995117+05:30"},{"city":"Jodhpur","state":"Rajasthan","latitude":26.2389,"longitude":73.0243,"temp":32.0,"humidity":18,"rain":0.0,"pressure":978.8,"uv_index":8.4,"wind_gusts":36.0,"aqi":76,"pm10":149.9,"pm2_5":28.1,"no2":8.3,"co":234.0,"o3":62.0,"so2":4.3,"mosquito_risk":0,"arthritis_risk":5,"migraine_risk":7,"frizz_risk":0,"updated_at":"2026-05-11T03:21:38.995124+05:30"},{"city":"Udaipur","state":"Rajasthan","latitude":24.5854,"longitude":73.7125,"temp":28.5,"humidity":25,"rain":0.0,"pressure":943.0,"uv_index":8.85,"wind_gusts":33.8,"aqi":40,"pm10":42.7,"pm2_5":14.1,"no2":6.5,"co":267.0,"o3":58.0,"so2":4.6,"mosquito_risk":4,"arthritis_risk":5,"migraine_risk":7,"frizz_risk":0,"updated_at":"2026-05-11T03:21:38.995129+05:30"},{"city":"Kota","state":"Rajasthan","latitude":25.2138,"longitude":75.8648,"temp":28.6,"humidity":43,"rain":0.0,"pressure":975.9,"uv_index":8.4,"wind_gusts":23.8,"aqi":93,"pm10":78.5,"pm2_5":35.0,"no2":3.6,"co":314.0,"o3":110.0,"so2":10.9,"mosquito_risk":4,"arthritis_risk":5,"migraine_risk":7,"frizz_risk":0,"updated_at":"2026-05-11T03:21:38.995135+05:30"},{"city":"Bikaner","state":"Rajasthan","latitude":28.0229,"longitude":73.3119,"temp":30.4,"humidity":36,"rain":0.0,"pressure":977.5,"uv_index":8.3,"wind_gusts":68.4,"aqi":108,"pm10":87.1,"pm2_5":35.5,"no2":2.8,"co":309.0,"o3":96.0,"so2":5.8,"mosquito_risk":0,"arthritis_risk":5,"migraine_risk":7,"frizz_risk":0,"updated_at":"2026-05-11T03:21:38.995141+05:30"},{"city":"Ajmer","state":"Rajasthan","latitude":26.4499,"longitude":74.6399,"temp":27.6,"humidity":48,"rain":0.0,"pressure":952.0,"uv_index":8.35,"wind_gusts":40.0,"aqi":104,"pm10":125.3,"pm2_5":39.6,"no2":4.7,"co":382.0,"o3":89.0,"so2":5.4,"mosquito_risk":4,"arthritis_risk":5,"migraine_risk":7,"frizz_risk":0,"updated_at":"2026-05-11T03:21:38.995147+05:30"},{"city":"Gwalior","state":"Madhya Pradesh","latitude":26.2183,"longitude":78.1828,"temp":26.5,"humidity":55,"rain":0.0,"pressure":981.9,"uv_index":8.25,"wind_gusts":25.9,"aqi":123,"pm10":91.7,"pm2_5":39.1,"no2":4.2,"co":335.0,"o3":114.0,"so2":8.1,"mosquito_risk":4,"arthritis_risk":5,"migraine_risk":7,"frizz_risk":1,"updated_at":"2026-05-11T03:21:38.995153+05:30"},{"city":"Indore","state":"Madhya Pradesh","latitude":22.7196,"longitude":75.8577,"temp":28.9,"humidity":28,"rain":0.0,"pressure":944.9,"uv_index":8.7,"wind_gusts":38.5,"aqi":78,"pm10":70.5,"pm2_5":34.8,"no2":4.7,"co":269.0,"o3":117.0,"so2":18.7,"mosquito_risk":4,"arthritis_risk":5,"migraine_risk":7,"frizz_risk":0,"updated_at":"2026-05-11T03:21:38.995159+05:30"},{"city":"Bhopal","state":"Madhya Pradesh","latitude":23.2599,"longitude":77.4126,"temp":27.4,"humidity":46,"rain":0.0,"pressure":950.9,"uv_index":8.7,"wind_gusts":41.4,"aqi":73,"pm10":65.9,"pm2_5":29.1,"no2":3.0,"co":304.0,"o3":114.0,"so2":5.3,"mosquito_risk":4,"arthritis_risk":5,"migraine_risk":7,"frizz_risk":0,"updated_at":"2026-05-11T03:21:38.995164+05:30"},{"city":"Jabalpur","state":"Madhya Pradesh","latitude":23.1815,"longitude":79.9864,"temp":25.0,"humidity":51,"rain":0.0,"pressure":958.4,"uv_index":8.85,"wind_gusts":34.2,"aqi":83,"pm10":44.2,"pm2_5":27.2,"no2":9.6,"co":316.0,"o3":92.0,"so2":7.6,"mosquito_risk":4,"arthritis_risk":5,"migraine_risk":7,"frizz_risk":0,"updated_at":"2026-05-11T03:21:38.995170+05:30"},{"city":"Ujjain","state":"Madhya Pradesh","latitude":23.1765,"longitude":75.7885,"temp":28.4,"humidity":31,"rain":0.0,"pressure":950.9,"uv_index":8.65,"wind_gusts":44.3,"aqi":70,"pm10":70.3,"pm2_5":36.7,"no2":5.6,"co":279.0,"o3":108.0,"so2":19.5,"mosquito_risk":4,"arthritis_risk":5,"migraine_risk":7,"frizz_risk":0,"updated_at":"2026-05-11T03:21:38.995177+05:30"},{"city":"Visakhapatnam","state":"Andhra Pradesh","latitude":17.6868,"longitude":83.2185,"temp":25.8,"humidity":95,"rain":0.0,"pressure":1002.1,"uv_index":9.1,"wind_gusts":39.6,"aqi":72,"pm10":32.0,"pm2_5":28.9,"no2":26.9,"co":1283.0,"o3":23.0,"so2":8.8,"mosquito_risk":7,"arthritis_risk":5,"migraine_risk":4,"frizz_risk":1,"updated_at":"2026-05-11T03:21:38.995183+05:30"},{"city":"Vijayawada","state":"Andhra Pradesh","latitude":16.5062,"longitude":80.648,"temp":27.8,"humidity":81,"rain":0.0,"pressure":1000.4,"uv_index":8.85,"wind_gusts":39.6,"aqi":46,"pm10":14.3,"pm2_5":12.9,"no2":10.4,"co":164.0,"o3":33.0,"so2":4.6,"mosquito_risk":7,"arthritis_risk":5,"migraine_risk":4,"frizz_risk":1,"updated_at":"2026-05-11T03:21:38.995188+05:30"},{"city":"Guntur","state":"Andhra Pradesh","latitude":16.3067,"longitude":80.4365,"temp":27.3,"humidity":82,"rain":0.0,"pressure":1001.6,"uv_index":9.15,"wind_gusts":35.3,"aqi":47,"pm10":10.6,"pm2_5":9.4,"no2":9.6,"co":156.0,"o3":33.0,"so2":6.0,"mosquito_risk":7,"arthritis_risk":5,"migraine_risk":4,"frizz_risk":1,"updated_at":"2026-05-11T03:21:38.995195+05:30"},{"city":"Nellore","state":"Andhra Pradesh","latitude":14.4426,"longitude":79.9865,"temp":25.9,"humidity":95,"rain":0.0,"pressure":1003.1,"uv_index":9.15,"wind_gusts":36.4,"aqi":22,"pm10":5.9,"pm2_5":4.1,"no2":3.1,"co":232.0,"o3":44.0,"so2":2.0,"mosquito_risk":7,"arthritis_risk":5,"migraine_risk":4,"frizz_risk":1,"updated_at":"2026-05-11T03:21:38.995201+05:30"},{"city":"Kurnool","state":"Andhra Pradesh","latitude":15.8281,"longitude":78.0373,"temp":28.0,"humidity":59,"rain":0.0,"pressure":974.1,"uv_index":8.3,"wind_gusts":39.2,"aqi":50,"pm10":5.2,"pm2_5":3.8,"no2":3.6,"co":148.0,"o3":44.0,"so2":1.2,"mosquito_risk":4,"arthritis_risk":5,"migraine_risk":7,"frizz_risk":1,"updated_at":"2026-05-11T03:21:38.995207+05:30"},{"city":"Kakinada","state":"Andhra Pradesh","latitude":16.9891,"longitude":82.2475,"temp":26.6,"humidity":89,"rain":0.0,"pressure":1005.6,"uv_index":9.05,"wind_gusts":41.0,"aqi":27,"pm10":8.6,"pm2_5":5.8,"no2":2.0,"co":164.0,"o3":57.0,"so2":1.1,"mosquito_risk":7,"arthritis_risk":5,"migraine_risk":4,"frizz_risk":1,"updated_at":"2026-05-11T03:21:38.995213+05:30"},{"city":"Tirupati","state":"Andhra Pradesh","latitude":13.6288,"longitude":79.4192,"temp":24.2,"humidity":92,"rain":0.0,"pressure":988.1,"uv_index":9.2,"wind_gusts":40.7,"aqi":47,"pm10":17.9,"pm2_5":16.7,"no2":28.8,"co":376.0,"o3":7.0,"so2":8.2,"mosquito_risk":3,"arthritis_risk":5,"migraine_risk":7,"frizz_risk":1,"updated_at":"2026-05-11T03:21:38.995219+05:30"},{"city":"Warangal","state":"Telangana","latitude":17.9689,"longitude":79.5941,"temp":26.1,"humidity":79,"rain":0.0,"pressure":976.4,"uv_index":9.15,"wind_gusts":42.8,"aqi":62,"pm10":7.9,"pm2_5":7.1,"no2":8.4,"co":166.0,"o3":40.0,"so2":9.2,"mosquito_risk":7,"arthritis_risk":5,"migraine_risk":7,"frizz_risk":1,"updated_at":"2026-05-11T03:21:38.995224+05:30"},{"city":"Nizamabad","state":"Telangana","latitude":18.6725,"longitude":78.0941,"temp":27.1,"humidity":60,"rain":0.0,"pressure":961.4,"uv_index":9.15,"wind_gusts":34.6,"aqi":76,"pm10":28.3,"pm2_5":23.2,"no2":7.4,"co":226.0,"o3":92.0,"so2":6.3,"mosquito_risk":4,"arthritis_risk":5,"migraine_risk":7,"frizz_risk":1,"updated_at":"2026-05-11T03:21:38.995230+05:30"},{"city":"Mysore","state":"Karnataka","latitude":12.2958,"longitude":76.6396,"temp":22.1,"humidity":97,"rain":0.0,"pressure":925.3,"uv_index":9.0,"wind_gusts":40.7,"aqi":60,"pm10":24.9,"pm2_5":21.3,"no2":20.5,"co":266.0,"o3":54.0,"so2":7.1,"mosquito_risk":3,"arthritis_risk":5,"migraine_risk":7,"frizz_risk":1,"updated_at":"2026-05-11T03:21:38.995236+05:30"},{"city":"Mangalore","state":"Karnataka","latitude":12.9141,"longitude":74.856,"temp":26.8,"humidity":95,"rain":0.0,"pressure":1003.1,"uv_index":8.6,"wind_gusts":40.7,"aqi":65,"pm10":29.2,"pm2_5":22.6,"no2":9.5,"co":222.0,"o3":71.0,"so2":4.8,"mosquito_risk":7,"arthritis_risk":5,"migraine_risk":4,"frizz_risk":1,"updated_at":"2026-05-11T03:21:38.995241+05:30"},{"city":"Hubli-Dharwad","state":"Karnataka","latitude":15.3647,"longitude":75.124,"temp":25.3,"humidity":78,"rain":0.0,"pressure":938.0,"uv_index":8.9,"wind_gusts":50.4,"aqi":73,"pm10":31.9,"pm2_5":27.5,"no2":9.4,"co":236.0,"o3":77.0,"so2":3.3,"mosquito_risk":7,"arthritis_risk":5,"migraine_risk":7,"frizz_risk":1,"updated_at":"2026-05-11T03:21:38.995247+05:30"},{"city":"Belgaum","state":"Karnataka","latitude":15.8497,"longitude":74.4977,"temp":25.0,"humidity":60,"rain":0.0,"pressure":922.5,"uv_index":9.2,"wind_gusts":48.6,"aqi":99,"pm10":38.5,"pm2_5":24.7,"no2":14.7,"co":208.0,"o3":60.0,"so2":6.4,"mosquito_risk":4,"arthritis_risk":5,"migraine_risk":7,"frizz_risk":1,"updated_at":"2026-05-11T03:21:42.340472+05:30"},{"city":"Coimbatore","state":"Tamil Nadu","latitude":11.0168,"longitude":76.9558,"temp":23.2,"humidity":91,"rain":0.0,"pressure":958.8,"uv_index":9.25,"wind_gusts":30.2,"aqi":60,"pm10":31.3,"pm2_5":27.8,"no2":18.8,"co":496.0,"o3":51.0,"so2":8.7,"mosquito_risk":3,"arthritis_risk":5,"migraine_risk":7,"frizz_risk":1,"updated_at":"2026-05-11T03:21:42.340504+05:30"},{"city":"Madurai","state":"Tamil Nadu","latitude":9.9252,"longitude":78.1198,"temp":25.0,"humidity":92,"rain":0.0,"pressure":990.1,"uv_index":9.1,"wind_gusts":33.8,"aqi":58,"pm10":30.2,"pm2_5":29.2,"no2":28.2,"co":319.0,"o3":26.0,"so2":7.3,"mosquito_risk":7,"arthritis_risk":5,"migraine_risk":7,"frizz_risk":1,"updated_at":"2026-05-11T03:21:42.340513+05:30"},{"city":"Trichy","state":"Tamil Nadu","latitude":10.7905,"longitude":78.7047,"temp":24.9,"humidity":96,"rain":0.0,"pressure":996.5,"uv_index":9.15,"wind_gusts":27.0,"aqi":59,"pm10":43.7,"pm2_5":42.8,"no2":50.4,"co":524.0,"o3":1.0,"so2":10.3,"mosquito_risk":3,"arthritis_risk":5,"migraine_risk":7,"frizz_risk":1,"updated_at":"2026-05-11T03:21:42.340520+05:30"},{"city":"Salem","state":"Tamil Nadu","latitude":11.6643,"longitude":78.146,"temp":23.8,"humidity":96,"rain":0.0,"pressure":974.2,"uv_index":9.2,"wind_gusts":35.6,"aqi":61,"pm10":32.2,"pm2_5":30.9,"no2":30.7,"co":478.0,"o3":35.0,"so2":12.6,"mosquito_risk":3,"arthritis_risk":5,"migraine_risk":7,"frizz_risk":1,"updated_at":"2026-05-11T03:21:42.340527+05:30"},{"city":"Tirunelveli","state":"Tamil Nadu","latitude":8.7139,"longitude":77.7567,"temp":26.1,"humidity":89,"rain":0.0,"pressure":1000.1,"uv_index":9.05,"wind_gusts":24.1,"aqi":50,"pm10":14.7,"pm2_5":14.5,"no2":12.2,"co":449.0,"o3":40.0,"so2":2.5,"mosquito_risk":7,"arthritis_risk":5,"migraine_risk":4,"frizz_risk":1,"updated_at":"2026-05-11T03:21:42.340533+05:30"},{"city":"Vellore","state":"Tamil Nadu","latitude":12.9165,"longitude":79.1325,"temp":23.4,"humidity":97,"rain":0.0,"pressure":981.5,"uv_index":9.25,"wind_gusts":32.4,"aqi":58,"pm10":26.5,"pm2_5":24.9,"no2":26.8,"co":359.0,"o3":16.0,"so2":8.4,"mosquito_risk":3,"arthritis_risk":5,"migraine_risk":7,"frizz_risk":1,"updated_at":"2026-05-11T03:21:42.340539+05:30"},{"city":"Erode","state":"Tamil Nadu","latitude":11.341,"longitude":77.7172,"temp":24.6,"humidity":92,"rain":0.0,"pressure":986.2,"uv_index":9.2,"wind_gusts":20.2,"aqi":62,"pm10":27.8,"pm2_5":26.4,"no2":26.9,"co":381.0,"o3":46.0,"so2":10.1,"mosquito_risk":3,"arthritis_risk":5,"migraine_risk":7,"frizz_risk":1,"updated_at":"2026-05-11T03:21:42.340545+05:30"},{"city":"Kochi","state":"Kerala","latitude":9.9312,"longitude":76.2673,"temp":25.5,"humidity":95,"rain":0.0,"pressure":1005.8,"uv_index":8.95,"wind_gusts":30.6,"aqi":65,"pm10":26.4,"pm2_5":26.0,"no2":22.7,"co":344.0,"o3":30.0,"so2":5.9,"mosquito_risk":7,"arthritis_risk":5,"migraine_risk":4,"frizz_risk":1,"updated_at":"2026-05-11T03:21:42.340551+05:30"},{"city":"Thiruvananthapuram","state":"Kerala","latitude":8.5241,"longitude":76.9366,"temp":24.3,"humidity":99,"rain":0.0,"pressure":1005.0,"uv_index":8.85,"wind_gusts":30.6,"aqi":44,"pm10":6.9,"pm2_5":6.2,"no2":5.1,"co":428.0,"o3":89.0,"so2":2.9,"mosquito_risk":3,"arthritis_risk":5,"migraine_risk":4,"frizz_risk":1,"updated_at":"2026-05-11T03:21:42.340557+05:30"},{"city":"Kozhikode","state":"Kerala","latitude":11.2588,"longitude":75.7804,"temp":24.7,"humidity":97,"rain":0.0,"pressure":1004.7,"uv_index":8.9,"wind_gusts":33.1,"aqi":49,"pm10":15.4,"pm2_5":11.9,"no2":4.3,"co":331.0,"o3":102.0,"so2":3.8,"mosquito_risk":3,"arthritis_risk":5,"migraine_risk":4,"frizz_risk":1,"updated_at":"2026-05-11T03:21:42.340563+05:30"},{"city":"Thrissur","state":"Kerala","latitude":10.5276,"longitude":76.2144,"temp":24.1,"humidity":100,"rain":0.0,"pressure":1004.1,"uv_index":8.95,"wind_gusts":27.7,"aqi":65,"pm10":27.5,"pm2_5":27.0,"no2":18.8,"co":426.0,"o3":48.0,"so2":4.3,"mosquito_risk":3,"arthritis_risk":5,"migraine_risk":4,"frizz_risk":1,"updated_at":"2026-05-11T03:21:42.340569+05:30"},{"city":"Kannur","state":"Kerala","latitude":11.8745,"longitude":75.3704,"temp":26.6,"humidity":90,"rain":0.0,"pressure":1003.8,"uv_index":8.9,"wind_gusts":33.1,"aqi":53,"pm10":16.2,"pm2_5":12.9,"no2":6.1,"co":254.0,"o3":86.0,"so2":2.7,"mosquito_risk":7,"arthritis_risk":5,"migraine_risk":4,"frizz_risk":1,"updated_at":"2026-05-11T03:21:42.340575+05:30"},{"city":"Patna","state":"Bihar","latitude":25.5941,"longitude":85.1376,"temp":23.9,"humidity":79,"rain":0.0,"pressure":1000.7,"uv_index":8.7,"wind_gusts":28.1,"aqi":125,"pm10":61.9,"pm2_5":54.9,"no2":14.8,"co":380.0,"o3":100.0,"so2":14.1,"mosquito_risk":3,"arthritis_risk":5,"migraine_risk":4,"frizz_risk":1,"updated_at":"2026-05-11T03:21:42.340581+05:30"},{"city":"Gaya","state":"Bihar","latitude":24.7914,"longitude":85.0002,"temp":23.6,"humidity":74,"rain":0.0,"pressure":993.2,"uv_index":8.8,"wind_gusts":23.8,"aqi":114,"pm10":61.2,"pm2_5":51.7,"no2":13.8,"co":306.0,"o3":105.0,"so2":29.0,"mosquito_risk":3,"arthritis_risk":5,"migraine_risk":7,"frizz_risk":1,"updated_at":"2026-05-11T03:21:42.340586+05:30"},{"city":"Muzaffarpur","state":"Bihar","latitude":26.1209,"longitude":85.3647,"temp":22.3,"humidity":86,"rain":0.0,"pressure":1001.2,"uv_index":8.7,"wind_gusts":27.4,"aqi":127,"pm10":61.0,"pm2_5":54.9,"no2":16.9,"co":515.0,"o3":82.0,"so2":12.5,"mosquito_risk":3,"arthritis_risk":5,"migraine_risk":4,"frizz_risk":1,"updated_at":"2026-05-11T03:21:42.340591+05:30"},{"city":"Bhagalpur","state":"Bihar","latitude":25.2425,"longitude":87.0117,"temp":22.4,"humidity":84,"rain":0.0,"pressure":1002.1,"uv_index":8.6,"wind_gusts":40.3,"aqi":137,"pm10":57.6,"pm2_5":52.5,"no2":9.4,"co":443.0,"o3":131.0,"so2":16.6,"mosquito_risk":3,"arthritis_risk":5,"migraine_risk":4,"frizz_risk":1,"updated_at":"2026-05-11T03:21:42.340596+05:30"},{"city":"Ranchi","state":"Jharkhand","latitude":23.3441,"longitude":85.3096,"temp":20.0,"humidity":85,"rain":0.0,"pressure":936.6,"uv_index":9.2,"wind_gusts":33.8,"aqi":93,"pm10":53.2,"pm2_5":36.6,"no2":10.6,"co":284.0,"o3":101.0,"so2":19.5,"mosquito_risk":3,"arthritis_risk":5,"migraine_risk":7,"frizz_risk":1,"updated_at":"2026-05-11T03:21:42.340601+05:30"},{"city":"Jamshedpur","state":"Jharkhand","latitude":22.8046,"longitude":86.2029,"temp":22.5,"humidity":88,"rain":0.0,"pressure":990.8,"uv_index":9.0,"wind_gusts":30.6,"aqi":118,"pm10":58.7,"pm2_5":49.8,"no2":32.1,"co":379.0,"o3":49.0,"so2":30.1,"mosquito_risk":3,"arthritis_risk":5,"migraine_risk":7,"frizz_risk":1,"updated_at":"2026-05-11T03:21:42.340606+05:30"},{"city":"Dhanbad","state":"Jharkhand","latitude":23.7957,"longitude":86.4304,"temp":23.0,"humidity":89,"rain":0.0,"pressure":979.8,"uv_index":8.95,"wind_gusts":30.2,"aqi":161,"pm10":108.7,"pm2_5":100.6,"no2":64.2,"co":419.0,"o3":37.0,"so2":74.9,"mosquito_risk":3,"arthritis_risk":5,"migraine_risk":7,"frizz_risk":1,"updated_at":"2026-05-11T03:21:42.340611+05:30"},{"city":"Bokaro","state":"Jharkhand","latitude":23.6693,"longitude":86.1511,"temp":22.0,"humidity":92,"rain":0.0,"pressure":983.6,"uv_index":9.0,"wind_gusts":31.7,"aqi":156,"pm10":109.2,"pm2_5":97.3,"no2":61.6,"co":2366.0,"o3":44.0,"so2":66.3,"mosquito_risk":3,"arthritis_risk":5,"migraine_risk":7,"frizz_risk":1,"updated_at":"2026-05-11T03:21:42.340616+05:30"},{"city":"Bhubaneswar","state":"Odisha","latitude":20.2961,"longitude":85.8245,"temp":25.0,"humidity":92,"rain":0.0,"pressure":1001.8,"uv_index":9.1,"wind_gusts":33.1,"aqi":71,"pm10":50.6,"pm2_5":45.2,"no2":33.4,"co":303.0,"o3":23.0,"so2":10.5,"mosquito_risk":7,"arthritis_risk":5,"migraine_risk":4,"frizz_risk":1,"updated_at":"2026-05-11T03:21:42.340622+05:30"},{"city":"Cuttack","state":"Odisha","latitude":20.4625,"longitude":85.8828,"temp":24.9,"humidity":92,"rain":0.0,"pressure":1003.8,"uv_index":9.15,"wind_gusts":34.2,"aqi":71,"pm10":50.6,"pm2_5":45.2,"no2":33.4,"co":313.0,"o3":23.0,"so2":10.5,"mosquito_risk":3,"arthritis_risk":5,"migraine_risk":4,"frizz_risk":1,"updated_at":"2026-05-11T03:21:42.340627+05:30"},{"city":"Rourkela","state":"Odisha","latitude":22.2604,"longitude":84.8536,"temp":23.7,"humidity":90,"rain":0.0,"pressure":984.7,"uv_index":8.95,"wind_gusts":43.6,"aqi":119,"pm10":63.8,"pm2_5":47.0,"no2":18.7,"co":331.0,"o3":93.0,"so2":60.7,"mosquito_risk":3,"arthritis_risk":5,"migraine_risk":7,"frizz_risk":1,"updated_at":"2026-05-11T03:21:42.340633+05:30"},{"city":"Raipur","state":"Chhattisgarh","latitude":21.2514,"longitude":81.6296,"temp":27.5,"humidity":45,"rain":0.0,"pressure":971.7,"uv_index":9.0,"wind_gusts":29.5,"aqi":107,"pm10":37.0,"pm2_5":28.6,"no2":13.1,"co":272.0,"o3":93.0,"so2":4.8,"mosquito_risk":4,"arthritis_risk":5,"migraine_risk":7,"frizz_risk":0,"updated_at":"2026-05-11T03:21:42.340638+05:30"},{"city":"Bhilai","state":"Chhattisgarh","latitude":21.1938,"longitude":81.3509,"temp":27.0,"humidity":49,"rain":0.0,"pressure":972.1,"uv_index":9.05,"wind_gusts":30.6,"aqi":116,"pm10":45.6,"pm2_5":34.6,"no2":24.8,"co":267.0,"o3":78.0,"so2":5.3,"mosquito_risk":4,"arthritis_risk":5,"migraine_risk":7,"frizz_risk":0,"updated_at":"2026-05-11T03:21:42.340644+05:30"},{"city":"Guwahati","state":"Assam","latitude":26.1158,"longitude":91.7086,"temp":21.8,"humidity":93,"rain":0.0,"pressure":1003.0,"uv_index":7.6,"wind_gusts":25.9,"aqi":98,"pm10":31.8,"pm2_5":26.3,"no2":6.1,"co":302.0,"o3":71.0,"so2":1.2,"mosquito_risk":3,"arthritis_risk":5,"migraine_risk":4,"frizz_risk":1,"updated_at":"2026-05-11T03:21:42.340649+05:30"},{"city":"Agartala","state":"Tripura","latitude":23.8315,"longitude":91.2868,"temp":22.4,"humidity":96,"rain":0.0,"pressure":1006.9,"uv_index":8.8,"wind_gusts":20.5,"aqi":130,"pm10":59.3,"pm2_5":55.1,"no2":15.1,"co":385.0,"o3":79.0,"so2":8.1,"mosquito_risk":3,"arthritis_risk":5,"migraine_risk":4,"frizz_risk":1,"updated_at":"2026-05-11T03:21:42.340654+05:30"},{"city":"Shillong","state":"Meghalaya","latitude":25.5788,"longitude":91.8933,"temp":14.4,"humidity":86,"rain":0.0,"pressure":855.8,"uv_index":8.05,"wind_gusts":27.4,"aqi":87,"pm10":38.3,"pm2_5":29.3,"no2":8.5,"co":318.0,"o3":74.0,"so2":3.0,"mosquito_risk":3,"arthritis_risk":10,"migraine_risk":7,"frizz_risk":0,"updated_at":"2026-05-11T03:21:42.340659+05:30"},{"city":"Imphal","state":"Manipur","latitude":24.817,"longitude":93.9368,"temp":19.0,"humidity":94,"rain":0.1,"pressure":922.9,"uv_index":8.35,"wind_gusts":35.6,"aqi":100,"pm10":51.9,"pm2_5":45.4,"no2":37.1,"co":277.0,"o3":11.0,"so2":4.9,"mosquito_risk":6,"arthritis_risk":10,"migraine_risk":7,"frizz_risk":1,"updated_at":"2026-05-11T03:21:42.340665+05:30"},{"city":"Aizawl","state":"Mizoram","latitude":23.7271,"longitude":92.7176,"temp":17.3,"humidity":97,"rain":0.0,"pressure":891.9,"uv_index":8.75,"wind_gusts":31.3,"aqi":104,"pm10":31.5,"pm2_5":25.0,"no2":3.1,"co":431.0,"o3":89.0,"so2":1.2,"mosquito_risk":3,"arthritis_risk":10,"migraine_risk":7,"frizz_risk":1,"updated_at":"2026-05-11T03:21:42.340671+05:30"},{"city":"Kohima","state":"Nagaland","latitude":25.6701,"longitude":94.1077,"temp":16.5,"humidity":92,"rain":0.1,"pressure":854.9,"uv_index":8.0,"wind_gusts":25.9,"aqi":66,"pm10":24.0,"pm2_5":16.7,"no2":5.2,"co":296.0,"o3":69.0,"so2":1.0,"mosquito_risk":6,"arthritis_risk":10,"migraine_risk":7,"frizz_risk":0,"updated_at":"2026-05-11T03:21:42.340677+05:30"},{"city":"Gangtok","state":"Sikkim","latitude":27.3314,"longitude":88.6138,"temp":10.8,"humidity":86,"rain":0.0,"pressure":835.0,"uv_index":9.0,"wind_gusts":45.7,"aqi":53,"pm10":16.9,"pm2_5":12.6,"no2":7.1,"co":142.0,"o3":90.0,"so2":1.4,"mosquito_risk":3,"arthritis_risk":10,"migraine_risk":7,"frizz_risk":0,"updated_at":"2026-05-11T03:21:42.340682+05:30"},{"city":"Siliguri","state":"West Bengal","latitude":26.7271,"longitude":88.3953,"temp":19.7,"humidity":89,"rain":0.0,"pressure":994.4,"uv_index":8.55,"wind_gusts":26.3,"aqi":94,"pm10":54.8,"pm2_5":41.6,"no2":25.1,"co":382.0,"o3":64.0,"so2":5.5,"mosquito_risk":3,"arthritis_risk":10,"migraine_risk":7,"frizz_risk":1,"updated_at":"2026-05-11T03:21:45.687057+05:30"},{"city":"Durgapur","state":"West Bengal","latitude":23.5204,"longitude":87.3119,"temp":23.5,"humidity":92,"rain":0.0,"pressure":994.9,"uv_index":8.9,"wind_gusts":42.1,"aqi":172,"pm10":122.0,"pm2_5":112.2,"no2":35.1,"co":772.0,"o3":78.0,"so2":51.0,"mosquito_risk":3,"arthritis_risk":5,"migraine_risk":7,"frizz_risk":1,"updated_at":"2026-05-11T03:21:45.687090+05:30"},{"city":"Asansol","state":"West Bengal","latitude":23.6739,"longitude":86.9524,"temp":23.0,"humidity":94,"rain":0.0,"pressure":993.6,"uv_index":8.95,"wind_gusts":25.9,"aqi":163,"pm10":98.5,"pm2_5":91.3,"no2":37.8,"co":1266.0,"o3":58.0,"so2":59.4,"mosquito_risk":3,"arthritis_risk":5,"migraine_risk":7,"frizz_risk":1,"updated_at":"2026-05-11T03:21:45.687100+05:30"},{"city":"Pondicherry","state":"Puducherry","latitude":11.9139,"longitude":79.8145,"temp":25.6,"humidity":94,"rain":0.0,"pressure":1005.0,"uv_index":9.0,"wind_gusts":31.3,"aqi":22,"pm10":6.9,"pm2_5":5.2,"no2":4.8,"co":301.0,"o3":43.0,"so2":0.6,"mosquito_risk":7,"arthritis_risk":5,"migraine_risk":4,"frizz_risk":1,"updated_at":"2026-05-11T03:21:45.687108+05:30"},{"city":"Port Blair","state":"Andaman and Nicobar Islands","latitude":11.6234,"longitude":92.7265,"temp":25.3,"humidity":95,"rain":0.1,"pressure":1004.8,"uv_index":9.05,"wind_gusts":32.0,"aqi":28,"pm10":3.4,"pm2_5":2.3,"no2":0.2,"co":134.0,"o3":67.0,"so2":0.1,"mosquito_risk":10,"arthritis_risk":5,"migraine_risk":4,"frizz_risk":1,"updated_at":"2026-05-11T03:21:45.687115+05:30"},{"city":"Haridwar","state":"Uttarakhand","latitude":29.9457,"longitude":78.1642,"temp":22.0,"humidity":77,"rain":0.0,"pressure":973.4,"uv_index":7.45,"wind_gusts":33.1,"aqi":137,"pm10":72.2,"pm2_5":57.9,"no2":29.6,"co":367.0,"o3":32.0,"so2":5.6,"mosquito_risk":3,"arthritis_risk":5,"migraine_risk":7,"frizz_risk":1,"updated_at":"2026-05-11T03:21:45.687122+05:30"},{"city":"Rishikesh","state":"Uttarakhand","latitude":30.0869,"longitude":78.2676,"temp":19.9,"humidity":85,"rain":0.0,"pressure":966.0,"uv_index":7.0,"wind_gusts":27.4,"aqi":117,"pm10":78.0,"pm2_5":49.1,"no2":14.9,"co":362.0,"o3":74.0,"so2":3.4,"mosquito_risk":3,"arthritis_risk":10,"migraine_risk":7,"frizz_risk":1,"updated_at":"2026-05-11T03:21:45.687128+05:30"},{"city":"Nainital","state":"Uttarakhand","latitude":29.3919,"longitude":79.4542,"temp":13.2,"humidity":85,"rain":0.0,"pressure":805.4,"uv_index":5.45,"wind_gusts":31.7,"aqi":99,"pm10":53.2,"pm2_5":43.2,"no2":22.8,"co":280.0,"o3":58.0,"so2":5.0,"mosquito_risk":3,"arthritis_risk":10,"migraine_risk":3,"frizz_risk":0,"updated_at":"2026-05-11T03:21:45.687135+05:30"},{"city":"Mussoorie","state":"Uttarakhand","latitude":30.4599,"longitude":78.0664,"temp":12.5,"humidity":93,"rain":0.0,"pressure":801.8,"uv_index":5.65,"wind_gusts":38.2,"aqi":128,"pm10":87.8,"pm2_5":57.0,"no2":33.0,"co":314.0,"o3":44.0,"so2":8.9,"mosquito_risk":3,"arthritis_risk":10,"migraine_risk":3,"frizz_risk":0,"updated_at":"2026-05-11T03:21:45.687141+05:30"},{"city":"Dharamshala","state":"Himachal Pradesh","latitude":32.219,"longitude":76.3234,"temp":20.5,"humidity":64,"rain":0.0,"pressure":868.4,"uv_index":8.35,"wind_gusts":38.5,"aqi":98,"pm10":58.6,"pm2_5":30.5,"no2":10.9,"co":328.0,"o3":57.0,"so2":0.9,"mosquito_risk":3,"arthritis_risk":5,"migraine_risk":7,"frizz_risk":0,"updated_at":"2026-05-11T03:21:45.687147+05:30"},{"city":"Dalhousie","state":"Himachal Pradesh","latitude":32.5387,"longitude":75.971,"temp":12.2,"humidity":98,"rain":0.0,"pressure":801.9,"uv_index":8.6,"wind_gusts":31.0,"aqi":152,"pm10":121.1,"pm2_5":61.2,"no2":29.8,"co":419.0,"o3":38.0,"so2":3.1,"mosquito_risk":3,"arthritis_risk":10,"migraine_risk":7,"frizz_risk":0,"updated_at":"2026-05-11T03:21:45.687154+05:30"},{"city":"Patiala","state":"Punjab","latitude":30.3398,"longitude":76.3869,"temp":25.6,"humidity":66,"rain":0.0,"pressure":976.9,"uv_index":7.55,"wind_gusts":34.9,"aqi":443,"pm10":670.6,"pm2_5":103.8,"no2":7.2,"co":458.0,"o3":115.0,"so2":9.3,"mosquito_risk":7,"arthritis_risk":5,"migraine_risk":7,"frizz_risk":1,"updated_at":"2026-05-11T03:21:45.687161+05:30"},{"city":"Bhatinda","state":"Punjab","latitude":30.211,"longitude":74.9455,"temp":28.4,"humidity":51,"rain":0.0,"pressure":981.5,"uv_index":8.25,"wind_gusts":55.1,"aqi":424,"pm10":590.5,"pm2_5":126.7,"no2":6.1,"co":376.0,"o3":121.0,"so2":11.7,"mosquito_risk":4,"arthritis_risk":5,"migraine_risk":7,"frizz_risk":1,"updated_at":"2026-05-11T03:21:45.687167+05:30"},{"city":"Rohtak","state":"Haryana","latitude":28.8955,"longitude":76.6066,"temp":26.1,"humidity":57,"rain":0.0,"pressure":980.4,"uv_index":7.65,"wind_gusts":28.4,"aqi":353,"pm10":447.0,"pm2_5":89.2,"no2":18.3,"co":546.0,"o3":107.0,"so2":24.9,"mosquito_risk":4,"arthritis_risk":5,"migraine_risk":7,"frizz_risk":1,"updated_at":"2026-05-11T03:21:45.687173+05:30"},{"city":"Panipat","state":"Haryana","latitude":29.3909,"longitude":76.9635,"temp":25.0,"humidity":63,"rain":0.0,"pressure":979.4,"uv_index":7.5,"wind_gusts":28.8,"aqi":601,"pm10":661.2,"pm2_5":102.9,"no2":13.6,"co":437.0,"o3":103.0,"so2":15.7,"mosquito_risk":7,"arthritis_risk":5,"migraine_risk":7,"frizz_risk":1,"updated_at":"2026-05-11T03:21:45.687179+05:30"},{"city":"Mathura","state":"Uttar Pradesh","latitude":27.4924,"longitude":77.6737,"temp":25.8,"humidity":59,"rain":0.0,"pressure":985.7,"uv_index":7.95,"wind_gusts":26.6,"aqi":375,"pm10":566.2,"pm2_5":92.2,"no2":8.9,"co":335.0,"o3":88.0,"so2":9.9,"mosquito_risk":4,"arthritis_risk":5,"migraine_risk":7,"frizz_risk":1,"updated_at":"2026-05-11T03:21:45.687185+05:30"},{"city":"Vrindavan","state":"Uttar Pradesh","latitude":27.5823,"longitude":77.7027,"temp":25.9,"humidity":59,"rain":0.0,"pressure":986.2,"uv_index":7.9,"wind_gusts":27.7,"aqi":375,"pm10":566.2,"pm2_5":92.2,"no2":8.9,"co":355.0,"o3":88.0,"so2":9.9,"mosquito_risk":4,"arthritis_risk":5,"migraine_risk":7,"frizz_risk":1,"updated_at":"2026-05-11T03:21:45.687191+05:30"},{"city":"Ayodhya","state":"Uttar Pradesh","latitude":26.7922,"longitude":82.1998,"temp":24.0,"humidity":68,"rain":0.0,"pressure":995.4,"uv_index":8.3,"wind_gusts":33.5,"aqi":116,"pm10":52.9,"pm2_5":47.8,"no2":18.0,"co":418.0,"o3":81.0,"so2":10.3,"mosquito_risk":3,"arthritis_risk":5,"migraine_risk":7,"frizz_risk":1,"updated_at":"2026-05-11T03:21:45.687196+05:30"},{"city":"Ratlam","state":"Madhya Pradesh","latitude":23.3315,"longitude":75.0367,"temp":28.3,"humidity":31,"rain":0.0,"pressure":951.2,"uv_index":8.55,"wind_gusts":34.9,"aqi":60,"pm10":64.7,"pm2_5":35.0,"no2":5.3,"co":320.0,"o3":102.0,"so2":15.6,"mosquito_risk":4,"arthritis_risk":5,"migraine_risk":7,"frizz_risk":0,"updated_at":"2026-05-11T03:21:45.687203+05:30"},{"city":"Sagar","state":"Madhya Pradesh","latitude":23.8388,"longitude":78.7378,"temp":26.0,"humidity":49,"rain":0.0,"pressure":948.0,"uv_index":8.75,"wind_gusts":41.0,"aqi":91,"pm10":40.6,"pm2_5":29.1,"no2":5.1,"co":300.0,"o3":132.0,"so2":8.3,"mosquito_risk":4,"arthritis_risk":5,"migraine_risk":7,"frizz_risk":0,"updated_at":"2026-05-11T03:21:45.687208+05:30"},{"city":"Satna","state":"Madhya Pradesh","latitude":24.6005,"longitude":80.8322,"temp":25.1,"humidity":51,"rain":0.0,"pressure":969.4,"uv_index":8.75,"wind_gusts":32.0,"aqi":134,"pm10":43.3,"pm2_5":31.0,"no2":8.1,"co":349.0,"o3":128.0,"so2":10.6,"mosquito_risk":4,"arthritis_risk":5,"migraine_risk":7,"frizz_risk":0,"updated_at":"2026-05-11T03:21:45.687214+05:30"},{"city":"Akola","state":"Maharashtra","latitude":20.7002,"longitude":77.0082,"temp":28.5,"humidity":35,"rain":0.0,"pressure":971.1,"uv_index":8.9,"wind_gusts":44.6,"aqi":87,"pm10":62.6,"pm2_5":37.6,"no2":34.1,"co":384.0,"o3":27.0,"so2":5.7,"mosquito_risk":4,"arthritis_risk":5,"migraine_risk":7,"frizz_risk":0,"updated_at":"2026-05-11T03:21:45.687220+05:30"},{"city":"Amravati","state":"Maharashtra","latitude":20.9374,"longitude":77.7796,"temp":29.0,"humidity":35,"rain":0.0,"pressure":963.6,"uv_index":8.9,"wind_gusts":43.2,"aqi":88,"pm10":66.1,"pm2_5":39.1,"no2":37.2,"co":327.0,"o3":28.0,"so2":5.8,"mosquito_risk":4,"arthritis_risk":5,"migraine_risk":7,"frizz_risk":0,"updated_at":"2026-05-11T03:21:45.687226+05:30"},{"city":"Latur","state":"Maharashtra","latitude":18.4088,"longitude":76.5604,"temp":28.1,"humidity":45,"rain":0.0,"pressure":936.3,"uv_index":9.1,"wind_gusts":40.0,"aqi":80,"pm10":35.5,"pm2_5":24.6,"no2":12.8,"co":283.0,"o3":76.0,"so2":5.2,"mosquito_risk":4,"arthritis_risk":5,"migraine_risk":7,"frizz_risk":0,"updated_at":"2026-05-11T03:21:45.687232+05:30"},{"city":"Nanded","state":"Maharashtra","latitude":19.1383,"longitude":77.3091,"temp":29.2,"humidity":43,"rain":0.0,"pressure":965.0,"uv_index":9.0,"wind_gusts":34.2,"aqi":85,"pm10":35.3,"pm2_5":26.3,"no2":12.5,"co":278.0,"o3":73.0,"so2":5.4,"mosquito_risk":4,"arthritis_risk":5,"migraine_risk":7,"frizz_risk":0,"updated_at":"2026-05-11T03:21:45.687237+05:30"},{"city":"Gulbarga","state":"Karnataka","latitude":17.3297,"longitude":76.8343,"temp":28.5,"humidity":48,"rain":0.0,"pressure":955.9,"uv_index":9.0,"wind_gusts":34.2,"aqi":64,"pm10":29.8,"pm2_5":21.2,"no2":9.8,"co":260.0,"o3":79.0,"so2":8.7,"mosquito_risk":4,"arthritis_risk":5,"migraine_risk":7,"frizz_risk":1,"updated_at":"2026-05-11T03:21:45.687243+05:30"},{"city":"Bidar","state":"Karnataka","latitude":17.9104,"longitude":77.5199,"temp":26.1,"humidity":56,"rain":0.0,"pressure":932.6,"uv_index":9.15,"wind_gusts":34.2,"aqi":70,"pm10":25.4,"pm2_5":20.8,"no2":8.2,"co":235.0,"o3":84.0,"so2":6.2,"mosquito_risk":4,"arthritis_risk":5,"migraine_risk":7,"frizz_risk":1,"updated_at":"2026-05-11T03:21:45.687249+05:30"},{"city":"Hospet","state":"Karnataka","latitude":15.2689,"longitude":76.3909,"temp":26.9,"humidity":55,"rain":0.0,"pressure":953.1,"uv_index":9.2,"wind_gusts":31.7,"aqi":66,"pm10":28.9,"pm2_5":21.5,"no2":8.9,"co":221.0,"o3":75.0,"so2":5.9,"mosquito_risk":4,"arthritis_risk":5,"migraine_risk":7,"frizz_risk":1,"updated_at":"2026-05-11T03:21:45.687254+05:30"},{"city":"Tirupur","state":"Tamil Nadu","latitude":11.1085,"longitude":77.3411,"temp":24.5,"humidity":89,"rain":0.0,"pressure":972.2,"uv_index":9.25,"wind_gusts":29.5,"aqi":68,"pm10":35.2,"pm2_5":32.6,"no2":27.8,"co":380.0,"o3":55.0,"so2":12.1,"mosquito_risk":3,"arthritis_risk":5,"migraine_risk":7,"frizz_risk":1,"updated_at":"2026-05-11T03:21:45.687260+05:30"},{"city":"Alappuzha","state":"Kerala","latitude":9.4981,"longitude":76.3388,"temp":25.9,"humidity":96,"rain":0.0,"pressure":1005.8,"uv_index":8.9,"wind_gusts":32.4,"aqi":57,"pm10":17.8,"pm2_5":17.1,"no2":14.8,"co":197.0,"o3":61.0,"so2":5.2,"mosquito_risk":7,"arthritis_risk":5,"migraine_risk":4,"frizz_risk":1,"updated_at":"2026-05-11T03:21:45.687265+05:30"},{"city":"Munnar","state":"Kerala","latitude":10.0889,"longitude":77.0595,"temp":15.3,"humidity":89,"rain":0.0,"pressure":852.6,"uv_index":9.45,"wind_gusts":22.0,"aqi":39,"pm10":14.5,"pm2_5":13.4,"no2":7.9,"co":194.0,"o3":48.0,"so2":1.9,"mosquito_risk":3,"arthritis_risk":10,"migraine_risk":7,"frizz_risk":0,"updated_at":"2026-05-11T03:21:45.687271+05:30"},{"city":"Silchar","state":"Assam","latitude":24.8333,"longitude":92.7789,"temp":23.6,"humidity":94,"rain":0.0,"pressure":1005.8,"uv_index":8.6,"wind_gusts":22.7,"aqi":151,"pm10":64.3,"pm2_5":54.9,"no2":11.7,"co":638.0,"o3":72.0,"so2":7.5,"mosquito_risk":3,"arthritis_risk":5,"migraine_risk":4,"frizz_risk":1,"updated_at":"2026-05-11T03:21:45.687277+05:30"},{"city":"Dibrugarh","state":"Assam","latitude":27.4728,"longitude":94.912,"temp":21.6,"humidity":97,"rain":0.6,"pressure":997.8,"uv_index":5.85,"wind_gusts":24.1,"aqi":78,"pm10":24.0,"pm2_5":20.9,"no2":12.6,"co":294.0,"o3":51.0,"so2":1.3,"mosquito_risk":6,"arthritis_risk":5,"migraine_risk":3,"frizz_risk":1,"updated_at":"2026-05-11T03:21:45.687282+05:30"}]