[{"city":"Delhi","state":"Delhi","latitude":28.6139,"longitude":77.209,"temp":20.1,"humidity":77,"rain":0.0,"pressure":985.3,"uv_index":5.9,"wind_gusts":18.0,"aqi":406,"pm10":318.5,"pm2_5":104.8,"mosquito_risk":3,"arthritis_risk":5,"migraine_risk":3,"frizz_risk":0,"updated_at":"2026-03-06T07:53:47.035680+05:30"},{"city":"Mumbai","state":"Maharashtra","latitude":19.076,"longitude":72.8777,"temp":27.5,"humidity":61,"rain":0.0,"pressure":1010.4,"uv_index":7.4,"wind_gusts":24.8,"aqi":100,"pm10":36.4,"pm2_5":34.6,"mosquito_risk":7,"arthritis_risk":0,"migraine_risk":4,"frizz_risk":1,"updated_at":"2026-03-06T07:53:47.035718+05:30"},{"city":"Bangalore","state":"Karnataka","latitude":12.9716,"longitude":77.5946,"temp":20.7,"humidity":65,"rain":0.0,"pressure":912.7,"uv_index":9.15,"wind_gusts":24.5,"aqi":97,"pm10":60.1,"pm2_5":55.3,"mosquito_risk":3,"arthritis_risk":5,"migraine_risk":7,"frizz_risk":0,"updated_at":"2026-03-06T07:53:47.035733+05:30"},{"city":"Hyderabad","state":"Telangana","latitude":17.385,"longitude":78.4867,"temp":21.8,"humidity":53,"rain":0.0,"pressure":954.7,"uv_index":8.5,"wind_gusts":25.6,"aqi":103,"pm10":39.1,"pm2_5":36.8,"mosquito_risk":0,"arthritis_risk":5,"migraine_risk":7,"frizz_risk":0,"updated_at":"2026-03-06T07:53:47.035743+05:30"},{"city":"Chennai","state":"Tamil Nadu","latitude":13.0827,"longitude":80.2707,"temp":24.6,"humidity":88,"rain":0.0,"pressure":1009.4,"uv_index":8.9,"wind_gusts":31.3,"aqi":78,"pm10":24.7,"pm2_5":22.6,"mosquito_risk":3,"arthritis_risk":0,"migraine_risk":4,"frizz_risk":1,"updated_at":"2026-03-06T07:53:47.035752+05:30"},{"city":"Kolkata","state":"West Bengal","latitude":22.5726,"longitude":88.3639,"temp":23.5,"humidity":92,"rain":0.0,"pressure":1010.5,"uv_index":7.8,"wind_gusts":14.8,"aqi":166,"pm10":117.8,"pm2_5":109.7,"mosquito_risk":3,"arthritis_risk":0,"migraine_risk":4,"frizz_risk":1,"updated_at":"2026-03-06T07:53:47.035761+05:30"},{"city":"Pune","state":"Maharashtra","latitude":18.5204,"longitude":73.8567,"temp":21.9,"humidity":53,"rain":0.0,"pressure":950.4,"uv_index":8.0,"wind_gusts":28.8,"aqi":91,"pm10":56.7,"pm2_5":54.2,"mosquito_risk":0,"arthritis_risk":5,"migraine_risk":7,"frizz_risk":0,"updated_at":"2026-03-06T07:53:47.035772+05:30"},{"city":"Ahmedabad","state":"Gujarat","latitude":23.0225,"longitude":72.5714,"temp":20.0,"humidity":91,"rain":0.0,"pressure":1006.5,"uv_index":7.25,"wind_gusts":21.2,"aqi":69,"pm10":22.8,"pm2_5":19.7,"mosquito_risk":3,"arthritis_risk":5,"migraine_risk":4,"frizz_risk":1,"updated_at":"2026-03-06T07:53:47.035780+05:30"},{"city":"Jaipur","state":"Rajasthan","latitude":26.9124,"longitude":75.7873,"temp":22.3,"humidity":43,"rain":0.0,"pressure":962.4,"uv_index":6.7,"wind_gusts":20.9,"aqi":98,"pm10":152.3,"pm2_5":28.2,"mosquito_risk":0,"arthritis_risk":5,"migraine_risk":7,"frizz_risk":0,"updated_at":"2026-03-06T07:53:47.035788+05:30"},{"city":"Lucknow","state":"Uttar Pradesh","latitude":26.8467,"longitude":80.9462,"temp":21.2,"humidity":80,"rain":0.0,"pressure":996.7,"uv_index":6.4,"wind_gusts":22.7,"aqi":169,"pm10":122.9,"pm2_5":96.4,"mosquito_risk":3,"arthritis_risk":5,"migraine_risk":7,"frizz_risk":1,"updated_at":"2026-03-06T07:53:47.035795+05:30"},{"city":"Kanpur","state":"Uttar Pradesh","latitude":26.4499,"longitude":80.3319,"temp":20.4,"humidity":91,"rain":0.0,"pressure":994.7,"uv_index":6.4,"wind_gusts":14.8,"aqi":178,"pm10":266.4,"pm2_5":108.7,"mosquito_risk":3,"arthritis_risk":5,"migraine_risk":7,"frizz_risk":1,"updated_at":"2026-03-06T07:53:47.035802+05:30"},{"city":"Chandigarh","state":"Chandigarh","latitude":30.7333,"longitude":76.7794,"temp":19.7,"humidity":66,"rain":0.0,"pressure":970.3,"uv_index":5.8,"wind_gusts":21.6,"aqi":109,"pm10":53.3,"pm2_5":41.9,"mosquito_risk":3,"arthritis_risk":5,"migraine_risk":3,"frizz_risk":0,"updated_at":"2026-03-06T07:53:47.035809+05:30"},{"city":"Srinagar","state":"Jammu and Kashmir","latitude":34.0837,"longitude":74.7973,"temp":8.2,"humidity":71,"rain":0.0,"pressure":841.3,"uv_index":6.7,"wind_gusts":16.6,"aqi":139,"pm10":79.4,"pm2_5":58.9,"mosquito_risk":3,"arthritis_risk":5,"migraine_risk":7,"frizz_risk":0,"updated_at":"2026-03-06T07:53:47.035816+05:30"},{"city":"Jammu","state":"Jammu and Kashmir","latitude":32.7266,"longitude":74.857,"temp":16.9,"humidity":86,"rain":0.0,"pressure":973.6,"uv_index":6.45,"wind_gusts":19.8,"aqi":119,"pm10":47.4,"pm2_5":41.3,"mosquito_risk":3,"arthritis_risk":10,"migraine_risk":7,"frizz_risk":0,"updated_at":"2026-03-06T07:53:47.035823+05:30"},{"city":"Amritsar","state":"Punjab","latitude":31.634,"longitude":74.8723,"temp":18.4,"humidity":85,"rain":0.0,"pressure":982.4,"uv_index":6.05,"wind_gusts":14.4,"aqi":153,"pm10":128.5,"pm2_5":109.9,"mosquito_risk":3,"arthritis_risk":10,"migraine_risk":7,"frizz_risk":0,"updated_at":"2026-03-06T07:53:47.035829+05:30"},{"city":"Ludhiana","state":"Punjab","latitude":30.901,"longitude":75.8573,"temp":19.9,"humidity":85,"rain":0.0,"pressure":980.6,"uv_index":6.05,"wind_gusts":14.4,"aqi":161,"pm10":111.8,"pm2_5":97.6,"mosquito_risk":3,"arthritis_risk":10,"migraine_risk":7,"frizz_risk":1,"updated_at":"2026-03-06T07:53:47.035836+05:30"},{"city":"Jalandhar","state":"Punjab","latitude":31.326,"longitude":75.5762,"temp":17.5,"humidity":99,"rain":0.0,"pressure":981.6,"uv_index":6.15,"wind_gusts":15.8,"aqi":162,"pm10":131.8,"pm2_5":110.8,"mosquito_risk":3,"arthritis_risk":10,"migraine_risk":7,"frizz_risk":1,"updated_at":"2026-03-06T07:53:47.035845+05:30"},{"city":"Dehradun","state":"Uttarakhand","latitude":30.6284,"longitude":78.0322,"temp":12.6,"humidity":56,"rain":0.0,"pressure":829.1,"uv_index":6.15,"wind_gusts":26.6,"aqi":77,"pm10":24.7,"pm2_5":22.0,"mosquito_risk":0,"arthritis_risk":5,"migraine_risk":7,"frizz_risk":0,"updated_at":"2026-03-06T07:53:47.035852+05:30"},{"city":"Shimla","state":"Himachal Pradesh","latitude":31.1048,"longitude":77.1734,"temp":12.6,"humidity":51,"rain":0.0,"pressure":784.1,"uv_index":6.25,"wind_gusts":30.6,"aqi":73,"pm10":38.9,"pm2_5":28.2,"mosquito_risk":0,"arthritis_risk":5,"migraine_risk":7,"frizz_risk":0,"updated_at":"2026-03-06T07:53:47.035859+05:30"},{"city":"Manali","state":"Himachal Pradesh","latitude":32.2396,"longitude":77.1887,"temp":18.4,"humidity":15,"rain":0.0,"pressure":822.4,"uv_index":7.2,"wind_gusts":37.4,"aqi":63,"pm10":36.3,"pm2_5":23.0,"mosquito_risk":0,"arthritis_risk":5,"migraine_risk":7,"frizz_risk":1,"updated_at":"2026-03-06T07:53:47.035881+05:30"},{"city":"Gurgaon","state":"Haryana","latitude":28.4595,"longitude":77.0266,"temp":18.5,"humidity":80,"rain":0.0,"pressure":983.7,"uv_index":6.0,"wind_gusts":16.2,"aqi":1258,"pm10":349.2,"pm2_5":102.4,"mosquito_risk":3,"arthritis_risk":5,"migraine_risk":3,"frizz_risk":0,"updated_at":"2026-03-06T07:53:47.035890+05:30"},{"city":"Noida","state":"Uttar Pradesh","latitude":28.5355,"longitude":77.391,"temp":20.6,"humidity":76,"rain":0.0,"pressure":986.8,"uv_index":5.9,"wind_gusts":17.3,"aqi":1258,"pm10":349.2,"pm2_5":102.4,"mosquito_risk":3,"arthritis_risk":5,"migraine_risk":3,"frizz_risk":1,"updated_at":"2026-03-06T07:53:47.035897+05:30"},{"city":"Ghaziabad","state":"Uttar Pradesh","latitude":28.6692,"longitude":77.4538,"temp":20.3,"humidity":82,"rain":0.0,"pressure":985.0,"uv_index":5.9,"wind_gusts":13.7,"aqi":290,"pm10":338.1,"pm2_5":124.3,"mosquito_risk":3,"arthritis_risk":5,"migraine_risk":3,"frizz_risk":1,"updated_at":"2026-03-06T07:53:47.035903+05:30"},{"city":"Faridabad","state":"Haryana","latitude":28.4089,"longitude":77.3178,"temp":20.5,"humidity":72,"rain":0.0,"pressure":986.0,"uv_index":5.95,"wind_gusts":16.9,"aqi":1258,"pm10":349.2,"pm2_5":102.4,"mosquito_risk":3,"arthritis_risk":5,"migraine_risk":3,"frizz_risk":0,"updated_at":"2026-03-06T07:53:47.035910+05:30"},{"city":"Meerut","state":"Uttar Pradesh","latitude":28.9845,"longitude":77.7064,"temp":18.5,"humidity":99,"rain":0.0,"pressure":983.6,"uv_index":5.75,"wind_gusts":11.2,"aqi":290,"pm10":338.1,"pm2_5":124.3,"mosquito_risk":3,"arthritis_risk":10,"migraine_risk":3,"frizz_risk":1,"updated_at":"2026-03-06T07:53:47.035916+05:30"},{"city":"Agra","state":"Uttar Pradesh","latitude":27.1767,"longitude":78.0081,"temp":17.7,"humidity":81,"rain":0.0,"pressure":990.3,"uv_index":6.3,"wind_gusts":20.2,"aqi":523,"pm10":446.1,"pm2_5":110.1,"mosquito_risk":3,"arthritis_risk":10,"migraine_risk":7,"frizz_risk":0,"updated_at":"2026-03-06T07:53:47.035923+05:30"},{"city":"Varanasi","state":"Uttar Pradesh","latitude":25.3176,"longitude":82.9739,"temp":20.8,"humidity":87,"rain":0.0,"pressure":1000.9,"uv_index":7.1,"wind_gusts":16.6,"aqi":163,"pm10":157.9,"pm2_5":102.4,"mosquito_risk":3,"arthritis_risk":5,"migraine_risk":4,"frizz_risk":1,"updated_at":"2026-03-06T07:53:47.035932+05:30"},{"city":"Prayagraj","state":"Uttar Pradesh","latitude":25.4358,"longitude":81.8463,"temp":21.0,"humidity":88,"rain":0.0,"pressure":999.1,"uv_index":6.95,"wind_gusts":14.8,"aqi":167,"pm10":170.9,"pm2_5":116.2,"mosquito_risk":3,"arthritis_risk":5,"migraine_risk":7,"frizz_risk":1,"updated_at":"2026-03-06T07:53:47.035939+05:30"},{"city":"Gorakhpur","state":"Uttar Pradesh","latitude":26.7606,"longitude":83.3732,"temp":19.5,"humidity":88,"rain":0.0,"pressure":1000.9,"uv_index":6.8,"wind_gusts":20.9,"aqi":171,"pm10":108.7,"pm2_5":101.7,"mosquito_risk":3,"arthritis_risk":10,"migraine_risk":4,"frizz_risk":1,"updated_at":"2026-03-06T07:53:47.035948+05:30"},{"city":"Bareilly","state":"Uttar Pradesh","latitude":28.367,"longitude":79.4304,"temp":19.5,"humidity":92,"rain":0.0,"pressure":989.8,"uv_index":6.1,"wind_gusts":20.9,"aqi":166,"pm10":105.7,"pm2_5":86.1,"mosquito_risk":3,"arthritis_risk":10,"migraine_risk":7,"frizz_risk":1,"updated_at":"2026-03-06T07:53:47.035954+05:30"},{"city":"Aligarh","state":"Uttar Pradesh","latitude":27.8974,"longitude":78.088,"temp":19.3,"humidity":83,"rain":0.0,"pressure":988.0,"uv_index":6.05,"wind_gusts":19.1,"aqi":682,"pm10":433.1,"pm2_5":136.0,"mosquito_risk":3,"arthritis_risk":10,"migraine_risk":7,"frizz_risk":1,"updated_at":"2026-03-06T07:53:47.035963+05:30"},{"city":"Moradabad","state":"Uttar Pradesh","latitude":28.8386,"longitude":78.7733,"temp":19.5,"humidity":92,"rain":0.0,"pressure":986.3,"uv_index":5.9,"wind_gusts":24.1,"aqi":173,"pm10":99.0,"pm2_5":87.5,"mosquito_risk":3,"arthritis_risk":10,"migraine_risk":3,"frizz_risk":1,"updated_at":"2026-03-06T07:53:47.035969+05:30"},{"city":"Saharanpur","state":"Uttar Pradesh","latitude":29.9637,"longitude":77.546,"temp":18.8,"humidity":93,"rain":0.0,"pressure":977.9,"uv_index":5.55,"wind_gusts":25.6,"aqi":160,"pm10":89.4,"pm2_5":70.5,"mosquito_risk":3,"arthritis_risk":10,"migraine_risk":3,"frizz_risk":1,"updated_at":"2026-03-06T07:53:47.035975+05:30"},{"city":"Jhansi","state":"Uttar Pradesh","latitude":25.4484,"longitude":78.5685,"temp":21.2,"humidity":57,"rain":0.0,"pressure":980.3,"uv_index":6.9,"wind_gusts":25.2,"aqi":61,"pm10":33.2,"pm2_5":18.0,"mosquito_risk":0,"arthritis_risk":5,"migraine_risk":7,"frizz_risk":0,"updated_at":"2026-03-06T07:53:50.243975+05:30"},{"city":"Surat","state":"Gujarat","latitude":21.1702,"longitude":72.8311,"temp":22.4,"humidity":80,"rain":0.0,"pressure":1010.3,"uv_index":7.15,"wind_gusts":22.7,"aqi":121,"pm10":38.6,"pm2_5":38.0,"mosquito_risk":3,"arthritis_risk":0,"migraine_risk":4,"frizz_risk":1,"updated_at":"2026-03-06T07:53:50.244014+05:30"},{"city":"Vadodara","state":"Gujarat","latitude":22.3072,"longitude":73.1812,"temp":20.7,"humidity":86,"rain":0.0,"pressure":1008.5,"uv_index":7.25,"wind_gusts":19.1,"aqi":94,"pm10":34.7,"pm2_5":34.0,"mosquito_risk":3,"arthritis_risk":0,"migraine_risk":4,"frizz_risk":1,"updated_at":"2026-03-06T07:53:50.244029+05:30"},{"city":"Rajkot","state":"Gujarat","latitude":22.3039,"longitude":70.8022,"temp":20.4,"humidity":95,"rain":0.0,"pressure":998.4,"uv_index":7.1,"wind_gusts":23.4,"aqi":56,"pm10":20.8,"pm2_5":14.2,"mosquito_risk":3,"arthritis_risk":5,"migraine_risk":7,"frizz_risk":1,"updated_at":"2026-03-06T07:53:50.244041+05:30"},{"city":"Thane","state":"Maharashtra","latitude":19.2183,"longitude":72.9781,"temp":24.7,"humidity":57,"rain":0.0,"pressure":1009.9,"uv_index":7.4,"wind_gusts":36.7,"aqi":100,"pm10":36.4,"pm2_5":34.6,"mosquito_risk":0,"arthritis_risk":0,"migraine_risk":4,"frizz_risk":0,"updated_at":"2026-03-06T07:53:50.244053+05:30"},{"city":"Nagpur","state":"Maharashtra","latitude":21.1458,"longitude":79.0882,"temp":21.2,"humidity":59,"rain":0.0,"pressure":975.6,"uv_index":7.85,"wind_gusts":25.6,"aqi":55,"pm10":23.6,"pm2_5":17.2,"mosquito_risk":0,"arthritis_risk":5,"migraine_risk":7,"frizz_risk":0,"updated_at":"2026-03-06T07:53:50.244065+05:30"},{"city":"Nashik","state":"Maharashtra","latitude":19.9975,"longitude":73.7898,"temp":22.0,"humidity":48,"rain":0.0,"pressure":947.9,"uv_index":7.6,"wind_gusts":34.2,"aqi":72,"pm10":27.3,"pm2_5":25.0,"mosquito_risk":0,"arthritis_risk":5,"migraine_risk":7,"frizz_risk":0,"updated_at":"2026-03-06T07:53:50.244077+05:30"},{"city":"Aurangabad","state":"Maharashtra","latitude":19.8762,"longitude":75.3433,"temp":21.9,"humidity":49,"rain":0.0,"pressure":946.4,"uv_index":8.1,"wind_gusts":24.5,"aqi":66,"pm10":27.3,"pm2_5":24.4,"mosquito_risk":0,"arthritis_risk":5,"migraine_risk":7,"frizz_risk":0,"updated_at":"2026-03-06T07:53:50.244089+05:30"},{"city":"Solapur","state":"Maharashtra","latitude":17.6599,"longitude":75.9064,"temp":20.7,"humidity":63,"rain":0.0,"pressure":959.1,"uv_index":8.4,"wind_gusts":19.8,"aqi":73,"pm10":29.4,"pm2_5":27.5,"mosquito_risk":3,"arthritis_risk":5,"migraine_risk":7,"frizz_risk":0,"updated_at":"2026-03-06T07:53:50.244101+05:30"},{"city":"Kolhapur","state":"Maharashtra","latitude":16.705,"longitude":74.2433,"temp":21.9,"humidity":54,"rain":0.0,"pressure":949.6,"uv_index":8.55,"wind_gusts":32.4,"aqi":150,"pm10":78.5,"pm2_5":76.8,"mosquito_risk":0,"arthritis_risk":5,"migraine_risk":7,"frizz_risk":0,"updated_at":"2026-03-06T07:53:50.244111+05:30"},{"city":"Goa","state":"Goa","latitude":15.2993,"longitude":74.124,"temp":24.0,"humidity":88,"rain":0.0,"pressure":999.5,"uv_index":8.6,"wind_gusts":31.3,"aqi":156,"pm10":79.2,"pm2_5":77.3,"mosquito_risk":3,"arthritis_risk":5,"migraine_risk":7,"frizz_risk":1,"updated_at":"2026-03-06T07:53:50.244121+05:30"},{"city":"Jodhpur","state":"Rajasthan","latitude":26.2389,"longitude":73.0243,"temp":18.9,"humidity":54,"rain":0.0,"pressure":986.2,"uv_index":6.95,"wind_gusts":21.6,"aqi":67,"pm10":76.8,"pm2_5":19.8,"mosquito_risk":0,"arthritis_risk":5,"migraine_risk":7,"frizz_risk":0,"updated_at":"2026-03-06T07:53:50.244132+05:30"},{"city":"Udaipur","state":"Rajasthan","latitude":24.5854,"longitude":73.7125,"temp":16.5,"humidity":38,"rain":0.0,"pressure":948.8,"uv_index":7.6,"wind_gusts":20.5,"aqi":43,"pm10":11.7,"pm2_5":11.3,"mosquito_risk":0,"arthritis_risk":5,"migraine_risk":7,"frizz_risk":0,"updated_at":"2026-03-06T07:53:50.244143+05:30"},{"city":"Kota","state":"Rajasthan","latitude":25.2138,"longitude":75.8648,"temp":18.7,"humidity":65,"rain":0.0,"pressure":981.6,"uv_index":7.0,"wind_gusts":17.6,"aqi":76,"pm10":18.1,"pm2_5":15.2,"mosquito_risk":3,"arthritis_risk":5,"migraine_risk":7,"frizz_risk":0,"updated_at":"2026-03-06T07:53:50.244155+05:30"},{"city":"Bikaner","state":"Rajasthan","latitude":28.0229,"longitude":73.3119,"temp":20.2,"humidity":55,"rain":0.0,"pressure":984.3,"uv_index":6.65,"wind_gusts":20.9,"aqi":59,"pm10":67.1,"pm2_5":18.7,"mosquito_risk":0,"arthritis_risk":5,"migraine_risk":7,"frizz_risk":0,"updated_at":"2026-03-06T07:53:50.244166+05:30"},{"city":"Ajmer","state":"Rajasthan","latitude":26.4499,"longitude":74.6399,"temp":18.3,"humidity":48,"rain":0.0,"pressure":957.2,"uv_index":6.95,"wind_gusts":23.8,"aqi":65,"pm10":22.8,"pm2_5":11.2,"mosquito_risk":0,"arthritis_risk":5,"migraine_risk":7,"frizz_risk":0,"updated_at":"2026-03-06T07:53:50.244177+05:30"},{"city":"Gwalior","state":"Madhya Pradesh","latitude":26.2183,"longitude":78.1828,"temp":20.8,"humidity":68,"rain":0.0,"pressure":985.6,"uv_index":6.6,"wind_gusts":22.0,"aqi":85,"pm10":59.5,"pm2_5":26.7,"mosquito_risk":3,"arthritis_risk":5,"migraine_risk":7,"frizz_risk":0,"updated_at":"2026-03-06T07:53:50.244192+05:30"},{"city":"Indore","state":"Madhya Pradesh","latitude":22.7196,"longitude":75.8577,"temp":17.2,"humidity":64,"rain":0.0,"pressure":950.3,"uv_index":7.55,"wind_gusts":22.7,"aqi":75,"pm10":19.5,"pm2_5":19.0,"mosquito_risk":3,"arthritis_risk":5,"migraine_risk":7,"frizz_risk":0,"updated_at":"2026-03-06T07:53:50.244204+05:30"},{"city":"Bhopal","state":"Madhya Pradesh","latitude":23.2599,"longitude":77.4126,"temp":19.0,"humidity":58,"rain":0.0,"pressure":955.9,"uv_index":7.4,"wind_gusts":24.8,"aqi":68,"pm10":43.2,"pm2_5":32.5,"mosquito_risk":0,"arthritis_risk":5,"migraine_risk":7,"frizz_risk":0,"updated_at":"2026-03-06T07:53:50.244216+05:30"},{"city":"Jabalpur","state":"Madhya Pradesh","latitude":23.1815,"longitude":79.9864,"temp":18.4,"humidity":77,"rain":0.0,"pressure":963.7,"uv_index":7.5,"wind_gusts":27.7,"aqi":62,"pm10":44.2,"pm2_5":30.6,"mosquito_risk":3,"arthritis_risk":5,"migraine_risk":7,"frizz_risk":0,"updated_at":"2026-03-06T07:53:50.244229+05:30"},{"city":"Ujjain","state":"Madhya Pradesh","latitude":23.1765,"longitude":75.7885,"temp":17.1,"humidity":68,"rain":0.0,"pressure":956.2,"uv_index":7.45,"wind_gusts":19.1,"aqi":88,"pm10":20.4,"pm2_5":19.8,"mosquito_risk":3,"arthritis_risk":5,"migraine_risk":7,"frizz_risk":0,"updated_at":"2026-03-06T07:53:50.244239+05:30"},{"city":"Visakhapatnam","state":"Andhra Pradesh","latitude":17.6868,"longitude":83.2185,"temp":24.7,"humidity":93,"rain":0.0,"pressure":1005.5,"uv_index":8.45,"wind_gusts":36.7,"aqi":141,"pm10":57.0,"pm2_5":54.0,"mosquito_risk":3,"arthritis_risk":5,"migraine_risk":4,"frizz_risk":1,"updated_at":"2026-03-06T07:53:50.244246+05:30"},{"city":"Vijayawada","state":"Andhra Pradesh","latitude":16.5062,"longitude":80.648,"temp":24.1,"humidity":81,"rain":0.0,"pressure":1004.2,"uv_index":8.55,"wind_gusts":18.4,"aqi":132,"pm10":73.3,"pm2_5":71.5,"mosquito_risk":3,"arthritis_risk":5,"migraine_risk":4,"frizz_risk":1,"updated_at":"2026-03-06T07:53:50.244253+05:30"},{"city":"Guntur","state":"Andhra Pradesh","latitude":16.3067,"longitude":80.4365,"temp":24.6,"humidity":77,"rain":0.0,"pressure":1005.5,"uv_index":8.55,"wind_gusts":16.9,"aqi":113,"pm10":66.4,"pm2_5":64.0,"mosquito_risk":3,"arthritis_risk":5,"migraine_risk":4,"frizz_risk":1,"updated_at":"2026-03-06T07:53:50.244260+05:30"},{"city":"Nellore","state":"Andhra Pradesh","latitude":14.4426,"longitude":79.9865,"temp":24.5,"humidity":75,"rain":0.0,"pressure":1007.6,"uv_index":8.75,"wind_gusts":29.9,"aqi":91,"pm10":35.0,"pm2_5":33.8,"mosquito_risk":3,"arthritis_risk":5,"migraine_risk":4,"frizz_risk":1,"updated_at":"2026-03-06T07:53:50.244267+05:30"},{"city":"Kurnool","state":"Andhra Pradesh","latitude":15.8281,"longitude":78.0373,"temp":24.4,"humidity":54,"rain":0.0,"pressure":978.7,"uv_index":8.55,"wind_gusts":23.8,"aqi":76,"pm10":33.9,"pm2_5":31.2,"mosquito_risk":0,"arthritis_risk":5,"migraine_risk":7,"frizz_risk":0,"updated_at":"2026-03-06T07:53:50.244275+05:30"},{"city":"Kakinada","state":"Andhra Pradesh","latitude":16.9891,"longitude":82.2475,"temp":24.7,"humidity":91,"rain":0.0,"pressure":1009.1,"uv_index":8.5,"wind_gusts":35.3,"aqi":121,"pm10":46.0,"pm2_5":42.5,"mosquito_risk":3,"arthritis_risk":0,"migraine_risk":4,"frizz_risk":1,"updated_at":"2026-03-06T07:53:50.244282+05:30"},{"city":"Tirupati","state":"Andhra Pradesh","latitude":13.6288,"longitude":79.4192,"temp":22.8,"humidity":74,"rain":0.0,"pressure":993.8,"uv_index":8.85,"wind_gusts":29.5,"aqi":111,"pm10":53.4,"pm2_5":52.2,"mosquito_risk":3,"arthritis_risk":5,"migraine_risk":7,"frizz_risk":1,"updated_at":"2026-03-06T07:53:50.244288+05:30"},{"city":"Warangal","state":"Telangana","latitude":17.9689,"longitude":79.5941,"temp":24.5,"humidity":50,"rain":0.0,"pressure":980.5,"uv_index":8.3,"wind_gusts":26.3,"aqi":81,"pm10":27.5,"pm2_5":27.0,"mosquito_risk":0,"arthritis_risk":5,"migraine_risk":7,"frizz_risk":0,"updated_at":"2026-03-06T07:53:50.244295+05:30"},{"city":"Nizamabad","state":"Telangana","latitude":18.6725,"longitude":78.0941,"temp":23.2,"humidity":50,"rain":0.0,"pressure":967.2,"uv_index":8.2,"wind_gusts":31.3,"aqi":89,"pm10":41.0,"pm2_5":38.8,"mosquito_risk":0,"arthritis_risk":5,"migraine_risk":7,"frizz_risk":0,"updated_at":"2026-03-06T07:53:50.244301+05:30"},{"city":"Mysore","state":"Karnataka","latitude":12.2958,"longitude":76.6396,"temp":21.2,"humidity":93,"rain":0.0,"pressure":929.7,"uv_index":9.2,"wind_gusts":35.6,"aqi":117,"pm10":58.3,"pm2_5":57.5,"mosquito_risk":3,"arthritis_risk":5,"migraine_risk":7,"frizz_risk":1,"updated_at":"2026-03-06T07:53:50.244307+05:30"},{"city":"Mangalore","state":"Karnataka","latitude":12.9141,"longitude":74.856,"temp":28.0,"humidity":84,"rain":0.0,"pressure":1008.3,"uv_index":8.8,"wind_gusts":24.5,"aqi":126,"pm10":54.5,"pm2_5":51.5,"mosquito_risk":7,"arthritis_risk":0,"migraine_risk":4,"frizz_risk":1,"updated_at":"2026-03-06T07:53:50.244314+05:30"},{"city":"Hubli-Dharwad","state":"Karnataka","latitude":15.3647,"longitude":75.124,"temp":19.4,"humidity":84,"rain":0.0,"pressure":941.7,"uv_index":8.75,"wind_gusts":35.3,"aqi":87,"pm10":58.3,"pm2_5":56.7,"mosquito_risk":3,"arthritis_risk":10,"migraine_risk":7,"frizz_risk":1,"updated_at":"2026-03-06T07:53:50.244321+05:30"},{"city":"Belgaum","state":"Karnataka","latitude":15.8497,"longitude":74.4977,"temp":20.5,"humidity":64,"rain":0.0,"pressure":926.5,"uv_index":8.8,"wind_gusts":38.9,"aqi":118,"pm10":59.6,"pm2_5":58.3,"mosquito_risk":3,"arthritis_risk":5,"migraine_risk":7,"frizz_risk":0,"updated_at":"2026-03-06T07:53:53.454558+05:30"},{"city":"Coimbatore","state":"Tamil Nadu","latitude":11.0168,"longitude":76.9558,"temp":22.5,"humidity":82,"rain":0.0,"pressure":963.8,"uv_index":9.15,"wind_gusts":37.8,"aqi":107,"pm10":64.3,"pm2_5":62.6,"mosquito_risk":3,"arthritis_risk":5,"migraine_risk":7,"frizz_risk":1,"updated_at":"2026-03-06T07:53:53.454593+05:30"},{"city":"Madurai","state":"Tamil Nadu","latitude":9.9252,"longitude":78.1198,"temp":23.4,"humidity":94,"rain":0.0,"pressure":995.6,"uv_index":9.15,"wind_gusts":27.4,"aqi":88,"pm10":49.0,"pm2_5":47.8,"mosquito_risk":3,"arthritis_risk":5,"migraine_risk":7,"frizz_risk":1,"updated_at":"2026-03-06T07:53:53.454606+05:30"},{"city":"Trichy","state":"Tamil Nadu","latitude":10.7905,"longitude":78.7047,"temp":22.9,"humidity":98,"rain":0.0,"pressure":1002.5,"uv_index":9.05,"wind_gusts":25.2,"aqi":90,"pm10":40.7,"pm2_5":39.5,"mosquito_risk":3,"arthritis_risk":5,"migraine_risk":4,"frizz_risk":1,"updated_at":"2026-03-06T07:53:53.454616+05:30"},{"city":"Salem","state":"Tamil Nadu","latitude":11.6643,"longitude":78.146,"temp":23.2,"humidity":84,"rain":0.0,"pressure":979.8,"uv_index":9.05,"wind_gusts":15.5,"aqi":99,"pm10":54.8,"pm2_5":52.5,"mosquito_risk":3,"arthritis_risk":5,"migraine_risk":7,"frizz_risk":1,"updated_at":"2026-03-06T07:53:53.454623+05:30"},{"city":"Tirunelveli","state":"Tamil Nadu","latitude":8.7139,"longitude":77.7567,"temp":23.7,"humidity":77,"rain":0.0,"pressure":1005.8,"uv_index":9.15,"wind_gusts":49.0,"aqi":88,"pm10":47.5,"pm2_5":46.9,"mosquito_risk":3,"arthritis_risk":5,"migraine_risk":4,"frizz_risk":1,"updated_at":"2026-03-06T07:53:53.454631+05:30"},{"city":"Vellore","state":"Tamil Nadu","latitude":12.9165,"longitude":79.1325,"temp":22.5,"humidity":83,"rain":0.0,"pressure":987.0,"uv_index":8.95,"wind_gusts":32.8,"aqi":115,"pm10":61.2,"pm2_5":59.6,"mosquito_risk":3,"arthritis_risk":5,"migraine_risk":7,"frizz_risk":1,"updated_at":"2026-03-06T07:53:53.454639+05:30"},{"city":"Erode","state":"Tamil Nadu","latitude":11.341,"longitude":77.7172,"temp":23.7,"humidity":83,"rain":0.0,"pressure":991.6,"uv_index":9.05,"wind_gusts":19.8,"aqi":91,"pm10":42.4,"pm2_5":40.3,"mosquito_risk":3,"arthritis_risk":5,"migraine_risk":7,"frizz_risk":1,"updated_at":"2026-03-06T07:53:53.454646+05:30"},{"city":"Kochi","state":"Kerala","latitude":9.9312,"longitude":76.2673,"temp":27.3,"humidity":82,"rain":0.0,"pressure":1010.6,"uv_index":9.0,"wind_gusts":33.1,"aqi":140,"pm10":53.7,"pm2_5":52.4,"mosquito_risk":7,"arthritis_risk":0,"migraine_risk":4,"frizz_risk":1,"updated_at":"2026-03-06T07:53:53.454653+05:30"},{"city":"Thiruvananthapuram","state":"Kerala","latitude":8.5241,"longitude":76.9366,"temp":27.7,"humidity":78,"rain":0.0,"pressure":1009.9,"uv_index":9.0,"wind_gusts":32.4,"aqi":87,"pm10":28.8,"pm2_5":26.4,"mosquito_risk":7,"arthritis_risk":0,"migraine_risk":4,"frizz_risk":1,"updated_at":"2026-03-06T07:53:53.454660+05:30"},{"city":"Kozhikode","state":"Kerala","latitude":11.2588,"longitude":75.7804,"temp":27.5,"humidity":87,"rain":0.0,"pressure":1009.7,"uv_index":8.9,"wind_gusts":26.3,"aqi":113,"pm10":47.5,"pm2_5":44.6,"mosquito_risk":7,"arthritis_risk":0,"migraine_risk":4,"frizz_risk":1,"updated_at":"2026-03-06T07:53:53.454666+05:30"},{"city":"Thrissur","state":"Kerala","latitude":10.5276,"longitude":76.2144,"temp":26.7,"humidity":89,"rain":0.0,"pressure":1008.9,"uv_index":8.95,"wind_gusts":33.5,"aqi":130,"pm10":60.3,"pm2_5":58.3,"mosquito_risk":7,"arthritis_risk":0,"migraine_risk":4,"frizz_risk":1,"updated_at":"2026-03-06T07:53:53.454674+05:30"},{"city":"Kannur","state":"Kerala","latitude":11.8745,"longitude":75.3704,"temp":26.8,"humidity":79,"rain":0.0,"pressure":1008.9,"uv_index":8.85,"wind_gusts":29.5,"aqi":118,"pm10":46.7,"pm2_5":44.7,"mosquito_risk":7,"arthritis_risk":0,"migraine_risk":4,"frizz_risk":1,"updated_at":"2026-03-06T07:53:53.454681+05:30"},{"city":"Patna","state":"Bihar","latitude":25.5941,"longitude":85.1376,"temp":22.3,"humidity":78,"rain":0.0,"pressure":1004.4,"uv_index":7.25,"wind_gusts":23.4,"aqi":163,"pm10":112.0,"pm2_5":100.8,"mosquito_risk":3,"arthritis_risk":5,"migraine_risk":4,"frizz_risk":1,"updated_at":"2026-03-06T07:53:53.454688+05:30"},{"city":"Gaya","state":"Bihar","latitude":24.7914,"longitude":85.0002,"temp":21.0,"humidity":86,"rain":0.0,"pressure":997.3,"uv_index":7.35,"wind_gusts":22.7,"aqi":153,"pm10":98.3,"pm2_5":88.0,"mosquito_risk":3,"arthritis_risk":5,"migraine_risk":7,"frizz_risk":1,"updated_at":"2026-03-06T07:53:53.454694+05:30"},{"city":"Muzaffarpur","state":"Bihar","latitude":26.1209,"longitude":85.3647,"temp":20.9,"humidity":83,"rain":0.0,"pressure":1004.7,"uv_index":7.2,"wind_gusts":22.7,"aqi":170,"pm10":125.7,"pm2_5":114.3,"mosquito_risk":3,"arthritis_risk":5,"migraine_risk":4,"frizz_risk":1,"updated_at":"2026-03-06T07:53:53.454701+05:30"},{"city":"Bhagalpur","state":"Bihar","latitude":25.2425,"longitude":87.0117,"temp":22.8,"humidity":81,"rain":0.0,"pressure":1005.6,"uv_index":7.3,"wind_gusts":18.7,"aqi":162,"pm10":114.1,"pm2_5":101.7,"mosquito_risk":3,"arthritis_risk":5,"migraine_risk":4,"frizz_risk":1,"updated_at":"2026-03-06T07:53:53.454707+05:30"},{"city":"Ranchi","state":"Jharkhand","latitude":23.3441,"longitude":85.3096,"temp":20.5,"humidity":69,"rain":0.0,"pressure":940.0,"uv_index":8.0,"wind_gusts":28.4,"aqi":127,"pm10":101.7,"pm2_5":71.7,"mosquito_risk":3,"arthritis_risk":5,"migraine_risk":7,"frizz_risk":0,"updated_at":"2026-03-06T07:53:53.454714+05:30"},{"city":"Jamshedpur","state":"Jharkhand","latitude":22.8046,"longitude":86.2029,"temp":23.5,"humidity":79,"rain":0.0,"pressure":994.5,"uv_index":7.9,"wind_gusts":24.1,"aqi":153,"pm10":102.9,"pm2_5":78.7,"mosquito_risk":3,"arthritis_risk":5,"migraine_risk":7,"frizz_risk":1,"updated_at":"2026-03-06T07:53:53.454720+05:30"},{"city":"Dhanbad","state":"Jharkhand","latitude":23.7957,"longitude":86.4304,"temp":24.0,"humidity":60,"rain":0.0,"pressure":983.5,"uv_index":7.75,"wind_gusts":29.9,"aqi":168,"pm10":169.0,"pm2_5":149.9,"mosquito_risk":0,"arthritis_risk":5,"migraine_risk":7,"frizz_risk":0,"updated_at":"2026-03-06T07:53:53.454726+05:30"},{"city":"Bokaro","state":"Jharkhand","latitude":23.6693,"longitude":86.1511,"temp":23.2,"humidity":68,"rain":0.0,"pressure":987.6,"uv_index":7.8,"wind_gusts":30.2,"aqi":172,"pm10":180.2,"pm2_5":158.3,"mosquito_risk":3,"arthritis_risk":5,"migraine_risk":7,"frizz_risk":1,"updated_at":"2026-03-06T07:53:53.454733+05:30"},{"city":"Bhubaneswar","state":"Odisha","latitude":20.2961,"longitude":85.8245,"temp":25.4,"humidity":84,"rain":0.0,"pressure":1005.9,"uv_index":8.2,"wind_gusts":32.0,"aqi":151,"pm10":61.0,"pm2_5":51.2,"mosquito_risk":7,"arthritis_risk":5,"migraine_risk":4,"frizz_risk":1,"updated_at":"2026-03-06T07:53:53.454739+05:30"},{"city":"Cuttack","state":"Odisha","latitude":20.4625,"longitude":85.8828,"temp":25.6,"humidity":85,"rain":0.0,"pressure":1008.0,"uv_index":8.25,"wind_gusts":34.6,"aqi":151,"pm10":61.0,"pm2_5":51.2,"mosquito_risk":7,"arthritis_risk":0,"migraine_risk":4,"frizz_risk":1,"updated_at":"2026-03-06T07:53:53.454746+05:30"},{"city":"Rourkela","state":"Odisha","latitude":22.2604,"longitude":84.8536,"temp":22.0,"humidity":71,"rain":0.0,"pressure":988.0,"uv_index":7.8,"wind_gusts":13.0,"aqi":123,"pm10":76.6,"pm2_5":51.8,"mosquito_risk":3,"arthritis_risk":5,"migraine_risk":7,"frizz_risk":1,"updated_at":"2026-03-06T07:53:53.454753+05:30"},{"city":"Raipur","state":"Chhattisgarh","latitude":21.2514,"longitude":81.6296,"temp":23.4,"humidity":48,"rain":0.0,"pressure":977.0,"uv_index":7.9,"wind_gusts":22.7,"aqi":89,"pm10":48.7,"pm2_5":40.3,"mosquito_risk":0,"arthritis_risk":5,"migraine_risk":7,"frizz_risk":0,"updated_at":"2026-03-06T07:53:53.454759+05:30"},{"city":"Bhilai","state":"Chhattisgarh","latitude":21.1938,"longitude":81.3509,"temp":23.6,"humidity":48,"rain":0.0,"pressure":977.4,"uv_index":7.95,"wind_gusts":23.8,"aqi":75,"pm10":44.8,"pm2_5":35.7,"mosquito_risk":0,"arthritis_risk":5,"migraine_risk":7,"frizz_risk":0,"updated_at":"2026-03-06T07:53:53.454765+05:30"},{"city":"Guwahati","state":"Assam","latitude":26.1158,"longitude":91.7086,"temp":25.3,"humidity":77,"rain":0.0,"pressure":1006.4,"uv_index":7.25,"wind_gusts":20.5,"aqi":150,"pm10":75.0,"pm2_5":70.5,"mosquito_risk":7,"arthritis_risk":5,"migraine_risk":4,"frizz_risk":1,"updated_at":"2026-03-06T07:53:53.454772+05:30"},{"city":"Agartala","state":"Tripura","latitude":23.8315,"longitude":91.2868,"temp":24.3,"humidity":80,"rain":0.0,"pressure":1010.3,"uv_index":7.6,"wind_gusts":17.3,"aqi":160,"pm10":87.5,"pm2_5":80.6,"mosquito_risk":3,"arthritis_risk":0,"migraine_risk":4,"frizz_risk":1,"updated_at":"2026-03-06T07:53:53.454779+05:30"},{"city":"Shillong","state":"Meghalaya","latitude":25.5788,"longitude":91.8933,"temp":16.4,"humidity":56,"rain":0.0,"pressure":860.0,"uv_index":7.6,"wind_gusts":35.3,"aqi":124,"pm10":52.0,"pm2_5":47.3,"mosquito_risk":0,"arthritis_risk":5,"migraine_risk":7,"frizz_risk":0,"updated_at":"2026-03-06T07:53:53.454785+05:30"},{"city":"Imphal","state":"Manipur","latitude":24.817,"longitude":93.9368,"temp":20.6,"humidity":69,"rain":0.0,"pressure":927.5,"uv_index":7.8,"wind_gusts":33.8,"aqi":152,"pm10":86.6,"pm2_5":84.1,"mosquito_risk":3,"arthritis_risk":5,"migraine_risk":7,"frizz_risk":0,"updated_at":"2026-03-06T07:53:53.454792+05:30"},{"city":"Aizawl","state":"Mizoram","latitude":23.7271,"longitude":92.7176,"temp":20.1,"humidity":68,"rain":0.0,"pressure":896.2,"uv_index":7.75,"wind_gusts":33.8,"aqi":172,"pm10":162.5,"pm2_5":158.8,"mosquito_risk":3,"arthritis_risk":5,"migraine_risk":7,"frizz_risk":0,"updated_at":"2026-03-06T07:53:53.454799+05:30"},{"city":"Kohima","state":"Nagaland","latitude":25.6701,"longitude":94.1077,"temp":18.1,"humidity":55,"rain":0.0,"pressure":859.3,"uv_index":7.65,"wind_gusts":43.6,"aqi":149,"pm10":71.2,"pm2_5":67.5,"mosquito_risk":0,"arthritis_risk":5,"migraine_risk":7,"frizz_risk":0,"updated_at":"2026-03-06T07:53:53.454805+05:30"},{"city":"Gangtok","state":"Sikkim","latitude":27.3314,"longitude":88.6138,"temp":15.0,"humidity":89,"rain":0.0,"pressure":840.9,"uv_index":7.55,"wind_gusts":16.6,"aqi":99,"pm10":37.8,"pm2_5":33.8,"mosquito_risk":3,"arthritis_risk":10,"migraine_risk":7,"frizz_risk":0,"updated_at":"2026-03-06T07:53:53.454812+05:30"},{"city":"Siliguri","state":"West Bengal","latitude":26.7271,"longitude":88.3953,"temp":22.1,"humidity":62,"rain":0.0,"pressure":998.6,"uv_index":7.2,"wind_gusts":16.6,"aqi":134,"pm10":63.8,"pm2_5":61.2,"mosquito_risk":3,"arthritis_risk":5,"migraine_risk":7,"frizz_risk":0,"updated_at":"2026-03-06T07:53:56.668411+05:30"},{"city":"Durgapur","state":"West Bengal","latitude":23.5204,"longitude":87.3119,"temp":24.3,"humidity":66,"rain":0.0,"pressure":999.1,"uv_index":7.75,"wind_gusts":25.9,"aqi":160,"pm10":142.5,"pm2_5":121.5,"mosquito_risk":3,"arthritis_risk":5,"migraine_risk":7,"frizz_risk":1,"updated_at":"2026-03-06T07:53:56.668443+05:30"},{"city":"Asansol","state":"West Bengal","latitude":23.6739,"longitude":86.9524,"temp":24.6,"humidity":64,"rain":0.0,"pressure":997.6,"uv_index":7.75,"wind_gusts":22.3,"aqi":159,"pm10":132.2,"pm2_5":113.6,"mosquito_risk":3,"arthritis_risk":5,"migraine_risk":7,"frizz_risk":1,"updated_at":"2026-03-06T07:53:56.668456+05:30"},{"city":"Pondicherry","state":"Puducherry","latitude":11.9139,"longitude":79.8145,"temp":23.4,"humidity":91,"rain":0.0,"pressure":1011.0,"uv_index":8.9,"wind_gusts":24.5,"aqi":68,"pm10":30.3,"pm2_5":27.1,"mosquito_risk":3,"arthritis_risk":0,"migraine_risk":4,"frizz_risk":1,"updated_at":"2026-03-06T07:53:56.668465+05:30"},{"city":"Port Blair","state":"Andaman and Nicobar Islands","latitude":11.6234,"longitude":92.7265,"temp":26.2,"humidity":73,"rain":0.0,"pressure":1010.6,"uv_index":8.85,"wind_gusts":14.4,"aqi":51,"pm10":19.7,"pm2_5":12.1,"mosquito_risk":7,"arthritis_risk":0,"migraine_risk":4,"frizz_risk":1,"updated_at":"2026-03-06T07:53:56.668475+05:30"},{"city":"Haridwar","state":"Uttarakhand","latitude":29.9457,"longitude":78.1642,"temp":19.7,"humidity":88,"rain":0.0,"pressure":976.7,"uv_index":5.7,"wind_gusts":26.3,"aqi":150,"pm10":66.6,"pm2_5":53.8,"mosquito_risk":3,"arthritis_risk":10,"migraine_risk":3,"frizz_risk":1,"updated_at":"2026-03-06T07:53:56.668488+05:30"},{"city":"Rishikesh","state":"Uttarakhand","latitude":30.0869,"longitude":78.2676,"temp":20.3,"humidity":81,"rain":0.0,"pressure":969.5,"uv_index":5.75,"wind_gusts":23.0,"aqi":135,"pm10":64.3,"pm2_5":52.0,"mosquito_risk":3,"arthritis_risk":5,"migraine_risk":3,"frizz_risk":1,"updated_at":"2026-03-06T07:53:56.668497+05:30"},{"city":"Nainital","state":"Uttarakhand","latitude":29.3919,"longitude":79.4542,"temp":15.9,"humidity":79,"rain":0.0,"pressure":806.8,"uv_index":6.55,"wind_gusts":42.5,"aqi":157,"pm10":115.5,"pm2_5":83.1,"mosquito_risk":3,"arthritis_risk":5,"migraine_risk":7,"frizz_risk":0,"updated_at":"2026-03-06T07:53:56.668506+05:30"},{"city":"Mussoorie","state":"Uttarakhand","latitude":30.4599,"longitude":78.0664,"temp":14.6,"humidity":67,"rain":0.0,"pressure":802.8,"uv_index":6.05,"wind_gusts":36.0,"aqi":128,"pm10":62.2,"pm2_5":47.3,"mosquito_risk":3,"arthritis_risk":5,"migraine_risk":7,"frizz_risk":0,"updated_at":"2026-03-06T07:53:56.668514+05:30"},{"city":"Dharamshala","state":"Himachal Pradesh","latitude":32.219,"longitude":76.3234,"temp":21.8,"humidity":24,"rain":0.0,"pressure":870.5,"uv_index":5.6,"wind_gusts":22.0,"aqi":55,"pm10":25.8,"pm2_5":13.9,"mosquito_risk":0,"arthritis_risk":5,"migraine_risk":3,"frizz_risk":0,"updated_at":"2026-03-06T07:53:56.668523+05:30"},{"city":"Dalhousie","state":"Himachal Pradesh","latitude":32.5387,"longitude":75.971,"temp":17.8,"humidity":28,"rain":0.0,"pressure":804.8,"uv_index":5.8,"wind_gusts":23.4,"aqi":91,"pm10":33.4,"pm2_5":26.8,"mosquito_risk":0,"arthritis_risk":5,"migraine_risk":3,"frizz_risk":1,"updated_at":"2026-03-06T07:53:56.668532+05:30"},{"city":"Patiala","state":"Punjab","latitude":30.3398,"longitude":76.3869,"temp":19.8,"humidity":86,"rain":0.0,"pressure":980.0,"uv_index":5.7,"wind_gusts":13.0,"aqi":196,"pm10":95.5,"pm2_5":82.7,"mosquito_risk":3,"arthritis_risk":10,"migraine_risk":3,"frizz_risk":1,"updated_at":"2026-03-06T07:53:56.668541+05:30"},{"city":"Bhatinda","state":"Punjab","latitude":30.211,"longitude":74.9455,"temp":19.1,"humidity":76,"rain":0.0,"pressure":985.6,"uv_index":6.4,"wind_gusts":17.6,"aqi":148,"pm10":92.0,"pm2_5":82.2,"mosquito_risk":3,"arthritis_risk":5,"migraine_risk":7,"frizz_risk":0,"updated_at":"2026-03-06T07:53:56.668549+05:30"},{"city":"Rohtak","state":"Haryana","latitude":28.8955,"longitude":76.6066,"temp":18.8,"humidity":80,"rain":0.0,"pressure":983.9,"uv_index":5.9,"wind_gusts":16.9,"aqi":504,"pm10":250.5,"pm2_5":87.1,"mosquito_risk":3,"arthritis_risk":5,"migraine_risk":3,"frizz_risk":0,"updated_at":"2026-03-06T07:53:56.668557+05:30"},{"city":"Panipat","state":"Haryana","latitude":29.3909,"longitude":76.9635,"temp":19.4,"humidity":91,"rain":0.0,"pressure":982.4,"uv_index":5.7,"wind_gusts":11.2,"aqi":1025,"pm10":426.5,"pm2_5":111.3,"mosquito_risk":3,"arthritis_risk":10,"migraine_risk":3,"frizz_risk":1,"updated_at":"2026-03-06T07:53:56.668565+05:30"},{"city":"Mathura","state":"Uttar Pradesh","latitude":27.4924,"longitude":77.6737,"temp":18.4,"humidity":70,"rain":0.0,"pressure":989.3,"uv_index":6.2,"wind_gusts":19.8,"aqi":635,"pm10":430.3,"pm2_5":101.5,"mosquito_risk":3,"arthritis_risk":5,"migraine_risk":7,"frizz_risk":0,"updated_at":"2026-03-06T07:53:56.668573+05:30"},{"city":"Vrindavan","state":"Uttar Pradesh","latitude":27.5823,"longitude":77.7027,"temp":19.8,"humidity":68,"rain":0.0,"pressure":989.7,"uv_index":6.15,"wind_gusts":19.8,"aqi":635,"pm10":430.3,"pm2_5":101.5,"mosquito_risk":3,"arthritis_risk":5,"migraine_risk":7,"frizz_risk":0,"updated_at":"2026-03-06T07:53:56.668580+05:30"},{"city":"Ayodhya","state":"Uttar Pradesh","latitude":26.7922,"longitude":82.1998,"temp":19.8,"humidity":87,"rain":0.0,"pressure":998.9,"uv_index":6.55,"wind_gusts":21.6,"aqi":168,"pm10":128.1,"pm2_5":105.5,"mosquito_risk":3,"arthritis_risk":10,"migraine_risk":7,"frizz_risk":1,"updated_at":"2026-03-06T07:53:56.668588+05:30"},{"city":"Ratlam","state":"Madhya Pradesh","latitude":23.3315,"longitude":75.0367,"temp":20.3,"humidity":53,"rain":0.0,"pressure":957.2,"uv_index":7.4,"wind_gusts":19.1,"aqi":76,"pm10":17.6,"pm2_5":17.1,"mosquito_risk":0,"arthritis_risk":5,"migraine_risk":7,"frizz_risk":0,"updated_at":"2026-03-06T07:53:56.668596+05:30"},{"city":"Sagar","state":"Madhya Pradesh","latitude":23.8388,"longitude":78.7378,"temp":19.3,"humidity":62,"rain":0.0,"pressure":952.0,"uv_index":7.35,"wind_gusts":23.4,"aqi":56,"pm10":36.0,"pm2_5":19.6,"mosquito_risk":3,"arthritis_risk":5,"migraine_risk":7,"frizz_risk":0,"updated_at":"2026-03-06T07:53:56.668604+05:30"},{"city":"Satna","state":"Madhya Pradesh","latitude":24.6005,"longitude":80.8322,"temp":21.2,"humidity":60,"rain":0.0,"pressure":973.9,"uv_index":7.3,"wind_gusts":32.4,"aqi":74,"pm10":119.2,"pm2_5":34.5,"mosquito_risk":0,"arthritis_risk":5,"migraine_risk":7,"frizz_risk":0,"updated_at":"2026-03-06T07:53:56.668612+05:30"},{"city":"Akola","state":"Maharashtra","latitude":20.7002,"longitude":77.0082,"temp":20.5,"humidity":68,"rain":0.0,"pressure":977.8,"uv_index":7.85,"wind_gusts":19.8,"aqi":76,"pm10":35.9,"pm2_5":30.0,"mosquito_risk":3,"arthritis_risk":5,"migraine_risk":7,"frizz_risk":0,"updated_at":"2026-03-06T07:53:56.668621+05:30"},{"city":"Amravati","state":"Maharashtra","latitude":20.9374,"longitude":77.7796,"temp":20.6,"humidity":55,"rain":0.0,"pressure":969.8,"uv_index":7.8,"wind_gusts":15.8,"aqi":74,"pm10":38.1,"pm2_5":31.0,"mosquito_risk":0,"arthritis_risk":5,"migraine_risk":7,"frizz_risk":0,"updated_at":"2026-03-06T07:53:56.668629+05:30"},{"city":"Latur","state":"Maharashtra","latitude":18.4088,"longitude":76.5604,"temp":19.8,"humidity":55,"rain":0.0,"pressure":941.6,"uv_index":8.3,"wind_gusts":32.4,"aqi":76,"pm10":28.6,"pm2_5":25.7,"mosquito_risk":0,"arthritis_risk":5,"migraine_risk":7,"frizz_risk":0,"updated_at":"2026-03-06T07:53:56.668637+05:30"},{"city":"Nanded","state":"Maharashtra","latitude":19.1383,"longitude":77.3091,"temp":18.1,"humidity":68,"rain":0.0,"pressure":971.1,"uv_index":8.1,"wind_gusts":20.5,"aqi":95,"pm10":38.2,"pm2_5":35.4,"mosquito_risk":3,"arthritis_risk":5,"migraine_risk":7,"frizz_risk":0,"updated_at":"2026-03-06T07:53:56.668644+05:30"},{"city":"Gulbarga","state":"Karnataka","latitude":17.3297,"longitude":76.8343,"temp":23.1,"humidity":44,"rain":0.0,"pressure":960.7,"uv_index":8.4,"wind_gusts":34.2,"aqi":77,"pm10":35.0,"pm2_5":32.9,"mosquito_risk":0,"arthritis_risk":5,"migraine_risk":7,"frizz_risk":0,"updated_at":"2026-03-06T07:53:56.668652+05:30"},{"city":"Bidar","state":"Karnataka","latitude":17.9104,"longitude":77.5199,"temp":21.8,"humidity":49,"rain":0.0,"pressure":937.3,"uv_index":8.35,"wind_gusts":32.8,"aqi":81,"pm10":38.3,"pm2_5":35.7,"mosquito_risk":0,"arthritis_risk":5,"migraine_risk":7,"frizz_risk":0,"updated_at":"2026-03-06T07:53:56.668658+05:30"},{"city":"Hospet","state":"Karnataka","latitude":15.2689,"longitude":76.3909,"temp":22.0,"humidity":79,"rain":0.0,"pressure":957.7,"uv_index":8.75,"wind_gusts":22.7,"aqi":98,"pm10":61.5,"pm2_5":59.5,"mosquito_risk":3,"arthritis_risk":5,"migraine_risk":7,"frizz_risk":1,"updated_at":"2026-03-06T07:53:56.668664+05:30"},{"city":"Tirupur","state":"Tamil Nadu","latitude":11.1085,"longitude":77.3411,"temp":23.8,"humidity":88,"rain":0.0,"pressure":977.6,"uv_index":9.2,"wind_gusts":28.4,"aqi":114,"pm10":66.6,"pm2_5":64.5,"mosquito_risk":3,"arthritis_risk":5,"migraine_risk":7,"frizz_risk":1,"updated_at":"2026-03-06T07:53:56.668669+05:30"},{"city":"Alappuzha","state":"Kerala","latitude":9.4981,"longitude":76.3388,"temp":27.2,"humidity":81,"rain":0.0,"pressure":1010.8,"uv_index":9.0,"wind_gusts":30.6,"aqi":119,"pm10":43.3,"pm2_5":41.0,"mosquito_risk":7,"arthritis_risk":0,"migraine_risk":4,"frizz_risk":1,"updated_at":"2026-03-06T07:53:56.668676+05:30"},{"city":"Munnar","state":"Kerala","latitude":10.0889,"longitude":77.0595,"temp":18.5,"humidity":74,"rain":0.0,"pressure":857.0,"uv_index":9.5,"wind_gusts":29.2,"aqi":92,"pm10":38.2,"pm2_5":37.4,"mosquito_risk":3,"arthritis_risk":5,"migraine_risk":7,"frizz_risk":0,"updated_at":"2026-03-06T07:53:56.668683+05:30"},{"city":"Silchar","state":"Assam","latitude":24.8333,"longitude":92.7789,"temp":23.6,"humidity":76,"rain":0.0,"pressure":1009.7,"uv_index":7.55,"wind_gusts":12.6,"aqi":161,"pm10":110.4,"pm2_5":106.6,"mosquito_risk":3,"arthritis_risk":0,"migraine_risk":4,"frizz_risk":1,"updated_at":"2026-03-06T07:53:56.668689+05:30"},{"city":"Dibrugarh","state":"Assam","latitude":27.4728,"longitude":94.912,"temp":22.2,"humidity":80,"rain":0.0,"pressure":1000.5,"uv_index":7.25,"wind_gusts":14.8,"aqi":110,"pm10":36.6,"pm2_5":34.7,"mosquito_risk":3,"arthritis_risk":5,"migraine_risk":4,"frizz_risk":1,"updated_at":"2026-03-06T07:53:56.668695+05:30"}]