[{"city":"Delhi","state":"Delhi","latitude":28.6139,"longitude":77.209,"temp":32.8,"humidity":33,"rain":0.0,"pressure":986.6,"uv_index":6.55,"wind_gusts":19.1,"aqi":161,"pm10":202.1,"pm2_5":33.6,"mosquito_risk":0,"arthritis_risk":5,"migraine_risk":7,"frizz_risk":0,"updated_at":"2026-03-26T14:31:21.601452+05:30"},{"city":"Mumbai","state":"Maharashtra","latitude":19.076,"longitude":72.8777,"temp":29.1,"humidity":75,"rain":0.0,"pressure":1008.5,"uv_index":7.95,"wind_gusts":29.5,"aqi":81,"pm10":46.1,"pm2_5":34.2,"mosquito_risk":7,"arthritis_risk":0,"migraine_risk":4,"frizz_risk":1,"updated_at":"2026-03-26T14:31:21.601492+05:30"},{"city":"Bangalore","state":"Karnataka","latitude":12.9716,"longitude":77.5946,"temp":34.0,"humidity":19,"rain":0.0,"pressure":913.1,"uv_index":9.45,"wind_gusts":36.4,"aqi":75,"pm10":28.0,"pm2_5":20.0,"mosquito_risk":0,"arthritis_risk":5,"migraine_risk":7,"frizz_risk":0,"updated_at":"2026-03-26T14:31:21.601508+05:30"},{"city":"Hyderabad","state":"Telangana","latitude":17.385,"longitude":78.4867,"temp":35.2,"humidity":29,"rain":0.0,"pressure":955.0,"uv_index":8.95,"wind_gusts":29.2,"aqi":96,"pm10":31.3,"pm2_5":23.7,"mosquito_risk":0,"arthritis_risk":5,"migraine_risk":10,"frizz_risk":0,"updated_at":"2026-03-26T14:31:21.601518+05:30"},{"city":"Chennai","state":"Tamil Nadu","latitude":13.0827,"longitude":80.2707,"temp":32.7,"humidity":49,"rain":0.0,"pressure":1009.0,"uv_index":9.2,"wind_gusts":31.7,"aqi":59,"pm10":30.6,"pm2_5":19.2,"mosquito_risk":0,"arthritis_risk":0,"migraine_risk":4,"frizz_risk":1,"updated_at":"2026-03-26T14:31:21.601527+05:30"},{"city":"Kolkata","state":"West Bengal","latitude":22.5726,"longitude":88.3639,"temp":32.5,"humidity":56,"rain":0.0,"pressure":1007.3,"uv_index":8.45,"wind_gusts":18.4,"aqi":133,"pm10":78.5,"pm2_5":60.5,"mosquito_risk":0,"arthritis_risk":5,"migraine_risk":4,"frizz_risk":1,"updated_at":"2026-03-26T14:31:21.601536+05:30"},{"city":"Pune","state":"Maharashtra","latitude":18.5204,"longitude":73.8567,"temp":38.5,"humidity":20,"rain":0.0,"pressure":949.4,"uv_index":8.5,"wind_gusts":34.2,"aqi":97,"pm10":36.6,"pm2_5":26.4,"mosquito_risk":0,"arthritis_risk":5,"migraine_risk":10,"frizz_risk":0,"updated_at":"2026-03-26T14:31:21.601548+05:30"},{"city":"Ahmedabad","state":"Gujarat","latitude":23.0225,"longitude":72.5714,"temp":38.3,"humidity":23,"rain":0.0,"pressure":1004.1,"uv_index":7.9,"wind_gusts":26.3,"aqi":66,"pm10":34.3,"pm2_5":13.4,"mosquito_risk":0,"arthritis_risk":5,"migraine_risk":7,"frizz_risk":0,"updated_at":"2026-03-26T14:31:21.601556+05:30"},{"city":"Jaipur","state":"Rajasthan","latitude":26.9124,"longitude":75.7873,"temp":33.6,"humidity":27,"rain":0.0,"pressure":963.4,"uv_index":7.1,"wind_gusts":28.8,"aqi":91,"pm10":129.5,"pm2_5":23.9,"mosquito_risk":0,"arthritis_risk":5,"migraine_risk":7,"frizz_risk":0,"updated_at":"2026-03-26T14:31:21.601563+05:30"},{"city":"Lucknow","state":"Uttar Pradesh","latitude":26.8467,"longitude":80.9462,"temp":35.7,"humidity":21,"rain":0.0,"pressure":995.7,"uv_index":7.15,"wind_gusts":34.2,"aqi":116,"pm10":64.0,"pm2_5":18.9,"mosquito_risk":0,"arthritis_risk":5,"migraine_risk":10,"frizz_risk":0,"updated_at":"2026-03-26T14:31:21.601571+05:30"},{"city":"Kanpur","state":"Uttar Pradesh","latitude":26.4499,"longitude":80.3319,"temp":33.8,"humidity":30,"rain":0.0,"pressure":994.8,"uv_index":7.15,"wind_gusts":25.9,"aqi":169,"pm10":285.0,"pm2_5":37.0,"mosquito_risk":0,"arthritis_risk":5,"migraine_risk":7,"frizz_risk":0,"updated_at":"2026-03-26T14:31:21.601579+05:30"},{"city":"Chandigarh","state":"Chandigarh","latitude":30.7333,"longitude":76.7794,"temp":31.8,"humidity":32,"rain":0.0,"pressure":972.7,"uv_index":6.45,"wind_gusts":32.8,"aqi":66,"pm10":20.4,"pm2_5":13.4,"mosquito_risk":0,"arthritis_risk":5,"migraine_risk":7,"frizz_risk":0,"updated_at":"2026-03-26T14:31:21.601586+05:30"},{"city":"Srinagar","state":"Jammu and Kashmir","latitude":34.0837,"longitude":74.7973,"temp":15.9,"humidity":50,"rain":0.0,"pressure":846.2,"uv_index":7.3,"wind_gusts":16.9,"aqi":88,"pm10":17.8,"pm2_5":9.7,"mosquito_risk":0,"arthritis_risk":5,"migraine_risk":7,"frizz_risk":0,"updated_at":"2026-03-26T14:31:21.601593+05:30"},{"city":"Jammu","state":"Jammu and Kashmir","latitude":32.7266,"longitude":74.857,"temp":29.5,"humidity":36,"rain":0.0,"pressure":977.4,"uv_index":6.6,"wind_gusts":29.2,"aqi":80,"pm10":25.6,"pm2_5":13.6,"mosquito_risk":4,"arthritis_risk":5,"migraine_risk":7,"frizz_risk":0,"updated_at":"2026-03-26T14:31:21.601603+05:30"},{"city":"Amritsar","state":"Punjab","latitude":31.634,"longitude":74.8723,"temp":29.2,"humidity":42,"rain":0.0,"pressure":986.0,"uv_index":6.7,"wind_gusts":33.1,"aqi":84,"pm10":36.6,"pm2_5":16.5,"mosquito_risk":4,"arthritis_risk":5,"migraine_risk":7,"frizz_risk":0,"updated_at":"2026-03-26T14:31:21.601610+05:30"},{"city":"Ludhiana","state":"Punjab","latitude":30.901,"longitude":75.8573,"temp":31.1,"humidity":37,"rain":0.0,"pressure":983.2,"uv_index":6.15,"wind_gusts":32.0,"aqi":86,"pm10":23.9,"pm2_5":14.2,"mosquito_risk":0,"arthritis_risk":5,"migraine_risk":7,"frizz_risk":0,"updated_at":"2026-03-26T14:31:21.601617+05:30"},{"city":"Jalandhar","state":"Punjab","latitude":31.326,"longitude":75.5762,"temp":29.9,"humidity":42,"rain":0.0,"pressure":984.6,"uv_index":6.8,"wind_gusts":32.0,"aqi":83,"pm10":35.3,"pm2_5":14.9,"mosquito_risk":4,"arthritis_risk":5,"migraine_risk":7,"frizz_risk":0,"updated_at":"2026-03-26T14:31:21.601626+05:30"},{"city":"Dehradun","state":"Uttarakhand","latitude":30.6284,"longitude":78.0322,"temp":20.9,"humidity":45,"rain":0.0,"pressure":834.2,"uv_index":6.9,"wind_gusts":41.4,"aqi":60,"pm10":13.7,"pm2_5":6.4,"mosquito_risk":0,"arthritis_risk":5,"migraine_risk":7,"frizz_risk":0,"updated_at":"2026-03-26T14:31:21.601632+05:30"},{"city":"Shimla","state":"Himachal Pradesh","latitude":31.1048,"longitude":77.1734,"temp":18.9,"humidity":44,"rain":0.0,"pressure":789.7,"uv_index":6.95,"wind_gusts":46.8,"aqi":60,"pm10":12.8,"pm2_5":7.9,"mosquito_risk":0,"arthritis_risk":5,"migraine_risk":7,"frizz_risk":0,"updated_at":"2026-03-26T14:31:21.601640+05:30"},{"city":"Manali","state":"Himachal Pradesh","latitude":32.2396,"longitude":77.1887,"temp":19.5,"humidity":47,"rain":0.0,"pressure":823.8,"uv_index":8.75,"wind_gusts":27.7,"aqi":89,"pm10":8.8,"pm2_5":5.5,"mosquito_risk":0,"arthritis_risk":5,"migraine_risk":7,"frizz_risk":0,"updated_at":"2026-03-26T14:31:21.601647+05:30"},{"city":"Gurgaon","state":"Haryana","latitude":28.4595,"longitude":77.0266,"temp":32.6,"humidity":37,"rain":0.0,"pressure":984.9,"uv_index":5.9,"wind_gusts":25.9,"aqi":275,"pm10":502.9,"pm2_5":63.8,"mosquito_risk":0,"arthritis_risk":5,"migraine_risk":3,"frizz_risk":0,"updated_at":"2026-03-26T14:31:21.601654+05:30"},{"city":"Noida","state":"Uttar Pradesh","latitude":28.5355,"longitude":77.391,"temp":33.1,"humidity":34,"rain":0.0,"pressure":988.1,"uv_index":6.45,"wind_gusts":17.3,"aqi":275,"pm10":502.9,"pm2_5":63.8,"mosquito_risk":0,"arthritis_risk":5,"migraine_risk":7,"frizz_risk":0,"updated_at":"2026-03-26T14:31:21.601660+05:30"},{"city":"Ghaziabad","state":"Uttar Pradesh","latitude":28.6692,"longitude":77.4538,"temp":32.6,"humidity":34,"rain":0.0,"pressure":986.3,"uv_index":6.55,"wind_gusts":24.1,"aqi":132,"pm10":163.9,"pm2_5":30.0,"mosquito_risk":0,"arthritis_risk":5,"migraine_risk":7,"frizz_risk":0,"updated_at":"2026-03-26T14:31:21.601667+05:30"},{"city":"Faridabad","state":"Haryana","latitude":28.4089,"longitude":77.3178,"temp":32.9,"humidity":36,"rain":0.0,"pressure":987.3,"uv_index":6.2,"wind_gusts":26.3,"aqi":275,"pm10":502.9,"pm2_5":63.8,"mosquito_risk":0,"arthritis_risk":5,"migraine_risk":7,"frizz_risk":0,"updated_at":"2026-03-26T14:31:21.601673+05:30"},{"city":"Meerut","state":"Uttar Pradesh","latitude":28.9845,"longitude":77.7064,"temp":32.9,"humidity":32,"rain":0.0,"pressure":985.0,"uv_index":6.15,"wind_gusts":28.8,"aqi":132,"pm10":163.9,"pm2_5":30.0,"mosquito_risk":0,"arthritis_risk":5,"migraine_risk":7,"frizz_risk":0,"updated_at":"2026-03-26T14:31:21.601679+05:30"},{"city":"Agra","state":"Uttar Pradesh","latitude":27.1767,"longitude":78.0081,"temp":36.5,"humidity":23,"rain":0.0,"pressure":990.6,"uv_index":6.95,"wind_gusts":22.7,"aqi":189,"pm10":350.2,"pm2_5":47.4,"mosquito_risk":0,"arthritis_risk":5,"migraine_risk":10,"frizz_risk":0,"updated_at":"2026-03-26T14:31:21.601685+05:30"},{"city":"Varanasi","state":"Uttar Pradesh","latitude":25.3176,"longitude":82.9739,"temp":35.3,"humidity":22,"rain":0.0,"pressure":999.8,"uv_index":7.8,"wind_gusts":29.5,"aqi":101,"pm10":81.7,"pm2_5":21.2,"mosquito_risk":0,"arthritis_risk":5,"migraine_risk":10,"frizz_risk":0,"updated_at":"2026-03-26T14:31:21.601694+05:30"},{"city":"Prayagraj","state":"Uttar Pradesh","latitude":25.4358,"longitude":81.8463,"temp":35.4,"humidity":23,"rain":0.0,"pressure":998.6,"uv_index":7.7,"wind_gusts":26.3,"aqi":104,"pm10":99.9,"pm2_5":24.7,"mosquito_risk":0,"arthritis_risk":5,"migraine_risk":10,"frizz_risk":0,"updated_at":"2026-03-26T14:31:21.601701+05:30"},{"city":"Gorakhpur","state":"Uttar Pradesh","latitude":26.7606,"longitude":83.3732,"temp":33.4,"humidity":30,"rain":0.0,"pressure":999.2,"uv_index":7.55,"wind_gusts":13.7,"aqi":105,"pm10":75.9,"pm2_5":20.5,"mosquito_risk":0,"arthritis_risk":5,"migraine_risk":7,"frizz_risk":0,"updated_at":"2026-03-26T14:31:21.601707+05:30"},{"city":"Bareilly","state":"Uttar Pradesh","latitude":28.367,"longitude":79.4304,"temp":33.4,"humidity":32,"rain":0.0,"pressure":989.5,"uv_index":6.8,"wind_gusts":29.9,"aqi":91,"pm10":27.0,"pm2_5":16.8,"mosquito_risk":0,"arthritis_risk":5,"migraine_risk":7,"frizz_risk":0,"updated_at":"2026-03-26T14:31:21.601714+05:30"},{"city":"Aligarh","state":"Uttar Pradesh","latitude":27.8974,"longitude":78.088,"temp":34.0,"humidity":33,"rain":0.0,"pressure":988.8,"uv_index":6.4,"wind_gusts":31.0,"aqi":203,"pm10":331.6,"pm2_5":44.9,"mosquito_risk":0,"arthritis_risk":5,"migraine_risk":7,"frizz_risk":0,"updated_at":"2026-03-26T14:31:21.601720+05:30"},{"city":"Moradabad","state":"Uttar Pradesh","latitude":28.8386,"longitude":78.7733,"temp":33.5,"humidity":29,"rain":0.0,"pressure":986.4,"uv_index":6.6,"wind_gusts":33.1,"aqi":98,"pm10":32.8,"pm2_5":13.6,"mosquito_risk":0,"arthritis_risk":5,"migraine_risk":7,"frizz_risk":0,"updated_at":"2026-03-26T14:31:21.601726+05:30"},{"city":"Saharanpur","state":"Uttar Pradesh","latitude":29.9637,"longitude":77.546,"temp":32.7,"humidity":28,"rain":0.0,"pressure":979.1,"uv_index":6.25,"wind_gusts":36.7,"aqi":94,"pm10":41.9,"pm2_5":14.7,"mosquito_risk":0,"arthritis_risk":5,"migraine_risk":7,"frizz_risk":0,"updated_at":"2026-03-26T14:31:21.601734+05:30"},{"city":"Jhansi","state":"Uttar Pradesh","latitude":25.4484,"longitude":78.5685,"temp":36.5,"humidity":20,"rain":0.0,"pressure":980.6,"uv_index":7.6,"wind_gusts":24.5,"aqi":79,"pm10":62.9,"pm2_5":19.4,"mosquito_risk":0,"arthritis_risk":5,"migraine_risk":10,"frizz_risk":0,"updated_at":"2026-03-26T14:31:24.871190+05:30"},{"city":"Surat","state":"Gujarat","latitude":21.1702,"longitude":72.8311,"temp":37.0,"humidity":31,"rain":0.0,"pressure":1007.9,"uv_index":7.7,"wind_gusts":23.4,"aqi":94,"pm10":40.2,"pm2_5":27.9,"mosquito_risk":0,"arthritis_risk":5,"migraine_risk":7,"frizz_risk":1,"updated_at":"2026-03-26T14:31:24.871222+05:30"},{"city":"Vadodara","state":"Gujarat","latitude":22.3072,"longitude":73.1812,"temp":39.8,"humidity":20,"rain":0.0,"pressure":1005.8,"uv_index":7.9,"wind_gusts":28.8,"aqi":94,"pm10":25.2,"pm2_5":14.1,"mosquito_risk":0,"arthritis_risk":5,"migraine_risk":7,"frizz_risk":0,"updated_at":"2026-03-26T14:31:24.871232+05:30"},{"city":"Rajkot","state":"Gujarat","latitude":22.3039,"longitude":70.8022,"temp":37.2,"humidity":20,"rain":0.0,"pressure":997.1,"uv_index":7.75,"wind_gusts":32.4,"aqi":52,"pm10":29.5,"pm2_5":10.4,"mosquito_risk":0,"arthritis_risk":5,"migraine_risk":10,"frizz_risk":0,"updated_at":"2026-03-26T14:31:24.871239+05:30"},{"city":"Thane","state":"Maharashtra","latitude":19.2183,"longitude":72.9781,"temp":35.4,"humidity":48,"rain":0.0,"pressure":1008.3,"uv_index":7.95,"wind_gusts":42.1,"aqi":81,"pm10":46.1,"pm2_5":34.2,"mosquito_risk":0,"arthritis_risk":0,"migraine_risk":7,"frizz_risk":1,"updated_at":"2026-03-26T14:31:24.871246+05:30"},{"city":"Nagpur","state":"Maharashtra","latitude":21.1458,"longitude":79.0882,"temp":38.1,"humidity":23,"rain":0.0,"pressure":974.5,"uv_index":8.45,"wind_gusts":22.3,"aqi":114,"pm10":36.7,"pm2_5":28.7,"mosquito_risk":0,"arthritis_risk":5,"migraine_risk":10,"frizz_risk":0,"updated_at":"2026-03-26T14:31:24.871254+05:30"},{"city":"Nashik","state":"Maharashtra","latitude":19.9975,"longitude":73.7898,"temp":35.2,"humidity":24,"rain":0.0,"pressure":947.4,"uv_index":8.15,"wind_gusts":29.9,"aqi":80,"pm10":32.1,"pm2_5":20.1,"mosquito_risk":0,"arthritis_risk":5,"migraine_risk":10,"frizz_risk":0,"updated_at":"2026-03-26T14:31:24.871261+05:30"},{"city":"Aurangabad","state":"Maharashtra","latitude":19.8762,"longitude":75.3433,"temp":36.0,"humidity":23,"rain":0.0,"pressure":946.0,"uv_index":8.65,"wind_gusts":23.0,"aqi":66,"pm10":20.0,"pm2_5":13.0,"mosquito_risk":0,"arthritis_risk":5,"migraine_risk":10,"frizz_risk":0,"updated_at":"2026-03-26T14:31:24.871268+05:30"},{"city":"Solapur","state":"Maharashtra","latitude":17.6599,"longitude":75.9064,"temp":36.3,"humidity":28,"rain":0.0,"pressure":958.8,"uv_index":8.85,"wind_gusts":23.8,"aqi":112,"pm10":42.3,"pm2_5":33.2,"mosquito_risk":0,"arthritis_risk":5,"migraine_risk":10,"frizz_risk":0,"updated_at":"2026-03-26T14:31:24.871275+05:30"},{"city":"Kolhapur","state":"Maharashtra","latitude":16.705,"longitude":74.2433,"temp":35.4,"humidity":30,"rain":0.0,"pressure":949.3,"uv_index":8.8,"wind_gusts":30.6,"aqi":154,"pm10":42.6,"pm2_5":34.1,"mosquito_risk":0,"arthritis_risk":5,"migraine_risk":10,"frizz_risk":0,"updated_at":"2026-03-26T14:31:24.871282+05:30"},{"city":"Goa","state":"Goa","latitude":15.2993,"longitude":74.124,"temp":33.7,"humidity":59,"rain":0.0,"pressure":997.8,"uv_index":7.75,"wind_gusts":32.4,"aqi":97,"pm10":38.2,"pm2_5":29.6,"mosquito_risk":0,"arthritis_risk":5,"migraine_risk":7,"frizz_risk":1,"updated_at":"2026-03-26T14:31:24.871289+05:30"},{"city":"Jodhpur","state":"Rajasthan","latitude":26.2389,"longitude":73.0243,"temp":35.8,"humidity":24,"rain":0.0,"pressure":986.7,"uv_index":7.45,"wind_gusts":30.6,"aqi":74,"pm10":77.3,"pm2_5":17.3,"mosquito_risk":0,"arthritis_risk":5,"migraine_risk":10,"frizz_risk":0,"updated_at":"2026-03-26T14:31:24.871296+05:30"},{"city":"Udaipur","state":"Rajasthan","latitude":24.5854,"longitude":73.7125,"temp":35.6,"humidity":17,"rain":0.0,"pressure":950.0,"uv_index":8.05,"wind_gusts":38.5,"aqi":40,"pm10":16.8,"pm2_5":6.3,"mosquito_risk":0,"arthritis_risk":5,"migraine_risk":10,"frizz_risk":0,"updated_at":"2026-03-26T14:31:24.871302+05:30"},{"city":"Kota","state":"Rajasthan","latitude":25.2138,"longitude":75.8648,"temp":37.6,"humidity":21,"rain":0.0,"pressure":981.0,"uv_index":7.65,"wind_gusts":16.9,"aqi":77,"pm10":31.4,"pm2_5":20.2,"mosquito_risk":0,"arthritis_risk":5,"migraine_risk":10,"frizz_risk":0,"updated_at":"2026-03-26T14:31:24.871309+05:30"},{"city":"Bikaner","state":"Rajasthan","latitude":28.0229,"longitude":73.3119,"temp":33.9,"humidity":27,"rain":0.0,"pressure":985.4,"uv_index":7.1,"wind_gusts":28.8,"aqi":52,"pm10":23.6,"pm2_5":10.4,"mosquito_risk":0,"arthritis_risk":5,"migraine_risk":7,"frizz_risk":0,"updated_at":"2026-03-26T14:31:24.871315+05:30"},{"city":"Ajmer","state":"Rajasthan","latitude":26.4499,"longitude":74.6399,"temp":34.5,"humidity":22,"rain":0.0,"pressure":957.9,"uv_index":7.35,"wind_gusts":33.5,"aqi":57,"pm10":68.2,"pm2_5":13.6,"mosquito_risk":0,"arthritis_risk":5,"migraine_risk":7,"frizz_risk":0,"updated_at":"2026-03-26T14:31:24.871322+05:30"},{"city":"Gwalior","state":"Madhya Pradesh","latitude":26.2183,"longitude":78.1828,"temp":35.6,"humidity":25,"rain":0.0,"pressure":986.4,"uv_index":7.3,"wind_gusts":23.4,"aqi":84,"pm10":110.1,"pm2_5":23.6,"mosquito_risk":0,"arthritis_risk":5,"migraine_risk":10,"frizz_risk":0,"updated_at":"2026-03-26T14:31:24.871328+05:30"},{"city":"Indore","state":"Madhya Pradesh","latitude":22.7196,"longitude":75.8577,"temp":36.0,"humidity":22,"rain":0.0,"pressure":950.6,"uv_index":8.15,"wind_gusts":30.2,"aqi":67,"pm10":13.6,"pm2_5":7.1,"mosquito_risk":0,"arthritis_risk":5,"migraine_risk":10,"frizz_risk":0,"updated_at":"2026-03-26T14:31:24.871334+05:30"},{"city":"Bhopal","state":"Madhya Pradesh","latitude":23.2599,"longitude":77.4126,"temp":37.9,"humidity":17,"rain":0.0,"pressure":955.8,"uv_index":8.05,"wind_gusts":29.5,"aqi":60,"pm10":18.6,"pm2_5":8.7,"mosquito_risk":0,"arthritis_risk":5,"migraine_risk":10,"frizz_risk":0,"updated_at":"2026-03-26T14:31:24.871365+05:30"},{"city":"Jabalpur","state":"Madhya Pradesh","latitude":23.1815,"longitude":79.9864,"temp":36.2,"humidity":23,"rain":0.0,"pressure":964.1,"uv_index":8.2,"wind_gusts":21.2,"aqi":77,"pm10":31.0,"pm2_5":12.2,"mosquito_risk":0,"arthritis_risk":5,"migraine_risk":10,"frizz_risk":0,"updated_at":"2026-03-26T14:31:24.871374+05:30"},{"city":"Ujjain","state":"Madhya Pradesh","latitude":23.1765,"longitude":75.7885,"temp":36.0,"humidity":24,"rain":0.0,"pressure":956.3,"uv_index":8.1,"wind_gusts":31.7,"aqi":63,"pm10":12.2,"pm2_5":6.0,"mosquito_risk":0,"arthritis_risk":5,"migraine_risk":10,"frizz_risk":0,"updated_at":"2026-03-26T14:31:24.871381+05:30"},{"city":"Visakhapatnam","state":"Andhra Pradesh","latitude":17.6868,"longitude":83.2185,"temp":33.1,"humidity":59,"rain":0.0,"pressure":1005.4,"uv_index":8.75,"wind_gusts":30.2,"aqi":84,"pm10":41.6,"pm2_5":30.4,"mosquito_risk":0,"arthritis_risk":5,"migraine_risk":4,"frizz_risk":1,"updated_at":"2026-03-26T14:31:24.871388+05:30"},{"city":"Vijayawada","state":"Andhra Pradesh","latitude":16.5062,"longitude":80.648,"temp":35.1,"humidity":45,"rain":0.0,"pressure":1003.6,"uv_index":9.0,"wind_gusts":22.0,"aqi":70,"pm10":42.1,"pm2_5":29.7,"mosquito_risk":0,"arthritis_risk":5,"migraine_risk":7,"frizz_risk":1,"updated_at":"2026-03-26T14:31:24.871394+05:30"},{"city":"Guntur","state":"Andhra Pradesh","latitude":16.3067,"longitude":80.4365,"temp":35.4,"humidity":43,"rain":0.0,"pressure":1004.8,"uv_index":9.0,"wind_gusts":27.7,"aqi":67,"pm10":39.2,"pm2_5":27.1,"mosquito_risk":0,"arthritis_risk":5,"migraine_risk":7,"frizz_risk":1,"updated_at":"2026-03-26T14:31:24.871405+05:30"},{"city":"Nellore","state":"Andhra Pradesh","latitude":14.4426,"longitude":79.9865,"temp":35.1,"humidity":39,"rain":0.0,"pressure":1007.0,"uv_index":9.1,"wind_gusts":31.7,"aqi":55,"pm10":28.6,"pm2_5":18.2,"mosquito_risk":0,"arthritis_risk":5,"migraine_risk":7,"frizz_risk":1,"updated_at":"2026-03-26T14:31:24.871412+05:30"},{"city":"Kurnool","state":"Andhra Pradesh","latitude":15.8281,"longitude":78.0373,"temp":39.6,"humidity":18,"rain":0.0,"pressure":977.1,"uv_index":9.0,"wind_gusts":29.2,"aqi":83,"pm10":31.3,"pm2_5":22.5,"mosquito_risk":0,"arthritis_risk":5,"migraine_risk":10,"frizz_risk":0,"updated_at":"2026-03-26T14:31:24.871420+05:30"},{"city":"Kakinada","state":"Andhra Pradesh","latitude":16.9891,"longitude":82.2475,"temp":35.6,"humidity":46,"rain":0.0,"pressure":1008.7,"uv_index":8.95,"wind_gusts":25.6,"aqi":63,"pm10":28.2,"pm2_5":17.5,"mosquito_risk":0,"arthritis_risk":0,"migraine_risk":7,"frizz_risk":1,"updated_at":"2026-03-26T14:31:24.871427+05:30"},{"city":"Tirupati","state":"Andhra Pradesh","latitude":13.6288,"longitude":79.4192,"temp":34.9,"humidity":38,"rain":0.0,"pressure":992.6,"uv_index":9.2,"wind_gusts":36.0,"aqi":78,"pm10":34.2,"pm2_5":25.0,"mosquito_risk":0,"arthritis_risk":5,"migraine_risk":7,"frizz_risk":1,"updated_at":"2026-03-26T14:31:24.871433+05:30"},{"city":"Warangal","state":"Telangana","latitude":17.9689,"longitude":79.5941,"temp":37.0,"humidity":33,"rain":0.0,"pressure":979.9,"uv_index":8.8,"wind_gusts":25.2,"aqi":87,"pm10":37.5,"pm2_5":27.7,"mosquito_risk":0,"arthritis_risk":5,"migraine_risk":10,"frizz_risk":1,"updated_at":"2026-03-26T14:31:24.871439+05:30"},{"city":"Nizamabad","state":"Telangana","latitude":18.6725,"longitude":78.0941,"temp":36.7,"humidity":29,"rain":0.0,"pressure":966.4,"uv_index":8.75,"wind_gusts":25.6,"aqi":107,"pm10":22.0,"pm2_5":16.8,"mosquito_risk":0,"arthritis_risk":5,"migraine_risk":10,"frizz_risk":0,"updated_at":"2026-03-26T14:31:24.871445+05:30"},{"city":"Mysore","state":"Karnataka","latitude":12.2958,"longitude":76.6396,"temp":35.7,"humidity":19,"rain":0.0,"pressure":928.9,"uv_index":9.4,"wind_gusts":38.5,"aqi":80,"pm10":28.8,"pm2_5":21.0,"mosquito_risk":0,"arthritis_risk":5,"migraine_risk":10,"frizz_risk":0,"updated_at":"2026-03-26T14:31:24.871452+05:30"},{"city":"Mangalore","state":"Karnataka","latitude":12.9141,"longitude":74.856,"temp":29.5,"humidity":89,"rain":0.0,"pressure":1005.1,"uv_index":9.1,"wind_gusts":30.6,"aqi":118,"pm10":38.8,"pm2_5":31.5,"mosquito_risk":7,"arthritis_risk":5,"migraine_risk":4,"frizz_risk":1,"updated_at":"2026-03-26T14:31:24.871459+05:30"},{"city":"Hubli-Dharwad","state":"Karnataka","latitude":15.3647,"longitude":75.124,"temp":35.5,"humidity":28,"rain":0.0,"pressure":941.7,"uv_index":9.1,"wind_gusts":32.4,"aqi":122,"pm10":27.3,"pm2_5":21.5,"mosquito_risk":0,"arthritis_risk":5,"migraine_risk":10,"frizz_risk":0,"updated_at":"2026-03-26T14:31:24.871466+05:30"},{"city":"Belgaum","state":"Karnataka","latitude":15.8497,"longitude":74.4977,"temp":33.2,"humidity":33,"rain":0.0,"pressure":927.4,"uv_index":9.1,"wind_gusts":31.7,"aqi":129,"pm10":35.4,"pm2_5":28.3,"mosquito_risk":0,"arthritis_risk":5,"migraine_risk":7,"frizz_risk":0,"updated_at":"2026-03-26T14:31:28.136221+05:30"},{"city":"Coimbatore","state":"Tamil Nadu","latitude":11.0168,"longitude":76.9558,"temp":35.4,"humidity":27,"rain":0.0,"pressure":961.8,"uv_index":9.4,"wind_gusts":42.5,"aqi":72,"pm10":26.4,"pm2_5":19.7,"mosquito_risk":0,"arthritis_risk":5,"migraine_risk":10,"frizz_risk":0,"updated_at":"2026-03-26T14:31:28.136251+05:30"},{"city":"Madurai","state":"Tamil Nadu","latitude":9.9252,"longitude":78.1198,"temp":35.2,"humidity":37,"rain":0.0,"pressure":992.9,"uv_index":9.35,"wind_gusts":27.4,"aqi":62,"pm10":31.3,"pm2_5":21.8,"mosquito_risk":0,"arthritis_risk":5,"migraine_risk":10,"frizz_risk":1,"updated_at":"2026-03-26T14:31:28.136262+05:30"},{"city":"Trichy","state":"Tamil Nadu","latitude":10.7905,"longitude":78.7047,"temp":34.0,"humidity":43,"rain":0.0,"pressure":1000.2,"uv_index":9.3,"wind_gusts":27.4,"aqi":66,"pm10":40.6,"pm2_5":30.5,"mosquito_risk":0,"arthritis_risk":5,"migraine_risk":4,"frizz_risk":1,"updated_at":"2026-03-26T14:31:28.136270+05:30"},{"city":"Salem","state":"Tamil Nadu","latitude":11.6643,"longitude":78.146,"temp":36.2,"humidity":31,"rain":0.0,"pressure":977.5,"uv_index":9.35,"wind_gusts":34.6,"aqi":88,"pm10":35.4,"pm2_5":26.8,"mosquito_risk":0,"arthritis_risk":5,"migraine_risk":10,"frizz_risk":1,"updated_at":"2026-03-26T14:31:28.136277+05:30"},{"city":"Tirunelveli","state":"Tamil Nadu","latitude":8.7139,"longitude":77.7567,"temp":36.4,"humidity":35,"rain":0.0,"pressure":1002.6,"uv_index":9.3,"wind_gusts":40.0,"aqi":44,"pm10":18.3,"pm2_5":12.6,"mosquito_risk":0,"arthritis_risk":5,"migraine_risk":7,"frizz_risk":1,"updated_at":"2026-03-26T14:31:28.136285+05:30"},{"city":"Vellore","state":"Tamil Nadu","latitude":12.9165,"longitude":79.1325,"temp":33.8,"humidity":37,"rain":0.0,"pressure":985.7,"uv_index":9.3,"wind_gusts":34.6,"aqi":81,"pm10":26.1,"pm2_5":17.3,"mosquito_risk":0,"arthritis_risk":5,"migraine_risk":7,"frizz_risk":1,"updated_at":"2026-03-26T14:31:28.136292+05:30"},{"city":"Erode","state":"Tamil Nadu","latitude":11.341,"longitude":77.7172,"temp":36.0,"humidity":35,"rain":0.0,"pressure":988.9,"uv_index":9.3,"wind_gusts":26.3,"aqi":62,"pm10":36.4,"pm2_5":28.8,"mosquito_risk":0,"arthritis_risk":5,"migraine_risk":10,"frizz_risk":1,"updated_at":"2026-03-26T14:31:28.136299+05:30"},{"city":"Kochi","state":"Kerala","latitude":9.9312,"longitude":76.2673,"temp":29.4,"humidity":79,"rain":0.0,"pressure":1007.1,"uv_index":9.2,"wind_gusts":34.2,"aqi":97,"pm10":35.5,"pm2_5":27.9,"mosquito_risk":7,"arthritis_risk":5,"migraine_risk":4,"frizz_risk":1,"updated_at":"2026-03-26T14:31:28.136307+05:30"},{"city":"Thiruvananthapuram","state":"Kerala","latitude":8.5241,"longitude":76.9366,"temp":29.2,"humidity":76,"rain":0.0,"pressure":1006.7,"uv_index":9.2,"wind_gusts":28.8,"aqi":92,"pm10":16.0,"pm2_5":12.7,"mosquito_risk":7,"arthritis_risk":5,"migraine_risk":4,"frizz_risk":1,"updated_at":"2026-03-26T14:31:28.136313+05:30"},{"city":"Kozhikode","state":"Kerala","latitude":11.2588,"longitude":75.7804,"temp":31.0,"humidity":74,"rain":0.0,"pressure":1006.4,"uv_index":9.1,"wind_gusts":30.6,"aqi":98,"pm10":42.3,"pm2_5":34.3,"mosquito_risk":3,"arthritis_risk":5,"migraine_risk":4,"frizz_risk":1,"updated_at":"2026-03-26T14:31:28.136320+05:30"},{"city":"Thrissur","state":"Kerala","latitude":10.5276,"longitude":76.2144,"temp":33.4,"humidity":61,"rain":0.0,"pressure":1005.7,"uv_index":9.15,"wind_gusts":39.2,"aqi":98,"pm10":30.0,"pm2_5":22.7,"mosquito_risk":3,"arthritis_risk":5,"migraine_risk":4,"frizz_risk":1,"updated_at":"2026-03-26T14:31:28.136327+05:30"},{"city":"Kannur","state":"Kerala","latitude":11.8745,"longitude":75.3704,"temp":32.5,"humidity":66,"rain":0.0,"pressure":1005.7,"uv_index":9.1,"wind_gusts":34.6,"aqi":100,"pm10":40.7,"pm2_5":32.6,"mosquito_risk":3,"arthritis_risk":5,"migraine_risk":4,"frizz_risk":1,"updated_at":"2026-03-26T14:31:28.136334+05:30"},{"city":"Patna","state":"Bihar","latitude":25.5941,"longitude":85.1376,"temp":33.5,"humidity":27,"rain":0.0,"pressure":1002.2,"uv_index":7.95,"wind_gusts":24.8,"aqi":154,"pm10":47.5,"pm2_5":17.9,"mosquito_risk":0,"arthritis_risk":5,"migraine_risk":4,"frizz_risk":0,"updated_at":"2026-03-26T14:31:28.136359+05:30"},{"city":"Gaya","state":"Bihar","latitude":24.7914,"longitude":85.0002,"temp":33.4,"humidity":25,"rain":0.0,"pressure":995.8,"uv_index":8.05,"wind_gusts":26.6,"aqi":92,"pm10":49.5,"pm2_5":14.8,"mosquito_risk":0,"arthritis_risk":5,"migraine_risk":7,"frizz_risk":0,"updated_at":"2026-03-26T14:31:28.136368+05:30"},{"city":"Muzaffarpur","state":"Bihar","latitude":26.1209,"longitude":85.3647,"temp":32.9,"humidity":32,"rain":0.0,"pressure":1002.1,"uv_index":7.95,"wind_gusts":17.6,"aqi":157,"pm10":40.6,"pm2_5":20.5,"mosquito_risk":0,"arthritis_risk":5,"migraine_risk":4,"frizz_risk":0,"updated_at":"2026-03-26T14:31:28.136375+05:30"},{"city":"Bhagalpur","state":"Bihar","latitude":25.2425,"longitude":87.0117,"temp":32.5,"humidity":37,"rain":0.0,"pressure":1002.8,"uv_index":8.0,"wind_gusts":15.1,"aqi":125,"pm10":52.3,"pm2_5":20.8,"mosquito_risk":0,"arthritis_risk":5,"migraine_risk":4,"frizz_risk":0,"updated_at":"2026-03-26T14:31:28.136381+05:30"},{"city":"Ranchi","state":"Jharkhand","latitude":23.3441,"longitude":85.3096,"temp":32.5,"humidity":22,"rain":0.0,"pressure":940.0,"uv_index":8.7,"wind_gusts":36.0,"aqi":101,"pm10":33.2,"pm2_5":9.3,"mosquito_risk":0,"arthritis_risk":5,"migraine_risk":7,"frizz_risk":0,"updated_at":"2026-03-26T14:31:28.136388+05:30"},{"city":"Jamshedpur","state":"Jharkhand","latitude":22.8046,"longitude":86.2029,"temp":35.2,"humidity":33,"rain":0.0,"pressure":992.0,"uv_index":8.55,"wind_gusts":22.0,"aqi":167,"pm10":82.4,"pm2_5":55.6,"mosquito_risk":0,"arthritis_risk":5,"migraine_risk":10,"frizz_risk":1,"updated_at":"2026-03-26T14:31:28.136395+05:30"},{"city":"Dhanbad","state":"Jharkhand","latitude":23.7957,"longitude":86.4304,"temp":35.1,"humidity":25,"rain":0.0,"pressure":981.3,"uv_index":8.45,"wind_gusts":23.8,"aqi":153,"pm10":62.6,"pm2_5":30.9,"mosquito_risk":0,"arthritis_risk":5,"migraine_risk":10,"frizz_risk":0,"updated_at":"2026-03-26T14:31:28.136401+05:30"},{"city":"Bokaro","state":"Jharkhand","latitude":23.6693,"longitude":86.1511,"temp":35.1,"humidity":21,"rain":0.0,"pressure":985.3,"uv_index":8.45,"wind_gusts":22.0,"aqi":141,"pm10":54.7,"pm2_5":24.0,"mosquito_risk":0,"arthritis_risk":5,"migraine_risk":10,"frizz_risk":0,"updated_at":"2026-03-26T14:31:28.136408+05:30"},{"city":"Bhubaneswar","state":"Odisha","latitude":20.2961,"longitude":85.8245,"temp":31.9,"humidity":59,"rain":0.0,"pressure":1004.4,"uv_index":8.75,"wind_gusts":18.0,"aqi":102,"pm10":80.8,"pm2_5":64.5,"mosquito_risk":0,"arthritis_risk":5,"migraine_risk":4,"frizz_risk":1,"updated_at":"2026-03-26T14:31:28.136415+05:30"},{"city":"Cuttack","state":"Odisha","latitude":20.4625,"longitude":85.8828,"temp":32.5,"humidity":59,"rain":0.0,"pressure":1006.4,"uv_index":8.8,"wind_gusts":11.9,"aqi":102,"pm10":80.8,"pm2_5":64.5,"mosquito_risk":0,"arthritis_risk":5,"migraine_risk":4,"frizz_risk":1,"updated_at":"2026-03-26T14:31:28.136422+05:30"},{"city":"Rourkela","state":"Odisha","latitude":22.2604,"longitude":84.8536,"temp":36.7,"humidity":26,"rain":0.0,"pressure":986.3,"uv_index":8.45,"wind_gusts":26.6,"aqi":137,"pm10":52.6,"pm2_5":25.6,"mosquito_risk":0,"arthritis_risk":5,"migraine_risk":10,"frizz_risk":0,"updated_at":"2026-03-26T14:31:28.136428+05:30"},{"city":"Raipur","state":"Chhattisgarh","latitude":21.2514,"longitude":81.6296,"temp":37.8,"humidity":24,"rain":0.0,"pressure":976.0,"uv_index":8.5,"wind_gusts":22.0,"aqi":146,"pm10":46.7,"pm2_5":31.8,"mosquito_risk":0,"arthritis_risk":5,"migraine_risk":10,"frizz_risk":0,"updated_at":"2026-03-26T14:31:28.136435+05:30"},{"city":"Bhilai","state":"Chhattisgarh","latitude":21.1938,"longitude":81.3509,"temp":37.9,"humidity":24,"rain":0.0,"pressure":976.5,"uv_index":8.5,"wind_gusts":19.8,"aqi":150,"pm10":45.9,"pm2_5":32.9,"mosquito_risk":0,"arthritis_risk":5,"migraine_risk":10,"frizz_risk":0,"updated_at":"2026-03-26T14:31:28.136441+05:30"},{"city":"Guwahati","state":"Assam","latitude":26.1158,"longitude":91.7086,"temp":29.4,"humidity":58,"rain":0.0,"pressure":1003.2,"uv_index":7.9,"wind_gusts":23.0,"aqi":139,"pm10":64.7,"pm2_5":44.0,"mosquito_risk":4,"arthritis_risk":5,"migraine_risk":4,"frizz_risk":1,"updated_at":"2026-03-26T14:31:28.136447+05:30"},{"city":"Agartala","state":"Tripura","latitude":23.8315,"longitude":91.2868,"temp":32.3,"humidity":50,"rain":0.0,"pressure":1007.2,"uv_index":8.2,"wind_gusts":20.5,"aqi":162,"pm10":72.2,"pm2_5":51.3,"mosquito_risk":0,"arthritis_risk":5,"migraine_risk":4,"frizz_risk":1,"updated_at":"2026-03-26T14:31:28.136454+05:30"},{"city":"Shillong","state":"Meghalaya","latitude":25.5788,"longitude":91.8933,"temp":19.7,"humidity":46,"rain":0.0,"pressure":858.3,"uv_index":8.3,"wind_gusts":26.6,"aqi":110,"pm10":50.8,"pm2_5":32.9,"mosquito_risk":0,"arthritis_risk":5,"migraine_risk":7,"frizz_risk":0,"updated_at":"2026-03-26T14:31:28.136460+05:30"},{"city":"Imphal","state":"Manipur","latitude":24.817,"longitude":93.9368,"temp":23.5,"humidity":41,"rain":0.0,"pressure":924.9,"uv_index":8.55,"wind_gusts":45.7,"aqi":128,"pm10":37.3,"pm2_5":23.5,"mosquito_risk":0,"arthritis_risk":5,"migraine_risk":7,"frizz_risk":0,"updated_at":"2026-03-26T14:31:28.136467+05:30"},{"city":"Aizawl","state":"Mizoram","latitude":23.7271,"longitude":92.7176,"temp":26.6,"humidity":36,"rain":0.0,"pressure":895.3,"uv_index":8.45,"wind_gusts":34.2,"aqi":129,"pm10":44.1,"pm2_5":27.6,"mosquito_risk":4,"arthritis_risk":5,"migraine_risk":7,"frizz_risk":0,"updated_at":"2026-03-26T14:31:28.136473+05:30"},{"city":"Kohima","state":"Nagaland","latitude":25.6701,"longitude":94.1077,"temp":18.4,"humidity":69,"rain":0.0,"pressure":856.8,"uv_index":8.45,"wind_gusts":47.5,"aqi":108,"pm10":39.1,"pm2_5":25.3,"mosquito_risk":3,"arthritis_risk":5,"migraine_risk":7,"frizz_risk":0,"updated_at":"2026-03-26T14:31:28.136479+05:30"},{"city":"Gangtok","state":"Sikkim","latitude":27.3314,"longitude":88.6138,"temp":18.1,"humidity":67,"rain":0.0,"pressure":839.0,"uv_index":8.05,"wind_gusts":18.7,"aqi":100,"pm10":40.3,"pm2_5":29.3,"mosquito_risk":3,"arthritis_risk":5,"migraine_risk":7,"frizz_risk":0,"updated_at":"2026-03-26T14:31:28.136485+05:30"},{"city":"Siliguri","state":"West Bengal","latitude":26.7271,"longitude":88.3953,"temp":24.0,"humidity":67,"rain":0.0,"pressure":996.4,"uv_index":7.9,"wind_gusts":32.8,"aqi":154,"pm10":73.6,"pm2_5":50.2,"mosquito_risk":3,"arthritis_risk":5,"migraine_risk":7,"frizz_risk":1,"updated_at":"2026-03-26T14:31:31.398389+05:30"},{"city":"Durgapur","state":"West Bengal","latitude":23.5204,"longitude":87.3119,"temp":34.2,"humidity":39,"rain":0.0,"pressure":996.3,"uv_index":8.4,"wind_gusts":21.2,"aqi":163,"pm10":74.5,"pm2_5":45.4,"mosquito_risk":0,"arthritis_risk":5,"migraine_risk":7,"frizz_risk":1,"updated_at":"2026-03-26T14:31:31.398420+05:30"},{"city":"Asansol","state":"West Bengal","latitude":23.6739,"longitude":86.9524,"temp":34.9,"humidity":31,"rain":0.0,"pressure":994.7,"uv_index":8.4,"wind_gusts":17.6,"aqi":152,"pm10":69.6,"pm2_5":39.2,"mosquito_risk":0,"arthritis_risk":5,"migraine_risk":7,"frizz_risk":0,"updated_at":"2026-03-26T14:31:31.398430+05:30"},{"city":"Pondicherry","state":"Puducherry","latitude":11.9139,"longitude":79.8145,"temp":32.8,"humidity":51,"rain":0.0,"pressure":1009.6,"uv_index":9.2,"wind_gusts":29.2,"aqi":54,"pm10":30.4,"pm2_5":17.8,"mosquito_risk":0,"arthritis_risk":0,"migraine_risk":4,"frizz_risk":1,"updated_at":"2026-03-26T14:31:31.398438+05:30"},{"city":"Port Blair","state":"Andaman and Nicobar Islands","latitude":11.6234,"longitude":92.7265,"temp":27.9,"humidity":81,"rain":0.0,"pressure":1006.5,"uv_index":9.15,"wind_gusts":26.6,"aqi":61,"pm10":13.6,"pm2_5":9.1,"mosquito_risk":7,"arthritis_risk":5,"migraine_risk":4,"frizz_risk":1,"updated_at":"2026-03-26T14:31:31.398446+05:30"},{"city":"Haridwar","state":"Uttarakhand","latitude":29.9457,"longitude":78.1642,"temp":33.5,"humidity":26,"rain":0.0,"pressure":977.1,"uv_index":6.4,"wind_gusts":48.2,"aqi":79,"pm10":16.7,"pm2_5":11.1,"mosquito_risk":0,"arthritis_risk":5,"migraine_risk":7,"frizz_risk":0,"updated_at":"2026-03-26T14:31:31.398453+05:30"},{"city":"Rishikesh","state":"Uttarakhand","latitude":30.0869,"longitude":78.2676,"temp":32.1,"humidity":29,"rain":0.0,"pressure":969.8,"uv_index":6.45,"wind_gusts":46.1,"aqi":64,"pm10":13.7,"pm2_5":8.6,"mosquito_risk":0,"arthritis_risk":5,"migraine_risk":7,"frizz_risk":0,"updated_at":"2026-03-26T14:31:31.398461+05:30"},{"city":"Nainital","state":"Uttarakhand","latitude":29.3919,"longitude":79.4542,"temp":23.6,"humidity":46,"rain":0.0,"pressure":810.6,"uv_index":7.25,"wind_gusts":65.9,"aqi":86,"pm10":21.9,"pm2_5":14.0,"mosquito_risk":0,"arthritis_risk":5,"migraine_risk":7,"frizz_risk":0,"updated_at":"2026-03-26T14:31:31.398467+05:30"},{"city":"Mussoorie","state":"Uttarakhand","latitude":30.4599,"longitude":78.0664,"temp":22.2,"humidity":37,"rain":0.0,"pressure":807.5,"uv_index":6.8,"wind_gusts":56.2,"aqi":71,"pm10":17.0,"pm2_5":10.9,"mosquito_risk":0,"arthritis_risk":5,"migraine_risk":7,"frizz_risk":0,"updated_at":"2026-03-26T14:31:31.398474+05:30"},{"city":"Dharamshala","state":"Himachal Pradesh","latitude":32.219,"longitude":76.3234,"temp":23.7,"humidity":45,"rain":0.0,"pressure":874.1,"uv_index":6.9,"wind_gusts":23.0,"aqi":63,"pm10":12.0,"pm2_5":5.7,"mosquito_risk":0,"arthritis_risk":5,"migraine_risk":7,"frizz_risk":0,"updated_at":"2026-03-26T14:31:31.398481+05:30"},{"city":"Dalhousie","state":"Himachal Pradesh","latitude":32.5387,"longitude":75.971,"temp":22.1,"humidity":36,"rain":0.0,"pressure":809.4,"uv_index":6.8,"wind_gusts":27.4,"aqi":68,"pm10":16.9,"pm2_5":10.0,"mosquito_risk":0,"arthritis_risk":5,"migraine_risk":7,"frizz_risk":0,"updated_at":"2026-03-26T14:31:31.398489+05:30"},{"city":"Patiala","state":"Punjab","latitude":30.3398,"longitude":76.3869,"temp":31.5,"humidity":34,"rain":0.0,"pressure":982.3,"uv_index":5.75,"wind_gusts":34.9,"aqi":169,"pm10":333.4,"pm2_5":40.7,"mosquito_risk":0,"arthritis_risk":5,"migraine_risk":3,"frizz_risk":0,"updated_at":"2026-03-26T14:31:31.398496+05:30"},{"city":"Bhatinda","state":"Punjab","latitude":30.211,"longitude":74.9455,"temp":29.3,"humidity":45,"rain":0.0,"pressure":989.0,"uv_index":5.75,"wind_gusts":40.7,"aqi":87,"pm10":36.0,"pm2_5":20.7,"mosquito_risk":4,"arthritis_risk":5,"migraine_risk":3,"frizz_risk":1,"updated_at":"2026-03-26T14:31:31.398502+05:30"},{"city":"Rohtak","state":"Haryana","latitude":28.8955,"longitude":76.6066,"temp":31.5,"humidity":36,"rain":0.0,"pressure":985.3,"uv_index":6.0,"wind_gusts":24.5,"aqi":186,"pm10":212.8,"pm2_5":35.2,"mosquito_risk":0,"arthritis_risk":5,"migraine_risk":3,"frizz_risk":0,"updated_at":"2026-03-26T14:31:31.398509+05:30"},{"city":"Panipat","state":"Haryana","latitude":29.3909,"longitude":76.9635,"temp":32.0,"humidity":32,"rain":0.0,"pressure":984.1,"uv_index":5.9,"wind_gusts":20.9,"aqi":477,"pm10":629.6,"pm2_5":64.0,"mosquito_risk":0,"arthritis_risk":5,"migraine_risk":3,"frizz_risk":0,"updated_at":"2026-03-26T14:31:31.398515+05:30"},{"city":"Mathura","state":"Uttar Pradesh","latitude":27.4924,"longitude":77.6737,"temp":34.9,"humidity":28,"rain":0.0,"pressure":989.9,"uv_index":6.8,"wind_gusts":32.0,"aqi":173,"pm10":192.3,"pm2_5":36.1,"mosquito_risk":0,"arthritis_risk":5,"migraine_risk":7,"frizz_risk":0,"updated_at":"2026-03-26T14:31:31.398522+05:30"},{"city":"Vrindavan","state":"Uttar Pradesh","latitude":27.5823,"longitude":77.7027,"temp":34.4,"humidity":31,"rain":0.0,"pressure":990.5,"uv_index":6.8,"wind_gusts":29.5,"aqi":173,"pm10":192.3,"pm2_5":36.1,"mosquito_risk":0,"arthritis_risk":5,"migraine_risk":7,"frizz_risk":0,"updated_at":"2026-03-26T14:31:31.398528+05:30"},{"city":"Ayodhya","state":"Uttar Pradesh","latitude":26.7922,"longitude":82.1998,"temp":35.7,"humidity":23,"rain":0.0,"pressure":997.2,"uv_index":7.3,"wind_gusts":32.8,"aqi":98,"pm10":74.5,"pm2_5":22.9,"mosquito_risk":0,"arthritis_risk":5,"migraine_risk":10,"frizz_risk":0,"updated_at":"2026-03-26T14:31:31.398535+05:30"},{"city":"Ratlam","state":"Madhya Pradesh","latitude":23.3315,"longitude":75.0367,"temp":35.6,"humidity":24,"rain":0.0,"pressure":957.2,"uv_index":8.05,"wind_gusts":29.5,"aqi":46,"pm10":9.2,"pm2_5":4.6,"mosquito_risk":0,"arthritis_risk":5,"migraine_risk":10,"frizz_risk":0,"updated_at":"2026-03-26T14:31:31.398542+05:30"},{"city":"Sagar","state":"Madhya Pradesh","latitude":23.8388,"longitude":78.7378,"temp":36.3,"humidity":19,"rain":0.0,"pressure":952.7,"uv_index":8.05,"wind_gusts":24.8,"aqi":71,"pm10":29.5,"pm2_5":10.1,"mosquito_risk":0,"arthritis_risk":5,"migraine_risk":10,"frizz_risk":0,"updated_at":"2026-03-26T14:31:31.398548+05:30"},{"city":"Satna","state":"Madhya Pradesh","latitude":24.6005,"longitude":80.8322,"temp":36.2,"humidity":19,"rain":0.0,"pressure":974.1,"uv_index":8.05,"wind_gusts":26.6,"aqi":101,"pm10":57.0,"pm2_5":13.4,"mosquito_risk":0,"arthritis_risk":5,"migraine_risk":10,"frizz_risk":0,"updated_at":"2026-03-26T14:31:31.398554+05:30"},{"city":"Akola","state":"Maharashtra","latitude":20.7002,"longitude":77.0082,"temp":38.7,"humidity":21,"rain":0.0,"pressure":976.4,"uv_index":8.4,"wind_gusts":24.1,"aqi":70,"pm10":21.5,"pm2_5":14.8,"mosquito_risk":0,"arthritis_risk":5,"migraine_risk":10,"frizz_risk":0,"updated_at":"2026-03-26T14:31:31.398561+05:30"},{"city":"Amravati","state":"Maharashtra","latitude":20.9374,"longitude":77.7796,"temp":39.2,"humidity":18,"rain":0.0,"pressure":968.6,"uv_index":8.4,"wind_gusts":23.8,"aqi":74,"pm10":20.3,"pm2_5":13.8,"mosquito_risk":0,"arthritis_risk":5,"migraine_risk":10,"frizz_risk":0,"updated_at":"2026-03-26T14:31:31.398568+05:30"},{"city":"Latur","state":"Maharashtra","latitude":18.4088,"longitude":76.5604,"temp":35.5,"humidity":25,"rain":0.0,"pressure":941.4,"uv_index":8.75,"wind_gusts":35.3,"aqi":93,"pm10":25.3,"pm2_5":19.7,"mosquito_risk":0,"arthritis_risk":5,"migraine_risk":10,"frizz_risk":0,"updated_at":"2026-03-26T14:31:31.398575+05:30"},{"city":"Nanded","state":"Maharashtra","latitude":19.1383,"longitude":77.3091,"temp":38.9,"humidity":20,"rain":0.0,"pressure":969.6,"uv_index":8.6,"wind_gusts":25.6,"aqi":72,"pm10":17.4,"pm2_5":12.6,"mosquito_risk":0,"arthritis_risk":5,"migraine_risk":10,"frizz_risk":0,"updated_at":"2026-03-26T14:31:31.398581+05:30"},{"city":"Gulbarga","state":"Karnataka","latitude":17.3297,"longitude":76.8343,"temp":34.8,"humidity":37,"rain":0.0,"pressure":960.8,"uv_index":8.85,"wind_gusts":16.9,"aqi":102,"pm10":33.9,"pm2_5":26.3,"mosquito_risk":0,"arthritis_risk":5,"migraine_risk":7,"frizz_risk":1,"updated_at":"2026-03-26T14:31:31.398586+05:30"},{"city":"Bidar","state":"Karnataka","latitude":17.9104,"longitude":77.5199,"temp":32.8,"humidity":38,"rain":0.0,"pressure":938.2,"uv_index":8.85,"wind_gusts":20.5,"aqi":97,"pm10":28.6,"pm2_5":22.0,"mosquito_risk":0,"arthritis_risk":5,"migraine_risk":7,"frizz_risk":1,"updated_at":"2026-03-26T14:31:31.398592+05:30"},{"city":"Hospet","state":"Karnataka","latitude":15.2689,"longitude":76.3909,"temp":36.7,"humidity":25,"rain":0.0,"pressure":956.4,"uv_index":9.05,"wind_gusts":28.1,"aqi":95,"pm10":30.9,"pm2_5":25.2,"mosquito_risk":0,"arthritis_risk":5,"migraine_risk":10,"frizz_risk":0,"updated_at":"2026-03-26T14:31:31.398598+05:30"},{"city":"Tirupur","state":"Tamil Nadu","latitude":11.1085,"longitude":77.3411,"temp":36.5,"humidity":26,"rain":0.0,"pressure":975.2,"uv_index":9.4,"wind_gusts":33.1,"aqi":64,"pm10":35.2,"pm2_5":27.5,"mosquito_risk":0,"arthritis_risk":5,"migraine_risk":10,"frizz_risk":0,"updated_at":"2026-03-26T14:31:31.398604+05:30"},{"city":"Alappuzha","state":"Kerala","latitude":9.4981,"longitude":76.3388,"temp":29.3,"humidity":77,"rain":0.0,"pressure":1007.6,"uv_index":9.15,"wind_gusts":29.5,"aqi":89,"pm10":30.0,"pm2_5":24.3,"mosquito_risk":7,"arthritis_risk":5,"migraine_risk":4,"frizz_risk":1,"updated_at":"2026-03-26T14:31:31.398611+05:30"},{"city":"Munnar","state":"Kerala","latitude":10.0889,"longitude":77.0595,"temp":32.8,"humidity":31,"rain":0.0,"pressure":859.5,"uv_index":9.7,"wind_gusts":26.6,"aqi":60,"pm10":25.8,"pm2_5":17.1,"mosquito_risk":0,"arthritis_risk":5,"migraine_risk":7,"frizz_risk":0,"updated_at":"2026-03-26T14:31:31.398617+05:30"},{"city":"Silchar","state":"Assam","latitude":24.8333,"longitude":92.7789,"temp":31.3,"humidity":48,"rain":0.0,"pressure":1006.0,"uv_index":8.25,"wind_gusts":18.7,"aqi":156,"pm10":62.4,"pm2_5":39.5,"mosquito_risk":0,"arthritis_risk":5,"migraine_risk":4,"frizz_risk":1,"updated_at":"2026-03-26T14:31:31.398624+05:30"},{"city":"Dibrugarh","state":"Assam","latitude":27.4728,"longitude":94.912,"temp":27.0,"humidity":56,"rain":0.0,"pressure":997.7,"uv_index":8.05,"wind_gusts":7.9,"aqi":94,"pm10":42.5,"pm2_5":30.5,"mosquito_risk":4,"arthritis_risk":5,"migraine_risk":7,"frizz_risk":1,"updated_at":"2026-03-26T14:31:31.398631+05:30"}]