[{"city":"Delhi","state":"Delhi","latitude":28.6139,"longitude":77.209,"temp":22.2,"humidity":85,"rain":0.0,"pressure":985.2,"uv_index":7.05,"wind_gusts":41.0,"aqi":118,"pm10":98.5,"pm2_5":56.3,"no2":37.2,"co":845.0,"o3":81.0,"so2":24.7,"mosquito_risk":3,"arthritis_risk":5,"migraine_risk":7,"frizz_risk":1,"updated_at":"2026-05-05T23:42:39.731235+05:30"},{"city":"Mumbai","state":"Maharashtra","latitude":19.076,"longitude":72.8777,"temp":28.3,"humidity":78,"rain":0.0,"pressure":1009.1,"uv_index":7.85,"wind_gusts":40.7,"aqi":73,"pm10":70.1,"pm2_5":25.0,"no2":10.2,"co":310.0,"o3":65.0,"so2":26.2,"mosquito_risk":7,"arthritis_risk":0,"migraine_risk":4,"frizz_risk":1,"updated_at":"2026-05-05T23:42:39.731327+05:30"},{"city":"Bangalore","state":"Karnataka","latitude":12.9716,"longitude":77.5946,"temp":25.1,"humidity":59,"rain":0.0,"pressure":912.4,"uv_index":8.85,"wind_gusts":34.2,"aqi":96,"pm10":71.7,"pm2_5":48.4,"no2":51.0,"co":477.0,"o3":57.0,"so2":14.2,"mosquito_risk":4,"arthritis_risk":5,"migraine_risk":7,"frizz_risk":1,"updated_at":"2026-05-05T23:42:39.731349+05:30"},{"city":"Hyderabad","state":"Telangana","latitude":17.385,"longitude":78.4867,"temp":28.8,"humidity":54,"rain":0.0,"pressure":953.4,"uv_index":9.25,"wind_gusts":38.2,"aqi":81,"pm10":45.1,"pm2_5":36.8,"no2":14.4,"co":348.0,"o3":97.0,"so2":8.5,"mosquito_risk":4,"arthritis_risk":5,"migraine_risk":7,"frizz_risk":1,"updated_at":"2026-05-05T23:42:39.731361+05:30"},{"city":"Chennai","state":"Tamil Nadu","latitude":13.0827,"longitude":80.2707,"temp":29.0,"humidity":82,"rain":0.0,"pressure":1007.6,"uv_index":8.7,"wind_gusts":36.7,"aqi":70,"pm10":19.4,"pm2_5":12.7,"no2":6.4,"co":183.0,"o3":71.0,"so2":3.3,"mosquito_risk":7,"arthritis_risk":5,"migraine_risk":4,"frizz_risk":1,"updated_at":"2026-05-05T23:42:39.731371+05:30"},{"city":"Kolkata","state":"West Bengal","latitude":22.5726,"longitude":88.3639,"temp":25.6,"humidity":91,"rain":0.0,"pressure":1008.1,"uv_index":8.65,"wind_gusts":45.7,"aqi":79,"pm10":20.3,"pm2_5":18.8,"no2":14.0,"co":423.0,"o3":45.0,"so2":6.5,"mosquito_risk":7,"arthritis_risk":0,"migraine_risk":4,"frizz_risk":1,"updated_at":"2026-05-05T23:42:39.731381+05:30"},{"city":"Pune","state":"Maharashtra","latitude":18.5204,"longitude":73.8567,"temp":24.4,"humidity":85,"rain":0.0,"pressure":948.7,"uv_index":8.45,"wind_gusts":45.0,"aqi":59,"pm10":38.4,"pm2_5":19.7,"no2":12.6,"co":241.0,"o3":70.0,"so2":13.3,"mosquito_risk":3,"arthritis_risk":5,"migraine_risk":7,"frizz_risk":1,"updated_at":"2026-05-05T23:42:39.731390+05:30"},{"city":"Ahmedabad","state":"Gujarat","latitude":23.0225,"longitude":72.5714,"temp":32.0,"humidity":49,"rain":0.0,"pressure":1001.9,"uv_index":8.1,"wind_gusts":29.9,"aqi":81,"pm10":119.0,"pm2_5":54.0,"no2":37.5,"co":227.0,"o3":43.0,"so2":17.5,"mosquito_risk":0,"arthritis_risk":5,"migraine_risk":4,"frizz_risk":1,"updated_at":"2026-05-05T23:42:39.731402+05:30"},{"city":"Jaipur","state":"Rajasthan","latitude":26.9124,"longitude":75.7873,"temp":23.5,"humidity":67,"rain":0.0,"pressure":961.5,"uv_index":8.05,"wind_gusts":35.3,"aqi":132,"pm10":353.9,"pm2_5":66.4,"no2":12.2,"co":453.0,"o3":88.0,"so2":5.8,"mosquito_risk":3,"arthritis_risk":5,"migraine_risk":7,"frizz_risk":1,"updated_at":"2026-05-05T23:42:39.731411+05:30"},{"city":"Lucknow","state":"Uttar Pradesh","latitude":26.8467,"longitude":80.9462,"temp":23.2,"humidity":87,"rain":0.0,"pressure":995.3,"uv_index":6.25,"wind_gusts":28.4,"aqi":111,"pm10":78.9,"pm2_5":64.7,"no2":32.5,"co":591.0,"o3":65.0,"so2":18.7,"mosquito_risk":3,"arthritis_risk":5,"migraine_risk":7,"frizz_risk":1,"updated_at":"2026-05-05T23:42:39.731422+05:30"},{"city":"Kanpur","state":"Uttar Pradesh","latitude":26.4499,"longitude":80.3319,"temp":23.5,"humidity":90,"rain":0.0,"pressure":993.7,"uv_index":8.05,"wind_gusts":31.3,"aqi":127,"pm10":100.6,"pm2_5":64.7,"no2":27.1,"co":598.0,"o3":82.0,"so2":16.3,"mosquito_risk":3,"arthritis_risk":5,"migraine_risk":7,"frizz_risk":1,"updated_at":"2026-05-05T23:42:39.731431+05:30"},{"city":"Chandigarh","state":"Chandigarh","latitude":30.7333,"longitude":76.7794,"temp":19.4,"humidity":81,"rain":0.0,"pressure":970.5,"uv_index":7.3,"wind_gusts":42.1,"aqi":71,"pm10":54.4,"pm2_5":39.7,"no2":51.0,"co":1101.0,"o3":22.0,"so2":5.3,"mosquito_risk":3,"arthritis_risk":10,"migraine_risk":7,"frizz_risk":0,"updated_at":"2026-05-05T23:42:39.731439+05:30"},{"city":"Srinagar","state":"Jammu and Kashmir","latitude":34.0837,"longitude":74.7973,"temp":9.1,"humidity":94,"rain":0.0,"pressure":841.4,"uv_index":8.7,"wind_gusts":25.2,"aqi":57,"pm10":45.9,"pm2_5":42.6,"no2":36.9,"co":1187.0,"o3":30.0,"so2":3.6,"mosquito_risk":3,"arthritis_risk":10,"migraine_risk":7,"frizz_risk":0,"updated_at":"2026-05-05T23:42:39.731449+05:30"},{"city":"Jammu","state":"Jammu and Kashmir","latitude":32.7266,"longitude":74.857,"temp":19.6,"humidity":59,"rain":0.0,"pressure":974.2,"uv_index":8.3,"wind_gusts":30.2,"aqi":72,"pm10":39.5,"pm2_5":26.9,"no2":29.6,"co":400.0,"o3":45.0,"so2":4.0,"mosquito_risk":0,"arthritis_risk":5,"migraine_risk":7,"frizz_risk":0,"updated_at":"2026-05-05T23:42:39.731457+05:30"},{"city":"Amritsar","state":"Punjab","latitude":31.634,"longitude":74.8723,"temp":23.6,"humidity":56,"rain":0.0,"pressure":982.4,"uv_index":8.2,"wind_gusts":45.0,"aqi":112,"pm10":61.7,"pm2_5":32.5,"no2":4.7,"co":477.0,"o3":120.0,"so2":8.3,"mosquito_risk":0,"arthritis_risk":5,"migraine_risk":7,"frizz_risk":0,"updated_at":"2026-05-05T23:42:39.731465+05:30"},{"city":"Ludhiana","state":"Punjab","latitude":30.901,"longitude":75.8573,"temp":22.2,"humidity":66,"rain":0.0,"pressure":980.7,"uv_index":7.8,"wind_gusts":33.8,"aqi":120,"pm10":104.8,"pm2_5":72.6,"no2":31.3,"co":1466.0,"o3":64.0,"so2":21.5,"mosquito_risk":3,"arthritis_risk":5,"migraine_risk":7,"frizz_risk":0,"updated_at":"2026-05-05T23:42:39.731472+05:30"},{"city":"Jalandhar","state":"Punjab","latitude":31.326,"longitude":75.5762,"temp":21.5,"humidity":66,"rain":0.0,"pressure":981.4,"uv_index":7.95,"wind_gusts":41.8,"aqi":101,"pm10":97.3,"pm2_5":52.5,"no2":17.2,"co":805.0,"o3":83.0,"so2":14.4,"mosquito_risk":3,"arthritis_risk":5,"migraine_risk":7,"frizz_risk":0,"updated_at":"2026-05-05T23:42:39.731480+05:30"},{"city":"Dehradun","state":"Uttarakhand","latitude":30.6284,"longitude":78.0322,"temp":8.2,"humidity":97,"rain":0.0,"pressure":827.4,"uv_index":7.35,"wind_gusts":35.3,"aqi":72,"pm10":71.9,"pm2_5":23.7,"no2":28.7,"co":218.0,"o3":66.0,"so2":1.3,"mosquito_risk":3,"arthritis_risk":10,"migraine_risk":7,"frizz_risk":0,"updated_at":"2026-05-05T23:42:39.731490+05:30"},{"city":"Shimla","state":"Himachal Pradesh","latitude":31.1048,"longitude":77.1734,"temp":7.9,"humidity":77,"rain":0.0,"pressure":781.8,"uv_index":4.75,"wind_gusts":37.8,"aqi":58,"pm10":57.3,"pm2_5":25.7,"no2":30.5,"co":350.0,"o3":52.0,"so2":1.4,"mosquito_risk":3,"arthritis_risk":5,"migraine_risk":3,"frizz_risk":0,"updated_at":"2026-05-05T23:42:39.731498+05:30"},{"city":"Manali","state":"Himachal Pradesh","latitude":32.2396,"longitude":77.1887,"temp":7.7,"humidity":72,"rain":0.0,"pressure":815.1,"uv_index":9.65,"wind_gusts":43.2,"aqi":116,"pm10":12.6,"pm2_5":7.4,"no2":30.2,"co":352.0,"o3":110.0,"so2":0.3,"mosquito_risk":3,"arthritis_risk":5,"migraine_risk":7,"frizz_risk":0,"updated_at":"2026-05-05T23:42:39.731505+05:30"},{"city":"Gurgaon","state":"Haryana","latitude":28.4595,"longitude":77.0266,"temp":22.1,"humidity":84,"rain":0.0,"pressure":983.5,"uv_index":7.55,"wind_gusts":32.4,"aqi":197,"pm10":144.4,"pm2_5":68.5,"no2":43.0,"co":1251.0,"o3":70.0,"so2":31.8,"mosquito_risk":3,"arthritis_risk":5,"migraine_risk":7,"frizz_risk":1,"updated_at":"2026-05-05T23:42:39.731512+05:30"},{"city":"Noida","state":"Uttar Pradesh","latitude":28.5355,"longitude":77.391,"temp":21.3,"humidity":84,"rain":0.0,"pressure":986.7,"uv_index":7.25,"wind_gusts":40.7,"aqi":197,"pm10":144.4,"pm2_5":68.5,"no2":43.0,"co":745.0,"o3":70.0,"so2":31.8,"mosquito_risk":3,"arthritis_risk":5,"migraine_risk":7,"frizz_risk":1,"updated_at":"2026-05-05T23:42:39.731520+05:30"},{"city":"Ghaziabad","state":"Uttar Pradesh","latitude":28.6692,"longitude":77.4538,"temp":21.1,"humidity":87,"rain":0.0,"pressure":984.9,"uv_index":6.95,"wind_gusts":47.5,"aqi":99,"pm10":107.3,"pm2_5":47.6,"no2":15.7,"co":497.0,"o3":96.0,"so2":9.8,"mosquito_risk":3,"arthritis_risk":5,"migraine_risk":7,"frizz_risk":1,"updated_at":"2026-05-05T23:42:39.731527+05:30"},{"city":"Faridabad","state":"Haryana","latitude":28.4089,"longitude":77.3178,"temp":21.8,"humidity":84,"rain":0.0,"pressure":985.9,"uv_index":7.0,"wind_gusts":35.6,"aqi":197,"pm10":144.4,"pm2_5":68.5,"no2":43.0,"co":1097.0,"o3":70.0,"so2":31.8,"mosquito_risk":3,"arthritis_risk":5,"migraine_risk":7,"frizz_risk":1,"updated_at":"2026-05-05T23:42:39.731534+05:30"},{"city":"Meerut","state":"Uttar Pradesh","latitude":28.9845,"longitude":77.7064,"temp":20.6,"humidity":87,"rain":0.0,"pressure":983.5,"uv_index":4.2,"wind_gusts":50.0,"aqi":99,"pm10":107.3,"pm2_5":47.6,"no2":15.7,"co":560.0,"o3":96.0,"so2":9.8,"mosquito_risk":3,"arthritis_risk":5,"migraine_risk":3,"frizz_risk":1,"updated_at":"2026-05-05T23:42:39.731541+05:30"},{"city":"Agra","state":"Uttar Pradesh","latitude":27.1767,"longitude":78.0081,"temp":23.6,"humidity":80,"rain":0.0,"pressure":989.5,"uv_index":7.9,"wind_gusts":35.6,"aqi":274,"pm10":203.5,"pm2_5":65.0,"no2":18.3,"co":521.0,"o3":74.0,"so2":17.9,"mosquito_risk":3,"arthritis_risk":5,"migraine_risk":7,"frizz_risk":1,"updated_at":"2026-05-05T23:42:39.731548+05:30"},{"city":"Varanasi","state":"Uttar Pradesh","latitude":25.3176,"longitude":82.9739,"temp":25.0,"humidity":78,"rain":0.0,"pressure":999.1,"uv_index":8.4,"wind_gusts":33.8,"aqi":138,"pm10":62.4,"pm2_5":50.2,"no2":14.4,"co":792.0,"o3":105.0,"so2":16.2,"mosquito_risk":7,"arthritis_risk":5,"migraine_risk":7,"frizz_risk":1,"updated_at":"2026-05-05T23:42:39.731556+05:30"},{"city":"Prayagraj","state":"Uttar Pradesh","latitude":25.4358,"longitude":81.8463,"temp":24.9,"humidity":81,"rain":0.0,"pressure":997.5,"uv_index":8.2,"wind_gusts":29.9,"aqi":119,"pm10":67.3,"pm2_5":54.9,"no2":22.0,"co":672.0,"o3":69.0,"so2":14.9,"mosquito_risk":3,"arthritis_risk":5,"migraine_risk":7,"frizz_risk":1,"updated_at":"2026-05-05T23:42:39.731566+05:30"},{"city":"Gorakhpur","state":"Uttar Pradesh","latitude":26.7606,"longitude":83.3732,"temp":23.3,"humidity":82,"rain":0.0,"pressure":998.9,"uv_index":7.8,"wind_gusts":22.7,"aqi":86,"pm10":38.9,"pm2_5":35.2,"no2":19.4,"co":658.0,"o3":70.0,"so2":8.8,"mosquito_risk":3,"arthritis_risk":5,"migraine_risk":7,"frizz_risk":1,"updated_at":"2026-05-05T23:42:39.731573+05:30"},{"city":"Bareilly","state":"Uttar Pradesh","latitude":28.367,"longitude":79.4304,"temp":21.1,"humidity":78,"rain":0.0,"pressure":988.5,"uv_index":7.5,"wind_gusts":37.8,"aqi":117,"pm10":85.7,"pm2_5":68.7,"no2":35.6,"co":412.0,"o3":60.0,"so2":16.0,"mosquito_risk":3,"arthritis_risk":5,"migraine_risk":7,"frizz_risk":1,"updated_at":"2026-05-05T23:42:39.731579+05:30"},{"city":"Aligarh","state":"Uttar Pradesh","latitude":27.8974,"longitude":78.088,"temp":22.5,"humidity":79,"rain":0.0,"pressure":987.6,"uv_index":7.15,"wind_gusts":41.8,"aqi":168,"pm10":174.6,"pm2_5":55.3,"no2":13.6,"co":522.0,"o3":88.0,"so2":13.2,"mosquito_risk":3,"arthritis_risk":5,"migraine_risk":7,"frizz_risk":1,"updated_at":"2026-05-05T23:42:39.731586+05:30"},{"city":"Moradabad","state":"Uttar Pradesh","latitude":28.8386,"longitude":78.7733,"temp":20.2,"humidity":87,"rain":0.0,"pressure":985.3,"uv_index":6.4,"wind_gusts":46.4,"aqi":115,"pm10":67.3,"pm2_5":49.8,"no2":18.4,"co":581.0,"o3":93.0,"so2":15.7,"mosquito_risk":3,"arthritis_risk":5,"migraine_risk":7,"frizz_risk":1,"updated_at":"2026-05-05T23:42:39.731593+05:30"},{"city":"Saharanpur","state":"Uttar Pradesh","latitude":29.9637,"longitude":77.546,"temp":20.0,"humidity":83,"rain":0.0,"pressure":977.4,"uv_index":6.85,"wind_gusts":45.7,"aqi":89,"pm10":66.4,"pm2_5":41.4,"no2":20.6,"co":888.0,"o3":79.0,"so2":10.7,"mosquito_risk":3,"arthritis_risk":5,"migraine_risk":7,"frizz_risk":1,"updated_at":"2026-05-05T23:42:39.731599+05:30"},{"city":"Jhansi","state":"Uttar Pradesh","latitude":25.4484,"longitude":78.5685,"temp":24.9,"humidity":65,"rain":0.0,"pressure":979.6,"uv_index":7.9,"wind_gusts":34.6,"aqi":117,"pm10":122.5,"pm2_5":39.9,"no2":4.4,"co":368.0,"o3":98.0,"so2":5.0,"mosquito_risk":3,"arthritis_risk":5,"migraine_risk":7,"frizz_risk":1,"updated_at":"2026-05-05T23:42:43.015486+05:30"},{"city":"Surat","state":"Gujarat","latitude":21.1702,"longitude":72.8311,"temp":28.3,"humidity":82,"rain":0.0,"pressure":1007.1,"uv_index":7.7,"wind_gusts":41.4,"aqi":81,"pm10":42.8,"pm2_5":24.0,"no2":22.8,"co":291.0,"o3":52.0,"so2":36.6,"mosquito_risk":7,"arthritis_risk":5,"migraine_risk":4,"frizz_risk":1,"updated_at":"2026-05-05T23:42:43.015518+05:30"},{"city":"Vadodara","state":"Gujarat","latitude":22.3072,"longitude":73.1812,"temp":28.7,"humidity":72,"rain":0.0,"pressure":1004.2,"uv_index":8.05,"wind_gusts":36.7,"aqi":75,"pm10":39.0,"pm2_5":25.2,"no2":25.2,"co":299.0,"o3":42.0,"so2":31.0,"mosquito_risk":7,"arthritis_risk":5,"migraine_risk":4,"frizz_risk":1,"updated_at":"2026-05-05T23:42:43.015528+05:30"},{"city":"Rajkot","state":"Gujarat","latitude":22.3039,"longitude":70.8022,"temp":27.5,"humidity":77,"rain":0.0,"pressure":994.1,"uv_index":7.7,"wind_gusts":43.6,"aqi":67,"pm10":46.2,"pm2_5":17.9,"no2":6.6,"co":182.0,"o3":65.0,"so2":6.8,"mosquito_risk":7,"arthritis_risk":5,"migraine_risk":7,"frizz_risk":1,"updated_at":"2026-05-05T23:42:43.015536+05:30"},{"city":"Thane","state":"Maharashtra","latitude":19.2183,"longitude":72.9781,"temp":28.1,"humidity":76,"rain":0.0,"pressure":1008.5,"uv_index":7.85,"wind_gusts":38.2,"aqi":73,"pm10":70.1,"pm2_5":25.0,"no2":10.2,"co":268.0,"o3":65.0,"so2":26.2,"mosquito_risk":7,"arthritis_risk":0,"migraine_risk":4,"frizz_risk":1,"updated_at":"2026-05-05T23:42:43.015544+05:30"},{"city":"Nagpur","state":"Maharashtra","latitude":21.1458,"longitude":79.0882,"temp":32.1,"humidity":26,"rain":0.0,"pressure":973.1,"uv_index":8.9,"wind_gusts":33.1,"aqi":85,"pm10":42.5,"pm2_5":27.0,"no2":13.4,"co":311.0,"o3":83.0,"so2":11.1,"mosquito_risk":0,"arthritis_risk":5,"migraine_risk":7,"frizz_risk":0,"updated_at":"2026-05-05T23:42:43.015552+05:30"},{"city":"Nashik","state":"Maharashtra","latitude":19.9975,"longitude":73.7898,"temp":24.7,"humidity":83,"rain":0.0,"pressure":945.9,"uv_index":8.2,"wind_gusts":40.0,"aqi":63,"pm10":42.4,"pm2_5":18.7,"no2":8.7,"co":224.0,"o3":54.0,"so2":1.4,"mosquito_risk":3,"arthritis_risk":5,"migraine_risk":7,"frizz_risk":1,"updated_at":"2026-05-05T23:42:43.015560+05:30"},{"city":"Aurangabad","state":"Maharashtra","latitude":19.8762,"longitude":75.3433,"temp":30.0,"humidity":30,"rain":0.0,"pressure":944.5,"uv_index":9.0,"wind_gusts":38.2,"aqi":63,"pm10":38.4,"pm2_5":19.6,"no2":7.1,"co":183.0,"o3":80.0,"so2":4.2,"mosquito_risk":4,"arthritis_risk":5,"migraine_risk":7,"frizz_risk":0,"updated_at":"2026-05-05T23:42:43.015567+05:30"},{"city":"Solapur","state":"Maharashtra","latitude":17.6599,"longitude":75.9064,"temp":31.0,"humidity":32,"rain":0.0,"pressure":956.8,"uv_index":9.1,"wind_gusts":35.6,"aqi":58,"pm10":41.6,"pm2_5":22.6,"no2":16.4,"co":199.0,"o3":57.0,"so2":4.7,"mosquito_risk":0,"arthritis_risk":5,"migraine_risk":7,"frizz_risk":0,"updated_at":"2026-05-05T23:42:43.015576+05:30"},{"city":"Kolhapur","state":"Maharashtra","latitude":16.705,"longitude":74.2433,"temp":24.1,"humidity":85,"rain":0.0,"pressure":948.0,"uv_index":8.95,"wind_gusts":46.8,"aqi":62,"pm10":33.1,"pm2_5":17.9,"no2":10.3,"co":187.0,"o3":49.0,"so2":3.2,"mosquito_risk":3,"arthritis_risk":5,"migraine_risk":7,"frizz_risk":1,"updated_at":"2026-05-05T23:42:43.015583+05:30"},{"city":"Goa","state":"Goa","latitude":15.2993,"longitude":74.124,"temp":28.7,"humidity":79,"rain":0.0,"pressure":998.1,"uv_index":8.9,"wind_gusts":35.6,"aqi":67,"pm10":45.1,"pm2_5":21.1,"no2":6.0,"co":188.0,"o3":53.0,"so2":1.8,"mosquito_risk":7,"arthritis_risk":5,"migraine_risk":7,"frizz_risk":1,"updated_at":"2026-05-05T23:42:43.015591+05:30"},{"city":"Jodhpur","state":"Rajasthan","latitude":26.2389,"longitude":73.0243,"temp":29.9,"humidity":29,"rain":0.0,"pressure":984.1,"uv_index":8.3,"wind_gusts":47.5,"aqi":110,"pm10":239.3,"pm2_5":49.2,"no2":25.0,"co":253.0,"o3":67.0,"so2":7.5,"mosquito_risk":4,"arthritis_risk":5,"migraine_risk":7,"frizz_risk":0,"updated_at":"2026-05-05T23:42:43.015598+05:30"},{"city":"Udaipur","state":"Rajasthan","latitude":24.5854,"longitude":73.7125,"temp":25.0,"humidity":54,"rain":0.0,"pressure":946.8,"uv_index":8.75,"wind_gusts":40.7,"aqi":81,"pm10":119.7,"pm2_5":35.7,"no2":5.9,"co":239.0,"o3":80.0,"so2":4.7,"mosquito_risk":4,"arthritis_risk":5,"migraine_risk":7,"frizz_risk":0,"updated_at":"2026-05-05T23:42:43.015605+05:30"},{"city":"Kota","state":"Rajasthan","latitude":25.2138,"longitude":75.8648,"temp":26.7,"humidity":54,"rain":0.0,"pressure":979.8,"uv_index":8.3,"wind_gusts":28.8,"aqi":85,"pm10":93.6,"pm2_5":38.1,"no2":12.1,"co":483.0,"o3":69.0,"so2":5.9,"mosquito_risk":4,"arthritis_risk":5,"migraine_risk":7,"frizz_risk":1,"updated_at":"2026-05-05T23:42:43.015612+05:30"},{"city":"Bikaner","state":"Rajasthan","latitude":28.0229,"longitude":73.3119,"temp":28.5,"humidity":36,"rain":0.0,"pressure":983.9,"uv_index":8.2,"wind_gusts":30.6,"aqi":119,"pm10":71.2,"pm2_5":30.9,"no2":2.4,"co":328.0,"o3":122.0,"so2":5.1,"mosquito_risk":4,"arthritis_risk":5,"migraine_risk":7,"frizz_risk":0,"updated_at":"2026-05-05T23:42:43.015619+05:30"},{"city":"Ajmer","state":"Rajasthan","latitude":26.4499,"longitude":74.6399,"temp":25.7,"humidity":38,"rain":0.0,"pressure":956.2,"uv_index":8.2,"wind_gusts":37.4,"aqi":72,"pm10":79.6,"pm2_5":34.0,"no2":15.4,"co":284.0,"o3":68.0,"so2":6.3,"mosquito_risk":4,"arthritis_risk":5,"migraine_risk":7,"frizz_risk":0,"updated_at":"2026-05-05T23:42:43.015626+05:30"},{"city":"Gwalior","state":"Madhya Pradesh","latitude":26.2183,"longitude":78.1828,"temp":23.4,"humidity":81,"rain":0.0,"pressure":984.9,"uv_index":8.1,"wind_gusts":42.8,"aqi":111,"pm10":231.4,"pm2_5":56.5,"no2":8.6,"co":430.0,"o3":89.0,"so2":6.7,"mosquito_risk":3,"arthritis_risk":5,"migraine_risk":7,"frizz_risk":1,"updated_at":"2026-05-05T23:42:43.015633+05:30"},{"city":"Indore","state":"Madhya Pradesh","latitude":22.7196,"longitude":75.8577,"temp":28.1,"humidity":40,"rain":0.0,"pressure":949.0,"uv_index":8.6,"wind_gusts":44.3,"aqi":74,"pm10":42.8,"pm2_5":21.1,"no2":5.7,"co":281.0,"o3":97.0,"so2":4.8,"mosquito_risk":4,"arthritis_risk":5,"migraine_risk":7,"frizz_risk":0,"updated_at":"2026-05-05T23:42:43.015640+05:30"},{"city":"Bhopal","state":"Madhya Pradesh","latitude":23.2599,"longitude":77.4126,"temp":27.9,"humidity":42,"rain":0.0,"pressure":954.3,"uv_index":8.65,"wind_gusts":37.8,"aqi":73,"pm10":38.3,"pm2_5":21.9,"no2":4.4,"co":269.0,"o3":99.0,"so2":5.0,"mosquito_risk":4,"arthritis_risk":5,"migraine_risk":7,"frizz_risk":0,"updated_at":"2026-05-05T23:42:43.015647+05:30"},{"city":"Jabalpur","state":"Madhya Pradesh","latitude":23.1815,"longitude":79.9864,"temp":26.8,"humidity":54,"rain":0.0,"pressure":962.4,"uv_index":8.3,"wind_gusts":33.5,"aqi":103,"pm10":46.6,"pm2_5":34.5,"no2":5.7,"co":266.0,"o3":134.0,"so2":9.0,"mosquito_risk":4,"arthritis_risk":5,"migraine_risk":7,"frizz_risk":1,"updated_at":"2026-05-05T23:42:43.015654+05:30"},{"city":"Ujjain","state":"Madhya Pradesh","latitude":23.1765,"longitude":75.7885,"temp":27.3,"humidity":43,"rain":0.0,"pressure":954.2,"uv_index":8.55,"wind_gusts":46.1,"aqi":73,"pm10":52.9,"pm2_5":24.6,"no2":4.2,"co":247.0,"o3":95.0,"so2":5.0,"mosquito_risk":4,"arthritis_risk":5,"migraine_risk":7,"frizz_risk":0,"updated_at":"2026-05-05T23:42:43.015662+05:30"},{"city":"Visakhapatnam","state":"Andhra Pradesh","latitude":17.6868,"longitude":83.2185,"temp":26.3,"humidity":89,"rain":0.0,"pressure":1005.2,"uv_index":9.2,"wind_gusts":37.4,"aqi":81,"pm10":42.7,"pm2_5":33.1,"no2":36.2,"co":379.0,"o3":34.0,"so2":7.1,"mosquito_risk":7,"arthritis_risk":5,"migraine_risk":4,"frizz_risk":1,"updated_at":"2026-05-05T23:42:43.015669+05:30"},{"city":"Vijayawada","state":"Andhra Pradesh","latitude":16.5062,"longitude":80.648,"temp":29.1,"humidity":81,"rain":0.0,"pressure":1003.4,"uv_index":9.2,"wind_gusts":35.3,"aqi":76,"pm10":24.6,"pm2_5":21.1,"no2":8.9,"co":213.0,"o3":59.0,"so2":5.5,"mosquito_risk":7,"arthritis_risk":5,"migraine_risk":4,"frizz_risk":1,"updated_at":"2026-05-05T23:42:43.015677+05:30"},{"city":"Guntur","state":"Andhra Pradesh","latitude":16.3067,"longitude":80.4365,"temp":29.1,"humidity":82,"rain":0.0,"pressure":1004.5,"uv_index":9.2,"wind_gusts":37.8,"aqi":81,"pm10":27.2,"pm2_5":23.1,"no2":7.9,"co":205.0,"o3":68.0,"so2":5.8,"mosquito_risk":7,"arthritis_risk":5,"migraine_risk":4,"frizz_risk":1,"updated_at":"2026-05-05T23:42:43.015684+05:30"},{"city":"Nellore","state":"Andhra Pradesh","latitude":14.4426,"longitude":79.9865,"temp":28.3,"humidity":89,"rain":0.0,"pressure":1006.3,"uv_index":9.0,"wind_gusts":39.6,"aqi":79,"pm10":20.2,"pm2_5":14.8,"no2":6.7,"co":196.0,"o3":68.0,"so2":6.7,"mosquito_risk":7,"arthritis_risk":5,"migraine_risk":4,"frizz_risk":1,"updated_at":"2026-05-05T23:42:43.015692+05:30"},{"city":"Kurnool","state":"Andhra Pradesh","latitude":15.8281,"longitude":78.0373,"temp":30.0,"humidity":51,"rain":0.0,"pressure":976.1,"uv_index":9.2,"wind_gusts":45.0,"aqi":93,"pm10":41.0,"pm2_5":33.1,"no2":4.3,"co":240.0,"o3":111.0,"so2":5.9,"mosquito_risk":4,"arthritis_risk":5,"migraine_risk":7,"frizz_risk":1,"updated_at":"2026-05-05T23:42:43.015700+05:30"},{"city":"Kakinada","state":"Andhra Pradesh","latitude":16.9891,"longitude":82.2475,"temp":27.4,"humidity":93,"rain":0.0,"pressure":1008.8,"uv_index":9.15,"wind_gusts":29.9,"aqi":62,"pm10":26.2,"pm2_5":17.3,"no2":3.6,"co":269.0,"o3":66.0,"so2":1.1,"mosquito_risk":7,"arthritis_risk":0,"migraine_risk":4,"frizz_risk":1,"updated_at":"2026-05-05T23:42:43.015707+05:30"},{"city":"Tirupati","state":"Andhra Pradesh","latitude":13.6288,"longitude":79.4192,"temp":28.4,"humidity":75,"rain":0.0,"pressure":991.6,"uv_index":8.8,"wind_gusts":29.9,"aqi":120,"pm10":47.6,"pm2_5":40.0,"no2":24.5,"co":276.0,"o3":56.0,"so2":13.1,"mosquito_risk":7,"arthritis_risk":5,"migraine_risk":7,"frizz_risk":1,"updated_at":"2026-05-05T23:42:43.015715+05:30"},{"city":"Warangal","state":"Telangana","latitude":17.9689,"longitude":79.5941,"temp":29.0,"humidity":60,"rain":0.0,"pressure":978.7,"uv_index":9.15,"wind_gusts":47.9,"aqi":83,"pm10":39.3,"pm2_5":33.9,"no2":7.4,"co":281.0,"o3":100.0,"so2":11.5,"mosquito_risk":4,"arthritis_risk":5,"migraine_risk":7,"frizz_risk":1,"updated_at":"2026-05-05T23:42:43.015721+05:30"},{"city":"Nizamabad","state":"Telangana","latitude":18.6725,"longitude":78.0941,"temp":31.8,"humidity":27,"rain":0.0,"pressure":964.0,"uv_index":9.1,"wind_gusts":32.8,"aqi":88,"pm10":82.0,"pm2_5":45.1,"no2":26.8,"co":365.0,"o3":71.0,"so2":9.1,"mosquito_risk":0,"arthritis_risk":5,"migraine_risk":7,"frizz_risk":0,"updated_at":"2026-05-05T23:42:43.015728+05:30"},{"city":"Mysore","state":"Karnataka","latitude":12.2958,"longitude":76.6396,"temp":23.7,"humidity":76,"rain":0.0,"pressure":928.8,"uv_index":9.35,"wind_gusts":29.5,"aqi":72,"pm10":49.5,"pm2_5":32.0,"no2":25.0,"co":254.0,"o3":70.0,"so2":6.0,"mosquito_risk":3,"arthritis_risk":5,"migraine_risk":7,"frizz_risk":1,"updated_at":"2026-05-05T23:42:43.015734+05:30"},{"city":"Mangalore","state":"Karnataka","latitude":12.9141,"longitude":74.856,"temp":29.1,"humidity":77,"rain":0.0,"pressure":1006.9,"uv_index":8.85,"wind_gusts":48.2,"aqi":63,"pm10":33.6,"pm2_5":16.4,"no2":3.5,"co":166.0,"o3":57.0,"so2":1.5,"mosquito_risk":7,"arthritis_risk":5,"migraine_risk":4,"frizz_risk":1,"updated_at":"2026-05-05T23:42:43.015741+05:30"},{"city":"Hubli-Dharwad","state":"Karnataka","latitude":15.3647,"longitude":75.124,"temp":24.6,"humidity":83,"rain":0.0,"pressure":941.0,"uv_index":9.2,"wind_gusts":52.9,"aqi":59,"pm10":24.3,"pm2_5":13.9,"no2":8.2,"co":192.0,"o3":51.0,"so2":2.5,"mosquito_risk":3,"arthritis_risk":5,"migraine_risk":7,"frizz_risk":1,"updated_at":"2026-05-05T23:42:43.015748+05:30"},{"city":"Belgaum","state":"Karnataka","latitude":15.8497,"longitude":74.4977,"temp":22.5,"humidity":94,"rain":0.0,"pressure":925.7,"uv_index":9.2,"wind_gusts":55.1,"aqi":60,"pm10":33.8,"pm2_5":18.4,"no2":12.4,"co":189.0,"o3":39.0,"so2":2.6,"mosquito_risk":3,"arthritis_risk":5,"migraine_risk":7,"frizz_risk":1,"updated_at":"2026-05-05T23:42:46.294616+05:30"},{"city":"Coimbatore","state":"Tamil Nadu","latitude":11.0168,"longitude":76.9558,"temp":24.0,"humidity":96,"rain":0.0,"pressure":961.9,"uv_index":9.0,"wind_gusts":39.2,"aqi":64,"pm10":31.3,"pm2_5":21.0,"no2":15.9,"co":277.0,"o3":69.0,"so2":4.8,"mosquito_risk":3,"arthritis_risk":5,"migraine_risk":7,"frizz_risk":1,"updated_at":"2026-05-05T23:42:46.294651+05:30"},{"city":"Madurai","state":"Tamil Nadu","latitude":9.9252,"longitude":78.1198,"temp":26.5,"humidity":87,"rain":0.0,"pressure":993.1,"uv_index":5.7,"wind_gusts":50.8,"aqi":82,"pm10":47.6,"pm2_5":32.5,"no2":16.8,"co":354.0,"o3":81.0,"so2":6.4,"mosquito_risk":7,"arthritis_risk":5,"migraine_risk":3,"frizz_risk":1,"updated_at":"2026-05-05T23:42:46.294665+05:30"},{"city":"Trichy","state":"Tamil Nadu","latitude":10.7905,"longitude":78.7047,"temp":27.1,"humidity":79,"rain":0.0,"pressure":1000.1,"uv_index":8.75,"wind_gusts":34.6,"aqi":97,"pm10":43.4,"pm2_5":34.9,"no2":16.4,"co":313.0,"o3":71.0,"so2":4.8,"mosquito_risk":7,"arthritis_risk":5,"migraine_risk":4,"frizz_risk":1,"updated_at":"2026-05-05T23:42:46.294676+05:30"},{"city":"Salem","state":"Tamil Nadu","latitude":11.6643,"longitude":78.146,"temp":26.5,"humidity":72,"rain":0.0,"pressure":977.9,"uv_index":9.2,"wind_gusts":39.6,"aqi":100,"pm10":76.1,"pm2_5":49.0,"no2":22.3,"co":343.0,"o3":79.0,"so2":10.7,"mosquito_risk":7,"arthritis_risk":5,"migraine_risk":7,"frizz_risk":1,"updated_at":"2026-05-05T23:42:46.294685+05:30"},{"city":"Tirunelveli","state":"Tamil Nadu","latitude":8.7139,"longitude":77.7567,"temp":28.5,"humidity":70,"rain":0.0,"pressure":1003.3,"uv_index":8.75,"wind_gusts":46.4,"aqi":74,"pm10":36.6,"pm2_5":24.8,"no2":12.1,"co":413.0,"o3":70.0,"so2":7.2,"mosquito_risk":7,"arthritis_risk":5,"migraine_risk":4,"frizz_risk":1,"updated_at":"2026-05-05T23:42:46.294694+05:30"},{"city":"Vellore","state":"Tamil Nadu","latitude":12.9165,"longitude":79.1325,"temp":27.3,"humidity":79,"rain":0.0,"pressure":984.9,"uv_index":9.05,"wind_gusts":37.8,"aqi":120,"pm10":48.7,"pm2_5":42.1,"no2":19.5,"co":274.0,"o3":51.0,"so2":7.5,"mosquito_risk":7,"arthritis_risk":5,"migraine_risk":7,"frizz_risk":1,"updated_at":"2026-05-05T23:42:46.294703+05:30"},{"city":"Erode","state":"Tamil Nadu","latitude":11.341,"longitude":77.7172,"temp":27.7,"humidity":70,"rain":0.0,"pressure":989.5,"uv_index":9.0,"wind_gusts":37.8,"aqi":91,"pm10":36.4,"pm2_5":24.9,"no2":20.0,"co":364.0,"o3":67.0,"so2":3.8,"mosquito_risk":7,"arthritis_risk":5,"migraine_risk":7,"frizz_risk":1,"updated_at":"2026-05-05T23:42:46.294711+05:30"},{"city":"Kochi","state":"Kerala","latitude":9.9312,"longitude":76.2673,"temp":26.2,"humidity":94,"rain":0.0,"pressure":1009.1,"uv_index":2.85,"wind_gusts":27.0,"aqi":59,"pm10":50.2,"pm2_5":42.3,"no2":44.0,"co":204.0,"o3":9.0,"so2":8.4,"mosquito_risk":7,"arthritis_risk":0,"migraine_risk":0,"frizz_risk":1,"updated_at":"2026-05-05T23:42:46.294720+05:30"},{"city":"Thiruvananthapuram","state":"Kerala","latitude":8.5241,"longitude":76.9366,"temp":25.5,"humidity":93,"rain":0.0,"pressure":1008.2,"uv_index":8.4,"wind_gusts":29.9,"aqi":59,"pm10":25.9,"pm2_5":12.3,"no2":4.6,"co":412.0,"o3":87.0,"so2":2.4,"mosquito_risk":7,"arthritis_risk":0,"migraine_risk":4,"frizz_risk":1,"updated_at":"2026-05-05T23:42:46.294728+05:30"},{"city":"Kozhikode","state":"Kerala","latitude":11.2588,"longitude":75.7804,"temp":26.7,"humidity":92,"rain":0.0,"pressure":1008.1,"uv_index":8.7,"wind_gusts":35.6,"aqi":57,"pm10":41.0,"pm2_5":19.4,"no2":4.4,"co":697.0,"o3":66.0,"so2":2.5,"mosquito_risk":7,"arthritis_risk":0,"migraine_risk":4,"frizz_risk":1,"updated_at":"2026-05-05T23:42:46.294737+05:30"},{"city":"Thrissur","state":"Kerala","latitude":10.5276,"longitude":76.2144,"temp":25.0,"humidity":100,"rain":0.0,"pressure":1007.5,"uv_index":2.75,"wind_gusts":27.4,"aqi":59,"pm10":61.5,"pm2_5":50.6,"no2":39.9,"co":490.0,"o3":15.0,"so2":6.4,"mosquito_risk":7,"arthritis_risk":5,"migraine_risk":0,"frizz_risk":1,"updated_at":"2026-05-05T23:42:46.294747+05:30"},{"city":"Kannur","state":"Kerala","latitude":11.8745,"longitude":75.3704,"temp":28.9,"humidity":77,"rain":0.0,"pressure":1007.3,"uv_index":8.9,"wind_gusts":43.9,"aqi":64,"pm10":38.6,"pm2_5":18.9,"no2":8.4,"co":241.0,"o3":45.0,"so2":1.9,"mosquito_risk":7,"arthritis_risk":5,"migraine_risk":4,"frizz_risk":1,"updated_at":"2026-05-05T23:42:46.294755+05:30"},{"city":"Patna","state":"Bihar","latitude":25.5941,"longitude":85.1376,"temp":25.0,"humidity":78,"rain":0.0,"pressure":1002.1,"uv_index":8.7,"wind_gusts":29.2,"aqi":141,"pm10":105.0,"pm2_5":89.2,"no2":43.8,"co":792.0,"o3":70.0,"so2":25.0,"mosquito_risk":7,"arthritis_risk":5,"migraine_risk":4,"frizz_risk":1,"updated_at":"2026-05-05T23:42:46.294763+05:30"},{"city":"Gaya","state":"Bihar","latitude":24.7914,"longitude":85.0002,"temp":25.5,"humidity":73,"rain":0.0,"pressure":995.8,"uv_index":8.75,"wind_gusts":31.7,"aqi":125,"pm10":50.1,"pm2_5":41.3,"no2":11.1,"co":438.0,"o3":121.0,"so2":12.0,"mosquito_risk":7,"arthritis_risk":5,"migraine_risk":7,"frizz_risk":1,"updated_at":"2026-05-05T23:42:46.294772+05:30"},{"city":"Muzaffarpur","state":"Bihar","latitude":26.1209,"longitude":85.3647,"temp":24.0,"humidity":83,"rain":0.0,"pressure":1002.0,"uv_index":8.5,"wind_gusts":30.6,"aqi":141,"pm10":112.2,"pm2_5":97.1,"no2":48.3,"co":850.0,"o3":64.0,"so2":25.8,"mosquito_risk":3,"arthritis_risk":5,"migraine_risk":4,"frizz_risk":1,"updated_at":"2026-05-05T23:42:46.294780+05:30"},{"city":"Bhagalpur","state":"Bihar","latitude":25.2425,"longitude":87.0117,"temp":25.9,"humidity":76,"rain":0.0,"pressure":1003.0,"uv_index":8.6,"wind_gusts":25.9,"aqi":119,"pm10":56.8,"pm2_5":49.8,"no2":17.0,"co":383.0,"o3":94.0,"so2":12.3,"mosquito_risk":7,"arthritis_risk":5,"migraine_risk":4,"frizz_risk":1,"updated_at":"2026-05-05T23:42:46.294788+05:30"},{"city":"Ranchi","state":"Jharkhand","latitude":23.3441,"longitude":85.3096,"temp":20.6,"humidity":81,"rain":0.0,"pressure":940.4,"uv_index":9.2,"wind_gusts":31.7,"aqi":114,"pm10":46.1,"pm2_5":33.8,"no2":5.1,"co":347.0,"o3":137.0,"so2":8.6,"mosquito_risk":3,"arthritis_risk":5,"migraine_risk":7,"frizz_risk":1,"updated_at":"2026-05-05T23:42:46.294796+05:30"},{"city":"Jamshedpur","state":"Jharkhand","latitude":22.8046,"longitude":86.2029,"temp":24.5,"humidity":79,"rain":0.0,"pressure":993.3,"uv_index":8.95,"wind_gusts":29.5,"aqi":99,"pm10":39.7,"pm2_5":33.6,"no2":18.1,"co":330.0,"o3":98.0,"so2":33.9,"mosquito_risk":3,"arthritis_risk":5,"migraine_risk":7,"frizz_risk":1,"updated_at":"2026-05-05T23:42:46.294805+05:30"},{"city":"Dhanbad","state":"Jharkhand","latitude":23.7957,"longitude":86.4304,"temp":24.5,"humidity":87,"rain":0.0,"pressure":982.1,"uv_index":8.8,"wind_gusts":28.8,"aqi":151,"pm10":78.9,"pm2_5":70.5,"no2":48.7,"co":1421.0,"o3":71.0,"so2":61.8,"mosquito_risk":3,"arthritis_risk":5,"migraine_risk":7,"frizz_risk":1,"updated_at":"2026-05-05T23:42:46.294812+05:30"},{"city":"Bokaro","state":"Jharkhand","latitude":23.6693,"longitude":86.1511,"temp":25.0,"humidity":78,"rain":0.0,"pressure":986.0,"uv_index":9.0,"wind_gusts":28.4,"aqi":154,"pm10":74.7,"pm2_5":59.8,"no2":31.0,"co":313.0,"o3":106.0,"so2":36.5,"mosquito_risk":7,"arthritis_risk":5,"migraine_risk":7,"frizz_risk":1,"updated_at":"2026-05-05T23:42:46.294821+05:30"},{"city":"Bhubaneswar","state":"Odisha","latitude":20.2961,"longitude":85.8245,"temp":24.8,"humidity":92,"rain":0.0,"pressure":1004.7,"uv_index":9.1,"wind_gusts":33.8,"aqi":41,"pm10":16.2,"pm2_5":12.9,"no2":7.9,"co":237.0,"o3":45.0,"so2":3.1,"mosquito_risk":3,"arthritis_risk":5,"migraine_risk":4,"frizz_risk":1,"updated_at":"2026-05-05T23:42:46.294830+05:30"},{"city":"Cuttack","state":"Odisha","latitude":20.4625,"longitude":85.8828,"temp":24.5,"humidity":94,"rain":0.0,"pressure":1007.0,"uv_index":9.15,"wind_gusts":29.5,"aqi":41,"pm10":16.2,"pm2_5":12.9,"no2":7.9,"co":231.0,"o3":45.0,"so2":3.1,"mosquito_risk":3,"arthritis_risk":5,"migraine_risk":4,"frizz_risk":1,"updated_at":"2026-05-05T23:42:46.294838+05:30"},{"city":"Rourkela","state":"Odisha","latitude":22.2604,"longitude":84.8536,"temp":22.5,"humidity":94,"rain":0.6,"pressure":988.2,"uv_index":8.95,"wind_gusts":42.5,"aqi":116,"pm10":54.7,"pm2_5":40.6,"no2":12.4,"co":375.0,"o3":109.0,"so2":44.2,"mosquito_risk":6,"arthritis_risk":5,"migraine_risk":7,"frizz_risk":1,"updated_at":"2026-05-05T23:42:46.294845+05:30"},{"city":"Raipur","state":"Chhattisgarh","latitude":21.2514,"longitude":81.6296,"temp":27.6,"humidity":59,"rain":0.0,"pressure":975.5,"uv_index":8.95,"wind_gusts":50.4,"aqi":107,"pm10":53.4,"pm2_5":40.7,"no2":19.9,"co":273.0,"o3":82.0,"so2":6.2,"mosquito_risk":4,"arthritis_risk":5,"migraine_risk":7,"frizz_risk":1,"updated_at":"2026-05-05T23:42:46.294851+05:30"},{"city":"Bhilai","state":"Chhattisgarh","latitude":21.1938,"longitude":81.3509,"temp":27.5,"humidity":58,"rain":0.0,"pressure":975.9,"uv_index":8.95,"wind_gusts":43.9,"aqi":113,"pm10":51.9,"pm2_5":40.4,"no2":35.9,"co":283.0,"o3":56.0,"so2":8.3,"mosquito_risk":4,"arthritis_risk":5,"migraine_risk":7,"frizz_risk":1,"updated_at":"2026-05-05T23:42:46.294858+05:30"},{"city":"Guwahati","state":"Assam","latitude":26.1158,"longitude":91.7086,"temp":23.1,"humidity":84,"rain":0.0,"pressure":1003.4,"uv_index":8.65,"wind_gusts":28.1,"aqi":71,"pm10":33.2,"pm2_5":28.1,"no2":11.8,"co":298.0,"o3":50.0,"so2":1.8,"mosquito_risk":3,"arthritis_risk":5,"migraine_risk":4,"frizz_risk":1,"updated_at":"2026-05-05T23:42:46.294865+05:30"},{"city":"Agartala","state":"Tripura","latitude":23.8315,"longitude":91.2868,"temp":23.9,"humidity":96,"rain":0.0,"pressure":1008.7,"uv_index":8.75,"wind_gusts":23.0,"aqi":112,"pm10":32.8,"pm2_5":28.9,"no2":21.3,"co":401.0,"o3":36.0,"so2":3.4,"mosquito_risk":3,"arthritis_risk":0,"migraine_risk":4,"frizz_risk":1,"updated_at":"2026-05-05T23:42:46.294871+05:30"},{"city":"Shillong","state":"Meghalaya","latitude":25.5788,"longitude":91.8933,"temp":15.1,"humidity":98,"rain":0.0,"pressure":857.4,"uv_index":8.6,"wind_gusts":29.9,"aqi":64,"pm10":30.5,"pm2_5":25.8,"no2":11.8,"co":261.0,"o3":66.0,"so2":1.2,"mosquito_risk":3,"arthritis_risk":10,"migraine_risk":7,"frizz_risk":0,"updated_at":"2026-05-05T23:42:46.294878+05:30"},{"city":"Imphal","state":"Manipur","latitude":24.817,"longitude":93.9368,"temp":19.9,"humidity":95,"rain":0.0,"pressure":924.3,"uv_index":9.2,"wind_gusts":25.9,"aqi":91,"pm10":44.7,"pm2_5":36.4,"no2":19.5,"co":282.0,"o3":36.0,"so2":4.2,"mosquito_risk":3,"arthritis_risk":10,"migraine_risk":7,"frizz_risk":1,"updated_at":"2026-05-05T23:42:46.294886+05:30"},{"city":"Aizawl","state":"Mizoram","latitude":23.7271,"longitude":92.7176,"temp":18.0,"humidity":90,"rain":0.0,"pressure":893.7,"uv_index":9.05,"wind_gusts":33.8,"aqi":68,"pm10":24.8,"pm2_5":19.6,"no2":12.7,"co":240.0,"o3":33.0,"so2":0.7,"mosquito_risk":3,"arthritis_risk":10,"migraine_risk":7,"frizz_risk":1,"updated_at":"2026-05-05T23:42:46.294893+05:30"},{"city":"Kohima","state":"Nagaland","latitude":25.6701,"longitude":94.1077,"temp":15.2,"humidity":87,"rain":0.0,"pressure":855.3,"uv_index":9.15,"wind_gusts":30.6,"aqi":64,"pm10":42.1,"pm2_5":25.8,"no2":12.3,"co":379.0,"o3":63.0,"so2":2.2,"mosquito_risk":3,"arthritis_risk":10,"migraine_risk":7,"frizz_risk":0,"updated_at":"2026-05-05T23:42:46.294899+05:30"},{"city":"Gangtok","state":"Sikkim","latitude":27.3314,"longitude":88.6138,"temp":11.7,"humidity":99,"rain":0.0,"pressure":836.8,"uv_index":9.0,"wind_gusts":33.5,"aqi":51,"pm10":22.0,"pm2_5":19.0,"no2":22.5,"co":403.0,"o3":60.0,"so2":1.3,"mosquito_risk":3,"arthritis_risk":10,"migraine_risk":7,"frizz_risk":0,"updated_at":"2026-05-05T23:42:46.294905+05:30"},{"city":"Siliguri","state":"West Bengal","latitude":26.7271,"longitude":88.3953,"temp":21.9,"humidity":85,"rain":0.0,"pressure":995.8,"uv_index":8.6,"wind_gusts":29.5,"aqi":74,"pm10":43.2,"pm2_5":35.9,"no2":24.0,"co":1176.0,"o3":80.0,"so2":4.4,"mosquito_risk":3,"arthritis_risk":5,"migraine_risk":7,"frizz_risk":1,"updated_at":"2026-05-05T23:42:49.580260+05:30"},{"city":"Durgapur","state":"West Bengal","latitude":23.5204,"longitude":87.3119,"temp":24.0,"humidity":91,"rain":0.0,"pressure":997.2,"uv_index":7.65,"wind_gusts":28.1,"aqi":123,"pm10":34.9,"pm2_5":32.4,"no2":27.8,"co":996.0,"o3":63.0,"so2":42.9,"mosquito_risk":3,"arthritis_risk":5,"migraine_risk":7,"frizz_risk":1,"updated_at":"2026-05-05T23:42:49.580328+05:30"},{"city":"Asansol","state":"West Bengal","latitude":23.6739,"longitude":86.9524,"temp":24.2,"humidity":89,"rain":0.0,"pressure":995.7,"uv_index":8.5,"wind_gusts":32.0,"aqi":121,"pm10":47.8,"pm2_5":44.1,"no2":33.3,"co":321.0,"o3":62.0,"so2":48.3,"mosquito_risk":3,"arthritis_risk":5,"migraine_risk":7,"frizz_risk":1,"updated_at":"2026-05-05T23:42:49.580341+05:30"},{"city":"Pondicherry","state":"Puducherry","latitude":11.9139,"longitude":79.8145,"temp":28.4,"humidity":84,"rain":0.0,"pressure":1008.7,"uv_index":8.9,"wind_gusts":46.8,"aqi":69,"pm10":21.8,"pm2_5":13.1,"no2":1.9,"co":207.0,"o3":78.0,"so2":0.4,"mosquito_risk":7,"arthritis_risk":0,"migraine_risk":4,"frizz_risk":1,"updated_at":"2026-05-05T23:42:49.580351+05:30"},{"city":"Port Blair","state":"Andaman and Nicobar Islands","latitude":11.6234,"longitude":92.7265,"temp":26.5,"humidity":91,"rain":0.0,"pressure":1007.8,"uv_index":8.4,"wind_gusts":38.9,"aqi":28,"pm10":5.8,"pm2_5":5.1,"no2":0.8,"co":263.0,"o3":59.0,"so2":2.2,"mosquito_risk":7,"arthritis_risk":5,"migraine_risk":4,"frizz_risk":1,"updated_at":"2026-05-05T23:42:49.580359+05:30"},{"city":"Haridwar","state":"Uttarakhand","latitude":29.9457,"longitude":78.1642,"temp":19.0,"humidity":80,"rain":0.0,"pressure":975.5,"uv_index":5.9,"wind_gusts":35.3,"aqi":84,"pm10":57.7,"pm2_5":34.8,"no2":18.0,"co":301.0,"o3":57.0,"so2":5.5,"mosquito_risk":3,"arthritis_risk":5,"migraine_risk":3,"frizz_risk":0,"updated_at":"2026-05-05T23:42:49.580368+05:30"},{"city":"Rishikesh","state":"Uttarakhand","latitude":30.0869,"longitude":78.2676,"temp":16.6,"humidity":89,"rain":0.0,"pressure":968.0,"uv_index":6.15,"wind_gusts":33.1,"aqi":66,"pm10":58.1,"pm2_5":23.4,"no2":10.2,"co":382.0,"o3":81.0,"so2":1.4,"mosquito_risk":3,"arthritis_risk":10,"migraine_risk":7,"frizz_risk":0,"updated_at":"2026-05-05T23:42:49.580376+05:30"},{"city":"Nainital","state":"Uttarakhand","latitude":29.3919,"longitude":79.4542,"temp":9.3,"humidity":76,"rain":0.0,"pressure":803.2,"uv_index":6.55,"wind_gusts":32.4,"aqi":70,"pm10":48.2,"pm2_5":30.3,"no2":18.7,"co":269.0,"o3":66.0,"so2":4.4,"mosquito_risk":3,"arthritis_risk":5,"migraine_risk":7,"frizz_risk":0,"updated_at":"2026-05-05T23:42:49.580384+05:30"},{"city":"Mussoorie","state":"Uttarakhand","latitude":30.4599,"longitude":78.0664,"temp":9.0,"humidity":78,"rain":0.0,"pressure":800.5,"uv_index":7.35,"wind_gusts":37.1,"aqi":83,"pm10":82.7,"pm2_5":32.1,"no2":24.4,"co":269.0,"o3":77.0,"so2":8.8,"mosquito_risk":3,"arthritis_risk":5,"migraine_risk":7,"frizz_risk":0,"updated_at":"2026-05-05T23:42:49.580392+05:30"},{"city":"Dharamshala","state":"Himachal Pradesh","latitude":32.219,"longitude":76.3234,"temp":15.2,"humidity":59,"rain":0.0,"pressure":868.8,"uv_index":7.5,"wind_gusts":45.0,"aqi":82,"pm10":34.0,"pm2_5":15.8,"no2":13.9,"co":227.0,"o3":71.0,"so2":0.7,"mosquito_risk":0,"arthritis_risk":5,"migraine_risk":7,"frizz_risk":0,"updated_at":"2026-05-05T23:42:49.580400+05:30"},{"city":"Dalhousie","state":"Himachal Pradesh","latitude":32.5387,"longitude":75.971,"temp":8.1,"humidity":79,"rain":0.0,"pressure":801.4,"uv_index":6.15,"wind_gusts":41.4,"aqi":75,"pm10":59.5,"pm2_5":31.8,"no2":45.0,"co":526.0,"o3":50.0,"so2":3.5,"mosquito_risk":3,"arthritis_risk":5,"migraine_risk":7,"frizz_risk":0,"updated_at":"2026-05-05T23:42:49.580408+05:30"},{"city":"Patiala","state":"Punjab","latitude":30.3398,"longitude":76.3869,"temp":22.5,"humidity":70,"rain":0.0,"pressure":980.4,"uv_index":6.95,"wind_gusts":66.6,"aqi":338,"pm10":85.2,"pm2_5":49.2,"no2":22.1,"co":424.0,"o3":72.0,"so2":9.9,"mosquito_risk":3,"arthritis_risk":5,"migraine_risk":7,"frizz_risk":1,"updated_at":"2026-05-05T23:42:49.580416+05:30"},{"city":"Bhatinda","state":"Punjab","latitude":30.211,"longitude":74.9455,"temp":23.9,"humidity":56,"rain":0.0,"pressure":985.8,"uv_index":8.1,"wind_gusts":37.4,"aqi":223,"pm10":219.3,"pm2_5":59.3,"no2":8.4,"co":409.0,"o3":101.0,"so2":8.2,"mosquito_risk":0,"arthritis_risk":5,"migraine_risk":7,"frizz_risk":0,"updated_at":"2026-05-05T23:42:49.580422+05:30"},{"city":"Rohtak","state":"Haryana","latitude":28.8955,"longitude":76.6066,"temp":22.2,"humidity":78,"rain":0.0,"pressure":984.0,"uv_index":7.55,"wind_gusts":37.1,"aqi":184,"pm10":203.0,"pm2_5":72.4,"no2":33.1,"co":586.0,"o3":87.0,"so2":35.1,"mosquito_risk":3,"arthritis_risk":5,"migraine_risk":7,"frizz_risk":1,"updated_at":"2026-05-05T23:42:49.580430+05:30"},{"city":"Panipat","state":"Haryana","latitude":29.3909,"longitude":76.9635,"temp":20.5,"humidity":87,"rain":0.0,"pressure":982.4,"uv_index":6.65,"wind_gusts":42.8,"aqi":649,"pm10":484.3,"pm2_5":86.8,"no2":14.7,"co":596.0,"o3":101.0,"so2":13.7,"mosquito_risk":3,"arthritis_risk":5,"migraine_risk":7,"frizz_risk":1,"updated_at":"2026-05-05T23:42:49.580437+05:30"},{"city":"Mathura","state":"Uttar Pradesh","latitude":27.4924,"longitude":77.6737,"temp":23.5,"humidity":74,"rain":0.0,"pressure":988.7,"uv_index":7.6,"wind_gusts":33.8,"aqi":190,"pm10":180.2,"pm2_5":57.9,"no2":18.3,"co":473.0,"o3":81.0,"so2":12.3,"mosquito_risk":3,"arthritis_risk":5,"migraine_risk":7,"frizz_risk":1,"updated_at":"2026-05-05T23:42:49.580444+05:30"},{"city":"Vrindavan","state":"Uttar Pradesh","latitude":27.5823,"longitude":77.7027,"temp":23.7,"humidity":74,"rain":0.0,"pressure":989.3,"uv_index":7.45,"wind_gusts":32.8,"aqi":190,"pm10":180.2,"pm2_5":57.9,"no2":18.3,"co":462.0,"o3":81.0,"so2":12.3,"mosquito_risk":3,"arthritis_risk":5,"migraine_risk":7,"frizz_risk":1,"updated_at":"2026-05-05T23:42:49.580451+05:30"},{"city":"Ayodhya","state":"Uttar Pradesh","latitude":26.7922,"longitude":82.1998,"temp":22.3,"humidity":91,"rain":0.0,"pressure":997.0,"uv_index":4.65,"wind_gusts":23.4,"aqi":84,"pm10":46.3,"pm2_5":39.6,"no2":18.7,"co":609.0,"o3":77.0,"so2":8.2,"mosquito_risk":3,"arthritis_risk":5,"migraine_risk":3,"frizz_risk":1,"updated_at":"2026-05-05T23:42:49.580458+05:30"},{"city":"Ratlam","state":"Madhya Pradesh","latitude":23.3315,"longitude":75.0367,"temp":26.0,"humidity":51,"rain":0.0,"pressure":954.9,"uv_index":8.45,"wind_gusts":47.2,"aqi":69,"pm10":53.4,"pm2_5":24.2,"no2":3.5,"co":247.0,"o3":94.0,"so2":4.5,"mosquito_risk":4,"arthritis_risk":5,"migraine_risk":7,"frizz_risk":0,"updated_at":"2026-05-05T23:42:49.580466+05:30"},{"city":"Sagar","state":"Madhya Pradesh","latitude":23.8388,"longitude":78.7378,"temp":25.7,"humidity":53,"rain":0.0,"pressure":951.0,"uv_index":8.65,"wind_gusts":42.1,"aqi":109,"pm10":52.2,"pm2_5":38.2,"no2":3.9,"co":276.0,"o3":126.0,"so2":8.0,"mosquito_risk":4,"arthritis_risk":5,"migraine_risk":7,"frizz_risk":0,"updated_at":"2026-05-05T23:42:49.580473+05:30"},{"city":"Satna","state":"Madhya Pradesh","latitude":24.6005,"longitude":80.8322,"temp":24.1,"humidity":76,"rain":0.0,"pressure":972.5,"uv_index":8.7,"wind_gusts":39.2,"aqi":122,"pm10":53.2,"pm2_5":40.5,"no2":10.7,"co":458.0,"o3":103.0,"so2":9.6,"mosquito_risk":3,"arthritis_risk":5,"migraine_risk":7,"frizz_risk":1,"updated_at":"2026-05-05T23:42:49.580480+05:30"},{"city":"Akola","state":"Maharashtra","latitude":20.7002,"longitude":77.0082,"temp":31.9,"humidity":30,"rain":0.0,"pressure":974.5,"uv_index":8.9,"wind_gusts":38.5,"aqi":64,"pm10":40.9,"pm2_5":19.3,"no2":6.9,"co":227.0,"o3":89.0,"so2":9.7,"mosquito_risk":0,"arthritis_risk":5,"migraine_risk":7,"frizz_risk":0,"updated_at":"2026-05-05T23:42:49.580488+05:30"},{"city":"Amravati","state":"Maharashtra","latitude":20.9374,"longitude":77.7796,"temp":31.4,"humidity":28,"rain":0.0,"pressure":966.8,"uv_index":8.85,"wind_gusts":38.2,"aqi":64,"pm10":35.0,"pm2_5":18.5,"no2":7.9,"co":201.0,"o3":87.0,"so2":8.8,"mosquito_risk":0,"arthritis_risk":5,"migraine_risk":7,"frizz_risk":0,"updated_at":"2026-05-05T23:42:49.580496+05:30"},{"city":"Latur","state":"Maharashtra","latitude":18.4088,"longitude":76.5604,"temp":29.5,"humidity":27,"rain":0.0,"pressure":938.7,"uv_index":9.05,"wind_gusts":38.5,"aqi":67,"pm10":63.6,"pm2_5":32.0,"no2":20.6,"co":493.0,"o3":66.0,"so2":11.9,"mosquito_risk":4,"arthritis_risk":5,"migraine_risk":7,"frizz_risk":0,"updated_at":"2026-05-05T23:42:49.580504+05:30"},{"city":"Nanded","state":"Maharashtra","latitude":19.1383,"longitude":77.3091,"temp":31.5,"humidity":27,"rain":0.0,"pressure":967.4,"uv_index":8.95,"wind_gusts":33.1,"aqi":71,"pm10":78.5,"pm2_5":42.6,"no2":33.6,"co":708.0,"o3":44.0,"so2":7.4,"mosquito_risk":0,"arthritis_risk":5,"migraine_risk":7,"frizz_risk":0,"updated_at":"2026-05-05T23:42:49.580511+05:30"},{"city":"Gulbarga","state":"Karnataka","latitude":17.3297,"longitude":76.8343,"temp":32.2,"humidity":21,"rain":0.0,"pressure":957.8,"uv_index":9.1,"wind_gusts":36.7,"aqi":63,"pm10":35.4,"pm2_5":20.9,"no2":18.4,"co":338.0,"o3":78.0,"so2":7.9,"mosquito_risk":0,"arthritis_risk":5,"migraine_risk":7,"frizz_risk":0,"updated_at":"2026-05-05T23:42:49.580517+05:30"},{"city":"Bidar","state":"Karnataka","latitude":17.9104,"longitude":77.5199,"temp":29.5,"humidity":28,"rain":0.0,"pressure":934.8,"uv_index":9.15,"wind_gusts":32.4,"aqi":70,"pm10":67.3,"pm2_5":39.0,"no2":25.4,"co":303.0,"o3":78.0,"so2":7.2,"mosquito_risk":4,"arthritis_risk":5,"migraine_risk":7,"frizz_risk":0,"updated_at":"2026-05-05T23:42:49.580524+05:30"},{"city":"Hospet","state":"Karnataka","latitude":15.2689,"longitude":76.3909,"temp":27.3,"humidity":61,"rain":0.0,"pressure":955.4,"uv_index":9.25,"wind_gusts":28.4,"aqi":68,"pm10":58.1,"pm2_5":35.4,"no2":38.7,"co":195.0,"o3":46.0,"so2":7.2,"mosquito_risk":7,"arthritis_risk":5,"migraine_risk":7,"frizz_risk":1,"updated_at":"2026-05-05T23:42:49.580531+05:30"},{"city":"Tirupur","state":"Tamil Nadu","latitude":11.1085,"longitude":77.3411,"temp":25.6,"humidity":84,"rain":0.0,"pressure":975.4,"uv_index":9.3,"wind_gusts":55.4,"aqi":76,"pm10":40.0,"pm2_5":28.9,"no2":27.8,"co":271.0,"o3":43.0,"so2":7.0,"mosquito_risk":7,"arthritis_risk":5,"migraine_risk":7,"frizz_risk":1,"updated_at":"2026-05-05T23:42:49.580539+05:30"},{"city":"Alappuzha","state":"Kerala","latitude":9.4981,"longitude":76.3388,"temp":26.3,"humidity":93,"rain":0.0,"pressure":1009.2,"uv_index":7.75,"wind_gusts":31.0,"aqi":53,"pm10":40.0,"pm2_5":22.9,"no2":16.5,"co":130.0,"o3":54.0,"so2":4.9,"mosquito_risk":7,"arthritis_risk":0,"migraine_risk":4,"frizz_risk":1,"updated_at":"2026-05-05T23:42:49.580546+05:30"},{"city":"Munnar","state":"Kerala","latitude":10.0889,"longitude":77.0595,"temp":16.9,"humidity":97,"rain":0.0,"pressure":856.1,"uv_index":6.95,"wind_gusts":24.5,"aqi":59,"pm10":38.8,"pm2_5":27.3,"no2":14.2,"co":297.0,"o3":45.0,"so2":2.7,"mosquito_risk":3,"arthritis_risk":10,"migraine_risk":7,"frizz_risk":1,"updated_at":"2026-05-05T23:42:49.580553+05:30"},{"city":"Silchar","state":"Assam","latitude":24.8333,"longitude":92.7789,"temp":22.9,"humidity":94,"rain":0.0,"pressure":1007.7,"uv_index":8.85,"wind_gusts":25.9,"aqi":93,"pm10":38.8,"pm2_5":30.2,"no2":9.1,"co":263.0,"o3":71.0,"so2":4.1,"mosquito_risk":3,"arthritis_risk":5,"migraine_risk":4,"frizz_risk":1,"updated_at":"2026-05-05T23:42:49.580560+05:30"},{"city":"Dibrugarh","state":"Assam","latitude":27.4728,"longitude":94.912,"temp":21.5,"humidity":96,"rain":0.1,"pressure":997.3,"uv_index":8.35,"wind_gusts":34.9,"aqi":60,"pm10":20.3,"pm2_5":17.8,"no2":18.5,"co":234.0,"o3":34.0,"so2":0.7,"mosquito_risk":6,"arthritis_risk":5,"migraine_risk":7,"frizz_risk":1,"updated_at":"2026-05-05T23:42:49.580568+05:30"}]