[{"city":"Delhi","state":"Delhi","latitude":28.6139,"longitude":77.209,"temp":25.3,"humidity":57,"rain":0.0,"pressure":983.2,"uv_index":7.55,"wind_gusts":34.2,"aqi":200,"pm10":130.4,"pm2_5":58.4,"no2":28.3,"co":518.0,"o3":77.0,"so2":21.3,"mosquito_risk":4,"arthritis_risk":5,"migraine_risk":7,"frizz_risk":1,"updated_at":"2026-05-09T02:34:44.983667+05:30"},{"city":"Mumbai","state":"Maharashtra","latitude":19.076,"longitude":72.8777,"temp":28.0,"humidity":83,"rain":0.0,"pressure":1006.3,"uv_index":7.85,"wind_gusts":47.9,"aqi":88,"pm10":47.4,"pm2_5":21.2,"no2":16.0,"co":414.0,"o3":68.0,"so2":16.1,"mosquito_risk":7,"arthritis_risk":5,"migraine_risk":4,"frizz_risk":1,"updated_at":"2026-05-09T02:34:44.983714+05:30"},{"city":"Bangalore","state":"Karnataka","latitude":12.9716,"longitude":77.5946,"temp":22.0,"humidity":84,"rain":0.0,"pressure":909.6,"uv_index":9.35,"wind_gusts":37.4,"aqi":47,"pm10":15.9,"pm2_5":15.8,"no2":14.6,"co":199.0,"o3":56.0,"so2":11.0,"mosquito_risk":3,"arthritis_risk":5,"migraine_risk":7,"frizz_risk":1,"updated_at":"2026-05-09T02:34:44.983730+05:30"},{"city":"Hyderabad","state":"Telangana","latitude":17.385,"longitude":78.4867,"temp":26.1,"humidity":69,"rain":0.0,"pressure":953.1,"uv_index":9.15,"wind_gusts":32.4,"aqi":51,"pm10":13.9,"pm2_5":12.7,"no2":10.8,"co":276.0,"o3":58.0,"so2":6.1,"mosquito_risk":7,"arthritis_risk":5,"migraine_risk":7,"frizz_risk":1,"updated_at":"2026-05-09T02:34:44.983742+05:30"},{"city":"Chennai","state":"Tamil Nadu","latitude":13.0827,"longitude":80.2707,"temp":27.9,"humidity":78,"rain":0.0,"pressure":1005.1,"uv_index":7.9,"wind_gusts":43.9,"aqi":17,"pm10":4.7,"pm2_5":3.8,"no2":6.0,"co":116.0,"o3":38.0,"so2":2.3,"mosquito_risk":7,"arthritis_risk":5,"migraine_risk":4,"frizz_risk":1,"updated_at":"2026-05-09T02:34:44.983751+05:30"},{"city":"Kolkata","state":"West Bengal","latitude":22.5726,"longitude":88.3639,"temp":25.6,"humidity":92,"rain":0.0,"pressure":1006.9,"uv_index":8.9,"wind_gusts":51.1,"aqi":140,"pm10":69.2,"pm2_5":65.2,"no2":19.6,"co":622.0,"o3":85.0,"so2":20.4,"mosquito_risk":7,"arthritis_risk":5,"migraine_risk":4,"frizz_risk":1,"updated_at":"2026-05-09T02:34:44.983760+05:30"},{"city":"Pune","state":"Maharashtra","latitude":18.5204,"longitude":73.8567,"temp":27.2,"humidity":57,"rain":0.0,"pressure":946.4,"uv_index":8.5,"wind_gusts":36.4,"aqi":102,"pm10":53.8,"pm2_5":32.7,"no2":28.5,"co":285.0,"o3":51.0,"so2":19.3,"mosquito_risk":4,"arthritis_risk":5,"migraine_risk":7,"frizz_risk":1,"updated_at":"2026-05-09T02:34:44.983774+05:30"},{"city":"Ahmedabad","state":"Gujarat","latitude":23.0225,"longitude":72.5714,"temp":31.0,"humidity":39,"rain":0.0,"pressure":1000.6,"uv_index":8.1,"wind_gusts":33.8,"aqi":75,"pm10":28.4,"pm2_5":18.7,"no2":13.0,"co":182.0,"o3":56.0,"so2":6.0,"mosquito_risk":0,"arthritis_risk":5,"migraine_risk":4,"frizz_risk":0,"updated_at":"2026-05-09T02:34:44.983804+05:30"},{"city":"Jaipur","state":"Rajasthan","latitude":26.9124,"longitude":75.7873,"temp":25.5,"humidity":46,"rain":0.0,"pressure":958.8,"uv_index":8.15,"wind_gusts":32.8,"aqi":170,"pm10":506.6,"pm2_5":88.0,"no2":6.0,"co":313.0,"o3":108.0,"so2":10.0,"mosquito_risk":4,"arthritis_risk":5,"migraine_risk":7,"frizz_risk":0,"updated_at":"2026-05-09T02:34:44.983813+05:30"},{"city":"Lucknow","state":"Uttar Pradesh","latitude":26.8467,"longitude":80.9462,"temp":23.5,"humidity":67,"rain":0.0,"pressure":994.0,"uv_index":8.05,"wind_gusts":33.8,"aqi":95,"pm10":48.4,"pm2_5":28.5,"no2":10.3,"co":371.0,"o3":102.0,"so2":8.0,"mosquito_risk":3,"arthritis_risk":5,"migraine_risk":7,"frizz_risk":1,"updated_at":"2026-05-09T02:34:44.983821+05:30"},{"city":"Kanpur","state":"Uttar Pradesh","latitude":26.4499,"longitude":80.3319,"temp":24.5,"humidity":62,"rain":0.0,"pressure":991.9,"uv_index":8.05,"wind_gusts":33.8,"aqi":143,"pm10":294.3,"pm2_5":49.9,"no2":7.3,"co":338.0,"o3":108.0,"so2":7.4,"mosquito_risk":3,"arthritis_risk":5,"migraine_risk":7,"frizz_risk":1,"updated_at":"2026-05-09T02:34:44.983829+05:30"},{"city":"Chandigarh","state":"Chandigarh","latitude":30.7333,"longitude":76.7794,"temp":20.0,"humidity":78,"rain":0.0,"pressure":968.8,"uv_index":7.6,"wind_gusts":29.2,"aqi":93,"pm10":36.4,"pm2_5":25.1,"no2":30.3,"co":608.0,"o3":34.0,"so2":3.2,"mosquito_risk":3,"arthritis_risk":5,"migraine_risk":7,"frizz_risk":0,"updated_at":"2026-05-09T02:34:44.983837+05:30"},{"city":"Srinagar","state":"Jammu and Kashmir","latitude":34.0837,"longitude":74.7973,"temp":9.5,"humidity":80,"rain":0.0,"pressure":839.4,"uv_index":8.9,"wind_gusts":18.0,"aqi":81,"pm10":70.8,"pm2_5":41.6,"no2":25.4,"co":256.0,"o3":42.0,"so2":3.5,"mosquito_risk":3,"arthritis_risk":5,"migraine_risk":7,"frizz_risk":0,"updated_at":"2026-05-09T02:34:44.983845+05:30"},{"city":"Jammu","state":"Jammu and Kashmir","latitude":32.7266,"longitude":74.857,"temp":22.2,"humidity":65,"rain":0.0,"pressure":972.6,"uv_index":8.45,"wind_gusts":29.2,"aqi":118,"pm10":109.9,"pm2_5":58.4,"no2":29.8,"co":390.0,"o3":44.0,"so2":6.1,"mosquito_risk":3,"arthritis_risk":5,"migraine_risk":7,"frizz_risk":0,"updated_at":"2026-05-09T02:34:44.983852+05:30"},{"city":"Amritsar","state":"Punjab","latitude":31.634,"longitude":74.8723,"temp":23.6,"humidity":61,"rain":0.0,"pressure":980.9,"uv_index":8.3,"wind_gusts":24.5,"aqi":143,"pm10":110.4,"pm2_5":53.2,"no2":6.8,"co":546.0,"o3":101.0,"so2":14.9,"mosquito_risk":3,"arthritis_risk":5,"migraine_risk":7,"frizz_risk":0,"updated_at":"2026-05-09T02:34:44.983859+05:30"},{"city":"Ludhiana","state":"Punjab","latitude":30.901,"longitude":75.8573,"temp":22.9,"humidity":66,"rain":0.0,"pressure":978.9,"uv_index":7.9,"wind_gusts":39.2,"aqi":151,"pm10":72.6,"pm2_5":51.3,"no2":17.1,"co":549.0,"o3":57.0,"so2":13.4,"mosquito_risk":3,"arthritis_risk":5,"migraine_risk":7,"frizz_risk":1,"updated_at":"2026-05-09T02:34:44.983866+05:30"},{"city":"Jalandhar","state":"Punjab","latitude":31.326,"longitude":75.5762,"temp":22.4,"humidity":68,"rain":0.0,"pressure":979.9,"uv_index":8.05,"wind_gusts":29.2,"aqi":144,"pm10":86.6,"pm2_5":52.3,"no2":13.5,"co":489.0,"o3":80.0,"so2":16.4,"mosquito_risk":3,"arthritis_risk":5,"migraine_risk":7,"frizz_risk":1,"updated_at":"2026-05-09T02:34:44.983873+05:30"},{"city":"Dehradun","state":"Uttarakhand","latitude":30.6284,"longitude":78.0322,"temp":9.7,"humidity":95,"rain":0.0,"pressure":827.6,"uv_index":8.0,"wind_gusts":31.0,"aqi":54,"pm10":26.3,"pm2_5":12.0,"no2":24.9,"co":236.0,"o3":29.0,"so2":0.2,"mosquito_risk":3,"arthritis_risk":10,"migraine_risk":7,"frizz_risk":0,"updated_at":"2026-05-09T02:34:44.983882+05:30"},{"city":"Shimla","state":"Himachal Pradesh","latitude":31.1048,"longitude":77.1734,"temp":7.9,"humidity":87,"rain":0.0,"pressure":780.6,"uv_index":8.05,"wind_gusts":38.9,"aqi":63,"pm10":27.6,"pm2_5":17.5,"no2":22.1,"co":286.0,"o3":50.0,"so2":0.3,"mosquito_risk":3,"arthritis_risk":10,"migraine_risk":7,"frizz_risk":0,"updated_at":"2026-05-09T02:34:44.983890+05:30"},{"city":"Manali","state":"Himachal Pradesh","latitude":32.2396,"longitude":77.1887,"temp":7.3,"humidity":55,"rain":0.0,"pressure":812.4,"uv_index":9.5,"wind_gusts":40.0,"aqi":71,"pm10":31.2,"pm2_5":8.5,"no2":20.1,"co":238.0,"o3":115.0,"so2":0.6,"mosquito_risk":0,"arthritis_risk":5,"migraine_risk":7,"frizz_risk":1,"updated_at":"2026-05-09T02:34:44.983897+05:30"},{"city":"Gurgaon","state":"Haryana","latitude":28.4595,"longitude":77.0266,"temp":24.6,"humidity":59,"rain":0.0,"pressure":981.3,"uv_index":7.65,"wind_gusts":37.8,"aqi":1465,"pm10":312.0,"pm2_5":73.6,"no2":18.2,"co":513.0,"o3":91.0,"so2":17.5,"mosquito_risk":0,"arthritis_risk":5,"migraine_risk":7,"frizz_risk":1,"updated_at":"2026-05-09T02:34:44.983905+05:30"},{"city":"Noida","state":"Uttar Pradesh","latitude":28.5355,"longitude":77.391,"temp":22.2,"humidity":71,"rain":0.0,"pressure":984.5,"uv_index":7.6,"wind_gusts":22.0,"aqi":1465,"pm10":312.0,"pm2_5":73.6,"no2":18.2,"co":453.0,"o3":91.0,"so2":17.5,"mosquito_risk":3,"arthritis_risk":5,"migraine_risk":7,"frizz_risk":1,"updated_at":"2026-05-09T02:34:44.983912+05:30"},{"city":"Ghaziabad","state":"Uttar Pradesh","latitude":28.6692,"longitude":77.4538,"temp":23.0,"humidity":67,"rain":0.0,"pressure":982.9,"uv_index":7.55,"wind_gusts":25.2,"aqi":139,"pm10":94.5,"pm2_5":49.1,"no2":15.0,"co":414.0,"o3":77.0,"so2":12.5,"mosquito_risk":3,"arthritis_risk":5,"migraine_risk":7,"frizz_risk":1,"updated_at":"2026-05-09T02:34:44.983919+05:30"},{"city":"Faridabad","state":"Haryana","latitude":28.4089,"longitude":77.3178,"temp":24.0,"humidity":63,"rain":0.0,"pressure":983.9,"uv_index":7.6,"wind_gusts":29.2,"aqi":1465,"pm10":312.0,"pm2_5":73.6,"no2":18.2,"co":473.0,"o3":91.0,"so2":17.5,"mosquito_risk":3,"arthritis_risk":5,"migraine_risk":7,"frizz_risk":1,"updated_at":"2026-05-09T02:34:44.983926+05:30"},{"city":"Meerut","state":"Uttar Pradesh","latitude":28.9845,"longitude":77.7064,"temp":22.3,"humidity":74,"rain":0.0,"pressure":981.8,"uv_index":7.45,"wind_gusts":25.6,"aqi":139,"pm10":94.5,"pm2_5":49.1,"no2":15.0,"co":429.0,"o3":77.0,"so2":12.5,"mosquito_risk":3,"arthritis_risk":5,"migraine_risk":7,"frizz_risk":1,"updated_at":"2026-05-09T02:34:44.983933+05:30"},{"city":"Agra","state":"Uttar Pradesh","latitude":27.1767,"longitude":78.0081,"temp":23.7,"humidity":65,"rain":0.0,"pressure":987.6,"uv_index":7.9,"wind_gusts":22.3,"aqi":1054,"pm10":886.6,"pm2_5":119.2,"no2":7.0,"co":379.0,"o3":104.0,"so2":11.9,"mosquito_risk":3,"arthritis_risk":5,"migraine_risk":7,"frizz_risk":1,"updated_at":"2026-05-09T02:34:44.983939+05:30"},{"city":"Varanasi","state":"Uttar Pradesh","latitude":25.3176,"longitude":82.9739,"temp":24.1,"humidity":77,"rain":0.0,"pressure":997.9,"uv_index":8.55,"wind_gusts":40.7,"aqi":102,"pm10":57.2,"pm2_5":42.4,"no2":10.1,"co":425.0,"o3":122.0,"so2":15.3,"mosquito_risk":3,"arthritis_risk":5,"migraine_risk":7,"frizz_risk":1,"updated_at":"2026-05-09T02:34:44.983946+05:30"},{"city":"Prayagraj","state":"Uttar Pradesh","latitude":25.4358,"longitude":81.8463,"temp":25.4,"humidity":66,"rain":0.0,"pressure":995.9,"uv_index":8.45,"wind_gusts":35.3,"aqi":98,"pm10":53.2,"pm2_5":39.7,"no2":11.4,"co":438.0,"o3":114.0,"so2":13.2,"mosquito_risk":7,"arthritis_risk":5,"migraine_risk":7,"frizz_risk":1,"updated_at":"2026-05-09T02:34:44.983956+05:30"},{"city":"Gorakhpur","state":"Uttar Pradesh","latitude":26.7606,"longitude":83.3732,"temp":22.6,"humidity":79,"rain":0.0,"pressure":998.6,"uv_index":8.05,"wind_gusts":45.7,"aqi":98,"pm10":44.9,"pm2_5":36.0,"no2":10.6,"co":493.0,"o3":101.0,"so2":7.3,"mosquito_risk":3,"arthritis_risk":5,"migraine_risk":7,"frizz_risk":1,"updated_at":"2026-05-09T02:34:44.983963+05:30"},{"city":"Bareilly","state":"Uttar Pradesh","latitude":28.367,"longitude":79.4304,"temp":22.0,"humidity":70,"rain":0.0,"pressure":987.5,"uv_index":7.5,"wind_gusts":28.4,"aqi":94,"pm10":49.4,"pm2_5":33.3,"no2":14.8,"co":333.0,"o3":82.0,"so2":4.7,"mosquito_risk":3,"arthritis_risk":5,"migraine_risk":7,"frizz_risk":1,"updated_at":"2026-05-09T02:34:44.983970+05:30"},{"city":"Aligarh","state":"Uttar Pradesh","latitude":27.8974,"longitude":78.088,"temp":23.0,"humidity":67,"rain":0.0,"pressure":985.7,"uv_index":7.7,"wind_gusts":26.3,"aqi":620,"pm10":280.3,"pm2_5":68.0,"no2":10.9,"co":358.0,"o3":86.0,"so2":17.1,"mosquito_risk":3,"arthritis_risk":5,"migraine_risk":7,"frizz_risk":1,"updated_at":"2026-05-09T02:34:44.983977+05:30"},{"city":"Moradabad","state":"Uttar Pradesh","latitude":28.8386,"longitude":78.7733,"temp":21.8,"humidity":76,"rain":0.0,"pressure":984.5,"uv_index":7.35,"wind_gusts":28.1,"aqi":98,"pm10":73.3,"pm2_5":52.2,"no2":29.2,"co":390.0,"o3":55.0,"so2":7.6,"mosquito_risk":3,"arthritis_risk":5,"migraine_risk":7,"frizz_risk":1,"updated_at":"2026-05-09T02:34:44.983984+05:30"},{"city":"Saharanpur","state":"Uttar Pradesh","latitude":29.9637,"longitude":77.546,"temp":21.7,"humidity":72,"rain":0.0,"pressure":976.0,"uv_index":7.3,"wind_gusts":28.1,"aqi":111,"pm10":67.5,"pm2_5":52.9,"no2":43.8,"co":478.0,"o3":10.0,"so2":7.8,"mosquito_risk":3,"arthritis_risk":5,"migraine_risk":7,"frizz_risk":1,"updated_at":"2026-05-09T02:34:44.983990+05:30"},{"city":"Jhansi","state":"Uttar Pradesh","latitude":25.4484,"longitude":78.5685,"temp":24.9,"humidity":54,"rain":0.0,"pressure":976.4,"uv_index":8.3,"wind_gusts":27.7,"aqi":68,"pm10":46.8,"pm2_5":29.2,"no2":6.6,"co":350.0,"o3":87.0,"so2":10.8,"mosquito_risk":0,"arthritis_risk":5,"migraine_risk":7,"frizz_risk":0,"updated_at":"2026-05-09T02:34:48.365110+05:30"},{"city":"Surat","state":"Gujarat","latitude":21.1702,"longitude":72.8311,"temp":30.8,"humidity":48,"rain":0.0,"pressure":1004.0,"uv_index":7.7,"wind_gusts":34.2,"aqi":103,"pm10":31.1,"pm2_5":19.7,"no2":21.1,"co":194.0,"o3":55.0,"so2":34.0,"mosquito_risk":0,"arthritis_risk":5,"migraine_risk":4,"frizz_risk":1,"updated_at":"2026-05-09T02:34:48.365143+05:30"},{"city":"Vadodara","state":"Gujarat","latitude":22.3072,"longitude":73.1812,"temp":30.4,"humidity":43,"rain":0.0,"pressure":1002.0,"uv_index":8.05,"wind_gusts":32.0,"aqi":82,"pm10":31.1,"pm2_5":19.8,"no2":12.3,"co":240.0,"o3":65.0,"so2":11.5,"mosquito_risk":0,"arthritis_risk":5,"migraine_risk":4,"frizz_risk":1,"updated_at":"2026-05-09T02:34:48.365153+05:30"},{"city":"Rajkot","state":"Gujarat","latitude":22.3039,"longitude":70.8022,"temp":25.6,"humidity":84,"rain":0.0,"pressure":993.5,"uv_index":7.7,"wind_gusts":38.9,"aqi":54,"pm10":31.4,"pm2_5":11.4,"no2":6.3,"co":183.0,"o3":57.0,"so2":5.8,"mosquito_risk":7,"arthritis_risk":5,"migraine_risk":7,"frizz_risk":1,"updated_at":"2026-05-09T02:34:48.365162+05:30"},{"city":"Thane","state":"Maharashtra","latitude":19.2183,"longitude":72.9781,"temp":27.4,"humidity":84,"rain":0.0,"pressure":1005.6,"uv_index":7.9,"wind_gusts":48.2,"aqi":88,"pm10":47.4,"pm2_5":21.2,"no2":16.0,"co":336.0,"o3":68.0,"so2":16.1,"mosquito_risk":7,"arthritis_risk":5,"migraine_risk":4,"frizz_risk":1,"updated_at":"2026-05-09T02:34:48.365169+05:30"},{"city":"Nagpur","state":"Maharashtra","latitude":21.1458,"longitude":79.0882,"temp":29.1,"humidity":40,"rain":0.0,"pressure":972.3,"uv_index":8.9,"wind_gusts":47.2,"aqi":129,"pm10":74.3,"pm2_5":55.9,"no2":37.9,"co":269.0,"o3":52.0,"so2":20.2,"mosquito_risk":4,"arthritis_risk":5,"migraine_risk":7,"frizz_risk":0,"updated_at":"2026-05-09T02:34:48.365177+05:30"},{"city":"Nashik","state":"Maharashtra","latitude":19.9975,"longitude":73.7898,"temp":26.9,"humidity":35,"rain":0.0,"pressure":943.6,"uv_index":8.2,"wind_gusts":49.3,"aqi":83,"pm10":72.6,"pm2_5":31.8,"no2":25.0,"co":309.0,"o3":74.0,"so2":12.9,"mosquito_risk":4,"arthritis_risk":5,"migraine_risk":7,"frizz_risk":0,"updated_at":"2026-05-09T02:34:48.365185+05:30"},{"city":"Aurangabad","state":"Maharashtra","latitude":19.8762,"longitude":75.3433,"temp":29.5,"humidity":27,"rain":0.0,"pressure":943.1,"uv_index":9.05,"wind_gusts":35.3,"aqi":97,"pm10":72.2,"pm2_5":48.0,"no2":33.6,"co":292.0,"o3":57.0,"so2":11.6,"mosquito_risk":4,"arthritis_risk":5,"migraine_risk":7,"frizz_risk":0,"updated_at":"2026-05-09T02:34:48.365193+05:30"},{"city":"Solapur","state":"Maharashtra","latitude":17.6599,"longitude":75.9064,"temp":28.9,"humidity":47,"rain":0.0,"pressure":955.6,"uv_index":8.85,"wind_gusts":32.0,"aqi":86,"pm10":17.9,"pm2_5":16.2,"no2":9.5,"co":293.0,"o3":83.0,"so2":6.8,"mosquito_risk":4,"arthritis_risk":5,"migraine_risk":7,"frizz_risk":1,"updated_at":"2026-05-09T02:34:48.365200+05:30"},{"city":"Kolhapur","state":"Maharashtra","latitude":16.705,"longitude":74.2433,"temp":26.2,"humidity":76,"rain":0.0,"pressure":945.5,"uv_index":8.95,"wind_gusts":45.0,"aqi":151,"pm10":90.6,"pm2_5":69.4,"no2":28.1,"co":384.0,"o3":43.0,"so2":7.9,"mosquito_risk":7,"arthritis_risk":5,"migraine_risk":7,"frizz_risk":1,"updated_at":"2026-05-09T02:34:48.365207+05:30"},{"city":"Goa","state":"Goa","latitude":15.2993,"longitude":74.124,"temp":27.0,"humidity":91,"rain":0.0,"pressure":994.7,"uv_index":8.65,"wind_gusts":49.7,"aqi":111,"pm10":71.7,"pm2_5":49.1,"no2":15.9,"co":365.0,"o3":56.0,"so2":4.8,"mosquito_risk":7,"arthritis_risk":5,"migraine_risk":7,"frizz_risk":1,"updated_at":"2026-05-09T02:34:48.365215+05:30"},{"city":"Jodhpur","state":"Rajasthan","latitude":26.2389,"longitude":73.0243,"temp":31.4,"humidity":18,"rain":0.0,"pressure":980.9,"uv_index":8.35,"wind_gusts":34.6,"aqi":111,"pm10":76.8,"pm2_5":26.1,"no2":7.8,"co":222.0,"o3":70.0,"so2":4.1,"mosquito_risk":0,"arthritis_risk":5,"migraine_risk":7,"frizz_risk":0,"updated_at":"2026-05-09T02:34:48.365222+05:30"},{"city":"Udaipur","state":"Rajasthan","latitude":24.5854,"longitude":73.7125,"temp":28.8,"humidity":18,"rain":0.0,"pressure":944.9,"uv_index":8.8,"wind_gusts":41.8,"aqi":52,"pm10":36.8,"pm2_5":11.6,"no2":2.9,"co":179.0,"o3":90.0,"so2":1.9,"mosquito_risk":4,"arthritis_risk":5,"migraine_risk":7,"frizz_risk":0,"updated_at":"2026-05-09T02:34:48.365230+05:30"},{"city":"Kota","state":"Rajasthan","latitude":25.2138,"longitude":75.8648,"temp":26.8,"humidity":37,"rain":0.0,"pressure":976.7,"uv_index":8.35,"wind_gusts":39.2,"aqi":71,"pm10":81.7,"pm2_5":27.7,"no2":9.8,"co":369.0,"o3":49.0,"so2":3.9,"mosquito_risk":4,"arthritis_risk":5,"migraine_risk":7,"frizz_risk":0,"updated_at":"2026-05-09T02:34:48.365238+05:30"},{"city":"Bikaner","state":"Rajasthan","latitude":28.0229,"longitude":73.3119,"temp":28.4,"humidity":38,"rain":0.0,"pressure":980.4,"uv_index":8.3,"wind_gusts":24.8,"aqi":101,"pm10":221.2,"pm2_5":53.9,"no2":2.5,"co":277.0,"o3":112.0,"so2":6.2,"mosquito_risk":4,"arthritis_risk":5,"migraine_risk":7,"frizz_risk":0,"updated_at":"2026-05-09T02:34:48.365245+05:30"},{"city":"Ajmer","state":"Rajasthan","latitude":26.4499,"longitude":74.6399,"temp":25.1,"humidity":37,"rain":0.0,"pressure":952.7,"uv_index":8.3,"wind_gusts":41.0,"aqi":66,"pm10":164.8,"pm2_5":40.9,"no2":5.7,"co":292.0,"o3":93.0,"so2":6.4,"mosquito_risk":4,"arthritis_risk":5,"migraine_risk":7,"frizz_risk":0,"updated_at":"2026-05-09T02:34:48.365252+05:30"},{"city":"Gwalior","state":"Madhya Pradesh","latitude":26.2183,"longitude":78.1828,"temp":23.9,"humidity":61,"rain":0.0,"pressure":982.1,"uv_index":8.1,"wind_gusts":25.6,"aqi":88,"pm10":187.7,"pm2_5":55.1,"no2":3.8,"co":288.0,"o3":119.0,"so2":7.1,"mosquito_risk":3,"arthritis_risk":5,"migraine_risk":7,"frizz_risk":0,"updated_at":"2026-05-09T02:34:48.365260+05:30"},{"city":"Indore","state":"Madhya Pradesh","latitude":22.7196,"longitude":75.8577,"temp":30.8,"humidity":19,"rain":0.0,"pressure":946.9,"uv_index":8.65,"wind_gusts":42.8,"aqi":85,"pm10":56.0,"pm2_5":39.2,"no2":21.8,"co":634.0,"o3":59.0,"so2":8.8,"mosquito_risk":0,"arthritis_risk":5,"migraine_risk":7,"frizz_risk":0,"updated_at":"2026-05-09T02:34:48.365267+05:30"},{"city":"Bhopal","state":"Madhya Pradesh","latitude":23.2599,"longitude":77.4126,"temp":27.8,"humidity":31,"rain":0.0,"pressure":951.9,"uv_index":8.5,"wind_gusts":55.8,"aqi":78,"pm10":44.8,"pm2_5":26.4,"no2":6.0,"co":292.0,"o3":95.0,"so2":5.4,"mosquito_risk":4,"arthritis_risk":5,"migraine_risk":7,"frizz_risk":0,"updated_at":"2026-05-09T02:34:48.365274+05:30"},{"city":"Jabalpur","state":"Madhya Pradesh","latitude":23.1815,"longitude":79.9864,"temp":27.5,"humidity":37,"rain":0.0,"pressure":959.7,"uv_index":8.7,"wind_gusts":50.8,"aqi":72,"pm10":42.1,"pm2_5":26.6,"no2":13.6,"co":223.0,"o3":81.0,"so2":4.5,"mosquito_risk":4,"arthritis_risk":5,"migraine_risk":7,"frizz_risk":0,"updated_at":"2026-05-09T02:34:48.365281+05:30"},{"city":"Ujjain","state":"Madhya Pradesh","latitude":23.1765,"longitude":75.7885,"temp":28.3,"humidity":23,"rain":0.0,"pressure":952.4,"uv_index":8.55,"wind_gusts":41.8,"aqi":87,"pm10":35.9,"pm2_5":25.4,"no2":6.6,"co":366.0,"o3":84.0,"so2":6.1,"mosquito_risk":4,"arthritis_risk":5,"migraine_risk":7,"frizz_risk":0,"updated_at":"2026-05-09T02:34:48.365289+05:30"},{"city":"Visakhapatnam","state":"Andhra Pradesh","latitude":17.6868,"longitude":83.2185,"temp":25.5,"humidity":95,"rain":0.0,"pressure":1003.6,"uv_index":9.15,"wind_gusts":34.6,"aqi":60,"pm10":27.6,"pm2_5":25.0,"no2":19.7,"co":1559.0,"o3":29.0,"so2":6.5,"mosquito_risk":7,"arthritis_risk":5,"migraine_risk":4,"frizz_risk":1,"updated_at":"2026-05-09T02:34:48.365296+05:30"},{"city":"Vijayawada","state":"Andhra Pradesh","latitude":16.5062,"longitude":80.648,"temp":26.8,"humidity":88,"rain":0.0,"pressure":1002.1,"uv_index":9.2,"wind_gusts":38.9,"aqi":38,"pm10":12.1,"pm2_5":10.8,"no2":9.3,"co":165.0,"o3":28.0,"so2":4.5,"mosquito_risk":7,"arthritis_risk":5,"migraine_risk":4,"frizz_risk":1,"updated_at":"2026-05-09T02:34:48.365304+05:30"},{"city":"Guntur","state":"Andhra Pradesh","latitude":16.3067,"longitude":80.4365,"temp":26.9,"humidity":86,"rain":0.0,"pressure":1003.2,"uv_index":9.25,"wind_gusts":38.2,"aqi":38,"pm10":10.5,"pm2_5":9.4,"no2":10.8,"co":187.0,"o3":27.0,"so2":7.3,"mosquito_risk":7,"arthritis_risk":5,"migraine_risk":4,"frizz_risk":1,"updated_at":"2026-05-09T02:34:48.365311+05:30"},{"city":"Nellore","state":"Andhra Pradesh","latitude":14.4426,"longitude":79.9865,"temp":26.6,"humidity":86,"rain":0.0,"pressure":1004.6,"uv_index":9.2,"wind_gusts":40.3,"aqi":18,"pm10":4.8,"pm2_5":3.4,"no2":3.4,"co":144.0,"o3":37.0,"so2":2.2,"mosquito_risk":7,"arthritis_risk":5,"migraine_risk":4,"frizz_risk":1,"updated_at":"2026-05-09T02:34:48.365319+05:30"},{"city":"Kurnool","state":"Andhra Pradesh","latitude":15.8281,"longitude":78.0373,"temp":27.2,"humidity":68,"rain":0.0,"pressure":976.2,"uv_index":9.2,"wind_gusts":42.5,"aqi":35,"pm10":5.2,"pm2_5":4.0,"no2":4.4,"co":140.0,"o3":42.0,"so2":1.4,"mosquito_risk":7,"arthritis_risk":5,"migraine_risk":7,"frizz_risk":1,"updated_at":"2026-05-09T02:34:48.365327+05:30"},{"city":"Kakinada","state":"Andhra Pradesh","latitude":16.9891,"longitude":82.2475,"temp":25.1,"humidity":98,"rain":0.0,"pressure":1007.1,"uv_index":9.15,"wind_gusts":37.1,"aqi":23,"pm10":7.6,"pm2_5":5.0,"no2":1.0,"co":229.0,"o3":53.0,"so2":0.4,"mosquito_risk":7,"arthritis_risk":5,"migraine_risk":4,"frizz_risk":1,"updated_at":"2026-05-09T02:34:48.365334+05:30"},{"city":"Tirupati","state":"Andhra Pradesh","latitude":13.6288,"longitude":79.4192,"temp":25.7,"humidity":83,"rain":0.0,"pressure":989.8,"uv_index":9.1,"wind_gusts":55.8,"aqi":21,"pm10":10.2,"pm2_5":9.4,"no2":16.9,"co":162.0,"o3":15.0,"so2":3.1,"mosquito_risk":7,"arthritis_risk":5,"migraine_risk":7,"frizz_risk":1,"updated_at":"2026-05-09T02:34:48.365340+05:30"},{"city":"Warangal","state":"Telangana","latitude":17.9689,"longitude":79.5941,"temp":26.8,"humidity":70,"rain":0.0,"pressure":978.4,"uv_index":9.15,"wind_gusts":33.5,"aqi":56,"pm10":15.4,"pm2_5":14.3,"no2":11.1,"co":257.0,"o3":56.0,"so2":8.4,"mosquito_risk":7,"arthritis_risk":5,"migraine_risk":7,"frizz_risk":1,"updated_at":"2026-05-09T02:34:48.365347+05:30"},{"city":"Nizamabad","state":"Telangana","latitude":18.6725,"longitude":78.0941,"temp":27.4,"humidity":56,"rain":0.0,"pressure":964.1,"uv_index":9.1,"wind_gusts":34.2,"aqi":79,"pm10":21.2,"pm2_5":19.5,"no2":9.9,"co":259.0,"o3":77.0,"so2":4.1,"mosquito_risk":4,"arthritis_risk":5,"migraine_risk":7,"frizz_risk":1,"updated_at":"2026-05-09T02:34:48.365354+05:30"},{"city":"Mysore","state":"Karnataka","latitude":12.2958,"longitude":76.6396,"temp":23.6,"humidity":82,"rain":0.0,"pressure":926.3,"uv_index":9.1,"wind_gusts":32.0,"aqi":62,"pm10":12.1,"pm2_5":11.8,"no2":11.4,"co":225.0,"o3":57.0,"so2":6.2,"mosquito_risk":3,"arthritis_risk":5,"migraine_risk":7,"frizz_risk":1,"updated_at":"2026-05-09T02:34:48.365362+05:30"},{"city":"Mangalore","state":"Karnataka","latitude":12.9141,"longitude":74.856,"temp":25.5,"humidity":97,"rain":0.2,"pressure":1004.4,"uv_index":9.0,"wind_gusts":35.3,"aqi":90,"pm10":49.2,"pm2_5":37.1,"no2":11.4,"co":213.0,"o3":74.0,"so2":4.1,"mosquito_risk":10,"arthritis_risk":5,"migraine_risk":4,"frizz_risk":1,"updated_at":"2026-05-09T02:34:48.365369+05:30"},{"city":"Hubli-Dharwad","state":"Karnataka","latitude":15.3647,"longitude":75.124,"temp":27.5,"humidity":45,"rain":0.0,"pressure":939.0,"uv_index":9.2,"wind_gusts":41.0,"aqi":81,"pm10":51.2,"pm2_5":43.5,"no2":39.4,"co":248.0,"o3":24.0,"so2":6.2,"mosquito_risk":4,"arthritis_risk":5,"migraine_risk":7,"frizz_risk":0,"updated_at":"2026-05-09T02:34:48.365376+05:30"},{"city":"Belgaum","state":"Karnataka","latitude":15.8497,"longitude":74.4977,"temp":24.5,"humidity":67,"rain":0.0,"pressure":923.6,"uv_index":9.2,"wind_gusts":39.2,"aqi":109,"pm10":70.5,"pm2_5":50.8,"no2":23.7,"co":312.0,"o3":55.0,"so2":6.0,"mosquito_risk":3,"arthritis_risk":5,"migraine_risk":7,"frizz_risk":1,"updated_at":"2026-05-09T02:34:51.727208+05:30"},{"city":"Coimbatore","state":"Tamil Nadu","latitude":11.0168,"longitude":76.9558,"temp":24.4,"humidity":94,"rain":0.1,"pressure":959.4,"uv_index":8.45,"wind_gusts":25.2,"aqi":59,"pm10":20.5,"pm2_5":20.1,"no2":16.5,"co":211.0,"o3":48.0,"so2":5.9,"mosquito_risk":6,"arthritis_risk":5,"migraine_risk":7,"frizz_risk":1,"updated_at":"2026-05-09T02:34:51.727240+05:30"},{"city":"Madurai","state":"Tamil Nadu","latitude":9.9252,"longitude":78.1198,"temp":26.2,"humidity":87,"rain":0.0,"pressure":990.5,"uv_index":3.1,"wind_gusts":31.7,"aqi":63,"pm10":35.4,"pm2_5":35.2,"no2":43.9,"co":222.0,"o3":8.0,"so2":10.0,"mosquito_risk":7,"arthritis_risk":5,"migraine_risk":3,"frizz_risk":1,"updated_at":"2026-05-09T02:34:51.727250+05:30"},{"city":"Trichy","state":"Tamil Nadu","latitude":10.7905,"longitude":78.7047,"temp":26.6,"humidity":83,"rain":0.0,"pressure":997.2,"uv_index":4.05,"wind_gusts":31.3,"aqi":45,"pm10":17.8,"pm2_5":16.8,"no2":30.0,"co":254.0,"o3":5.0,"so2":16.4,"mosquito_risk":7,"arthritis_risk":5,"migraine_risk":3,"frizz_risk":1,"updated_at":"2026-05-09T02:34:51.727259+05:30"},{"city":"Salem","state":"Tamil Nadu","latitude":11.6643,"longitude":78.146,"temp":25.3,"humidity":92,"rain":0.0,"pressure":975.2,"uv_index":3.8,"wind_gusts":32.4,"aqi":53,"pm10":16.8,"pm2_5":16.1,"no2":23.8,"co":392.0,"o3":27.0,"so2":11.9,"mosquito_risk":7,"arthritis_risk":5,"migraine_risk":3,"frizz_risk":1,"updated_at":"2026-05-09T02:34:51.727267+05:30"},{"city":"Tirunelveli","state":"Tamil Nadu","latitude":8.7139,"longitude":77.7567,"temp":25.1,"humidity":94,"rain":0.0,"pressure":1000.6,"uv_index":7.1,"wind_gusts":42.1,"aqi":43,"pm10":12.5,"pm2_5":12.4,"no2":10.8,"co":178.0,"o3":52.0,"so2":4.7,"mosquito_risk":7,"arthritis_risk":5,"migraine_risk":4,"frizz_risk":1,"updated_at":"2026-05-09T02:34:51.727275+05:30"},{"city":"Vellore","state":"Tamil Nadu","latitude":12.9165,"longitude":79.1325,"temp":25.6,"humidity":84,"rain":0.0,"pressure":982.9,"uv_index":8.6,"wind_gusts":50.4,"aqi":46,"pm10":19.0,"pm2_5":17.5,"no2":22.8,"co":227.0,"o3":17.0,"so2":10.5,"mosquito_risk":7,"arthritis_risk":5,"migraine_risk":7,"frizz_risk":1,"updated_at":"2026-05-09T02:34:51.727283+05:30"},{"city":"Erode","state":"Tamil Nadu","latitude":11.341,"longitude":77.7172,"temp":25.3,"humidity":97,"rain":0.0,"pressure":986.9,"uv_index":8.3,"wind_gusts":34.9,"aqi":56,"pm10":15.0,"pm2_5":14.7,"no2":19.6,"co":313.0,"o3":32.0,"so2":13.3,"mosquito_risk":7,"arthritis_risk":5,"migraine_risk":7,"frizz_risk":1,"updated_at":"2026-05-09T02:34:51.727291+05:30"},{"city":"Kochi","state":"Kerala","latitude":9.9312,"longitude":76.2673,"temp":25.6,"humidity":94,"rain":0.0,"pressure":1005.5,"uv_index":7.7,"wind_gusts":24.1,"aqi":65,"pm10":15.5,"pm2_5":15.3,"no2":10.0,"co":321.0,"o3":51.0,"so2":3.4,"mosquito_risk":7,"arthritis_risk":5,"migraine_risk":4,"frizz_risk":1,"updated_at":"2026-05-09T02:34:51.727298+05:30"},{"city":"Thiruvananthapuram","state":"Kerala","latitude":8.5241,"longitude":76.9366,"temp":24.9,"humidity":98,"rain":0.0,"pressure":1004.8,"uv_index":3.95,"wind_gusts":28.1,"aqi":49,"pm10":8.6,"pm2_5":7.8,"no2":4.8,"co":566.0,"o3":92.0,"so2":3.5,"mosquito_risk":3,"arthritis_risk":5,"migraine_risk":0,"frizz_risk":1,"updated_at":"2026-05-09T02:34:51.727306+05:30"},{"city":"Kozhikode","state":"Kerala","latitude":11.2588,"longitude":75.7804,"temp":26.0,"humidity":96,"rain":0.0,"pressure":1005.1,"uv_index":8.9,"wind_gusts":28.1,"aqi":70,"pm10":23.5,"pm2_5":17.5,"no2":2.7,"co":436.0,"o3":114.0,"so2":2.7,"mosquito_risk":7,"arthritis_risk":5,"migraine_risk":4,"frizz_risk":1,"updated_at":"2026-05-09T02:34:51.727312+05:30"},{"city":"Thrissur","state":"Kerala","latitude":10.5276,"longitude":76.2144,"temp":25.0,"humidity":96,"rain":0.0,"pressure":1004.1,"uv_index":8.6,"wind_gusts":28.4,"aqi":70,"pm10":19.1,"pm2_5":18.6,"no2":11.4,"co":537.0,"o3":52.0,"so2":3.0,"mosquito_risk":7,"arthritis_risk":5,"migraine_risk":4,"frizz_risk":1,"updated_at":"2026-05-09T02:34:51.727321+05:30"},{"city":"Kannur","state":"Kerala","latitude":11.8745,"longitude":75.3704,"temp":25.9,"humidity":96,"rain":0.0,"pressure":1004.5,"uv_index":8.3,"wind_gusts":30.6,"aqi":83,"pm10":29.3,"pm2_5":22.4,"no2":6.8,"co":232.0,"o3":89.0,"so2":2.5,"mosquito_risk":7,"arthritis_risk":5,"migraine_risk":4,"frizz_risk":1,"updated_at":"2026-05-09T02:34:51.727328+05:30"},{"city":"Patna","state":"Bihar","latitude":25.5941,"longitude":85.1376,"temp":23.0,"humidity":82,"rain":0.0,"pressure":1001.8,"uv_index":8.65,"wind_gusts":32.0,"aqi":142,"pm10":63.6,"pm2_5":59.1,"no2":14.7,"co":518.0,"o3":94.0,"so2":14.4,"mosquito_risk":3,"arthritis_risk":5,"migraine_risk":4,"frizz_risk":1,"updated_at":"2026-05-09T02:34:51.727335+05:30"},{"city":"Gaya","state":"Bihar","latitude":24.7914,"longitude":85.0002,"temp":22.8,"humidity":79,"rain":0.0,"pressure":994.4,"uv_index":8.75,"wind_gusts":29.5,"aqi":131,"pm10":56.6,"pm2_5":51.1,"no2":11.1,"co":420.0,"o3":116.0,"so2":23.4,"mosquito_risk":3,"arthritis_risk":5,"migraine_risk":7,"frizz_risk":1,"updated_at":"2026-05-09T02:34:51.727342+05:30"},{"city":"Muzaffarpur","state":"Bihar","latitude":26.1209,"longitude":85.3647,"temp":22.5,"humidity":81,"rain":0.0,"pressure":1002.1,"uv_index":8.65,"wind_gusts":32.8,"aqi":151,"pm10":73.6,"pm2_5":68.0,"no2":17.4,"co":521.0,"o3":82.0,"so2":14.1,"mosquito_risk":3,"arthritis_risk":5,"migraine_risk":4,"frizz_risk":1,"updated_at":"2026-05-09T02:34:51.727348+05:30"},{"city":"Bhagalpur","state":"Bihar","latitude":25.2425,"longitude":87.0117,"temp":22.9,"humidity":88,"rain":0.0,"pressure":1003.0,"uv_index":8.7,"wind_gusts":34.9,"aqi":151,"pm10":73.8,"pm2_5":63.1,"no2":20.7,"co":480.0,"o3":79.0,"so2":11.7,"mosquito_risk":3,"arthritis_risk":5,"migraine_risk":4,"frizz_risk":1,"updated_at":"2026-05-09T02:34:51.727355+05:30"},{"city":"Ranchi","state":"Jharkhand","latitude":23.3441,"longitude":85.3096,"temp":21.1,"humidity":79,"rain":0.0,"pressure":937.5,"uv_index":8.95,"wind_gusts":52.2,"aqi":107,"pm10":45.8,"pm2_5":36.2,"no2":12.0,"co":328.0,"o3":93.0,"so2":14.9,"mosquito_risk":3,"arthritis_risk":5,"migraine_risk":7,"frizz_risk":1,"updated_at":"2026-05-09T02:34:51.727362+05:30"},{"city":"Jamshedpur","state":"Jharkhand","latitude":22.8046,"longitude":86.2029,"temp":23.0,"humidity":95,"rain":0.0,"pressure":991.8,"uv_index":9.05,"wind_gusts":30.2,"aqi":99,"pm10":44.9,"pm2_5":36.7,"no2":18.2,"co":365.0,"o3":80.0,"so2":19.2,"mosquito_risk":3,"arthritis_risk":5,"migraine_risk":7,"frizz_risk":1,"updated_at":"2026-05-09T02:34:51.727368+05:30"},{"city":"Dhanbad","state":"Jharkhand","latitude":23.7957,"longitude":86.4304,"temp":22.1,"humidity":91,"rain":0.0,"pressure":981.0,"uv_index":8.8,"wind_gusts":49.0,"aqi":160,"pm10":100.1,"pm2_5":94.8,"no2":69.4,"co":468.0,"o3":27.0,"so2":80.7,"mosquito_risk":3,"arthritis_risk":5,"migraine_risk":7,"frizz_risk":1,"updated_at":"2026-05-09T02:34:51.727375+05:30"},{"city":"Bokaro","state":"Jharkhand","latitude":23.6693,"longitude":86.1511,"temp":21.1,"humidity":99,"rain":0.0,"pressure":984.9,"uv_index":8.8,"wind_gusts":50.4,"aqi":157,"pm10":101.3,"pm2_5":92.9,"no2":66.0,"co":1512.0,"o3":32.0,"so2":79.2,"mosquito_risk":3,"arthritis_risk":5,"migraine_risk":7,"frizz_risk":1,"updated_at":"2026-05-09T02:34:51.727382+05:30"},{"city":"Bhubaneswar","state":"Odisha","latitude":20.2961,"longitude":85.8245,"temp":25.8,"humidity":97,"rain":0.0,"pressure":1003.3,"uv_index":9.1,"wind_gusts":31.0,"aqi":40,"pm10":17.5,"pm2_5":15.1,"no2":12.5,"co":235.0,"o3":30.0,"so2":3.5,"mosquito_risk":7,"arthritis_risk":5,"migraine_risk":4,"frizz_risk":1,"updated_at":"2026-05-09T02:34:51.727388+05:30"},{"city":"Cuttack","state":"Odisha","latitude":20.4625,"longitude":85.8828,"temp":25.6,"humidity":97,"rain":0.0,"pressure":1005.2,"uv_index":9.15,"wind_gusts":29.2,"aqi":40,"pm10":17.5,"pm2_5":15.1,"no2":12.5,"co":254.0,"o3":30.0,"so2":3.5,"mosquito_risk":7,"arthritis_risk":5,"migraine_risk":4,"frizz_risk":1,"updated_at":"2026-05-09T02:34:51.727395+05:30"},{"city":"Rourkela","state":"Odisha","latitude":22.2604,"longitude":84.8536,"temp":22.4,"humidity":94,"rain":0.0,"pressure":985.5,"uv_index":8.7,"wind_gusts":51.8,"aqi":101,"pm10":51.2,"pm2_5":44.6,"no2":24.8,"co":648.0,"o3":52.0,"so2":37.8,"mosquito_risk":3,"arthritis_risk":5,"migraine_risk":7,"frizz_risk":1,"updated_at":"2026-05-09T02:34:51.727402+05:30"},{"city":"Raipur","state":"Chhattisgarh","latitude":21.2514,"longitude":81.6296,"temp":27.4,"humidity":50,"rain":0.0,"pressure":973.9,"uv_index":8.95,"wind_gusts":50.8,"aqi":136,"pm10":87.8,"pm2_5":77.1,"no2":56.6,"co":314.0,"o3":24.0,"so2":13.4,"mosquito_risk":4,"arthritis_risk":5,"migraine_risk":7,"frizz_risk":1,"updated_at":"2026-05-09T02:34:51.727409+05:30"},{"city":"Bhilai","state":"Chhattisgarh","latitude":21.1938,"longitude":81.3509,"temp":27.2,"humidity":51,"rain":0.0,"pressure":974.4,"uv_index":8.95,"wind_gusts":55.4,"aqi":118,"pm10":99.7,"pm2_5":84.3,"no2":67.5,"co":293.0,"o3":15.0,"so2":13.8,"mosquito_risk":4,"arthritis_risk":5,"migraine_risk":7,"frizz_risk":1,"updated_at":"2026-05-09T02:34:51.727415+05:30"},{"city":"Guwahati","state":"Assam","latitude":26.1158,"longitude":91.7086,"temp":21.5,"humidity":87,"rain":0.0,"pressure":1003.2,"uv_index":8.65,"wind_gusts":25.9,"aqi":109,"pm10":54.2,"pm2_5":47.3,"no2":24.6,"co":321.0,"o3":23.0,"so2":2.6,"mosquito_risk":3,"arthritis_risk":5,"migraine_risk":4,"frizz_risk":1,"updated_at":"2026-05-09T02:34:51.727422+05:30"},{"city":"Agartala","state":"Tripura","latitude":23.8315,"longitude":91.2868,"temp":23.4,"humidity":85,"rain":0.0,"pressure":1007.2,"uv_index":8.75,"wind_gusts":19.8,"aqi":160,"pm10":125.7,"pm2_5":116.9,"no2":83.4,"co":521.0,"o3":19.0,"so2":8.5,"mosquito_risk":3,"arthritis_risk":5,"migraine_risk":4,"frizz_risk":1,"updated_at":"2026-05-09T02:34:51.727429+05:30"},{"city":"Shillong","state":"Meghalaya","latitude":25.5788,"longitude":91.8933,"temp":15.6,"humidity":87,"rain":0.0,"pressure":857.4,"uv_index":8.4,"wind_gusts":19.8,"aqi":82,"pm10":27.1,"pm2_5":23.0,"no2":11.7,"co":304.0,"o3":51.0,"so2":1.1,"mosquito_risk":3,"arthritis_risk":10,"migraine_risk":7,"frizz_risk":0,"updated_at":"2026-05-09T02:34:51.727436+05:30"},{"city":"Imphal","state":"Manipur","latitude":24.817,"longitude":93.9368,"temp":17.0,"humidity":85,"rain":0.0,"pressure":923.6,"uv_index":9.05,"wind_gusts":25.9,"aqi":98,"pm10":59.5,"pm2_5":53.2,"no2":28.0,"co":396.0,"o3":26.0,"so2":5.5,"mosquito_risk":3,"arthritis_risk":10,"migraine_risk":7,"frizz_risk":0,"updated_at":"2026-05-09T02:34:51.727443+05:30"},{"city":"Aizawl","state":"Mizoram","latitude":23.7271,"longitude":92.7176,"temp":15.6,"humidity":90,"rain":0.0,"pressure":891.9,"uv_index":8.75,"wind_gusts":24.5,"aqi":82,"pm10":41.2,"pm2_5":35.0,"no2":18.0,"co":387.0,"o3":20.0,"so2":1.4,"mosquito_risk":3,"arthritis_risk":10,"migraine_risk":7,"frizz_risk":0,"updated_at":"2026-05-09T02:34:51.727450+05:30"},{"city":"Kohima","state":"Nagaland","latitude":25.6701,"longitude":94.1077,"temp":14.4,"humidity":91,"rain":0.0,"pressure":855.1,"uv_index":9.15,"wind_gusts":31.3,"aqi":80,"pm10":39.6,"pm2_5":34.0,"no2":12.1,"co":269.0,"o3":47.0,"so2":0.2,"mosquito_risk":3,"arthritis_risk":10,"migraine_risk":7,"frizz_risk":0,"updated_at":"2026-05-09T02:34:51.727457+05:30"},{"city":"Gangtok","state":"Sikkim","latitude":27.3314,"longitude":88.6138,"temp":8.5,"humidity":97,"rain":0.0,"pressure":835.6,"uv_index":8.1,"wind_gusts":39.6,"aqi":70,"pm10":24.5,"pm2_5":19.0,"no2":15.6,"co":151.0,"o3":48.0,"so2":0.3,"mosquito_risk":3,"arthritis_risk":10,"migraine_risk":7,"frizz_risk":0,"updated_at":"2026-05-09T02:34:51.727464+05:30"},{"city":"Siliguri","state":"West Bengal","latitude":26.7271,"longitude":88.3953,"temp":21.9,"humidity":75,"rain":0.0,"pressure":994.9,"uv_index":8.55,"wind_gusts":22.7,"aqi":120,"pm10":63.1,"pm2_5":56.5,"no2":45.3,"co":778.0,"o3":19.0,"so2":3.2,"mosquito_risk":3,"arthritis_risk":5,"migraine_risk":7,"frizz_risk":1,"updated_at":"2026-05-09T02:34:55.093687+05:30"},{"city":"Durgapur","state":"West Bengal","latitude":23.5204,"longitude":87.3119,"temp":24.1,"humidity":94,"rain":0.0,"pressure":996.3,"uv_index":8.9,"wind_gusts":34.9,"aqi":157,"pm10":96.4,"pm2_5":92.2,"no2":51.7,"co":440.0,"o3":40.0,"so2":53.4,"mosquito_risk":3,"arthritis_risk":5,"migraine_risk":7,"frizz_risk":1,"updated_at":"2026-05-09T02:34:55.093721+05:30"},{"city":"Asansol","state":"West Bengal","latitude":23.6739,"longitude":86.9524,"temp":22.5,"humidity":95,"rain":0.0,"pressure":994.7,"uv_index":8.95,"wind_gusts":42.5,"aqi":155,"pm10":84.8,"pm2_5":80.8,"no2":51.3,"co":963.0,"o3":37.0,"so2":65.9,"mosquito_risk":3,"arthritis_risk":5,"migraine_risk":7,"frizz_risk":1,"updated_at":"2026-05-09T02:34:55.093732+05:30"},{"city":"Pondicherry","state":"Puducherry","latitude":11.9139,"longitude":79.8145,"temp":26.5,"humidity":88,"rain":0.0,"pressure":1006.2,"uv_index":5.75,"wind_gusts":36.4,"aqi":19,"pm10":3.2,"pm2_5":2.3,"no2":2.3,"co":171.0,"o3":46.0,"so2":0.3,"mosquito_risk":7,"arthritis_risk":5,"migraine_risk":0,"frizz_risk":1,"updated_at":"2026-05-09T02:34:55.093741+05:30"},{"city":"Port Blair","state":"Andaman and Nicobar Islands","latitude":11.6234,"longitude":92.7265,"temp":25.5,"humidity":94,"rain":0.1,"pressure":1005.3,"uv_index":9.05,"wind_gusts":38.5,"aqi":28,"pm10":3.0,"pm2_5":2.2,"no2":0.2,"co":126.0,"o3":59.0,"so2":0.0,"mosquito_risk":10,"arthritis_risk":5,"migraine_risk":4,"frizz_risk":1,"updated_at":"2026-05-09T02:34:55.093749+05:30"},{"city":"Haridwar","state":"Uttarakhand","latitude":29.9457,"longitude":78.1642,"temp":20.0,"humidity":78,"rain":0.0,"pressure":974.3,"uv_index":7.2,"wind_gusts":25.9,"aqi":92,"pm10":37.5,"pm2_5":32.1,"no2":38.6,"co":307.0,"o3":8.0,"so2":3.7,"mosquito_risk":3,"arthritis_risk":5,"migraine_risk":7,"frizz_risk":0,"updated_at":"2026-05-09T02:34:55.093757+05:30"},{"city":"Rishikesh","state":"Uttarakhand","latitude":30.0869,"longitude":78.2676,"temp":17.5,"humidity":86,"rain":0.0,"pressure":966.8,"uv_index":7.35,"wind_gusts":30.6,"aqi":72,"pm10":25.4,"pm2_5":18.5,"no2":19.1,"co":354.0,"o3":33.0,"so2":0.7,"mosquito_risk":3,"arthritis_risk":10,"migraine_risk":7,"frizz_risk":0,"updated_at":"2026-05-09T02:34:55.093764+05:30"},{"city":"Nainital","state":"Uttarakhand","latitude":29.3919,"longitude":79.4542,"temp":11.2,"humidity":81,"rain":0.0,"pressure":804.2,"uv_index":7.55,"wind_gusts":31.3,"aqi":64,"pm10":34.5,"pm2_5":25.6,"no2":25.7,"co":265.0,"o3":38.0,"so2":2.6,"mosquito_risk":3,"arthritis_risk":10,"migraine_risk":7,"frizz_risk":0,"updated_at":"2026-05-09T02:34:55.093771+05:30"},{"city":"Mussoorie","state":"Uttarakhand","latitude":30.4599,"longitude":78.0664,"temp":11.7,"humidity":79,"rain":0.0,"pressure":801.5,"uv_index":7.85,"wind_gusts":41.4,"aqi":87,"pm10":35.9,"pm2_5":27.9,"no2":42.8,"co":225.0,"o3":15.0,"so2":5.8,"mosquito_risk":3,"arthritis_risk":5,"migraine_risk":7,"frizz_risk":0,"updated_at":"2026-05-09T02:34:55.093779+05:30"},{"city":"Dharamshala","state":"Himachal Pradesh","latitude":32.219,"longitude":76.3234,"temp":16.9,"humidity":69,"rain":0.0,"pressure":868.2,"uv_index":8.25,"wind_gusts":38.9,"aqi":64,"pm10":28.4,"pm2_5":12.4,"no2":10.1,"co":248.0,"o3":65.0,"so2":0.5,"mosquito_risk":3,"arthritis_risk":5,"migraine_risk":7,"frizz_risk":0,"updated_at":"2026-05-09T02:34:55.093787+05:30"},{"city":"Dalhousie","state":"Himachal Pradesh","latitude":32.5387,"longitude":75.971,"temp":7.6,"humidity":98,"rain":0.0,"pressure":799.8,"uv_index":8.5,"wind_gusts":34.6,"aqi":99,"pm10":53.3,"pm2_5":33.3,"no2":27.3,"co":362.0,"o3":38.0,"so2":1.9,"mosquito_risk":3,"arthritis_risk":10,"migraine_risk":7,"frizz_risk":0,"updated_at":"2026-05-09T02:34:55.093794+05:30"},{"city":"Patiala","state":"Punjab","latitude":30.3398,"longitude":76.3869,"temp":22.5,"humidity":68,"rain":0.0,"pressure":978.4,"uv_index":7.5,"wind_gusts":27.0,"aqi":350,"pm10":85.0,"pm2_5":51.9,"no2":22.9,"co":354.0,"o3":57.0,"so2":8.9,"mosquito_risk":3,"arthritis_risk":5,"migraine_risk":7,"frizz_risk":1,"updated_at":"2026-05-09T02:34:55.093802+05:30"},{"city":"Bhatinda","state":"Punjab","latitude":30.211,"longitude":74.9455,"temp":25.0,"humidity":55,"rain":0.0,"pressure":983.6,"uv_index":8.2,"wind_gusts":26.6,"aqi":577,"pm10":306.4,"pm2_5":78.0,"no2":7.0,"co":333.0,"o3":101.0,"so2":10.6,"mosquito_risk":4,"arthritis_risk":5,"migraine_risk":7,"frizz_risk":0,"updated_at":"2026-05-09T02:34:55.093809+05:30"},{"city":"Rohtak","state":"Haryana","latitude":28.8955,"longitude":76.6066,"temp":22.9,"humidity":72,"rain":0.0,"pressure":981.7,"uv_index":7.6,"wind_gusts":34.2,"aqi":558,"pm10":130.9,"pm2_5":56.7,"no2":24.0,"co":435.0,"o3":73.0,"so2":20.5,"mosquito_risk":3,"arthritis_risk":5,"migraine_risk":7,"frizz_risk":1,"updated_at":"2026-05-09T02:34:55.093816+05:30"},{"city":"Panipat","state":"Haryana","latitude":29.3909,"longitude":76.9635,"temp":22.1,"humidity":74,"rain":0.0,"pressure":980.6,"uv_index":7.45,"wind_gusts":28.1,"aqi":857,"pm10":113.9,"pm2_5":56.1,"no2":21.7,"co":476.0,"o3":56.0,"so2":9.1,"mosquito_risk":3,"arthritis_risk":5,"migraine_risk":7,"frizz_risk":1,"updated_at":"2026-05-09T02:34:55.093822+05:30"},{"city":"Mathura","state":"Uttar Pradesh","latitude":27.4924,"longitude":77.6737,"temp":23.8,"humidity":63,"rain":0.0,"pressure":986.8,"uv_index":7.85,"wind_gusts":24.1,"aqi":1052,"pm10":586.7,"pm2_5":99.4,"no2":8.2,"co":389.0,"o3":96.0,"so2":15.0,"mosquito_risk":3,"arthritis_risk":5,"migraine_risk":7,"frizz_risk":1,"updated_at":"2026-05-09T02:34:55.093829+05:30"},{"city":"Vrindavan","state":"Uttar Pradesh","latitude":27.5823,"longitude":77.7027,"temp":24.0,"humidity":62,"rain":0.0,"pressure":987.3,"uv_index":7.8,"wind_gusts":24.5,"aqi":1052,"pm10":586.7,"pm2_5":99.4,"no2":8.2,"co":385.0,"o3":96.0,"so2":15.0,"mosquito_risk":3,"arthritis_risk":5,"migraine_risk":7,"frizz_risk":1,"updated_at":"2026-05-09T02:34:55.093836+05:30"},{"city":"Ayodhya","state":"Uttar Pradesh","latitude":26.7922,"longitude":82.1998,"temp":22.7,"humidity":75,"rain":0.0,"pressure":996.4,"uv_index":8.15,"wind_gusts":36.4,"aqi":93,"pm10":49.7,"pm2_5":38.0,"no2":13.0,"co":439.0,"o3":98.0,"so2":7.9,"mosquito_risk":3,"arthritis_risk":5,"migraine_risk":7,"frizz_risk":1,"updated_at":"2026-05-09T02:34:55.093843+05:30"},{"city":"Ratlam","state":"Madhya Pradesh","latitude":23.3315,"longitude":75.0367,"temp":26.6,"humidity":25,"rain":0.0,"pressure":953.1,"uv_index":8.5,"wind_gusts":41.0,"aqi":72,"pm10":27.7,"pm2_5":16.3,"no2":3.2,"co":200.0,"o3":102.0,"so2":5.6,"mosquito_risk":4,"arthritis_risk":5,"migraine_risk":7,"frizz_risk":0,"updated_at":"2026-05-09T02:34:55.093850+05:30"},{"city":"Sagar","state":"Madhya Pradesh","latitude":23.8388,"longitude":78.7378,"temp":26.0,"humidity":36,"rain":0.0,"pressure":948.2,"uv_index":8.6,"wind_gusts":45.4,"aqi":62,"pm10":32.7,"pm2_5":18.9,"no2":6.2,"co":217.0,"o3":98.0,"so2":4.4,"mosquito_risk":4,"arthritis_risk":5,"migraine_risk":7,"frizz_risk":0,"updated_at":"2026-05-09T02:34:55.093857+05:30"},{"city":"Satna","state":"Madhya Pradesh","latitude":24.6005,"longitude":80.8322,"temp":23.6,"humidity":57,"rain":0.0,"pressure":970.1,"uv_index":8.65,"wind_gusts":51.5,"aqi":99,"pm10":40.4,"pm2_5":29.9,"no2":9.4,"co":362.0,"o3":125.0,"so2":12.9,"mosquito_risk":0,"arthritis_risk":5,"migraine_risk":7,"frizz_risk":0,"updated_at":"2026-05-09T02:34:55.093864+05:30"},{"city":"Akola","state":"Maharashtra","latitude":20.7002,"longitude":77.0082,"temp":29.8,"humidity":32,"rain":0.0,"pressure":973.4,"uv_index":8.85,"wind_gusts":46.4,"aqi":84,"pm10":42.7,"pm2_5":30.4,"no2":18.5,"co":326.0,"o3":70.0,"so2":4.8,"mosquito_risk":4,"arthritis_risk":5,"migraine_risk":7,"frizz_risk":0,"updated_at":"2026-05-09T02:34:55.093871+05:30"},{"city":"Amravati","state":"Maharashtra","latitude":20.9374,"longitude":77.7796,"temp":29.5,"humidity":39,"rain":0.0,"pressure":966.2,"uv_index":8.85,"wind_gusts":41.4,"aqi":88,"pm10":49.5,"pm2_5":34.8,"no2":23.8,"co":327.0,"o3":61.0,"so2":6.8,"mosquito_risk":4,"arthritis_risk":5,"migraine_risk":7,"frizz_risk":0,"updated_at":"2026-05-09T02:34:55.093879+05:30"},{"city":"Latur","state":"Maharashtra","latitude":18.4088,"longitude":76.5604,"temp":28.1,"humidity":46,"rain":0.0,"pressure":939.0,"uv_index":9.1,"wind_gusts":34.6,"aqi":86,"pm10":21.7,"pm2_5":19.4,"no2":10.2,"co":273.0,"o3":78.0,"so2":4.6,"mosquito_risk":4,"arthritis_risk":5,"migraine_risk":7,"frizz_risk":0,"updated_at":"2026-05-09T02:34:55.093886+05:30"},{"city":"Nanded","state":"Maharashtra","latitude":19.1383,"longitude":77.3091,"temp":28.8,"humidity":51,"rain":0.0,"pressure":967.8,"uv_index":9.0,"wind_gusts":46.1,"aqi":85,"pm10":24.0,"pm2_5":21.2,"no2":10.4,"co":271.0,"o3":77.0,"so2":4.7,"mosquito_risk":4,"arthritis_risk":5,"migraine_risk":7,"frizz_risk":1,"updated_at":"2026-05-09T02:34:55.093892+05:30"},{"city":"Gulbarga","state":"Karnataka","latitude":17.3297,"longitude":76.8343,"temp":28.0,"humidity":51,"rain":0.0,"pressure":958.0,"uv_index":9.0,"wind_gusts":38.5,"aqi":59,"pm10":16.2,"pm2_5":14.6,"no2":9.2,"co":246.0,"o3":83.0,"so2":5.6,"mosquito_risk":4,"arthritis_risk":5,"migraine_risk":7,"frizz_risk":1,"updated_at":"2026-05-09T02:34:55.093899+05:30"},{"city":"Bidar","state":"Karnataka","latitude":17.9104,"longitude":77.5199,"temp":25.6,"humidity":59,"rain":0.0,"pressure":935.0,"uv_index":8.9,"wind_gusts":43.2,"aqi":67,"pm10":19.3,"pm2_5":17.5,"no2":11.6,"co":256.0,"o3":76.0,"so2":7.1,"mosquito_risk":4,"arthritis_risk":5,"migraine_risk":7,"frizz_risk":1,"updated_at":"2026-05-09T02:34:55.093905+05:30"},{"city":"Hospet","state":"Karnataka","latitude":15.2689,"longitude":76.3909,"temp":26.1,"humidity":62,"rain":0.0,"pressure":954.4,"uv_index":9.25,"wind_gusts":33.1,"aqi":52,"pm10":11.1,"pm2_5":9.8,"no2":11.2,"co":184.0,"o3":54.0,"so2":7.6,"mosquito_risk":7,"arthritis_risk":5,"migraine_risk":7,"frizz_risk":1,"updated_at":"2026-05-09T02:34:55.093912+05:30"},{"city":"Tirupur","state":"Tamil Nadu","latitude":11.1085,"longitude":77.3411,"temp":25.1,"humidity":95,"rain":0.0,"pressure":972.9,"uv_index":8.5,"wind_gusts":32.8,"aqi":64,"pm10":25.7,"pm2_5":25.3,"no2":21.4,"co":285.0,"o3":47.0,"so2":6.8,"mosquito_risk":7,"arthritis_risk":5,"migraine_risk":7,"frizz_risk":1,"updated_at":"2026-05-09T02:34:55.093919+05:30"},{"city":"Alappuzha","state":"Kerala","latitude":9.4981,"longitude":76.3388,"temp":25.7,"humidity":95,"rain":0.0,"pressure":1005.4,"uv_index":6.45,"wind_gusts":31.0,"aqi":63,"pm10":25.6,"pm2_5":24.9,"no2":15.7,"co":225.0,"o3":72.0,"so2":6.2,"mosquito_risk":7,"arthritis_risk":5,"migraine_risk":4,"frizz_risk":1,"updated_at":"2026-05-09T02:34:55.093926+05:30"},{"city":"Munnar","state":"Kerala","latitude":10.0889,"longitude":77.0595,"temp":17.5,"humidity":94,"rain":0.0,"pressure":853.3,"uv_index":4.1,"wind_gusts":21.6,"aqi":43,"pm10":19.0,"pm2_5":18.8,"no2":9.6,"co":194.0,"o3":42.0,"so2":3.0,"mosquito_risk":3,"arthritis_risk":10,"migraine_risk":3,"frizz_risk":1,"updated_at":"2026-05-09T02:34:55.093933+05:30"},{"city":"Silchar","state":"Assam","latitude":24.8333,"longitude":92.7789,"temp":22.7,"humidity":88,"rain":0.0,"pressure":1006.3,"uv_index":8.5,"wind_gusts":15.5,"aqi":127,"pm10":67.5,"pm2_5":61.2,"no2":26.4,"co":623.0,"o3":13.0,"so2":4.3,"mosquito_risk":3,"arthritis_risk":5,"migraine_risk":4,"frizz_risk":1,"updated_at":"2026-05-09T02:34:55.093940+05:30"},{"city":"Dibrugarh","state":"Assam","latitude":27.4728,"longitude":94.912,"temp":23.0,"humidity":91,"rain":0.0,"pressure":997.3,"uv_index":8.8,"wind_gusts":16.2,"aqi":75,"pm10":39.9,"pm2_5":36.9,"no2":34.4,"co":566.0,"o3":1.0,"so2":1.1,"mosquito_risk":3,"arthritis_risk":5,"migraine_risk":7,"frizz_risk":1,"updated_at":"2026-05-09T02:34:55.093947+05:30"}]