[{"city":"Delhi","state":"Delhi","latitude":28.6139,"longitude":77.209,"temp":30.2,"humidity":73,"rain":0.0,"pressure":977.0,"uv_index":6.9,"wind_gusts":28.4,"aqi":539,"pm10":252.4,"pm2_5":94.8,"no2":52.5,"co":262.0,"o3":16.0,"so2":23.9,"mosquito_risk":3,"arthritis_risk":5,"migraine_risk":7,"frizz_risk":1,"updated_at":"2026-07-19T05:26:12.747274+05:30"},{"city":"Mumbai","state":"Maharashtra","latitude":19.076,"longitude":72.8777,"temp":26.0,"humidity":94,"rain":0.1,"pressure":1005.7,"uv_index":6.7,"wind_gusts":39.6,"aqi":62,"pm10":30.3,"pm2_5":13.8,"no2":6.4,"co":136.0,"o3":44.0,"so2":5.5,"mosquito_risk":10,"arthritis_risk":5,"migraine_risk":4,"frizz_risk":1,"updated_at":"2026-07-19T05:26:12.747318+05:30"},{"city":"Bangalore","state":"Karnataka","latitude":12.9716,"longitude":77.5946,"temp":20.4,"humidity":93,"rain":0.0,"pressure":910.5,"uv_index":6.7,"wind_gusts":47.5,"aqi":52,"pm10":8.4,"pm2_5":5.8,"no2":10.4,"co":170.0,"o3":28.0,"so2":4.2,"mosquito_risk":3,"arthritis_risk":5,"migraine_risk":7,"frizz_risk":1,"updated_at":"2026-07-19T05:26:12.747334+05:30"},{"city":"Hyderabad","state":"Telangana","latitude":17.385,"longitude":78.4867,"temp":24.0,"humidity":90,"rain":0.0,"pressure":950.9,"uv_index":5.5,"wind_gusts":41.8,"aqi":48,"pm10":3.8,"pm2_5":3.3,"no2":8.2,"co":164.0,"o3":38.0,"so2":4.2,"mosquito_risk":3,"arthritis_risk":5,"migraine_risk":3,"frizz_risk":1,"updated_at":"2026-07-19T05:26:12.747344+05:30"},{"city":"Chennai","state":"Tamil Nadu","latitude":13.0827,"longitude":80.2707,"temp":25.7,"humidity":85,"rain":0.0,"pressure":1005.8,"uv_index":7.6,"wind_gusts":33.5,"aqi":74,"pm10":27.5,"pm2_5":18.7,"no2":20.3,"co":224.0,"o3":31.0,"so2":8.4,"mosquito_risk":7,"arthritis_risk":5,"migraine_risk":4,"frizz_risk":1,"updated_at":"2026-07-19T05:26:12.747353+05:30"},{"city":"Kolkata","state":"West Bengal","latitude":22.5726,"longitude":88.3639,"temp":26.0,"humidity":96,"rain":0.1,"pressure":1001.6,"uv_index":8.05,"wind_gusts":33.8,"aqi":61,"pm10":19.0,"pm2_5":15.0,"no2":7.4,"co":230.0,"o3":85.0,"so2":4.9,"mosquito_risk":10,"arthritis_risk":5,"migraine_risk":4,"frizz_risk":1,"updated_at":"2026-07-19T05:26:12.747360+05:30"},{"city":"Pune","state":"Maharashtra","latitude":18.5204,"longitude":73.8567,"temp":22.9,"humidity":90,"rain":0.0,"pressure":945.3,"uv_index":6.1,"wind_gusts":46.8,"aqi":29,"pm10":2.2,"pm2_5":2.1,"no2":7.3,"co":118.0,"o3":33.0,"so2":5.8,"mosquito_risk":3,"arthritis_risk":5,"migraine_risk":7,"frizz_risk":1,"updated_at":"2026-07-19T05:26:12.747367+05:30"},{"city":"Ahmedabad","state":"Gujarat","latitude":23.0225,"longitude":72.5714,"temp":27.4,"humidity":85,"rain":0.0,"pressure":998.0,"uv_index":7.0,"wind_gusts":40.7,"aqi":62,"pm10":34.0,"pm2_5":18.5,"no2":10.2,"co":142.0,"o3":30.0,"so2":4.6,"mosquito_risk":7,"arthritis_risk":5,"migraine_risk":7,"frizz_risk":1,"updated_at":"2026-07-19T05:26:12.747374+05:30"},{"city":"Jaipur","state":"Rajasthan","latitude":26.9124,"longitude":75.7873,"temp":30.4,"humidity":57,"rain":0.0,"pressure":955.0,"uv_index":7.8,"wind_gusts":32.8,"aqi":179,"pm10":332.5,"pm2_5":64.0,"no2":13.8,"co":155.0,"o3":36.0,"so2":4.9,"mosquito_risk":0,"arthritis_risk":5,"migraine_risk":7,"frizz_risk":1,"updated_at":"2026-07-19T05:26:12.747381+05:30"},{"city":"Lucknow","state":"Uttar Pradesh","latitude":26.8467,"longitude":80.9462,"temp":27.3,"humidity":93,"rain":0.0,"pressure":988.9,"uv_index":5.8,"wind_gusts":22.7,"aqi":163,"pm10":46.3,"pm2_5":39.9,"no2":18.5,"co":365.0,"o3":54.0,"so2":7.3,"mosquito_risk":7,"arthritis_risk":5,"migraine_risk":3,"frizz_risk":1,"updated_at":"2026-07-19T05:26:12.747407+05:30"},{"city":"Kanpur","state":"Uttar Pradesh","latitude":26.4499,"longitude":80.3319,"temp":27.7,"humidity":91,"rain":0.0,"pressure":986.8,"uv_index":1.45,"wind_gusts":19.8,"aqi":161,"pm10":87.5,"pm2_5":56.5,"no2":18.6,"co":311.0,"o3":54.0,"so2":8.3,"mosquito_risk":7,"arthritis_risk":5,"migraine_risk":3,"frizz_risk":1,"updated_at":"2026-07-19T05:26:12.747414+05:30"},{"city":"Chandigarh","state":"Chandigarh","latitude":30.7333,"longitude":76.7794,"temp":27.8,"humidity":83,"rain":0.0,"pressure":963.2,"uv_index":7.6,"wind_gusts":28.1,"aqi":158,"pm10":124.8,"pm2_5":79.9,"no2":44.4,"co":301.0,"o3":32.0,"so2":13.7,"mosquito_risk":7,"arthritis_risk":5,"migraine_risk":7,"frizz_risk":1,"updated_at":"2026-07-19T05:26:12.747420+05:30"},{"city":"Srinagar","state":"Jammu and Kashmir","latitude":34.0837,"longitude":74.7973,"temp":22.9,"humidity":88,"rain":0.0,"pressure":837.9,"uv_index":9.0,"wind_gusts":25.2,"aqi":95,"pm10":36.9,"pm2_5":31.3,"no2":21.4,"co":525.0,"o3":44.0,"so2":4.1,"mosquito_risk":3,"arthritis_risk":5,"migraine_risk":7,"frizz_risk":1,"updated_at":"2026-07-19T05:26:12.747426+05:30"},{"city":"Jammu","state":"Jammu and Kashmir","latitude":32.7266,"longitude":74.857,"temp":26.6,"humidity":92,"rain":0.1,"pressure":966.4,"uv_index":7.6,"wind_gusts":29.9,"aqi":151,"pm10":101.0,"pm2_5":59.8,"no2":31.4,"co":272.0,"o3":52.0,"so2":5.9,"mosquito_risk":10,"arthritis_risk":5,"migraine_risk":7,"frizz_risk":1,"updated_at":"2026-07-19T05:26:12.747432+05:30"},{"city":"Amritsar","state":"Punjab","latitude":31.634,"longitude":74.8723,"temp":29.1,"humidity":86,"rain":0.0,"pressure":973.9,"uv_index":8.2,"wind_gusts":29.9,"aqi":169,"pm10":110.1,"pm2_5":78.7,"no2":28.3,"co":572.0,"o3":42.0,"so2":7.1,"mosquito_risk":7,"arthritis_risk":5,"migraine_risk":7,"frizz_risk":1,"updated_at":"2026-07-19T05:26:12.747439+05:30"},{"city":"Ludhiana","state":"Punjab","latitude":30.901,"longitude":75.8573,"temp":29.7,"humidity":82,"rain":0.0,"pressure":972.0,"uv_index":7.85,"wind_gusts":31.3,"aqi":178,"pm10":229.1,"pm2_5":109.9,"no2":30.7,"co":903.0,"o3":46.0,"so2":15.0,"mosquito_risk":7,"arthritis_risk":5,"migraine_risk":7,"frizz_risk":1,"updated_at":"2026-07-19T05:26:12.747445+05:30"},{"city":"Jalandhar","state":"Punjab","latitude":31.326,"longitude":75.5762,"temp":29.6,"humidity":81,"rain":0.0,"pressure":973.2,"uv_index":5.35,"wind_gusts":31.7,"aqi":175,"pm10":162.1,"pm2_5":89.2,"no2":24.9,"co":931.0,"o3":58.0,"so2":16.3,"mosquito_risk":7,"arthritis_risk":5,"migraine_risk":3,"frizz_risk":1,"updated_at":"2026-07-19T05:26:12.747451+05:30"},{"city":"Dehradun","state":"Uttarakhand","latitude":30.6284,"longitude":78.0322,"temp":19.1,"humidity":100,"rain":0.0,"pressure":827.6,"uv_index":7.45,"wind_gusts":26.6,"aqi":73,"pm10":28.3,"pm2_5":12.0,"no2":4.9,"co":196.0,"o3":113.0,"so2":6.9,"mosquito_risk":3,"arthritis_risk":10,"migraine_risk":7,"frizz_risk":1,"updated_at":"2026-07-19T05:26:12.747457+05:30"},{"city":"Shimla","state":"Himachal Pradesh","latitude":31.1048,"longitude":77.1734,"temp":17.5,"humidity":94,"rain":0.0,"pressure":782.9,"uv_index":3.0,"wind_gusts":40.7,"aqi":88,"pm10":66.6,"pm2_5":29.5,"no2":4.7,"co":198.0,"o3":126.0,"so2":7.1,"mosquito_risk":3,"arthritis_risk":10,"migraine_risk":3,"frizz_risk":1,"updated_at":"2026-07-19T05:26:12.747463+05:30"},{"city":"Manali","state":"Himachal Pradesh","latitude":32.2396,"longitude":77.1887,"temp":20.6,"humidity":97,"rain":0.0,"pressure":817.5,"uv_index":4.8,"wind_gusts":32.8,"aqi":52,"pm10":14.6,"pm2_5":12.1,"no2":12.1,"co":252.0,"o3":39.0,"so2":0.1,"mosquito_risk":3,"arthritis_risk":5,"migraine_risk":3,"frizz_risk":1,"updated_at":"2026-07-19T05:26:12.747475+05:30"},{"city":"Gurgaon","state":"Haryana","latitude":28.4595,"longitude":77.0266,"temp":29.6,"humidity":72,"rain":0.0,"pressure":975.3,"uv_index":6.9,"wind_gusts":28.4,"aqi":492,"pm10":363.2,"pm2_5":98.3,"no2":30.2,"co":255.0,"o3":33.0,"so2":10.1,"mosquito_risk":7,"arthritis_risk":5,"migraine_risk":7,"frizz_risk":1,"updated_at":"2026-07-19T05:26:12.747484+05:30"},{"city":"Noida","state":"Uttar Pradesh","latitude":28.5355,"longitude":77.391,"temp":28.9,"humidity":80,"rain":0.0,"pressure":978.4,"uv_index":6.95,"wind_gusts":27.7,"aqi":492,"pm10":363.2,"pm2_5":98.3,"no2":30.2,"co":317.0,"o3":33.0,"so2":10.1,"mosquito_risk":7,"arthritis_risk":5,"migraine_risk":7,"frizz_risk":1,"updated_at":"2026-07-19T05:26:12.747490+05:30"},{"city":"Ghaziabad","state":"Uttar Pradesh","latitude":28.6692,"longitude":77.4538,"temp":28.7,"humidity":82,"rain":0.0,"pressure":976.7,"uv_index":6.5,"wind_gusts":27.7,"aqi":446,"pm10":280.3,"pm2_5":113.9,"no2":42.1,"co":638.0,"o3":16.0,"so2":13.6,"mosquito_risk":7,"arthritis_risk":5,"migraine_risk":7,"frizz_risk":1,"updated_at":"2026-07-19T05:26:12.747499+05:30"},{"city":"Faridabad","state":"Haryana","latitude":28.4089,"longitude":77.3178,"temp":29.8,"humidity":76,"rain":0.0,"pressure":977.7,"uv_index":7.0,"wind_gusts":22.0,"aqi":492,"pm10":363.2,"pm2_5":98.3,"no2":30.2,"co":257.0,"o3":33.0,"so2":10.1,"mosquito_risk":7,"arthritis_risk":5,"migraine_risk":7,"frizz_risk":1,"updated_at":"2026-07-19T05:26:12.747504+05:30"},{"city":"Meerut","state":"Uttar Pradesh","latitude":28.9845,"longitude":77.7064,"temp":28.4,"humidity":89,"rain":0.0,"pressure":975.8,"uv_index":6.5,"wind_gusts":29.9,"aqi":446,"pm10":280.3,"pm2_5":113.9,"no2":42.1,"co":528.0,"o3":16.0,"so2":13.6,"mosquito_risk":7,"arthritis_risk":5,"migraine_risk":7,"frizz_risk":1,"updated_at":"2026-07-19T05:26:12.747511+05:30"},{"city":"Agra","state":"Uttar Pradesh","latitude":27.1767,"longitude":78.0081,"temp":29.9,"humidity":68,"rain":0.0,"pressure":981.8,"uv_index":6.95,"wind_gusts":27.7,"aqi":181,"pm10":332.5,"pm2_5":108.0,"no2":36.8,"co":273.0,"o3":30.0,"so2":12.5,"mosquito_risk":7,"arthritis_risk":5,"migraine_risk":7,"frizz_risk":1,"updated_at":"2026-07-19T05:26:12.747517+05:30"},{"city":"Varanasi","state":"Uttar Pradesh","latitude":25.3176,"longitude":82.9739,"temp":25.8,"humidity":98,"rain":0.2,"pressure":992.7,"uv_index":7.3,"wind_gusts":22.3,"aqi":150,"pm10":38.1,"pm2_5":36.1,"no2":13.5,"co":337.0,"o3":79.0,"so2":8.4,"mosquito_risk":10,"arthritis_risk":5,"migraine_risk":7,"frizz_risk":1,"updated_at":"2026-07-19T05:26:12.747523+05:30"},{"city":"Prayagraj","state":"Uttar Pradesh","latitude":25.4358,"longitude":81.8463,"temp":27.8,"humidity":96,"rain":0.1,"pressure":991.2,"uv_index":5.45,"wind_gusts":28.8,"aqi":154,"pm10":45.3,"pm2_5":40.0,"no2":15.8,"co":233.0,"o3":72.0,"so2":7.2,"mosquito_risk":10,"arthritis_risk":5,"migraine_risk":3,"frizz_risk":1,"updated_at":"2026-07-19T05:26:12.747529+05:30"},{"city":"Gorakhpur","state":"Uttar Pradesh","latitude":26.7606,"longitude":83.3732,"temp":26.1,"humidity":97,"rain":0.5,"pressure":992.9,"uv_index":4.05,"wind_gusts":21.2,"aqi":78,"pm10":27.1,"pm2_5":27.0,"no2":14.2,"co":364.0,"o3":67.0,"so2":5.4,"mosquito_risk":10,"arthritis_risk":5,"migraine_risk":3,"frizz_risk":1,"updated_at":"2026-07-19T05:26:12.747535+05:30"},{"city":"Bareilly","state":"Uttar Pradesh","latitude":28.367,"longitude":79.4304,"temp":26.0,"humidity":96,"rain":0.0,"pressure":982.2,"uv_index":5.4,"wind_gusts":29.2,"aqi":164,"pm10":99.2,"pm2_5":66.1,"no2":16.2,"co":304.0,"o3":74.0,"so2":10.4,"mosquito_risk":7,"arthritis_risk":5,"migraine_risk":3,"frizz_risk":1,"updated_at":"2026-07-19T05:26:12.747544+05:30"},{"city":"Aligarh","state":"Uttar Pradesh","latitude":27.8974,"longitude":78.088,"temp":28.9,"humidity":78,"rain":0.0,"pressure":979.6,"uv_index":7.0,"wind_gusts":25.6,"aqi":314,"pm10":255.2,"pm2_5":104.8,"no2":23.9,"co":567.0,"o3":55.0,"so2":14.3,"mosquito_risk":7,"arthritis_risk":5,"migraine_risk":7,"frizz_risk":1,"updated_at":"2026-07-19T05:26:12.747550+05:30"},{"city":"Moradabad","state":"Uttar Pradesh","latitude":28.8386,"longitude":78.7733,"temp":26.3,"humidity":95,"rain":0.1,"pressure":978.9,"uv_index":6.5,"wind_gusts":33.8,"aqi":171,"pm10":91.7,"pm2_5":60.1,"no2":14.4,"co":327.0,"o3":90.0,"so2":16.0,"mosquito_risk":10,"arthritis_risk":5,"migraine_risk":7,"frizz_risk":1,"updated_at":"2026-07-19T05:26:12.747556+05:30"},{"city":"Saharanpur","state":"Uttar Pradesh","latitude":29.9637,"longitude":77.546,"temp":27.2,"humidity":95,"rain":0.0,"pressure":970.3,"uv_index":7.0,"wind_gusts":28.8,"aqi":185,"pm10":205.4,"pm2_5":90.3,"no2":14.3,"co":303.0,"o3":64.0,"so2":10.0,"mosquito_risk":7,"arthritis_risk":5,"migraine_risk":7,"frizz_risk":1,"updated_at":"2026-07-19T05:26:12.747562+05:30"},{"city":"Jhansi","state":"Uttar Pradesh","latitude":25.4484,"longitude":78.5685,"temp":26.9,"humidity":86,"rain":0.0,"pressure":973.1,"uv_index":1.45,"wind_gusts":35.3,"aqi":88,"pm10":39.5,"pm2_5":27.1,"no2":10.8,"co":175.0,"o3":56.0,"so2":5.9,"mosquito_risk":7,"arthritis_risk":5,"migraine_risk":3,"frizz_risk":1,"updated_at":"2026-07-19T05:26:15.982297+05:30"},{"city":"Surat","state":"Gujarat","latitude":21.1702,"longitude":72.8311,"temp":25.6,"humidity":94,"rain":0.1,"pressure":1003.1,"uv_index":7.6,"wind_gusts":41.4,"aqi":70,"pm10":30.3,"pm2_5":20.4,"no2":25.9,"co":316.0,"o3":20.0,"so2":38.3,"mosquito_risk":10,"arthritis_risk":5,"migraine_risk":4,"frizz_risk":1,"updated_at":"2026-07-19T05:26:15.982332+05:30"},{"city":"Vadodara","state":"Gujarat","latitude":22.3072,"longitude":73.1812,"temp":27.2,"humidity":88,"rain":0.0,"pressure":1000.3,"uv_index":6.6,"wind_gusts":38.2,"aqi":63,"pm10":20.4,"pm2_5":14.4,"no2":16.8,"co":133.0,"o3":23.0,"so2":9.9,"mosquito_risk":7,"arthritis_risk":5,"migraine_risk":4,"frizz_risk":1,"updated_at":"2026-07-19T05:26:15.982343+05:30"},{"city":"Rajkot","state":"Gujarat","latitude":22.3039,"longitude":70.8022,"temp":26.0,"humidity":88,"rain":0.0,"pressure":989.8,"uv_index":6.85,"wind_gusts":41.4,"aqi":60,"pm10":20.3,"pm2_5":11.0,"no2":5.6,"co":97.0,"o3":39.0,"so2":4.3,"mosquito_risk":7,"arthritis_risk":5,"migraine_risk":7,"frizz_risk":1,"updated_at":"2026-07-19T05:26:15.982351+05:30"},{"city":"Thane","state":"Maharashtra","latitude":19.2183,"longitude":72.9781,"temp":24.0,"humidity":99,"rain":0.2,"pressure":1005.3,"uv_index":6.4,"wind_gusts":37.1,"aqi":62,"pm10":30.3,"pm2_5":13.8,"no2":6.4,"co":135.0,"o3":44.0,"so2":5.5,"mosquito_risk":6,"arthritis_risk":5,"migraine_risk":4,"frizz_risk":1,"updated_at":"2026-07-19T05:26:15.982359+05:30"},{"city":"Nagpur","state":"Maharashtra","latitude":21.1458,"longitude":79.0882,"temp":25.0,"humidity":91,"rain":0.0,"pressure":969.6,"uv_index":5.3,"wind_gusts":32.8,"aqi":63,"pm10":17.0,"pm2_5":12.8,"no2":14.5,"co":179.0,"o3":38.0,"so2":14.6,"mosquito_risk":7,"arthritis_risk":5,"migraine_risk":3,"frizz_risk":1,"updated_at":"2026-07-19T05:26:15.982366+05:30"},{"city":"Nashik","state":"Maharashtra","latitude":19.9975,"longitude":73.7898,"temp":22.2,"humidity":96,"rain":0.0,"pressure":942.2,"uv_index":4.95,"wind_gusts":45.0,"aqi":28,"pm10":7.0,"pm2_5":4.3,"no2":10.0,"co":116.0,"o3":30.0,"so2":9.8,"mosquito_risk":3,"arthritis_risk":5,"migraine_risk":3,"frizz_risk":1,"updated_at":"2026-07-19T05:26:15.982373+05:30"},{"city":"Aurangabad","state":"Maharashtra","latitude":19.8762,"longitude":75.3433,"temp":22.7,"humidity":97,"rain":0.1,"pressure":940.9,"uv_index":5.9,"wind_gusts":38.9,"aqi":40,"pm10":5.3,"pm2_5":3.7,"no2":9.4,"co":163.0,"o3":30.0,"so2":8.6,"mosquito_risk":6,"arthritis_risk":5,"migraine_risk":3,"frizz_risk":1,"updated_at":"2026-07-19T05:26:15.982379+05:30"},{"city":"Solapur","state":"Maharashtra","latitude":17.6599,"longitude":75.9064,"temp":23.7,"humidity":93,"rain":0.0,"pressure":954.9,"uv_index":5.1,"wind_gusts":38.5,"aqi":37,"pm10":4.2,"pm2_5":3.8,"no2":9.1,"co":148.0,"o3":25.0,"so2":2.2,"mosquito_risk":3,"arthritis_risk":5,"migraine_risk":3,"frizz_risk":1,"updated_at":"2026-07-19T05:26:15.982402+05:30"},{"city":"Kolhapur","state":"Maharashtra","latitude":16.705,"longitude":74.2433,"temp":22.3,"humidity":95,"rain":0.0,"pressure":946.1,"uv_index":4.5,"wind_gusts":46.1,"aqi":29,"pm10":3.4,"pm2_5":2.6,"no2":3.5,"co":111.0,"o3":39.0,"so2":1.9,"mosquito_risk":3,"arthritis_risk":5,"migraine_risk":3,"frizz_risk":1,"updated_at":"2026-07-19T05:26:15.982408+05:30"},{"city":"Goa","state":"Goa","latitude":15.2993,"longitude":74.124,"temp":24.7,"humidity":93,"rain":0.0,"pressure":997.1,"uv_index":3.4,"wind_gusts":30.6,"aqi":63,"pm10":35.9,"pm2_5":21.0,"no2":5.0,"co":247.0,"o3":37.0,"so2":1.7,"mosquito_risk":3,"arthritis_risk":5,"migraine_risk":3,"frizz_risk":1,"updated_at":"2026-07-19T05:26:15.982414+05:30"},{"city":"Jodhpur","state":"Rajasthan","latitude":26.2389,"longitude":73.0243,"temp":29.3,"humidity":60,"rain":0.0,"pressure":977.9,"uv_index":7.8,"wind_gusts":41.8,"aqi":115,"pm10":176.5,"pm2_5":41.4,"no2":6.1,"co":116.0,"o3":44.0,"so2":2.6,"mosquito_risk":4,"arthritis_risk":5,"migraine_risk":7,"frizz_risk":1,"updated_at":"2026-07-19T05:26:15.982420+05:30"},{"city":"Udaipur","state":"Rajasthan","latitude":24.5854,"longitude":73.7125,"temp":24.4,"humidity":84,"rain":0.0,"pressure":942.0,"uv_index":6.65,"wind_gusts":29.2,"aqi":69,"pm10":27.2,"pm2_5":16.7,"no2":11.1,"co":127.0,"o3":40.0,"so2":8.5,"mosquito_risk":3,"arthritis_risk":5,"migraine_risk":7,"frizz_risk":1,"updated_at":"2026-07-19T05:26:15.982426+05:30"},{"city":"Kota","state":"Rajasthan","latitude":25.2138,"longitude":75.8648,"temp":29.8,"humidity":62,"rain":0.0,"pressure":974.0,"uv_index":8.2,"wind_gusts":28.8,"aqi":86,"pm10":24.3,"pm2_5":17.0,"no2":7.8,"co":162.0,"o3":68.0,"so2":7.2,"mosquito_risk":7,"arthritis_risk":5,"migraine_risk":7,"frizz_risk":1,"updated_at":"2026-07-19T05:26:15.982433+05:30"},{"city":"Bikaner","state":"Rajasthan","latitude":28.0229,"longitude":73.3119,"temp":31.2,"humidity":54,"rain":0.0,"pressure":975.8,"uv_index":8.25,"wind_gusts":39.6,"aqi":123,"pm10":91.0,"pm2_5":32.0,"no2":2.8,"co":113.0,"o3":52.0,"so2":2.0,"mosquito_risk":0,"arthritis_risk":5,"migraine_risk":7,"frizz_risk":1,"updated_at":"2026-07-19T05:26:15.982441+05:30"},{"city":"Ajmer","state":"Rajasthan","latitude":26.4499,"longitude":74.6399,"temp":27.8,"humidity":64,"rain":0.0,"pressure":950.0,"uv_index":7.45,"wind_gusts":40.7,"aqi":79,"pm10":27.0,"pm2_5":16.8,"no2":9.7,"co":144.0,"o3":44.0,"so2":3.9,"mosquito_risk":7,"arthritis_risk":5,"migraine_risk":7,"frizz_risk":1,"updated_at":"2026-07-19T05:26:15.982448+05:30"},{"city":"Gwalior","state":"Madhya Pradesh","latitude":26.2183,"longitude":78.1828,"temp":28.7,"humidity":74,"rain":0.0,"pressure":977.9,"uv_index":6.8,"wind_gusts":39.2,"aqi":108,"pm10":47.8,"pm2_5":31.4,"no2":22.2,"co":161.0,"o3":27.0,"so2":5.8,"mosquito_risk":7,"arthritis_risk":5,"migraine_risk":7,"frizz_risk":1,"updated_at":"2026-07-19T05:26:15.982455+05:30"},{"city":"Indore","state":"Madhya Pradesh","latitude":22.7196,"longitude":75.8577,"temp":24.5,"humidity":87,"rain":0.0,"pressure":944.5,"uv_index":7.65,"wind_gusts":44.3,"aqi":71,"pm10":15.3,"pm2_5":12.5,"no2":10.1,"co":164.0,"o3":48.0,"so2":9.6,"mosquito_risk":3,"arthritis_risk":5,"migraine_risk":7,"frizz_risk":1,"updated_at":"2026-07-19T05:26:15.982461+05:30"},{"city":"Bhopal","state":"Madhya Pradesh","latitude":23.2599,"longitude":77.4126,"temp":25.0,"humidity":89,"rain":0.0,"pressure":949.9,"uv_index":4.4,"wind_gusts":30.2,"aqi":83,"pm10":28.8,"pm2_5":21.1,"no2":9.9,"co":260.0,"o3":49.0,"so2":4.8,"mosquito_risk":7,"arthritis_risk":5,"migraine_risk":3,"frizz_risk":1,"updated_at":"2026-07-19T05:26:15.982467+05:30"},{"city":"Jabalpur","state":"Madhya Pradesh","latitude":23.1815,"longitude":79.9864,"temp":24.2,"humidity":97,"rain":0.2,"pressure":957.4,"uv_index":7.9,"wind_gusts":28.4,"aqi":87,"pm10":31.8,"pm2_5":21.9,"no2":7.0,"co":190.0,"o3":66.0,"so2":3.1,"mosquito_risk":6,"arthritis_risk":5,"migraine_risk":7,"frizz_risk":1,"updated_at":"2026-07-19T05:26:15.982474+05:30"},{"city":"Ujjain","state":"Madhya Pradesh","latitude":23.1765,"longitude":75.7885,"temp":24.7,"humidity":88,"rain":0.0,"pressure":950.0,"uv_index":7.65,"wind_gusts":33.5,"aqi":72,"pm10":14.7,"pm2_5":11.2,"no2":8.5,"co":209.0,"o3":50.0,"so2":10.0,"mosquito_risk":3,"arthritis_risk":5,"migraine_risk":7,"frizz_risk":1,"updated_at":"2026-07-19T05:26:15.982481+05:30"},{"city":"Visakhapatnam","state":"Andhra Pradesh","latitude":17.6868,"longitude":83.2185,"temp":26.7,"humidity":81,"rain":0.0,"pressure":998.5,"uv_index":8.3,"wind_gusts":38.9,"aqi":91,"pm10":36.1,"pm2_5":28.8,"no2":31.4,"co":298.0,"o3":31.0,"so2":35.7,"mosquito_risk":7,"arthritis_risk":5,"migraine_risk":7,"frizz_risk":1,"updated_at":"2026-07-19T05:26:15.982488+05:30"},{"city":"Vijayawada","state":"Andhra Pradesh","latitude":16.5062,"longitude":80.648,"temp":27.1,"humidity":81,"rain":0.0,"pressure":999.5,"uv_index":8.3,"wind_gusts":38.5,"aqi":64,"pm10":22.6,"pm2_5":16.8,"no2":14.3,"co":192.0,"o3":26.0,"so2":5.7,"mosquito_risk":7,"arthritis_risk":5,"migraine_risk":7,"frizz_risk":1,"updated_at":"2026-07-19T05:26:15.982494+05:30"},{"city":"Guntur","state":"Andhra Pradesh","latitude":16.3067,"longitude":80.4365,"temp":27.4,"humidity":79,"rain":0.0,"pressure":1000.9,"uv_index":8.2,"wind_gusts":45.0,"aqi":61,"pm10":20.4,"pm2_5":14.3,"no2":13.3,"co":165.0,"o3":29.0,"so2":7.9,"mosquito_risk":7,"arthritis_risk":5,"migraine_risk":4,"frizz_risk":1,"updated_at":"2026-07-19T05:26:15.982500+05:30"},{"city":"Nellore","state":"Andhra Pradesh","latitude":14.4426,"longitude":79.9865,"temp":26.1,"humidity":85,"rain":0.0,"pressure":1004.0,"uv_index":8.25,"wind_gusts":36.0,"aqi":55,"pm10":15.3,"pm2_5":9.1,"no2":9.8,"co":133.0,"o3":40.0,"so2":6.8,"mosquito_risk":7,"arthritis_risk":5,"migraine_risk":4,"frizz_risk":1,"updated_at":"2026-07-19T05:26:15.982508+05:30"},{"city":"Kurnool","state":"Andhra Pradesh","latitude":15.8281,"longitude":78.0373,"temp":24.4,"humidity":94,"rain":0.1,"pressure":975.4,"uv_index":8.2,"wind_gusts":43.9,"aqi":52,"pm10":4.1,"pm2_5":3.4,"no2":11.1,"co":162.0,"o3":28.0,"so2":1.7,"mosquito_risk":6,"arthritis_risk":5,"migraine_risk":7,"frizz_risk":1,"updated_at":"2026-07-19T05:26:15.982516+05:30"},{"city":"Kakinada","state":"Andhra Pradesh","latitude":16.9891,"longitude":82.2475,"temp":26.8,"humidity":88,"rain":0.0,"pressure":1003.2,"uv_index":8.95,"wind_gusts":46.1,"aqi":63,"pm10":18.5,"pm2_5":13.3,"no2":8.0,"co":205.0,"o3":60.0,"so2":5.1,"mosquito_risk":7,"arthritis_risk":5,"migraine_risk":4,"frizz_risk":1,"updated_at":"2026-07-19T05:26:15.982523+05:30"},{"city":"Tirupati","state":"Andhra Pradesh","latitude":13.6288,"longitude":79.4192,"temp":25.8,"humidity":80,"rain":0.0,"pressure":989.5,"uv_index":7.65,"wind_gusts":32.0,"aqi":62,"pm10":20.2,"pm2_5":13.7,"no2":16.2,"co":139.0,"o3":20.0,"so2":1.9,"mosquito_risk":7,"arthritis_risk":5,"migraine_risk":7,"frizz_risk":1,"updated_at":"2026-07-19T05:26:15.982530+05:30"},{"city":"Warangal","state":"Telangana","latitude":17.9689,"longitude":79.5941,"temp":25.4,"humidity":87,"rain":0.0,"pressure":975.7,"uv_index":7.8,"wind_gusts":40.3,"aqi":59,"pm10":10.7,"pm2_5":8.1,"no2":9.9,"co":193.0,"o3":38.0,"so2":2.8,"mosquito_risk":7,"arthritis_risk":5,"migraine_risk":7,"frizz_risk":1,"updated_at":"2026-07-19T05:26:15.982536+05:30"},{"city":"Nizamabad","state":"Telangana","latitude":18.6725,"longitude":78.0941,"temp":24.2,"humidity":97,"rain":0.0,"pressure":962.0,"uv_index":1.7,"wind_gusts":43.2,"aqi":61,"pm10":11.9,"pm2_5":9.2,"no2":10.0,"co":196.0,"o3":40.0,"so2":5.6,"mosquito_risk":3,"arthritis_risk":5,"migraine_risk":3,"frizz_risk":1,"updated_at":"2026-07-19T05:26:15.982543+05:30"},{"city":"Mysore","state":"Karnataka","latitude":12.2958,"longitude":76.6396,"temp":20.9,"humidity":93,"rain":0.0,"pressure":928.0,"uv_index":6.35,"wind_gusts":48.2,"aqi":38,"pm10":9.3,"pm2_5":5.8,"no2":6.7,"co":117.0,"o3":32.0,"so2":2.1,"mosquito_risk":3,"arthritis_risk":5,"migraine_risk":7,"frizz_risk":1,"updated_at":"2026-07-19T05:26:15.982549+05:30"},{"city":"Mangalore","state":"Karnataka","latitude":12.9141,"longitude":74.856,"temp":23.7,"humidity":97,"rain":0.0,"pressure":1007.0,"uv_index":8.4,"wind_gusts":34.2,"aqi":58,"pm10":19.0,"pm2_5":13.0,"no2":11.1,"co":142.0,"o3":23.0,"so2":3.5,"mosquito_risk":3,"arthritis_risk":5,"migraine_risk":4,"frizz_risk":1,"updated_at":"2026-07-19T05:26:15.982555+05:30"},{"city":"Hubli-Dharwad","state":"Karnataka","latitude":15.3647,"longitude":75.124,"temp":22.1,"humidity":93,"rain":0.0,"pressure":939.4,"uv_index":4.2,"wind_gusts":58.3,"aqi":22,"pm10":2.7,"pm2_5":1.9,"no2":3.2,"co":96.0,"o3":36.0,"so2":1.4,"mosquito_risk":3,"arthritis_risk":5,"migraine_risk":3,"frizz_risk":1,"updated_at":"2026-07-19T05:26:15.982562+05:30"},{"city":"Belgaum","state":"Karnataka","latitude":15.8497,"longitude":74.4977,"temp":21.2,"humidity":98,"rain":0.0,"pressure":923.9,"uv_index":7.3,"wind_gusts":55.1,"aqi":18,"pm10":3.3,"pm2_5":2.1,"no2":2.8,"co":101.0,"o3":40.0,"so2":1.3,"mosquito_risk":3,"arthritis_risk":5,"migraine_risk":7,"frizz_risk":1,"updated_at":"2026-07-19T05:26:19.227877+05:30"},{"city":"Coimbatore","state":"Tamil Nadu","latitude":11.0168,"longitude":76.9558,"temp":23.0,"humidity":91,"rain":0.0,"pressure":961.2,"uv_index":8.2,"wind_gusts":46.1,"aqi":46,"pm10":12.6,"pm2_5":8.6,"no2":9.4,"co":157.0,"o3":21.0,"so2":2.9,"mosquito_risk":3,"arthritis_risk":5,"migraine_risk":7,"frizz_risk":1,"updated_at":"2026-07-19T05:26:19.227913+05:30"},{"city":"Madurai","state":"Tamil Nadu","latitude":9.9252,"longitude":78.1198,"temp":27.2,"humidity":67,"rain":0.0,"pressure":992.5,"uv_index":8.3,"wind_gusts":24.8,"aqi":66,"pm10":31.8,"pm2_5":27.3,"no2":39.1,"co":158.0,"o3":0.0,"so2":6.0,"mosquito_risk":7,"arthritis_risk":5,"migraine_risk":7,"frizz_risk":1,"updated_at":"2026-07-19T05:26:19.227925+05:30"},{"city":"Trichy","state":"Tamil Nadu","latitude":10.7905,"longitude":78.7047,"temp":27.8,"humidity":67,"rain":0.0,"pressure":998.9,"uv_index":7.75,"wind_gusts":34.9,"aqi":54,"pm10":9.6,"pm2_5":6.6,"no2":6.6,"co":100.0,"o3":34.0,"so2":3.2,"mosquito_risk":7,"arthritis_risk":5,"migraine_risk":7,"frizz_risk":1,"updated_at":"2026-07-19T05:26:19.227933+05:30"},{"city":"Salem","state":"Tamil Nadu","latitude":11.6643,"longitude":78.146,"temp":24.9,"humidity":93,"rain":0.0,"pressure":976.8,"uv_index":7.4,"wind_gusts":37.8,"aqi":65,"pm10":22.8,"pm2_5":16.2,"no2":20.4,"co":161.0,"o3":17.0,"so2":6.7,"mosquito_risk":3,"arthritis_risk":5,"migraine_risk":7,"frizz_risk":1,"updated_at":"2026-07-19T05:26:19.227941+05:30"},{"city":"Tirunelveli","state":"Tamil Nadu","latitude":8.7139,"longitude":77.7567,"temp":27.9,"humidity":67,"rain":0.0,"pressure":1003.2,"uv_index":8.35,"wind_gusts":47.5,"aqi":50,"pm10":6.4,"pm2_5":4.5,"no2":4.7,"co":138.0,"o3":34.0,"so2":2.2,"mosquito_risk":7,"arthritis_risk":5,"migraine_risk":4,"frizz_risk":1,"updated_at":"2026-07-19T05:26:19.227949+05:30"},{"city":"Vellore","state":"Tamil Nadu","latitude":12.9165,"longitude":79.1325,"temp":26.4,"humidity":71,"rain":0.0,"pressure":983.3,"uv_index":7.35,"wind_gusts":47.5,"aqi":64,"pm10":24.7,"pm2_5":18.3,"no2":23.5,"co":164.0,"o3":15.0,"so2":4.8,"mosquito_risk":7,"arthritis_risk":5,"migraine_risk":7,"frizz_risk":1,"updated_at":"2026-07-19T05:26:19.227957+05:30"},{"city":"Erode","state":"Tamil Nadu","latitude":11.341,"longitude":77.7172,"temp":25.1,"humidity":79,"rain":0.0,"pressure":988.8,"uv_index":8.35,"wind_gusts":42.1,"aqi":55,"pm10":16.4,"pm2_5":12.5,"no2":14.4,"co":146.0,"o3":24.0,"so2":4.0,"mosquito_risk":7,"arthritis_risk":5,"migraine_risk":7,"frizz_risk":1,"updated_at":"2026-07-19T05:26:19.227965+05:30"},{"city":"Kochi","state":"Kerala","latitude":9.9312,"longitude":76.2673,"temp":25.1,"humidity":93,"rain":0.0,"pressure":1009.8,"uv_index":8.15,"wind_gusts":37.4,"aqi":57,"pm10":17.1,"pm2_5":13.3,"no2":14.7,"co":130.0,"o3":12.0,"so2":4.3,"mosquito_risk":7,"arthritis_risk":0,"migraine_risk":4,"frizz_risk":1,"updated_at":"2026-07-19T05:26:19.227972+05:30"},{"city":"Thiruvananthapuram","state":"Kerala","latitude":8.5241,"longitude":76.9366,"temp":23.8,"humidity":97,"rain":0.0,"pressure":1009.5,"uv_index":8.15,"wind_gusts":41.8,"aqi":55,"pm10":14.4,"pm2_5":7.8,"no2":3.6,"co":105.0,"o3":42.0,"so2":2.1,"mosquito_risk":3,"arthritis_risk":0,"migraine_risk":4,"frizz_risk":1,"updated_at":"2026-07-19T05:26:19.227979+05:30"},{"city":"Kozhikode","state":"Kerala","latitude":11.2588,"longitude":75.7804,"temp":24.3,"humidity":94,"rain":0.0,"pressure":1008.7,"uv_index":8.2,"wind_gusts":36.7,"aqi":50,"pm10":18.0,"pm2_5":10.3,"no2":3.4,"co":143.0,"o3":46.0,"so2":2.2,"mosquito_risk":3,"arthritis_risk":0,"migraine_risk":4,"frizz_risk":1,"updated_at":"2026-07-19T05:26:19.227986+05:30"},{"city":"Thrissur","state":"Kerala","latitude":10.5276,"longitude":76.2144,"temp":23.6,"humidity":99,"rain":0.0,"pressure":1008.1,"uv_index":7.8,"wind_gusts":35.6,"aqi":55,"pm10":13.1,"pm2_5":10.7,"no2":11.8,"co":220.0,"o3":14.0,"so2":3.2,"mosquito_risk":3,"arthritis_risk":0,"migraine_risk":4,"frizz_risk":1,"updated_at":"2026-07-19T05:26:19.227994+05:30"},{"city":"Kannur","state":"Kerala","latitude":11.8745,"longitude":75.3704,"temp":24.0,"humidity":95,"rain":0.0,"pressure":1007.7,"uv_index":7.6,"wind_gusts":33.8,"aqi":52,"pm10":15.9,"pm2_5":10.9,"no2":10.6,"co":211.0,"o3":22.0,"so2":2.6,"mosquito_risk":3,"arthritis_risk":5,"migraine_risk":4,"frizz_risk":1,"updated_at":"2026-07-19T05:26:19.228001+05:30"},{"city":"Patna","state":"Bihar","latitude":25.5941,"longitude":85.1376,"temp":26.4,"humidity":97,"rain":0.0,"pressure":995.7,"uv_index":8.0,"wind_gusts":25.2,"aqi":86,"pm10":40.0,"pm2_5":39.7,"no2":14.4,"co":387.0,"o3":79.0,"so2":16.0,"mosquito_risk":7,"arthritis_risk":5,"migraine_risk":7,"frizz_risk":1,"updated_at":"2026-07-19T05:26:19.228008+05:30"},{"city":"Gaya","state":"Bihar","latitude":24.7914,"longitude":85.0002,"temp":26.1,"humidity":97,"rain":0.0,"pressure":989.0,"uv_index":8.45,"wind_gusts":25.6,"aqi":102,"pm10":41.7,"pm2_5":41.3,"no2":18.9,"co":411.0,"o3":52.0,"so2":10.9,"mosquito_risk":7,"arthritis_risk":5,"migraine_risk":7,"frizz_risk":1,"updated_at":"2026-07-19T05:26:19.228015+05:30"},{"city":"Muzaffarpur","state":"Bihar","latitude":26.1209,"longitude":85.3647,"temp":26.3,"humidity":96,"rain":0.0,"pressure":996.0,"uv_index":7.6,"wind_gusts":32.8,"aqi":77,"pm10":28.5,"pm2_5":28.2,"no2":11.5,"co":332.0,"o3":85.0,"so2":11.8,"mosquito_risk":7,"arthritis_risk":5,"migraine_risk":7,"frizz_risk":1,"updated_at":"2026-07-19T05:26:19.228022+05:30"},{"city":"Bhagalpur","state":"Bihar","latitude":25.2425,"longitude":87.0117,"temp":26.6,"humidity":97,"rain":0.1,"pressure":997.0,"uv_index":4.2,"wind_gusts":22.3,"aqi":77,"pm10":27.6,"pm2_5":26.8,"no2":15.8,"co":312.0,"o3":50.0,"so2":12.6,"mosquito_risk":10,"arthritis_risk":5,"migraine_risk":3,"frizz_risk":1,"updated_at":"2026-07-19T05:26:19.228029+05:30"},{"city":"Ranchi","state":"Jharkhand","latitude":23.3441,"longitude":85.3096,"temp":22.6,"humidity":99,"rain":0.0,"pressure":932.7,"uv_index":8.15,"wind_gusts":27.0,"aqi":78,"pm10":37.8,"pm2_5":37.6,"no2":12.9,"co":303.0,"o3":43.0,"so2":5.5,"mosquito_risk":3,"arthritis_risk":5,"migraine_risk":7,"frizz_risk":1,"updated_at":"2026-07-19T05:26:19.228036+05:30"},{"city":"Jamshedpur","state":"Jharkhand","latitude":22.8046,"longitude":86.2029,"temp":25.6,"humidity":97,"rain":0.0,"pressure":986.0,"uv_index":7.5,"wind_gusts":37.4,"aqi":103,"pm10":64.0,"pm2_5":61.0,"no2":33.5,"co":338.0,"o3":18.0,"so2":21.9,"mosquito_risk":7,"arthritis_risk":5,"migraine_risk":7,"frizz_risk":1,"updated_at":"2026-07-19T05:26:19.228043+05:30"},{"city":"Dhanbad","state":"Jharkhand","latitude":23.7957,"longitude":86.4304,"temp":26.0,"humidity":96,"rain":0.0,"pressure":974.9,"uv_index":7.55,"wind_gusts":27.7,"aqi":153,"pm10":80.8,"pm2_5":78.0,"no2":52.3,"co":351.0,"o3":16.0,"so2":132.8,"mosquito_risk":7,"arthritis_risk":5,"migraine_risk":7,"frizz_risk":1,"updated_at":"2026-07-19T05:26:19.228050+05:30"},{"city":"Bokaro","state":"Jharkhand","latitude":23.6693,"longitude":86.1511,"temp":25.9,"humidity":97,"rain":0.0,"pressure":978.8,"uv_index":8.1,"wind_gusts":30.2,"aqi":150,"pm10":98.0,"pm2_5":95.2,"no2":57.9,"co":3381.0,"o3":12.0,"so2":151.7,"mosquito_risk":7,"arthritis_risk":5,"migraine_risk":7,"frizz_risk":1,"updated_at":"2026-07-19T05:26:19.228056+05:30"},{"city":"Bhubaneswar","state":"Odisha","latitude":20.2961,"longitude":85.8245,"temp":25.8,"humidity":98,"rain":0.0,"pressure":997.6,"uv_index":8.45,"wind_gusts":34.2,"aqi":69,"pm10":38.9,"pm2_5":31.7,"no2":14.3,"co":416.0,"o3":54.0,"so2":5.3,"mosquito_risk":7,"arthritis_risk":5,"migraine_risk":7,"frizz_risk":1,"updated_at":"2026-07-19T05:26:19.228064+05:30"},{"city":"Cuttack","state":"Odisha","latitude":20.4625,"longitude":85.8828,"temp":26.1,"humidity":98,"rain":0.0,"pressure":999.5,"uv_index":8.9,"wind_gusts":36.7,"aqi":69,"pm10":38.9,"pm2_5":31.7,"no2":14.3,"co":410.0,"o3":54.0,"so2":5.3,"mosquito_risk":7,"arthritis_risk":5,"migraine_risk":7,"frizz_risk":1,"updated_at":"2026-07-19T05:26:19.228070+05:30"},{"city":"Rourkela","state":"Odisha","latitude":22.2604,"longitude":84.8536,"temp":25.3,"humidity":99,"rain":0.0,"pressure":980.2,"uv_index":7.75,"wind_gusts":31.7,"aqi":81,"pm10":44.2,"pm2_5":37.1,"no2":11.8,"co":287.0,"o3":54.0,"so2":8.0,"mosquito_risk":7,"arthritis_risk":5,"migraine_risk":7,"frizz_risk":1,"updated_at":"2026-07-19T05:26:19.228077+05:30"},{"city":"Raipur","state":"Chhattisgarh","latitude":21.2514,"longitude":81.6296,"temp":24.2,"humidity":99,"rain":0.1,"pressure":970.4,"uv_index":7.15,"wind_gusts":31.3,"aqi":92,"pm10":29.3,"pm2_5":21.9,"no2":21.4,"co":350.0,"o3":56.0,"so2":25.5,"mosquito_risk":6,"arthritis_risk":5,"migraine_risk":7,"frizz_risk":1,"updated_at":"2026-07-19T05:26:19.228083+05:30"},{"city":"Bhilai","state":"Chhattisgarh","latitude":21.1938,"longitude":81.3509,"temp":24.7,"humidity":98,"rain":0.1,"pressure":971.0,"uv_index":3.3,"wind_gusts":33.1,"aqi":85,"pm10":24.1,"pm2_5":19.3,"no2":22.7,"co":554.0,"o3":39.0,"so2":25.8,"mosquito_risk":6,"arthritis_risk":5,"migraine_risk":3,"frizz_risk":1,"updated_at":"2026-07-19T05:26:19.228089+05:30"},{"city":"Guwahati","state":"Assam","latitude":26.1158,"longitude":91.7086,"temp":25.2,"humidity":99,"rain":0.1,"pressure":998.8,"uv_index":1.65,"wind_gusts":29.9,"aqi":56,"pm10":16.4,"pm2_5":14.6,"no2":9.4,"co":220.0,"o3":42.0,"so2":2.5,"mosquito_risk":10,"arthritis_risk":5,"migraine_risk":3,"frizz_risk":1,"updated_at":"2026-07-19T05:26:19.228095+05:30"},{"city":"Agartala","state":"Tripura","latitude":23.8315,"longitude":91.2868,"temp":26.0,"humidity":87,"rain":0.0,"pressure":1004.0,"uv_index":1.4,"wind_gusts":43.9,"aqi":59,"pm10":13.8,"pm2_5":10.9,"no2":7.5,"co":137.0,"o3":47.0,"so2":2.3,"mosquito_risk":7,"arthritis_risk":5,"migraine_risk":0,"frizz_risk":1,"updated_at":"2026-07-19T05:26:19.228102+05:30"},{"city":"Shillong","state":"Meghalaya","latitude":25.5788,"longitude":91.8933,"temp":19.8,"humidity":95,"rain":0.0,"pressure":855.4,"uv_index":1.0,"wind_gusts":33.5,"aqi":25,"pm10":1.3,"pm2_5":1.2,"no2":4.6,"co":154.0,"o3":45.0,"so2":2.0,"mosquito_risk":3,"arthritis_risk":10,"migraine_risk":3,"frizz_risk":1,"updated_at":"2026-07-19T05:26:19.228109+05:30"},{"city":"Imphal","state":"Manipur","latitude":24.817,"longitude":93.9368,"temp":23.2,"humidity":92,"rain":0.0,"pressure":921.4,"uv_index":1.3,"wind_gusts":21.6,"aqi":60,"pm10":7.5,"pm2_5":6.1,"no2":5.0,"co":229.0,"o3":42.0,"so2":1.5,"mosquito_risk":3,"arthritis_risk":5,"migraine_risk":3,"frizz_risk":1,"updated_at":"2026-07-19T05:26:19.228116+05:30"},{"city":"Aizawl","state":"Mizoram","latitude":23.7271,"longitude":92.7176,"temp":20.0,"humidity":90,"rain":0.0,"pressure":891.2,"uv_index":2.95,"wind_gusts":38.9,"aqi":42,"pm10":8.4,"pm2_5":5.0,"no2":2.1,"co":117.0,"o3":43.0,"so2":0.6,"mosquito_risk":3,"arthritis_risk":5,"migraine_risk":3,"frizz_risk":1,"updated_at":"2026-07-19T05:26:19.228123+05:30"},{"city":"Kohima","state":"Nagaland","latitude":25.6701,"longitude":94.1077,"temp":20.2,"humidity":98,"rain":0.1,"pressure":854.0,"uv_index":0.65,"wind_gusts":18.7,"aqi":39,"pm10":5.7,"pm2_5":4.8,"no2":4.6,"co":208.0,"o3":39.0,"so2":0.9,"mosquito_risk":6,"arthritis_risk":5,"migraine_risk":3,"frizz_risk":1,"updated_at":"2026-07-19T05:26:19.228129+05:30"},{"city":"Gangtok","state":"Sikkim","latitude":27.3314,"longitude":88.6138,"temp":18.3,"humidity":99,"rain":0.0,"pressure":836.0,"uv_index":3.9,"wind_gusts":27.0,"aqi":42,"pm10":3.9,"pm2_5":3.8,"no2":5.9,"co":286.0,"o3":89.0,"so2":1.0,"mosquito_risk":3,"arthritis_risk":10,"migraine_risk":3,"frizz_risk":1,"updated_at":"2026-07-19T05:26:19.228136+05:30"},{"city":"Siliguri","state":"West Bengal","latitude":26.7271,"longitude":88.3953,"temp":24.9,"humidity":97,"rain":0.9,"pressure":990.2,"uv_index":1.5,"wind_gusts":23.0,"aqi":56,"pm10":10.5,"pm2_5":10.2,"no2":5.6,"co":217.0,"o3":103.0,"so2":1.3,"mosquito_risk":6,"arthritis_risk":5,"migraine_risk":3,"frizz_risk":1,"updated_at":"2026-07-19T05:26:22.461278+05:30"},{"city":"Durgapur","state":"West Bengal","latitude":23.5204,"longitude":87.3119,"temp":26.5,"humidity":96,"rain":0.0,"pressure":990.4,"uv_index":7.55,"wind_gusts":31.7,"aqi":105,"pm10":41.6,"pm2_5":39.3,"no2":28.0,"co":252.0,"o3":38.0,"so2":31.2,"mosquito_risk":7,"arthritis_risk":5,"migraine_risk":7,"frizz_risk":1,"updated_at":"2026-07-19T05:26:22.461315+05:30"},{"city":"Asansol","state":"West Bengal","latitude":23.6739,"longitude":86.9524,"temp":26.4,"humidity":97,"rain":0.0,"pressure":988.9,"uv_index":8.2,"wind_gusts":33.8,"aqi":117,"pm10":49.0,"pm2_5":46.6,"no2":33.8,"co":635.0,"o3":29.0,"so2":37.3,"mosquito_risk":7,"arthritis_risk":5,"migraine_risk":7,"frizz_risk":1,"updated_at":"2026-07-19T05:26:22.461326+05:30"},{"city":"Pondicherry","state":"Puducherry","latitude":11.9139,"longitude":79.8145,"temp":27.8,"humidity":81,"rain":0.0,"pressure":1007.2,"uv_index":5.35,"wind_gusts":47.9,"aqi":73,"pm10":36.2,"pm2_5":20.1,"no2":15.9,"co":284.0,"o3":52.0,"so2":20.4,"mosquito_risk":7,"arthritis_risk":5,"migraine_risk":0,"frizz_risk":1,"updated_at":"2026-07-19T05:26:22.461335+05:30"},{"city":"Port Blair","state":"Andaman and Nicobar Islands","latitude":11.6234,"longitude":92.7265,"temp":26.2,"humidity":88,"rain":0.0,"pressure":1007.2,"uv_index":8.8,"wind_gusts":43.2,"aqi":51,"pm10":19.3,"pm2_5":9.5,"no2":0.2,"co":99.0,"o3":52.0,"so2":0.5,"mosquito_risk":7,"arthritis_risk":5,"migraine_risk":4,"frizz_risk":1,"updated_at":"2026-07-19T05:26:22.461342+05:30"},{"city":"Haridwar","state":"Uttarakhand","latitude":29.9457,"longitude":78.1642,"temp":26.3,"humidity":96,"rain":0.2,"pressure":969.0,"uv_index":7.35,"wind_gusts":22.0,"aqi":165,"pm10":190.9,"pm2_5":78.7,"no2":13.0,"co":272.0,"o3":60.0,"so2":7.1,"mosquito_risk":10,"arthritis_risk":5,"migraine_risk":7,"frizz_risk":1,"updated_at":"2026-07-19T05:26:22.461350+05:30"},{"city":"Rishikesh","state":"Uttarakhand","latitude":30.0869,"longitude":78.2676,"temp":25.8,"humidity":96,"rain":1.1,"pressure":961.9,"uv_index":6.7,"wind_gusts":22.0,"aqi":153,"pm10":254.3,"pm2_5":72.2,"no2":5.5,"co":233.0,"o3":95.0,"so2":8.6,"mosquito_risk":10,"arthritis_risk":5,"migraine_risk":7,"frizz_risk":1,"updated_at":"2026-07-19T05:26:22.461357+05:30"},{"city":"Nainital","state":"Uttarakhand","latitude":29.3919,"longitude":79.4542,"temp":17.6,"humidity":100,"rain":0.0,"pressure":803.3,"uv_index":3.25,"wind_gusts":22.0,"aqi":106,"pm10":111.8,"pm2_5":39.6,"no2":4.6,"co":227.0,"o3":115.0,"so2":5.6,"mosquito_risk":3,"arthritis_risk":10,"migraine_risk":3,"frizz_risk":1,"updated_at":"2026-07-19T05:26:22.461363+05:30"},{"city":"Mussoorie","state":"Uttarakhand","latitude":30.4599,"longitude":78.0664,"temp":17.7,"humidity":100,"rain":0.5,"pressure":800.5,"uv_index":5.0,"wind_gusts":35.6,"aqi":138,"pm10":179.3,"pm2_5":52.3,"no2":8.8,"co":231.0,"o3":90.0,"so2":5.8,"mosquito_risk":6,"arthritis_risk":10,"migraine_risk":3,"frizz_risk":1,"updated_at":"2026-07-19T05:26:22.461370+05:30"},{"city":"Dharamshala","state":"Himachal Pradesh","latitude":32.219,"longitude":76.3234,"temp":22.3,"humidity":96,"rain":2.2,"pressure":866.1,"uv_index":6.8,"wind_gusts":20.2,"aqi":50,"pm10":15.1,"pm2_5":8.0,"no2":9.3,"co":323.0,"o3":61.0,"so2":1.1,"mosquito_risk":6,"arthritis_risk":5,"migraine_risk":7,"frizz_risk":1,"updated_at":"2026-07-19T05:26:22.461376+05:30"},{"city":"Dalhousie","state":"Himachal Pradesh","latitude":32.5387,"longitude":75.971,"temp":18.5,"humidity":99,"rain":2.6,"pressure":802.3,"uv_index":4.45,"wind_gusts":22.3,"aqi":94,"pm10":38.5,"pm2_5":19.9,"no2":4.8,"co":298.0,"o3":122.0,"so2":2.2,"mosquito_risk":6,"arthritis_risk":10,"migraine_risk":3,"frizz_risk":1,"updated_at":"2026-07-19T05:26:22.461409+05:30"},{"city":"Patiala","state":"Punjab","latitude":30.3398,"longitude":76.3869,"temp":28.7,"humidity":86,"rain":0.0,"pressure":972.0,"uv_index":6.3,"wind_gusts":32.0,"aqi":237,"pm10":355.8,"pm2_5":150.9,"no2":51.7,"co":481.0,"o3":5.0,"so2":8.4,"mosquito_risk":7,"arthritis_risk":5,"migraine_risk":7,"frizz_risk":1,"updated_at":"2026-07-19T05:26:22.461420+05:30"},{"city":"Bhatinda","state":"Punjab","latitude":30.211,"longitude":74.9455,"temp":32.0,"humidity":60,"rain":0.0,"pressure":976.3,"uv_index":6.5,"wind_gusts":28.8,"aqi":180,"pm10":421.9,"pm2_5":132.7,"no2":35.2,"co":364.0,"o3":10.0,"so2":5.1,"mosquito_risk":0,"arthritis_risk":5,"migraine_risk":7,"frizz_risk":1,"updated_at":"2026-07-19T05:26:22.461431+05:30"},{"city":"Rohtak","state":"Haryana","latitude":28.8955,"longitude":76.6066,"temp":30.3,"humidity":64,"rain":0.0,"pressure":975.5,"uv_index":6.85,"wind_gusts":23.8,"aqi":800,"pm10":504.8,"pm2_5":110.6,"no2":34.1,"co":223.0,"o3":23.0,"so2":6.4,"mosquito_risk":3,"arthritis_risk":5,"migraine_risk":7,"frizz_risk":1,"updated_at":"2026-07-19T05:26:22.461439+05:30"},{"city":"Panipat","state":"Haryana","latitude":29.3909,"longitude":76.9635,"temp":29.0,"humidity":85,"rain":0.0,"pressure":974.4,"uv_index":5.0,"wind_gusts":20.5,"aqi":1131,"pm10":1087.8,"pm2_5":183.5,"no2":39.9,"co":651.0,"o3":14.0,"so2":6.8,"mosquito_risk":7,"arthritis_risk":5,"migraine_risk":3,"frizz_risk":1,"updated_at":"2026-07-19T05:26:22.461445+05:30"},{"city":"Mathura","state":"Uttar Pradesh","latitude":27.4924,"longitude":77.6737,"temp":30.1,"humidity":66,"rain":0.0,"pressure":980.7,"uv_index":6.5,"wind_gusts":25.2,"aqi":436,"pm10":452.6,"pm2_5":122.5,"no2":33.2,"co":238.0,"o3":37.0,"so2":11.1,"mosquito_risk":3,"arthritis_risk":5,"migraine_risk":7,"frizz_risk":1,"updated_at":"2026-07-19T05:26:22.461452+05:30"},{"city":"Vrindavan","state":"Uttar Pradesh","latitude":27.5823,"longitude":77.7027,"temp":30.0,"humidity":68,"rain":0.0,"pressure":981.1,"uv_index":7.0,"wind_gusts":25.2,"aqi":436,"pm10":452.6,"pm2_5":122.5,"no2":33.2,"co":274.0,"o3":37.0,"so2":11.1,"mosquito_risk":7,"arthritis_risk":5,"migraine_risk":7,"frizz_risk":1,"updated_at":"2026-07-19T05:26:22.461459+05:30"},{"city":"Ayodhya","state":"Uttar Pradesh","latitude":26.7922,"longitude":82.1998,"temp":26.5,"humidity":96,"rain":0.1,"pressure":990.9,"uv_index":6.45,"wind_gusts":20.9,"aqi":87,"pm10":25.1,"pm2_5":25.0,"no2":15.3,"co":343.0,"o3":68.0,"so2":4.5,"mosquito_risk":10,"arthritis_risk":5,"migraine_risk":7,"frizz_risk":1,"updated_at":"2026-07-19T05:26:22.461466+05:30"},{"city":"Ratlam","state":"Madhya Pradesh","latitude":23.3315,"longitude":75.0367,"temp":24.8,"humidity":89,"rain":0.0,"pressure":950.9,"uv_index":5.8,"wind_gusts":33.1,"aqi":69,"pm10":14.2,"pm2_5":10.0,"no2":8.9,"co":189.0,"o3":44.0,"so2":10.9,"mosquito_risk":3,"arthritis_risk":5,"migraine_risk":3,"frizz_risk":1,"updated_at":"2026-07-19T05:26:22.461474+05:30"},{"city":"Sagar","state":"Madhya Pradesh","latitude":23.8388,"longitude":78.7378,"temp":24.2,"humidity":96,"rain":0.1,"pressure":946.2,"uv_index":8.1,"wind_gusts":33.1,"aqi":84,"pm10":28.4,"pm2_5":17.9,"no2":7.2,"co":236.0,"o3":63.0,"so2":2.5,"mosquito_risk":6,"arthritis_risk":5,"migraine_risk":7,"frizz_risk":1,"updated_at":"2026-07-19T05:26:22.461480+05:30"},{"city":"Satna","state":"Madhya Pradesh","latitude":24.6005,"longitude":80.8322,"temp":25.7,"humidity":92,"rain":0.0,"pressure":967.0,"uv_index":7.1,"wind_gusts":32.0,"aqi":107,"pm10":39.0,"pm2_5":24.4,"no2":11.1,"co":167.0,"o3":54.0,"so2":3.0,"mosquito_risk":7,"arthritis_risk":5,"migraine_risk":7,"frizz_risk":1,"updated_at":"2026-07-19T05:26:22.461487+05:30"},{"city":"Akola","state":"Maharashtra","latitude":20.7002,"longitude":77.0082,"temp":25.3,"humidity":90,"rain":0.1,"pressure":972.1,"uv_index":6.3,"wind_gusts":39.6,"aqi":59,"pm10":7.7,"pm2_5":5.9,"no2":9.6,"co":124.0,"o3":31.0,"so2":5.4,"mosquito_risk":10,"arthritis_risk":5,"migraine_risk":7,"frizz_risk":1,"updated_at":"2026-07-19T05:26:22.461495+05:30"},{"city":"Amravati","state":"Maharashtra","latitude":20.9374,"longitude":77.7796,"temp":24.8,"humidity":92,"rain":0.0,"pressure":964.0,"uv_index":5.95,"wind_gusts":37.1,"aqi":59,"pm10":8.9,"pm2_5":6.7,"no2":9.8,"co":156.0,"o3":33.0,"so2":6.0,"mosquito_risk":3,"arthritis_risk":5,"migraine_risk":3,"frizz_risk":1,"updated_at":"2026-07-19T05:26:22.461503+05:30"},{"city":"Latur","state":"Maharashtra","latitude":18.4088,"longitude":76.5604,"temp":23.2,"humidity":91,"rain":0.0,"pressure":937.3,"uv_index":3.15,"wind_gusts":37.4,"aqi":45,"pm10":5.0,"pm2_5":4.2,"no2":7.5,"co":149.0,"o3":30.0,"so2":2.9,"mosquito_risk":3,"arthritis_risk":5,"migraine_risk":3,"frizz_risk":1,"updated_at":"2026-07-19T05:26:22.461510+05:30"},{"city":"Nanded","state":"Maharashtra","latitude":19.1383,"longitude":77.3091,"temp":24.7,"humidity":92,"rain":0.0,"pressure":965.9,"uv_index":2.45,"wind_gusts":40.7,"aqi":58,"pm10":8.0,"pm2_5":6.1,"no2":7.9,"co":149.0,"o3":42.0,"so2":3.4,"mosquito_risk":3,"arthritis_risk":5,"migraine_risk":3,"frizz_risk":1,"updated_at":"2026-07-19T05:26:22.461516+05:30"},{"city":"Gulbarga","state":"Karnataka","latitude":17.3297,"longitude":76.8343,"temp":23.6,"humidity":92,"rain":0.0,"pressure":956.7,"uv_index":7.35,"wind_gusts":42.8,"aqi":39,"pm10":3.0,"pm2_5":2.8,"no2":8.7,"co":128.0,"o3":27.0,"so2":2.5,"mosquito_risk":3,"arthritis_risk":5,"migraine_risk":7,"frizz_risk":1,"updated_at":"2026-07-19T05:26:22.461523+05:30"},{"city":"Bidar","state":"Karnataka","latitude":17.9104,"longitude":77.5199,"temp":22.6,"humidity":97,"rain":0.1,"pressure":933.0,"uv_index":1.55,"wind_gusts":39.6,"aqi":51,"pm10":6.5,"pm2_5":4.9,"no2":7.2,"co":147.0,"o3":38.0,"so2":1.9,"mosquito_risk":6,"arthritis_risk":5,"migraine_risk":3,"frizz_risk":1,"updated_at":"2026-07-19T05:26:22.461529+05:30"},{"city":"Hospet","state":"Karnataka","latitude":15.2689,"longitude":76.3909,"temp":22.3,"humidity":96,"rain":0.0,"pressure":954.7,"uv_index":6.1,"wind_gusts":52.6,"aqi":32,"pm10":4.5,"pm2_5":2.9,"no2":4.7,"co":115.0,"o3":35.0,"so2":1.6,"mosquito_risk":3,"arthritis_risk":5,"migraine_risk":7,"frizz_risk":1,"updated_at":"2026-07-19T05:26:22.461536+05:30"},{"city":"Tirupur","state":"Tamil Nadu","latitude":11.1085,"longitude":77.3411,"temp":23.0,"humidity":91,"rain":0.0,"pressure":974.9,"uv_index":8.05,"wind_gusts":47.9,"aqi":57,"pm10":20.0,"pm2_5":15.9,"no2":19.8,"co":134.0,"o3":13.0,"so2":4.8,"mosquito_risk":3,"arthritis_risk":5,"migraine_risk":7,"frizz_risk":1,"updated_at":"2026-07-19T05:26:22.461542+05:30"},{"city":"Alappuzha","state":"Kerala","latitude":9.4981,"longitude":76.3388,"temp":25.2,"humidity":93,"rain":0.0,"pressure":1010.0,"uv_index":8.05,"wind_gusts":38.5,"aqi":54,"pm10":17.5,"pm2_5":9.9,"no2":7.3,"co":84.0,"o3":33.0,"so2":3.5,"mosquito_risk":7,"arthritis_risk":0,"migraine_risk":4,"frizz_risk":1,"updated_at":"2026-07-19T05:26:22.461548+05:30"},{"city":"Munnar","state":"Kerala","latitude":10.0889,"longitude":77.0595,"temp":16.0,"humidity":96,"rain":0.0,"pressure":856.0,"uv_index":7.1,"wind_gusts":34.9,"aqi":32,"pm10":6.4,"pm2_5":5.0,"no2":6.4,"co":87.0,"o3":19.0,"so2":1.4,"mosquito_risk":3,"arthritis_risk":10,"migraine_risk":7,"frizz_risk":0,"updated_at":"2026-07-19T05:26:22.461555+05:30"},{"city":"Silchar","state":"Assam","latitude":24.8333,"longitude":92.7789,"temp":25.8,"humidity":94,"rain":0.0,"pressure":1003.6,"uv_index":0.85,"wind_gusts":22.7,"aqi":63,"pm10":17.9,"pm2_5":12.2,"no2":6.1,"co":212.0,"o3":53.0,"so2":3.0,"mosquito_risk":7,"arthritis_risk":5,"migraine_risk":0,"frizz_risk":1,"updated_at":"2026-07-19T05:26:22.461562+05:30"},{"city":"Dibrugarh","state":"Assam","latitude":27.4728,"longitude":94.912,"temp":24.9,"humidity":98,"rain":0.1,"pressure":992.4,"uv_index":4.15,"wind_gusts":33.5,"aqi":58,"pm10":13.2,"pm2_5":12.4,"no2":8.2,"co":193.0,"o3":54.0,"so2":1.1,"mosquito_risk":6,"arthritis_risk":5,"migraine_risk":3,"frizz_risk":1,"updated_at":"2026-07-19T05:26:22.461568+05:30"}]