[{"city":"Delhi","state":"Delhi","latitude":28.6139,"longitude":77.209,"temp":38.8,"humidity":16,"rain":0.0,"pressure":981.2,"uv_index":7.1,"wind_gusts":45.7,"aqi":467,"pm10":1031.9,"pm2_5":135.0,"mosquito_risk":0,"arthritis_risk":5,"migraine_risk":10,"frizz_risk":0,"updated_at":"2026-04-25T18:41:35.999124+05:30"},{"city":"Mumbai","state":"Maharashtra","latitude":19.076,"longitude":72.8777,"temp":32.3,"humidity":53,"rain":0.0,"pressure":1005.7,"uv_index":8.0,"wind_gusts":42.8,"aqi":149,"pm10":44.6,"pm2_5":29.4,"mosquito_risk":0,"arthritis_risk":5,"migraine_risk":4,"frizz_risk":1,"updated_at":"2026-04-25T18:41:35.999169+05:30"},{"city":"Bangalore","state":"Karnataka","latitude":12.9716,"longitude":77.5946,"temp":32.5,"humidity":25,"rain":0.0,"pressure":912.0,"uv_index":9.3,"wind_gusts":36.4,"aqi":126,"pm10":32.4,"pm2_5":27.5,"mosquito_risk":0,"arthritis_risk":5,"migraine_risk":7,"frizz_risk":0,"updated_at":"2026-04-25T18:41:35.999184+05:30"},{"city":"Hyderabad","state":"Telangana","latitude":17.385,"longitude":78.4867,"temp":36.3,"humidity":23,"rain":0.0,"pressure":953.2,"uv_index":9.3,"wind_gusts":29.2,"aqi":178,"pm10":48.1,"pm2_5":42.7,"mosquito_risk":0,"arthritis_risk":5,"migraine_risk":10,"frizz_risk":0,"updated_at":"2026-04-25T18:41:35.999195+05:30"},{"city":"Chennai","state":"Tamil Nadu","latitude":13.0827,"longitude":80.2707,"temp":30.3,"humidity":73,"rain":0.0,"pressure":1006.7,"uv_index":9.3,"wind_gusts":50.0,"aqi":32,"pm10":11.5,"pm2_5":7.7,"mosquito_risk":3,"arthritis_risk":5,"migraine_risk":4,"frizz_risk":1,"updated_at":"2026-04-25T18:41:35.999204+05:30"},{"city":"Kolkata","state":"West Bengal","latitude":22.5726,"longitude":88.3639,"temp":30.3,"humidity":73,"rain":0.0,"pressure":1005.7,"uv_index":8.55,"wind_gusts":38.9,"aqi":77,"pm10":23.8,"pm2_5":18.9,"mosquito_risk":3,"arthritis_risk":5,"migraine_risk":4,"frizz_risk":1,"updated_at":"2026-04-25T18:41:35.999216+05:30"},{"city":"Pune","state":"Maharashtra","latitude":18.5204,"longitude":73.8567,"temp":36.0,"humidity":18,"rain":0.0,"pressure":947.2,"uv_index":8.35,"wind_gusts":36.4,"aqi":158,"pm10":42.4,"pm2_5":34.6,"mosquito_risk":0,"arthritis_risk":5,"migraine_risk":10,"frizz_risk":0,"updated_at":"2026-04-25T18:41:35.999226+05:30"},{"city":"Ahmedabad","state":"Gujarat","latitude":23.0225,"longitude":72.5714,"temp":42.2,"humidity":11,"rain":0.0,"pressure":999.0,"uv_index":8.2,"wind_gusts":24.1,"aqi":83,"pm10":40.0,"pm2_5":18.0,"mosquito_risk":0,"arthritis_risk":5,"migraine_risk":10,"frizz_risk":0,"updated_at":"2026-04-25T18:41:35.999234+05:30"},{"city":"Jaipur","state":"Rajasthan","latitude":26.9124,"longitude":75.7873,"temp":37.9,"humidity":16,"rain":0.0,"pressure":959.9,"uv_index":8.05,"wind_gusts":38.2,"aqi":125,"pm10":191.4,"pm2_5":34.5,"mosquito_risk":0,"arthritis_risk":5,"migraine_risk":10,"frizz_risk":0,"updated_at":"2026-04-25T18:41:35.999242+05:30"},{"city":"Lucknow","state":"Uttar Pradesh","latitude":26.8467,"longitude":80.9462,"temp":39.8,"humidity":14,"rain":0.0,"pressure":989.8,"uv_index":7.9,"wind_gusts":42.1,"aqi":159,"pm10":111.8,"pm2_5":35.7,"mosquito_risk":0,"arthritis_risk":5,"migraine_risk":10,"frizz_risk":0,"updated_at":"2026-04-25T18:41:35.999250+05:30"},{"city":"Kanpur","state":"Uttar Pradesh","latitude":26.4499,"longitude":80.3319,"temp":39.7,"humidity":14,"rain":0.0,"pressure":988.6,"uv_index":7.9,"wind_gusts":39.6,"aqi":165,"pm10":404.2,"pm2_5":60.3,"mosquito_risk":0,"arthritis_risk":5,"migraine_risk":10,"frizz_risk":0,"updated_at":"2026-04-25T18:41:35.999258+05:30"},{"city":"Chandigarh","state":"Chandigarh","latitude":30.7333,"longitude":76.7794,"temp":32.0,"humidity":34,"rain":0.0,"pressure":968.4,"uv_index":7.25,"wind_gusts":59.4,"aqi":78,"pm10":46.2,"pm2_5":18.2,"mosquito_risk":0,"arthritis_risk":5,"migraine_risk":7,"frizz_risk":0,"updated_at":"2026-04-25T18:41:35.999266+05:30"},{"city":"Srinagar","state":"Jammu and Kashmir","latitude":34.0837,"longitude":74.7973,"temp":16.6,"humidity":78,"rain":0.0,"pressure":845.0,"uv_index":8.6,"wind_gusts":31.3,"aqi":73,"pm10":34.5,"pm2_5":13.9,"mosquito_risk":3,"arthritis_risk":5,"migraine_risk":7,"frizz_risk":0,"updated_at":"2026-04-25T18:41:35.999273+05:30"},{"city":"Jammu","state":"Jammu and Kashmir","latitude":32.7266,"longitude":74.857,"temp":32.6,"humidity":34,"rain":0.0,"pressure":972.4,"uv_index":8.2,"wind_gusts":43.6,"aqi":78,"pm10":105.2,"pm2_5":34.6,"mosquito_risk":0,"arthritis_risk":5,"migraine_risk":7,"frizz_risk":0,"updated_at":"2026-04-25T18:41:35.999280+05:30"},{"city":"Amritsar","state":"Punjab","latitude":31.634,"longitude":74.8723,"temp":34.4,"humidity":26,"rain":0.0,"pressure":980.6,"uv_index":8.1,"wind_gusts":38.2,"aqi":86,"pm10":152.3,"pm2_5":39.5,"mosquito_risk":0,"arthritis_risk":5,"migraine_risk":7,"frizz_risk":0,"updated_at":"2026-04-25T18:41:35.999290+05:30"},{"city":"Ludhiana","state":"Punjab","latitude":30.901,"longitude":75.8573,"temp":34.0,"humidity":26,"rain":0.0,"pressure":978.4,"uv_index":7.7,"wind_gusts":54.4,"aqi":82,"pm10":84.8,"pm2_5":24.1,"mosquito_risk":0,"arthritis_risk":5,"migraine_risk":7,"frizz_risk":0,"updated_at":"2026-04-25T18:41:35.999299+05:30"},{"city":"Jalandhar","state":"Punjab","latitude":31.326,"longitude":75.5762,"temp":33.4,"humidity":29,"rain":0.0,"pressure":979.3,"uv_index":7.9,"wind_gusts":37.4,"aqi":89,"pm10":131.3,"pm2_5":31.5,"mosquito_risk":0,"arthritis_risk":5,"migraine_risk":7,"frizz_risk":0,"updated_at":"2026-04-25T18:41:35.999306+05:30"},{"city":"Dehradun","state":"Uttarakhand","latitude":30.6284,"longitude":78.0322,"temp":20.5,"humidity":54,"rain":0.0,"pressure":831.2,"uv_index":7.85,"wind_gusts":50.0,"aqi":81,"pm10":39.7,"pm2_5":13.9,"mosquito_risk":0,"arthritis_risk":5,"migraine_risk":7,"frizz_risk":0,"updated_at":"2026-04-25T18:41:35.999313+05:30"},{"city":"Shimla","state":"Himachal Pradesh","latitude":31.1048,"longitude":77.1734,"temp":17.1,"humidity":46,"rain":0.0,"pressure":786.8,"uv_index":7.6,"wind_gusts":55.1,"aqi":57,"pm10":57.9,"pm2_5":17.1,"mosquito_risk":0,"arthritis_risk":5,"migraine_risk":7,"frizz_risk":0,"updated_at":"2026-04-25T18:41:35.999320+05:30"},{"city":"Manali","state":"Himachal Pradesh","latitude":32.2396,"longitude":77.1887,"temp":12.1,"humidity":82,"rain":0.0,"pressure":819.0,"uv_index":9.85,"wind_gusts":43.9,"aqi":109,"pm10":36.7,"pm2_5":10.1,"mosquito_risk":3,"arthritis_risk":10,"migraine_risk":7,"frizz_risk":0,"updated_at":"2026-04-25T18:41:35.999327+05:30"},{"city":"Gurgaon","state":"Haryana","latitude":28.4595,"longitude":77.0266,"temp":36.2,"humidity":21,"rain":0.0,"pressure":979.8,"uv_index":7.5,"wind_gusts":47.2,"aqi":1140,"pm10":2831.2,"pm2_5":292.4,"mosquito_risk":0,"arthritis_risk":5,"migraine_risk":10,"frizz_risk":0,"updated_at":"2026-04-25T18:41:35.999335+05:30"},{"city":"Noida","state":"Uttar Pradesh","latitude":28.5355,"longitude":77.391,"temp":37.8,"humidity":17,"rain":0.0,"pressure":982.1,"uv_index":7.4,"wind_gusts":33.8,"aqi":1140,"pm10":2831.2,"pm2_5":292.4,"mosquito_risk":0,"arthritis_risk":5,"migraine_risk":10,"frizz_risk":0,"updated_at":"2026-04-25T18:41:35.999341+05:30"},{"city":"Ghaziabad","state":"Uttar Pradesh","latitude":28.6692,"longitude":77.4538,"temp":38.3,"humidity":16,"rain":0.0,"pressure":980.5,"uv_index":7.4,"wind_gusts":46.8,"aqi":254,"pm10":856.8,"pm2_5":116.4,"mosquito_risk":0,"arthritis_risk":5,"migraine_risk":10,"frizz_risk":0,"updated_at":"2026-04-25T18:41:35.999348+05:30"},{"city":"Faridabad","state":"Haryana","latitude":28.4089,"longitude":77.3178,"temp":38.3,"humidity":17,"rain":0.0,"pressure":981.7,"uv_index":7.5,"wind_gusts":48.6,"aqi":1140,"pm10":2831.2,"pm2_5":292.4,"mosquito_risk":0,"arthritis_risk":5,"migraine_risk":10,"frizz_risk":0,"updated_at":"2026-04-25T18:41:35.999354+05:30"},{"city":"Meerut","state":"Uttar Pradesh","latitude":28.9845,"longitude":77.7064,"temp":35.2,"humidity":26,"rain":0.0,"pressure":979.0,"uv_index":7.35,"wind_gusts":47.2,"aqi":254,"pm10":856.8,"pm2_5":116.4,"mosquito_risk":0,"arthritis_risk":5,"migraine_risk":10,"frizz_risk":0,"updated_at":"2026-04-25T18:41:35.999360+05:30"},{"city":"Agra","state":"Uttar Pradesh","latitude":27.1767,"longitude":78.0081,"temp":38.7,"humidity":16,"rain":0.0,"pressure":985.8,"uv_index":7.8,"wind_gusts":45.0,"aqi":377,"pm10":810.3,"pm2_5":108.0,"mosquito_risk":0,"arthritis_risk":5,"migraine_risk":10,"frizz_risk":0,"updated_at":"2026-04-25T18:41:35.999369+05:30"},{"city":"Varanasi","state":"Uttar Pradesh","latitude":25.3176,"longitude":82.9739,"temp":40.0,"humidity":14,"rain":0.0,"pressure":993.7,"uv_index":8.5,"wind_gusts":38.9,"aqi":154,"pm10":151.8,"pm2_5":48.1,"mosquito_risk":0,"arthritis_risk":5,"migraine_risk":10,"frizz_risk":0,"updated_at":"2026-04-25T18:41:35.999375+05:30"},{"city":"Prayagraj","state":"Uttar Pradesh","latitude":25.4358,"longitude":81.8463,"temp":37.2,"humidity":23,"rain":0.0,"pressure":992.3,"uv_index":8.4,"wind_gusts":31.7,"aqi":148,"pm10":154.6,"pm2_5":39.6,"mosquito_risk":0,"arthritis_risk":5,"migraine_risk":10,"frizz_risk":0,"updated_at":"2026-04-25T18:41:35.999384+05:30"},{"city":"Gorakhpur","state":"Uttar Pradesh","latitude":26.7606,"longitude":83.3732,"temp":31.5,"humidity":56,"rain":0.0,"pressure":994.8,"uv_index":8.3,"wind_gusts":43.2,"aqi":195,"pm10":126.2,"pm2_5":47.8,"mosquito_risk":0,"arthritis_risk":5,"migraine_risk":7,"frizz_risk":1,"updated_at":"2026-04-25T18:41:35.999391+05:30"},{"city":"Bareilly","state":"Uttar Pradesh","latitude":28.367,"longitude":79.4304,"temp":36.5,"humidity":22,"rain":0.0,"pressure":983.9,"uv_index":7.7,"wind_gusts":48.6,"aqi":169,"pm10":46.0,"pm2_5":27.1,"mosquito_risk":0,"arthritis_risk":5,"migraine_risk":10,"frizz_risk":0,"updated_at":"2026-04-25T18:41:35.999398+05:30"},{"city":"Aligarh","state":"Uttar Pradesh","latitude":27.8974,"longitude":78.088,"temp":38.0,"humidity":17,"rain":0.0,"pressure":983.2,"uv_index":7.6,"wind_gusts":40.3,"aqi":404,"pm10":1337.4,"pm2_5":150.4,"mosquito_risk":0,"arthritis_risk":5,"migraine_risk":10,"frizz_risk":0,"updated_at":"2026-04-25T18:41:35.999405+05:30"},{"city":"Moradabad","state":"Uttar Pradesh","latitude":28.8386,"longitude":78.7733,"temp":36.2,"humidity":24,"rain":0.0,"pressure":980.8,"uv_index":7.55,"wind_gusts":57.2,"aqi":182,"pm10":112.9,"pm2_5":32.4,"mosquito_risk":0,"arthritis_risk":5,"migraine_risk":10,"frizz_risk":0,"updated_at":"2026-04-25T18:41:35.999411+05:30"},{"city":"Saharanpur","state":"Uttar Pradesh","latitude":29.9637,"longitude":77.546,"temp":34.2,"humidity":25,"rain":0.0,"pressure":974.0,"uv_index":7.15,"wind_gusts":54.0,"aqi":131,"pm10":190.9,"pm2_5":43.0,"mosquito_risk":0,"arthritis_risk":5,"migraine_risk":7,"frizz_risk":0,"updated_at":"2026-04-25T18:41:35.999417+05:30"},{"city":"Jhansi","state":"Uttar Pradesh","latitude":25.4484,"longitude":78.5685,"temp":39.0,"humidity":14,"rain":0.0,"pressure":975.5,"uv_index":8.3,"wind_gusts":32.0,"aqi":106,"pm10":106.6,"pm2_5":28.8,"mosquito_risk":0,"arthritis_risk":5,"migraine_risk":10,"frizz_risk":0,"updated_at":"2026-04-25T18:41:39.339013+05:30"},{"city":"Surat","state":"Gujarat","latitude":21.1702,"longitude":72.8311,"temp":39.8,"humidity":9,"rain":0.0,"pressure":1003.8,"uv_index":7.85,"wind_gusts":36.0,"aqi":107,"pm10":68.0,"pm2_5":51.7,"mosquito_risk":0,"arthritis_risk":5,"migraine_risk":7,"frizz_risk":0,"updated_at":"2026-04-25T18:41:39.339043+05:30"},{"city":"Vadodara","state":"Gujarat","latitude":22.3072,"longitude":73.1812,"temp":41.2,"humidity":12,"rain":0.0,"pressure":1001.3,"uv_index":8.15,"wind_gusts":30.6,"aqi":128,"pm10":41.2,"pm2_5":24.2,"mosquito_risk":0,"arthritis_risk":5,"migraine_risk":7,"frizz_risk":0,"updated_at":"2026-04-25T18:41:39.339053+05:30"},{"city":"Rajkot","state":"Gujarat","latitude":22.3039,"longitude":70.8022,"temp":37.5,"humidity":21,"rain":0.0,"pressure":992.6,"uv_index":7.9,"wind_gusts":36.0,"aqi":72,"pm10":55.1,"pm2_5":20.0,"mosquito_risk":0,"arthritis_risk":5,"migraine_risk":10,"frizz_risk":0,"updated_at":"2026-04-25T18:41:39.339060+05:30"},{"city":"Thane","state":"Maharashtra","latitude":19.2183,"longitude":72.9781,"temp":35.4,"humidity":36,"rain":0.0,"pressure":1004.8,"uv_index":8.0,"wind_gusts":41.0,"aqi":149,"pm10":44.6,"pm2_5":29.4,"mosquito_risk":0,"arthritis_risk":5,"migraine_risk":7,"frizz_risk":1,"updated_at":"2026-04-25T18:41:39.339067+05:30"},{"city":"Nagpur","state":"Maharashtra","latitude":21.1458,"longitude":79.0882,"temp":40.2,"humidity":10,"rain":0.0,"pressure":970.3,"uv_index":8.9,"wind_gusts":37.1,"aqi":185,"pm10":37.3,"pm2_5":29.0,"mosquito_risk":0,"arthritis_risk":5,"migraine_risk":10,"frizz_risk":0,"updated_at":"2026-04-25T18:41:39.339075+05:30"},{"city":"Nashik","state":"Maharashtra","latitude":19.9975,"longitude":73.7898,"temp":36.5,"humidity":16,"rain":0.0,"pressure":944.7,"uv_index":8.3,"wind_gusts":31.0,"aqi":128,"pm10":31.3,"pm2_5":22.7,"mosquito_risk":0,"arthritis_risk":5,"migraine_risk":10,"frizz_risk":0,"updated_at":"2026-04-25T18:41:39.339082+05:30"},{"city":"Aurangabad","state":"Maharashtra","latitude":19.8762,"longitude":75.3433,"temp":37.5,"humidity":15,"rain":0.0,"pressure":943.4,"uv_index":8.75,"wind_gusts":29.5,"aqi":143,"pm10":34.1,"pm2_5":25.4,"mosquito_risk":0,"arthritis_risk":5,"migraine_risk":10,"frizz_risk":0,"updated_at":"2026-04-25T18:41:39.339089+05:30"},{"city":"Solapur","state":"Maharashtra","latitude":17.6599,"longitude":75.9064,"temp":37.2,"humidity":21,"rain":0.0,"pressure":955.6,"uv_index":8.6,"wind_gusts":25.6,"aqi":175,"pm10":45.5,"pm2_5":39.3,"mosquito_risk":0,"arthritis_risk":5,"migraine_risk":10,"frizz_risk":0,"updated_at":"2026-04-25T18:41:39.339096+05:30"},{"city":"Kolhapur","state":"Maharashtra","latitude":16.705,"longitude":74.2433,"temp":34.7,"humidity":24,"rain":0.0,"pressure":947.2,"uv_index":9.05,"wind_gusts":37.8,"aqi":161,"pm10":66.1,"pm2_5":58.9,"mosquito_risk":0,"arthritis_risk":5,"migraine_risk":7,"frizz_risk":0,"updated_at":"2026-04-25T18:41:39.339104+05:30"},{"city":"Goa","state":"Goa","latitude":15.2993,"longitude":74.124,"temp":33.7,"humidity":57,"rain":0.0,"pressure":995.9,"uv_index":8.9,"wind_gusts":29.5,"aqi":80,"pm10":26.8,"pm2_5":19.2,"mosquito_risk":0,"arthritis_risk":5,"migraine_risk":7,"frizz_risk":1,"updated_at":"2026-04-25T18:41:39.339111+05:30"},{"city":"Jodhpur","state":"Rajasthan","latitude":26.2389,"longitude":73.0243,"temp":39.8,"humidity":14,"rain":0.0,"pressure":981.7,"uv_index":8.3,"wind_gusts":32.8,"aqi":86,"pm10":111.8,"pm2_5":23.5,"mosquito_risk":0,"arthritis_risk":5,"migraine_risk":10,"frizz_risk":0,"updated_at":"2026-04-25T18:41:39.339117+05:30"},{"city":"Udaipur","state":"Rajasthan","latitude":24.5854,"longitude":73.7125,"temp":35.0,"humidity":21,"rain":0.0,"pressure":946.4,"uv_index":8.8,"wind_gusts":41.0,"aqi":80,"pm10":73.3,"pm2_5":19.7,"mosquito_risk":0,"arthritis_risk":5,"migraine_risk":7,"frizz_risk":0,"updated_at":"2026-04-25T18:41:39.339124+05:30"},{"city":"Kota","state":"Rajasthan","latitude":25.2138,"longitude":75.8648,"temp":39.0,"humidity":15,"rain":0.0,"pressure":977.2,"uv_index":8.3,"wind_gusts":31.3,"aqi":118,"pm10":66.8,"pm2_5":24.1,"mosquito_risk":0,"arthritis_risk":5,"migraine_risk":10,"frizz_risk":0,"updated_at":"2026-04-25T18:41:39.339131+05:30"},{"city":"Bikaner","state":"Rajasthan","latitude":28.0229,"longitude":73.3119,"temp":38.2,"humidity":18,"rain":0.0,"pressure":981.4,"uv_index":8.15,"wind_gusts":38.5,"aqi":72,"pm10":111.5,"pm2_5":25.0,"mosquito_risk":0,"arthritis_risk":5,"migraine_risk":10,"frizz_risk":0,"updated_at":"2026-04-25T18:41:39.339137+05:30"},{"city":"Ajmer","state":"Rajasthan","latitude":26.4499,"longitude":74.6399,"temp":36.4,"humidity":17,"rain":0.0,"pressure":954.9,"uv_index":8.25,"wind_gusts":35.6,"aqi":94,"pm10":101.0,"pm2_5":24.3,"mosquito_risk":0,"arthritis_risk":5,"migraine_risk":10,"frizz_risk":0,"updated_at":"2026-04-25T18:41:39.339144+05:30"},{"city":"Gwalior","state":"Madhya Pradesh","latitude":26.2183,"longitude":78.1828,"temp":39.3,"humidity":14,"rain":0.0,"pressure":981.1,"uv_index":8.0,"wind_gusts":41.0,"aqi":110,"pm10":117.6,"pm2_5":30.0,"mosquito_risk":0,"arthritis_risk":5,"migraine_risk":10,"frizz_risk":0,"updated_at":"2026-04-25T18:41:39.339151+05:30"},{"city":"Indore","state":"Madhya Pradesh","latitude":22.7196,"longitude":75.8577,"temp":39.2,"humidity":11,"rain":0.0,"pressure":946.7,"uv_index":8.65,"wind_gusts":32.0,"aqi":91,"pm10":35.0,"pm2_5":14.2,"mosquito_risk":0,"arthritis_risk":5,"migraine_risk":10,"frizz_risk":0,"updated_at":"2026-04-25T18:41:39.339157+05:30"},{"city":"Bhopal","state":"Madhya Pradesh","latitude":23.2599,"longitude":77.4126,"temp":38.2,"humidity":13,"rain":0.0,"pressure":952.3,"uv_index":8.65,"wind_gusts":30.6,"aqi":111,"pm10":27.3,"pm2_5":13.8,"mosquito_risk":0,"arthritis_risk":5,"migraine_risk":10,"frizz_risk":0,"updated_at":"2026-04-25T18:41:39.339164+05:30"},{"city":"Jabalpur","state":"Madhya Pradesh","latitude":23.1815,"longitude":79.9864,"temp":37.2,"humidity":13,"rain":0.0,"pressure":959.4,"uv_index":8.75,"wind_gusts":34.9,"aqi":126,"pm10":28.8,"pm2_5":15.4,"mosquito_risk":0,"arthritis_risk":5,"migraine_risk":10,"frizz_risk":0,"updated_at":"2026-04-25T18:41:39.339171+05:30"},{"city":"Ujjain","state":"Madhya Pradesh","latitude":23.1765,"longitude":75.7885,"temp":38.2,"humidity":18,"rain":0.0,"pressure":952.2,"uv_index":8.55,"wind_gusts":29.2,"aqi":80,"pm10":45.3,"pm2_5":20.1,"mosquito_risk":0,"arthritis_risk":5,"migraine_risk":10,"frizz_risk":0,"updated_at":"2026-04-25T18:41:39.339178+05:30"},{"city":"Visakhapatnam","state":"Andhra Pradesh","latitude":17.6868,"longitude":83.2185,"temp":29.2,"humidity":82,"rain":0.0,"pressure":1003.3,"uv_index":8.7,"wind_gusts":42.8,"aqi":59,"pm10":17.1,"pm2_5":12.4,"mosquito_risk":7,"arthritis_risk":5,"migraine_risk":4,"frizz_risk":1,"updated_at":"2026-04-25T18:41:39.339185+05:30"},{"city":"Vijayawada","state":"Andhra Pradesh","latitude":16.5062,"longitude":80.648,"temp":34.2,"humidity":39,"rain":0.0,"pressure":1001.8,"uv_index":8.85,"wind_gusts":31.0,"aqi":52,"pm10":17.0,"pm2_5":13.3,"mosquito_risk":0,"arthritis_risk":5,"migraine_risk":4,"frizz_risk":1,"updated_at":"2026-04-25T18:41:39.339192+05:30"},{"city":"Guntur","state":"Andhra Pradesh","latitude":16.3067,"longitude":80.4365,"temp":31.9,"humidity":55,"rain":0.0,"pressure":1003.3,"uv_index":8.6,"wind_gusts":36.7,"aqi":68,"pm10":21.4,"pm2_5":17.2,"mosquito_risk":0,"arthritis_risk":5,"migraine_risk":4,"frizz_risk":1,"updated_at":"2026-04-25T18:41:39.339198+05:30"},{"city":"Nellore","state":"Andhra Pradesh","latitude":14.4426,"longitude":79.9865,"temp":30.1,"humidity":76,"rain":0.0,"pressure":1005.0,"uv_index":9.25,"wind_gusts":42.1,"aqi":52,"pm10":14.1,"pm2_5":10.3,"mosquito_risk":3,"arthritis_risk":5,"migraine_risk":4,"frizz_risk":1,"updated_at":"2026-04-25T18:41:39.339205+05:30"},{"city":"Kurnool","state":"Andhra Pradesh","latitude":15.8281,"longitude":78.0373,"temp":38.0,"humidity":21,"rain":0.0,"pressure":975.3,"uv_index":8.9,"wind_gusts":34.2,"aqi":134,"pm10":38.9,"pm2_5":31.1,"mosquito_risk":0,"arthritis_risk":5,"migraine_risk":10,"frizz_risk":0,"updated_at":"2026-04-25T18:41:39.339212+05:30"},{"city":"Kakinada","state":"Andhra Pradesh","latitude":16.9891,"longitude":82.2475,"temp":32.5,"humidity":60,"rain":0.0,"pressure":1006.4,"uv_index":8.45,"wind_gusts":37.1,"aqi":40,"pm10":13.7,"pm2_5":8.6,"mosquito_risk":0,"arthritis_risk":5,"migraine_risk":4,"frizz_risk":1,"updated_at":"2026-04-25T18:41:39.339219+05:30"},{"city":"Tirupati","state":"Andhra Pradesh","latitude":13.6288,"longitude":79.4192,"temp":36.0,"humidity":29,"rain":0.0,"pressure":989.8,"uv_index":9.35,"wind_gusts":34.9,"aqi":76,"pm10":24.6,"pm2_5":20.7,"mosquito_risk":0,"arthritis_risk":5,"migraine_risk":10,"frizz_risk":0,"updated_at":"2026-04-25T18:41:39.339226+05:30"},{"city":"Warangal","state":"Telangana","latitude":17.9689,"longitude":79.5941,"temp":35.4,"humidity":31,"rain":0.0,"pressure":977.9,"uv_index":9.0,"wind_gusts":29.5,"aqi":133,"pm10":49.1,"pm2_5":43.3,"mosquito_risk":0,"arthritis_risk":5,"migraine_risk":10,"frizz_risk":0,"updated_at":"2026-04-25T18:41:39.339232+05:30"},{"city":"Nizamabad","state":"Telangana","latitude":18.6725,"longitude":78.0941,"temp":35.8,"humidity":22,"rain":0.0,"pressure":963.4,"uv_index":8.75,"wind_gusts":27.7,"aqi":172,"pm10":54.9,"pm2_5":46.8,"mosquito_risk":0,"arthritis_risk":5,"migraine_risk":10,"frizz_risk":0,"updated_at":"2026-04-25T18:41:39.339239+05:30"},{"city":"Mysore","state":"Karnataka","latitude":12.2958,"longitude":76.6396,"temp":32.0,"humidity":29,"rain":0.0,"pressure":927.8,"uv_index":8.9,"wind_gusts":45.0,"aqi":124,"pm10":31.0,"pm2_5":26.6,"mosquito_risk":0,"arthritis_risk":5,"migraine_risk":7,"frizz_risk":0,"updated_at":"2026-04-25T18:41:39.339246+05:30"},{"city":"Mangalore","state":"Karnataka","latitude":12.9141,"longitude":74.856,"temp":30.6,"humidity":75,"rain":0.0,"pressure":1005.4,"uv_index":9.1,"wind_gusts":40.7,"aqi":95,"pm10":21.5,"pm2_5":16.4,"mosquito_risk":3,"arthritis_risk":5,"migraine_risk":4,"frizz_risk":1,"updated_at":"2026-04-25T18:41:39.339253+05:30"},{"city":"Hubli-Dharwad","state":"Karnataka","latitude":15.3647,"longitude":75.124,"temp":29.5,"humidity":46,"rain":0.0,"pressure":939.7,"uv_index":9.0,"wind_gusts":47.5,"aqi":170,"pm10":46.1,"pm2_5":40.3,"mosquito_risk":4,"arthritis_risk":5,"migraine_risk":7,"frizz_risk":1,"updated_at":"2026-04-25T18:41:39.339260+05:30"},{"city":"Belgaum","state":"Karnataka","latitude":15.8497,"longitude":74.4977,"temp":29.2,"humidity":50,"rain":0.0,"pressure":925.6,"uv_index":9.2,"wind_gusts":34.9,"aqi":162,"pm10":52.2,"pm2_5":45.6,"mosquito_risk":4,"arthritis_risk":5,"migraine_risk":7,"frizz_risk":1,"updated_at":"2026-04-25T18:41:42.738516+05:30"},{"city":"Coimbatore","state":"Tamil Nadu","latitude":11.0168,"longitude":76.9558,"temp":35.2,"humidity":26,"rain":0.0,"pressure":960.8,"uv_index":8.95,"wind_gusts":46.1,"aqi":95,"pm10":24.7,"pm2_5":21.1,"mosquito_risk":0,"arthritis_risk":5,"migraine_risk":10,"frizz_risk":0,"updated_at":"2026-04-25T18:41:42.738550+05:30"},{"city":"Madurai","state":"Tamil Nadu","latitude":9.9252,"longitude":78.1198,"temp":35.3,"humidity":33,"rain":0.0,"pressure":991.5,"uv_index":9.25,"wind_gusts":39.2,"aqi":68,"pm10":18.1,"pm2_5":15.7,"mosquito_risk":0,"arthritis_risk":5,"migraine_risk":10,"frizz_risk":1,"updated_at":"2026-04-25T18:41:42.738562+05:30"},{"city":"Trichy","state":"Tamil Nadu","latitude":10.7905,"longitude":78.7047,"temp":34.3,"humidity":42,"rain":0.0,"pressure":998.4,"uv_index":9.3,"wind_gusts":33.8,"aqi":65,"pm10":20.5,"pm2_5":17.6,"mosquito_risk":0,"arthritis_risk":5,"migraine_risk":7,"frizz_risk":1,"updated_at":"2026-04-25T18:41:42.738572+05:30"},{"city":"Salem","state":"Tamil Nadu","latitude":11.6643,"longitude":78.146,"temp":35.1,"humidity":30,"rain":0.0,"pressure":976.2,"uv_index":9.0,"wind_gusts":38.9,"aqi":91,"pm10":26.2,"pm2_5":21.9,"mosquito_risk":0,"arthritis_risk":5,"migraine_risk":10,"frizz_risk":0,"updated_at":"2026-04-25T18:41:42.738582+05:30"},{"city":"Tirunelveli","state":"Tamil Nadu","latitude":8.7139,"longitude":77.7567,"temp":32.6,"humidity":45,"rain":0.0,"pressure":1002.1,"uv_index":9.2,"wind_gusts":40.0,"aqi":63,"pm10":11.0,"pm2_5":10.1,"mosquito_risk":0,"arthritis_risk":5,"migraine_risk":4,"frizz_risk":1,"updated_at":"2026-04-25T18:41:42.738591+05:30"},{"city":"Vellore","state":"Tamil Nadu","latitude":12.9165,"longitude":79.1325,"temp":34.9,"humidity":34,"rain":0.0,"pressure":983.6,"uv_index":9.35,"wind_gusts":35.6,"aqi":92,"pm10":28.9,"pm2_5":25.3,"mosquito_risk":0,"arthritis_risk":5,"migraine_risk":7,"frizz_risk":1,"updated_at":"2026-04-25T18:41:42.738600+05:30"},{"city":"Erode","state":"Tamil Nadu","latitude":11.341,"longitude":77.7172,"temp":36.2,"humidity":26,"rain":0.0,"pressure":987.4,"uv_index":9.3,"wind_gusts":41.8,"aqi":75,"pm10":22.6,"pm2_5":19.4,"mosquito_risk":0,"arthritis_risk":5,"migraine_risk":10,"frizz_risk":0,"updated_at":"2026-04-25T18:41:42.738609+05:30"},{"city":"Kochi","state":"Kerala","latitude":9.9312,"longitude":76.2673,"temp":30.5,"humidity":75,"rain":0.0,"pressure":1006.9,"uv_index":8.4,"wind_gusts":42.1,"aqi":132,"pm10":21.4,"pm2_5":19.5,"mosquito_risk":3,"arthritis_risk":5,"migraine_risk":4,"frizz_risk":1,"updated_at":"2026-04-25T18:41:42.738619+05:30"},{"city":"Thiruvananthapuram","state":"Kerala","latitude":8.5241,"longitude":76.9366,"temp":28.5,"humidity":79,"rain":0.0,"pressure":1007.0,"uv_index":8.6,"wind_gusts":33.8,"aqi":78,"pm10":15.3,"pm2_5":12.3,"mosquito_risk":7,"arthritis_risk":5,"migraine_risk":4,"frizz_risk":1,"updated_at":"2026-04-25T18:41:42.738627+05:30"},{"city":"Kozhikode","state":"Kerala","latitude":11.2588,"longitude":75.7804,"temp":30.2,"humidity":79,"rain":0.0,"pressure":1006.2,"uv_index":8.7,"wind_gusts":36.7,"aqi":92,"pm10":16.6,"pm2_5":11.5,"mosquito_risk":3,"arthritis_risk":5,"migraine_risk":4,"frizz_risk":1,"updated_at":"2026-04-25T18:41:42.738635+05:30"},{"city":"Thrissur","state":"Kerala","latitude":10.5276,"longitude":76.2144,"temp":30.2,"humidity":74,"rain":0.0,"pressure":1005.2,"uv_index":8.1,"wind_gusts":44.6,"aqi":104,"pm10":18.4,"pm2_5":16.6,"mosquito_risk":3,"arthritis_risk":5,"migraine_risk":4,"frizz_risk":1,"updated_at":"2026-04-25T18:41:42.738644+05:30"},{"city":"Kannur","state":"Kerala","latitude":11.8745,"longitude":75.3704,"temp":30.9,"humidity":73,"rain":0.0,"pressure":1005.7,"uv_index":8.6,"wind_gusts":40.0,"aqi":87,"pm10":18.9,"pm2_5":14.1,"mosquito_risk":3,"arthritis_risk":5,"migraine_risk":4,"frizz_risk":1,"updated_at":"2026-04-25T18:41:42.738652+05:30"},{"city":"Patna","state":"Bihar","latitude":25.5941,"longitude":85.1376,"temp":30.3,"humidity":66,"rain":0.0,"pressure":998.8,"uv_index":8.65,"wind_gusts":60.1,"aqi":196,"pm10":104.8,"pm2_5":56.0,"mosquito_risk":3,"arthritis_risk":5,"migraine_risk":7,"frizz_risk":1,"updated_at":"2026-04-25T18:41:42.738660+05:30"},{"city":"Gaya","state":"Bihar","latitude":24.7914,"longitude":85.0002,"temp":32.2,"humidity":48,"rain":0.0,"pressure":991.3,"uv_index":8.7,"wind_gusts":50.8,"aqi":174,"pm10":78.9,"pm2_5":32.5,"mosquito_risk":0,"arthritis_risk":5,"migraine_risk":7,"frizz_risk":1,"updated_at":"2026-04-25T18:41:42.738668+05:30"},{"city":"Muzaffarpur","state":"Bihar","latitude":26.1209,"longitude":85.3647,"temp":28.6,"humidity":72,"rain":0.0,"pressure":999.1,"uv_index":8.6,"wind_gusts":50.4,"aqi":198,"pm10":102.9,"pm2_5":58.1,"mosquito_risk":7,"arthritis_risk":5,"migraine_risk":7,"frizz_risk":1,"updated_at":"2026-04-25T18:41:42.738676+05:30"},{"city":"Bhagalpur","state":"Bihar","latitude":25.2425,"longitude":87.0117,"temp":29.5,"humidity":69,"rain":0.0,"pressure":1000.2,"uv_index":8.6,"wind_gusts":55.1,"aqi":208,"pm10":82.0,"pm2_5":56.8,"mosquito_risk":7,"arthritis_risk":5,"migraine_risk":4,"frizz_risk":1,"updated_at":"2026-04-25T18:41:42.738684+05:30"},{"city":"Ranchi","state":"Jharkhand","latitude":23.3441,"longitude":85.3096,"temp":32.0,"humidity":25,"rain":0.0,"pressure":936.3,"uv_index":9.2,"wind_gusts":28.8,"aqi":186,"pm10":44.8,"pm2_5":29.9,"mosquito_risk":0,"arthritis_risk":5,"migraine_risk":7,"frizz_risk":0,"updated_at":"2026-04-25T18:41:42.738692+05:30"},{"city":"Jamshedpur","state":"Jharkhand","latitude":22.8046,"longitude":86.2029,"temp":35.2,"humidity":38,"rain":0.0,"pressure":988.6,"uv_index":8.9,"wind_gusts":33.5,"aqi":203,"pm10":41.0,"pm2_5":33.9,"mosquito_risk":0,"arthritis_risk":5,"migraine_risk":10,"frizz_risk":1,"updated_at":"2026-04-25T18:41:42.738700+05:30"},{"city":"Dhanbad","state":"Jharkhand","latitude":23.7957,"longitude":86.4304,"temp":34.3,"humidity":46,"rain":0.0,"pressure":977.5,"uv_index":8.95,"wind_gusts":48.6,"aqi":204,"pm10":63.3,"pm2_5":54.7,"mosquito_risk":0,"arthritis_risk":5,"migraine_risk":7,"frizz_risk":1,"updated_at":"2026-04-25T18:41:42.738708+05:30"},{"city":"Bokaro","state":"Jharkhand","latitude":23.6693,"longitude":86.1511,"temp":36.5,"humidity":19,"rain":0.0,"pressure":980.8,"uv_index":8.95,"wind_gusts":33.1,"aqi":205,"pm10":55.6,"pm2_5":39.2,"mosquito_risk":0,"arthritis_risk":5,"migraine_risk":10,"frizz_risk":0,"updated_at":"2026-04-25T18:41:42.738716+05:30"},{"city":"Bhubaneswar","state":"Odisha","latitude":20.2961,"longitude":85.8245,"temp":28.7,"humidity":82,"rain":0.0,"pressure":1002.2,"uv_index":9.1,"wind_gusts":41.0,"aqi":64,"pm10":18.9,"pm2_5":15.8,"mosquito_risk":7,"arthritis_risk":5,"migraine_risk":4,"frizz_risk":1,"updated_at":"2026-04-25T18:41:42.738724+05:30"},{"city":"Cuttack","state":"Odisha","latitude":20.4625,"longitude":85.8828,"temp":29.4,"humidity":80,"rain":0.0,"pressure":1003.7,"uv_index":9.15,"wind_gusts":38.2,"aqi":64,"pm10":18.9,"pm2_5":15.8,"mosquito_risk":7,"arthritis_risk":5,"migraine_risk":4,"frizz_risk":1,"updated_at":"2026-04-25T18:41:42.738732+05:30"},{"city":"Rourkela","state":"Odisha","latitude":22.2604,"longitude":84.8536,"temp":38.0,"humidity":16,"rain":0.0,"pressure":982.3,"uv_index":8.6,"wind_gusts":45.0,"aqi":209,"pm10":41.9,"pm2_5":36.6,"mosquito_risk":0,"arthritis_risk":5,"migraine_risk":10,"frizz_risk":0,"updated_at":"2026-04-25T18:41:42.738740+05:30"},{"city":"Raipur","state":"Chhattisgarh","latitude":21.2514,"longitude":81.6296,"temp":38.0,"humidity":16,"rain":0.0,"pressure":972.0,"uv_index":8.95,"wind_gusts":31.0,"aqi":204,"pm10":39.5,"pm2_5":31.3,"mosquito_risk":0,"arthritis_risk":5,"migraine_risk":10,"frizz_risk":0,"updated_at":"2026-04-25T18:41:42.738748+05:30"},{"city":"Bhilai","state":"Chhattisgarh","latitude":21.1938,"longitude":81.3509,"temp":36.8,"humidity":22,"rain":0.0,"pressure":972.4,"uv_index":9.0,"wind_gusts":35.6,"aqi":172,"pm10":38.3,"pm2_5":29.8,"mosquito_risk":0,"arthritis_risk":5,"migraine_risk":10,"frizz_risk":0,"updated_at":"2026-04-25T18:41:42.738756+05:30"},{"city":"Guwahati","state":"Assam","latitude":26.1158,"longitude":91.7086,"temp":26.3,"humidity":85,"rain":0.0,"pressure":1002.0,"uv_index":8.55,"wind_gusts":42.1,"aqi":161,"pm10":92.9,"pm2_5":67.5,"mosquito_risk":7,"arthritis_risk":5,"migraine_risk":4,"frizz_risk":1,"updated_at":"2026-04-25T18:41:42.738764+05:30"},{"city":"Agartala","state":"Tripura","latitude":23.8315,"longitude":91.2868,"temp":31.7,"humidity":54,"rain":0.0,"pressure":1005.1,"uv_index":8.75,"wind_gusts":35.6,"aqi":155,"pm10":77.3,"pm2_5":58.8,"mosquito_risk":0,"arthritis_risk":5,"migraine_risk":4,"frizz_risk":1,"updated_at":"2026-04-25T18:41:42.738772+05:30"},{"city":"Shillong","state":"Meghalaya","latitude":25.5788,"longitude":91.8933,"temp":18.3,"humidity":85,"rain":0.0,"pressure":857.5,"uv_index":8.2,"wind_gusts":29.5,"aqi":150,"pm10":82.0,"pm2_5":52.6,"mosquito_risk":3,"arthritis_risk":10,"migraine_risk":7,"frizz_risk":0,"updated_at":"2026-04-25T18:41:42.738780+05:30"},{"city":"Imphal","state":"Manipur","latitude":24.817,"longitude":93.9368,"temp":24.8,"humidity":58,"rain":0.0,"pressure":923.6,"uv_index":9.1,"wind_gusts":38.5,"aqi":155,"pm10":81.3,"pm2_5":49.5,"mosquito_risk":0,"arthritis_risk":5,"migraine_risk":7,"frizz_risk":0,"updated_at":"2026-04-25T18:41:42.738789+05:30"},{"city":"Aizawl","state":"Mizoram","latitude":23.7271,"longitude":92.7176,"temp":25.8,"humidity":42,"rain":0.0,"pressure":894.0,"uv_index":8.95,"wind_gusts":39.6,"aqi":120,"pm10":91.5,"pm2_5":38.1,"mosquito_risk":4,"arthritis_risk":5,"migraine_risk":7,"frizz_risk":0,"updated_at":"2026-04-25T18:41:42.738797+05:30"},{"city":"Kohima","state":"Nagaland","latitude":25.6701,"longitude":94.1077,"temp":18.3,"humidity":93,"rain":0.0,"pressure":856.8,"uv_index":8.8,"wind_gusts":38.2,"aqi":156,"pm10":112.7,"pm2_5":73.1,"mosquito_risk":3,"arthritis_risk":10,"migraine_risk":7,"frizz_risk":1,"updated_at":"2026-04-25T18:41:42.738805+05:30"},{"city":"Gangtok","state":"Sikkim","latitude":27.3314,"longitude":88.6138,"temp":15.5,"humidity":86,"rain":0.0,"pressure":838.2,"uv_index":8.8,"wind_gusts":41.4,"aqi":127,"pm10":49.2,"pm2_5":30.7,"mosquito_risk":3,"arthritis_risk":10,"migraine_risk":7,"frizz_risk":0,"updated_at":"2026-04-25T18:41:42.738813+05:30"},{"city":"Siliguri","state":"West Bengal","latitude":26.7271,"longitude":88.3953,"temp":25.1,"humidity":86,"rain":0.0,"pressure":992.9,"uv_index":8.45,"wind_gusts":33.8,"aqi":151,"pm10":80.8,"pm2_5":53.2,"mosquito_risk":7,"arthritis_risk":5,"migraine_risk":7,"frizz_risk":1,"updated_at":"2026-04-25T18:41:46.079801+05:30"},{"city":"Durgapur","state":"West Bengal","latitude":23.5204,"longitude":87.3119,"temp":32.5,"humidity":70,"rain":0.0,"pressure":992.9,"uv_index":8.9,"wind_gusts":38.5,"aqi":162,"pm10":54.9,"pm2_5":44.9,"mosquito_risk":3,"arthritis_risk":5,"migraine_risk":7,"frizz_risk":1,"updated_at":"2026-04-25T18:41:46.079831+05:30"},{"city":"Asansol","state":"West Bengal","latitude":23.6739,"longitude":86.9524,"temp":34.2,"humidity":50,"rain":0.0,"pressure":991.5,"uv_index":8.95,"wind_gusts":41.0,"aqi":177,"pm10":54.8,"pm2_5":46.3,"mosquito_risk":0,"arthritis_risk":5,"migraine_risk":7,"frizz_risk":1,"updated_at":"2026-04-25T18:41:46.079841+05:30"},{"city":"Pondicherry","state":"Puducherry","latitude":11.9139,"longitude":79.8145,"temp":29.9,"humidity":75,"rain":0.0,"pressure":1007.9,"uv_index":9.2,"wind_gusts":43.6,"aqi":29,"pm10":10.0,"pm2_5":6.4,"mosquito_risk":7,"arthritis_risk":5,"migraine_risk":4,"frizz_risk":1,"updated_at":"2026-04-25T18:41:46.079849+05:30"},{"city":"Port Blair","state":"Andaman and Nicobar Islands","latitude":11.6234,"longitude":92.7265,"temp":29.0,"humidity":76,"rain":0.0,"pressure":1007.1,"uv_index":9.15,"wind_gusts":33.1,"aqi":40,"pm10":21.2,"pm2_5":14.0,"mosquito_risk":7,"arthritis_risk":5,"migraine_risk":4,"frizz_risk":1,"updated_at":"2026-04-25T18:41:46.079856+05:30"},{"city":"Haridwar","state":"Uttarakhand","latitude":29.9457,"longitude":78.1642,"temp":31.5,"humidity":33,"rain":0.0,"pressure":971.8,"uv_index":7.25,"wind_gusts":35.6,"aqi":126,"pm10":126.2,"pm2_5":33.3,"mosquito_risk":0,"arthritis_risk":5,"migraine_risk":7,"frizz_risk":0,"updated_at":"2026-04-25T18:41:46.079864+05:30"},{"city":"Rishikesh","state":"Uttarakhand","latitude":30.0869,"longitude":78.2676,"temp":30.3,"humidity":40,"rain":0.0,"pressure":964.7,"uv_index":7.35,"wind_gusts":28.4,"aqi":116,"pm10":121.1,"pm2_5":28.3,"mosquito_risk":0,"arthritis_risk":5,"migraine_risk":7,"frizz_risk":0,"updated_at":"2026-04-25T18:41:46.079871+05:30"},{"city":"Nainital","state":"Uttarakhand","latitude":29.3919,"longitude":79.4542,"temp":18.4,"humidity":57,"rain":0.0,"pressure":806.2,"uv_index":8.2,"wind_gusts":40.3,"aqi":158,"pm10":37.7,"pm2_5":20.8,"mosquito_risk":0,"arthritis_risk":5,"migraine_risk":7,"frizz_risk":0,"updated_at":"2026-04-25T18:41:46.079879+05:30"},{"city":"Mussoorie","state":"Uttarakhand","latitude":30.4599,"longitude":78.0664,"temp":18.7,"humidity":57,"rain":0.0,"pressure":804.1,"uv_index":7.75,"wind_gusts":59.4,"aqi":120,"pm10":70.1,"pm2_5":21.7,"mosquito_risk":0,"arthritis_risk":5,"migraine_risk":7,"frizz_risk":0,"updated_at":"2026-04-25T18:41:46.079885+05:30"},{"city":"Dharamshala","state":"Himachal Pradesh","latitude":32.219,"longitude":76.3234,"temp":23.5,"humidity":42,"rain":0.0,"pressure":870.9,"uv_index":7.65,"wind_gusts":59.8,"aqi":63,"pm10":59.6,"pm2_5":15.1,"mosquito_risk":0,"arthritis_risk":5,"migraine_risk":7,"frizz_risk":0,"updated_at":"2026-04-25T18:41:46.079892+05:30"},{"city":"Dalhousie","state":"Himachal Pradesh","latitude":32.5387,"longitude":75.971,"temp":16.3,"humidity":69,"rain":0.0,"pressure":806.1,"uv_index":8.1,"wind_gusts":45.7,"aqi":58,"pm10":99.2,"pm2_5":24.2,"mosquito_risk":3,"arthritis_risk":5,"migraine_risk":7,"frizz_risk":0,"updated_at":"2026-04-25T18:41:46.079900+05:30"},{"city":"Patiala","state":"Punjab","latitude":30.3398,"longitude":76.3869,"temp":35.4,"humidity":21,"rain":0.0,"pressure":977.6,"uv_index":7.35,"wind_gusts":56.2,"aqi":580,"pm10":830.7,"pm2_5":88.2,"mosquito_risk":0,"arthritis_risk":5,"migraine_risk":10,"frizz_risk":0,"updated_at":"2026-04-25T18:41:46.079907+05:30"},{"city":"Bhatinda","state":"Punjab","latitude":30.211,"longitude":74.9455,"temp":36.8,"humidity":19,"rain":0.0,"pressure":983.3,"uv_index":8.05,"wind_gusts":52.9,"aqi":89,"pm10":113.6,"pm2_5":31.1,"mosquito_risk":0,"arthritis_risk":5,"migraine_risk":10,"frizz_risk":0,"updated_at":"2026-04-25T18:41:46.079915+05:30"},{"city":"Rohtak","state":"Haryana","latitude":28.8955,"longitude":76.6066,"temp":36.8,"humidity":18,"rain":0.0,"pressure":980.3,"uv_index":7.35,"wind_gusts":51.1,"aqi":739,"pm10":1404.4,"pm2_5":166.7,"mosquito_risk":0,"arthritis_risk":5,"migraine_risk":10,"frizz_risk":0,"updated_at":"2026-04-25T18:41:46.079944+05:30"},{"city":"Panipat","state":"Haryana","latitude":29.3909,"longitude":76.9635,"temp":37.2,"humidity":18,"rain":0.0,"pressure":978.6,"uv_index":7.15,"wind_gusts":54.0,"aqi":1394,"pm10":2048.9,"pm2_5":223.1,"mosquito_risk":0,"arthritis_risk":5,"migraine_risk":10,"frizz_risk":0,"updated_at":"2026-04-25T18:41:46.079952+05:30"},{"city":"Mathura","state":"Uttar Pradesh","latitude":27.4924,"longitude":77.6737,"temp":37.5,"humidity":18,"rain":0.0,"pressure":985.0,"uv_index":7.75,"wind_gusts":45.0,"aqi":436,"pm10":1404.4,"pm2_5":153.2,"mosquito_risk":0,"arthritis_risk":5,"migraine_risk":10,"frizz_risk":0,"updated_at":"2026-04-25T18:41:46.079960+05:30"},{"city":"Vrindavan","state":"Uttar Pradesh","latitude":27.5823,"longitude":77.7027,"temp":37.2,"humidity":18,"rain":0.0,"pressure":985.3,"uv_index":7.65,"wind_gusts":44.6,"aqi":436,"pm10":1404.4,"pm2_5":153.2,"mosquito_risk":0,"arthritis_risk":5,"migraine_risk":10,"frizz_risk":0,"updated_at":"2026-04-25T18:41:46.079967+05:30"},{"city":"Ayodhya","state":"Uttar Pradesh","latitude":26.7922,"longitude":82.1998,"temp":35.2,"humidity":37,"rain":0.0,"pressure":991.9,"uv_index":8.05,"wind_gusts":35.3,"aqi":185,"pm10":157.9,"pm2_5":46.8,"mosquito_risk":0,"arthritis_risk":5,"migraine_risk":10,"frizz_risk":1,"updated_at":"2026-04-25T18:41:46.079973+05:30"},{"city":"Ratlam","state":"Madhya Pradesh","latitude":23.3315,"longitude":75.0367,"temp":37.2,"humidity":17,"rain":0.0,"pressure":953.4,"uv_index":8.45,"wind_gusts":29.9,"aqi":78,"pm10":49.0,"pm2_5":18.2,"mosquito_risk":0,"arthritis_risk":5,"migraine_risk":10,"frizz_risk":0,"updated_at":"2026-04-25T18:41:46.079980+05:30"},{"city":"Sagar","state":"Madhya Pradesh","latitude":23.8388,"longitude":78.7378,"temp":36.6,"humidity":16,"rain":0.0,"pressure":948.9,"uv_index":8.65,"wind_gusts":29.9,"aqi":108,"pm10":43.2,"pm2_5":14.3,"mosquito_risk":0,"arthritis_risk":5,"migraine_risk":10,"frizz_risk":0,"updated_at":"2026-04-25T18:41:46.079987+05:30"},{"city":"Satna","state":"Madhya Pradesh","latitude":24.6005,"longitude":80.8322,"temp":37.2,"humidity":16,"rain":0.0,"pressure":968.9,"uv_index":8.65,"wind_gusts":41.0,"aqi":135,"pm10":121.5,"pm2_5":29.7,"mosquito_risk":0,"arthritis_risk":5,"migraine_risk":10,"frizz_risk":0,"updated_at":"2026-04-25T18:41:46.079993+05:30"},{"city":"Akola","state":"Maharashtra","latitude":20.7002,"longitude":77.0082,"temp":39.2,"humidity":21,"rain":0.0,"pressure":972.5,"uv_index":8.7,"wind_gusts":23.4,"aqi":129,"pm10":30.9,"pm2_5":20.5,"mosquito_risk":0,"arthritis_risk":5,"migraine_risk":10,"frizz_risk":0,"updated_at":"2026-04-25T18:41:46.080000+05:30"},{"city":"Amravati","state":"Maharashtra","latitude":20.9374,"longitude":77.7796,"temp":39.3,"humidity":13,"rain":0.0,"pressure":965.1,"uv_index":8.35,"wind_gusts":27.7,"aqi":137,"pm10":32.6,"pm2_5":21.6,"mosquito_risk":0,"arthritis_risk":5,"migraine_risk":10,"frizz_risk":0,"updated_at":"2026-04-25T18:41:46.080007+05:30"},{"city":"Latur","state":"Maharashtra","latitude":18.4088,"longitude":76.5604,"temp":35.5,"humidity":17,"rain":0.0,"pressure":939.3,"uv_index":8.6,"wind_gusts":32.0,"aqi":166,"pm10":37.6,"pm2_5":32.4,"mosquito_risk":0,"arthritis_risk":5,"migraine_risk":10,"frizz_risk":0,"updated_at":"2026-04-25T18:41:46.080014+05:30"},{"city":"Nanded","state":"Maharashtra","latitude":19.1383,"longitude":77.3091,"temp":36.9,"humidity":17,"rain":0.0,"pressure":966.8,"uv_index":8.6,"wind_gusts":28.8,"aqi":153,"pm10":40.3,"pm2_5":30.9,"mosquito_risk":0,"arthritis_risk":5,"migraine_risk":10,"frizz_risk":0,"updated_at":"2026-04-25T18:41:46.080020+05:30"},{"city":"Gulbarga","state":"Karnataka","latitude":17.3297,"longitude":76.8343,"temp":36.3,"humidity":21,"rain":0.0,"pressure":957.5,"uv_index":9.05,"wind_gusts":27.7,"aqi":185,"pm10":47.6,"pm2_5":41.6,"mosquito_risk":0,"arthritis_risk":5,"migraine_risk":10,"frizz_risk":0,"updated_at":"2026-04-25T18:41:46.080027+05:30"},{"city":"Bidar","state":"Karnataka","latitude":17.9104,"longitude":77.5199,"temp":33.7,"humidity":23,"rain":0.0,"pressure":935.3,"uv_index":8.85,"wind_gusts":27.7,"aqi":173,"pm10":51.0,"pm2_5":44.2,"mosquito_risk":0,"arthritis_risk":5,"migraine_risk":7,"frizz_risk":0,"updated_at":"2026-04-25T18:41:46.080033+05:30"},{"city":"Hospet","state":"Karnataka","latitude":15.2689,"longitude":76.3909,"temp":35.2,"humidity":24,"rain":0.0,"pressure":954.3,"uv_index":9.3,"wind_gusts":27.4,"aqi":187,"pm10":37.6,"pm2_5":32.6,"mosquito_risk":0,"arthritis_risk":5,"migraine_risk":10,"frizz_risk":0,"updated_at":"2026-04-25T18:41:46.080039+05:30"},{"city":"Tirupur","state":"Tamil Nadu","latitude":11.1085,"longitude":77.3411,"temp":35.8,"humidity":28,"rain":0.0,"pressure":973.8,"uv_index":9.4,"wind_gusts":41.8,"aqi":83,"pm10":23.7,"pm2_5":20.3,"mosquito_risk":0,"arthritis_risk":5,"migraine_risk":10,"frizz_risk":0,"updated_at":"2026-04-25T18:41:46.080046+05:30"},{"city":"Alappuzha","state":"Kerala","latitude":9.4981,"longitude":76.3388,"temp":29.4,"humidity":81,"rain":0.0,"pressure":1007.1,"uv_index":8.55,"wind_gusts":39.2,"aqi":123,"pm10":18.4,"pm2_5":14.6,"mosquito_risk":7,"arthritis_risk":5,"migraine_risk":4,"frizz_risk":1,"updated_at":"2026-04-25T18:41:46.080053+05:30"},{"city":"Munnar","state":"Kerala","latitude":10.0889,"longitude":77.0595,"temp":21.0,"humidity":64,"rain":0.0,"pressure":857.3,"uv_index":9.15,"wind_gusts":31.3,"aqi":61,"pm10":18.5,"pm2_5":17.3,"mosquito_risk":3,"arthritis_risk":5,"migraine_risk":7,"frizz_risk":0,"updated_at":"2026-04-25T18:41:46.080060+05:30"},{"city":"Silchar","state":"Assam","latitude":24.8333,"longitude":92.7789,"temp":29.1,"humidity":74,"rain":0.0,"pressure":1004.3,"uv_index":8.75,"wind_gusts":28.8,"aqi":160,"pm10":134.1,"pm2_5":75.4,"mosquito_risk":7,"arthritis_risk":5,"migraine_risk":4,"frizz_risk":1,"updated_at":"2026-04-25T18:41:46.080067+05:30"},{"city":"Dibrugarh","state":"Assam","latitude":27.4728,"longitude":94.912,"temp":25.0,"humidity":85,"rain":0.0,"pressure":997.4,"uv_index":8.6,"wind_gusts":31.7,"aqi":104,"pm10":64.0,"pm2_5":43.4,"mosquito_risk":7,"arthritis_risk":5,"migraine_risk":7,"frizz_risk":1,"updated_at":"2026-04-25T18:41:46.080073+05:30"}]