[{"city":"Delhi","state":"Delhi","latitude":28.6139,"longitude":77.209,"temp":30.4,"humidity":49,"rain":0.0,"pressure":981.9,"uv_index":7.65,"wind_gusts":36.4,"aqi":202,"pm10":272.9,"pm2_5":83.8,"no2":29.9,"co":603.0,"o3":117.0,"so2":24.8,"mosquito_risk":0,"arthritis_risk":5,"migraine_risk":7,"frizz_risk":1,"updated_at":"2026-05-11T23:26:55.078090+05:30"},{"city":"Mumbai","state":"Maharashtra","latitude":19.076,"longitude":72.8777,"temp":30.0,"humidity":74,"rain":0.0,"pressure":1006.0,"uv_index":7.9,"wind_gusts":53.6,"aqi":87,"pm10":55.3,"pm2_5":22.1,"no2":13.4,"co":441.0,"o3":68.0,"so2":9.8,"mosquito_risk":7,"arthritis_risk":5,"migraine_risk":4,"frizz_risk":1,"updated_at":"2026-05-11T23:26:55.078136+05:30"},{"city":"Bangalore","state":"Karnataka","latitude":12.9716,"longitude":77.5946,"temp":27.1,"humidity":43,"rain":0.0,"pressure":911.8,"uv_index":8.0,"wind_gusts":46.1,"aqi":68,"pm10":30.0,"pm2_5":23.9,"no2":40.4,"co":377.0,"o3":51.0,"so2":11.2,"mosquito_risk":4,"arthritis_risk":5,"migraine_risk":7,"frizz_risk":0,"updated_at":"2026-05-11T23:26:55.078159+05:30"},{"city":"Hyderabad","state":"Telangana","latitude":17.385,"longitude":78.4867,"temp":30.3,"humidity":44,"rain":0.0,"pressure":952.9,"uv_index":9.25,"wind_gusts":32.0,"aqi":91,"pm10":37.0,"pm2_5":25.1,"no2":14.2,"co":415.0,"o3":96.0,"so2":8.8,"mosquito_risk":0,"arthritis_risk":5,"migraine_risk":7,"frizz_risk":1,"updated_at":"2026-05-11T23:26:55.078170+05:30"},{"city":"Chennai","state":"Tamil Nadu","latitude":13.0827,"longitude":80.2707,"temp":28.9,"humidity":76,"rain":0.0,"pressure":1006.6,"uv_index":8.8,"wind_gusts":39.6,"aqi":25,"pm10":8.4,"pm2_5":6.6,"no2":8.4,"co":121.0,"o3":37.0,"so2":2.1,"mosquito_risk":7,"arthritis_risk":5,"migraine_risk":4,"frizz_risk":1,"updated_at":"2026-05-11T23:26:55.078181+05:30"},{"city":"Kolkata","state":"West Bengal","latitude":22.5726,"longitude":88.3639,"temp":25.7,"humidity":84,"rain":0.0,"pressure":1008.2,"uv_index":8.6,"wind_gusts":42.8,"aqi":137,"pm10":43.2,"pm2_5":39.2,"no2":22.3,"co":375.0,"o3":32.0,"so2":11.2,"mosquito_risk":7,"arthritis_risk":0,"migraine_risk":4,"frizz_risk":1,"updated_at":"2026-05-11T23:26:55.078192+05:30"},{"city":"Pune","state":"Maharashtra","latitude":18.5204,"longitude":73.8567,"temp":29.1,"humidity":40,"rain":0.0,"pressure":946.5,"uv_index":8.5,"wind_gusts":46.8,"aqi":109,"pm10":28.9,"pm2_5":20.5,"no2":18.4,"co":328.0,"o3":104.0,"so2":16.5,"mosquito_risk":4,"arthritis_risk":5,"migraine_risk":7,"frizz_risk":0,"updated_at":"2026-05-11T23:26:55.078201+05:30"},{"city":"Ahmedabad","state":"Gujarat","latitude":23.0225,"longitude":72.5714,"temp":37.5,"humidity":17,"rain":0.0,"pressure":999.3,"uv_index":8.15,"wind_gusts":33.5,"aqi":63,"pm10":44.4,"pm2_5":26.8,"no2":19.4,"co":287.0,"o3":73.0,"so2":9.1,"mosquito_risk":0,"arthritis_risk":5,"migraine_risk":10,"frizz_risk":0,"updated_at":"2026-05-11T23:26:55.078212+05:30"},{"city":"Jaipur","state":"Rajasthan","latitude":26.9124,"longitude":75.7873,"temp":31.4,"humidity":38,"rain":0.0,"pressure":958.6,"uv_index":8.2,"wind_gusts":30.6,"aqi":156,"pm10":144.8,"pm2_5":52.6,"no2":28.0,"co":477.0,"o3":75.0,"so2":13.4,"mosquito_risk":0,"arthritis_risk":5,"migraine_risk":7,"frizz_risk":0,"updated_at":"2026-05-11T23:26:55.078220+05:30"},{"city":"Lucknow","state":"Uttar Pradesh","latitude":26.8467,"longitude":80.9462,"temp":29.9,"humidity":44,"rain":0.0,"pressure":993.5,"uv_index":8.15,"wind_gusts":29.2,"aqi":101,"pm10":45.9,"pm2_5":38.5,"no2":18.0,"co":492.0,"o3":89.0,"so2":11.7,"mosquito_risk":4,"arthritis_risk":5,"migraine_risk":7,"frizz_risk":1,"updated_at":"2026-05-11T23:26:55.078228+05:30"},{"city":"Kanpur","state":"Uttar Pradesh","latitude":26.4499,"longitude":80.3319,"temp":29.9,"humidity":46,"rain":0.0,"pressure":991.5,"uv_index":8.15,"wind_gusts":40.3,"aqi":132,"pm10":155.1,"pm2_5":42.7,"no2":12.2,"co":398.0,"o3":101.0,"so2":8.3,"mosquito_risk":4,"arthritis_risk":5,"migraine_risk":7,"frizz_risk":1,"updated_at":"2026-05-11T23:26:55.078236+05:30"},{"city":"Chandigarh","state":"Chandigarh","latitude":30.7333,"longitude":76.7794,"temp":22.2,"humidity":82,"rain":0.0,"pressure":967.4,"uv_index":7.7,"wind_gusts":41.8,"aqi":168,"pm10":86.1,"pm2_5":62.6,"no2":27.1,"co":1135.0,"o3":88.0,"so2":16.8,"mosquito_risk":3,"arthritis_risk":5,"migraine_risk":7,"frizz_risk":1,"updated_at":"2026-05-11T23:26:55.078244+05:30"},{"city":"Srinagar","state":"Jammu and Kashmir","latitude":34.0837,"longitude":74.7973,"temp":13.9,"humidity":87,"rain":0.0,"pressure":840.9,"uv_index":8.85,"wind_gusts":26.3,"aqi":98,"pm10":59.0,"pm2_5":45.4,"no2":30.4,"co":948.0,"o3":39.0,"so2":3.8,"mosquito_risk":3,"arthritis_risk":10,"migraine_risk":7,"frizz_risk":0,"updated_at":"2026-05-11T23:26:55.078253+05:30"},{"city":"Jammu","state":"Jammu and Kashmir","latitude":32.7266,"longitude":74.857,"temp":24.0,"humidity":76,"rain":0.0,"pressure":971.9,"uv_index":8.45,"wind_gusts":44.3,"aqi":147,"pm10":61.2,"pm2_5":46.0,"no2":19.2,"co":847.0,"o3":77.0,"so2":4.9,"mosquito_risk":3,"arthritis_risk":5,"migraine_risk":7,"frizz_risk":1,"updated_at":"2026-05-11T23:26:55.078260+05:30"},{"city":"Amritsar","state":"Punjab","latitude":31.634,"longitude":74.8723,"temp":24.6,"humidity":80,"rain":0.0,"pressure":979.8,"uv_index":8.35,"wind_gusts":69.1,"aqi":159,"pm10":151.3,"pm2_5":74.7,"no2":16.1,"co":746.0,"o3":98.0,"so2":11.3,"mosquito_risk":3,"arthritis_risk":5,"migraine_risk":7,"frizz_risk":1,"updated_at":"2026-05-11T23:26:55.078268+05:30"},{"city":"Ludhiana","state":"Punjab","latitude":30.901,"longitude":75.8573,"temp":24.4,"humidity":85,"rain":0.0,"pressure":977.5,"uv_index":7.9,"wind_gusts":60.5,"aqi":167,"pm10":142.5,"pm2_5":85.4,"no2":23.9,"co":739.0,"o3":82.0,"so2":18.1,"mosquito_risk":3,"arthritis_risk":5,"migraine_risk":7,"frizz_risk":1,"updated_at":"2026-05-11T23:26:55.078275+05:30"},{"city":"Jalandhar","state":"Punjab","latitude":31.326,"longitude":75.5762,"temp":23.5,"humidity":88,"rain":0.0,"pressure":978.6,"uv_index":8.1,"wind_gusts":50.4,"aqi":158,"pm10":149.9,"pm2_5":78.0,"no2":19.2,"co":1109.0,"o3":96.0,"so2":13.1,"mosquito_risk":3,"arthritis_risk":5,"migraine_risk":7,"frizz_risk":1,"updated_at":"2026-05-11T23:26:55.078282+05:30"},{"city":"Dehradun","state":"Uttarakhand","latitude":30.6284,"longitude":78.0322,"temp":12.5,"humidity":99,"rain":0.0,"pressure":828.3,"uv_index":5.2,"wind_gusts":33.1,"aqi":112,"pm10":64.7,"pm2_5":43.2,"no2":29.3,"co":327.0,"o3":87.0,"so2":3.0,"mosquito_risk":3,"arthritis_risk":10,"migraine_risk":3,"frizz_risk":0,"updated_at":"2026-05-11T23:26:55.078292+05:30"},{"city":"Shimla","state":"Himachal Pradesh","latitude":31.1048,"longitude":77.1734,"temp":10.4,"humidity":88,"rain":0.0,"pressure":781.6,"uv_index":6.35,"wind_gusts":44.3,"aqi":151,"pm10":75.2,"pm2_5":50.4,"no2":20.2,"co":499.0,"o3":103.0,"so2":7.5,"mosquito_risk":3,"arthritis_risk":10,"migraine_risk":7,"frizz_risk":0,"updated_at":"2026-05-11T23:26:55.078300+05:30"},{"city":"Manali","state":"Himachal Pradesh","latitude":32.2396,"longitude":77.1887,"temp":9.3,"humidity":78,"rain":0.0,"pressure":814.2,"uv_index":9.85,"wind_gusts":39.2,"aqi":122,"pm10":30.4,"pm2_5":19.2,"no2":44.7,"co":369.0,"o3":93.0,"so2":0.4,"mosquito_risk":3,"arthritis_risk":5,"migraine_risk":7,"frizz_risk":0,"updated_at":"2026-05-11T23:26:55.078307+05:30"},{"city":"Gurgaon","state":"Haryana","latitude":28.4595,"longitude":77.0266,"temp":29.5,"humidity":51,"rain":0.0,"pressure":979.9,"uv_index":7.75,"wind_gusts":30.2,"aqi":603,"pm10":1326.2,"pm2_5":178.8,"no2":31.3,"co":660.0,"o3":116.0,"so2":24.8,"mosquito_risk":4,"arthritis_risk":5,"migraine_risk":7,"frizz_risk":1,"updated_at":"2026-05-11T23:26:55.078315+05:30"},{"city":"Noida","state":"Uttar Pradesh","latitude":28.5355,"longitude":77.391,"temp":27.1,"humidity":60,"rain":0.0,"pressure":983.2,"uv_index":7.65,"wind_gusts":25.2,"aqi":603,"pm10":1326.2,"pm2_5":178.8,"no2":31.3,"co":586.0,"o3":116.0,"so2":24.8,"mosquito_risk":4,"arthritis_risk":5,"migraine_risk":7,"frizz_risk":1,"updated_at":"2026-05-11T23:26:55.078322+05:30"},{"city":"Ghaziabad","state":"Uttar Pradesh","latitude":28.6692,"longitude":77.4538,"temp":27.5,"humidity":60,"rain":0.0,"pressure":981.7,"uv_index":7.65,"wind_gusts":28.1,"aqi":188,"pm10":204.9,"pm2_5":68.5,"no2":13.7,"co":470.0,"o3":113.0,"so2":12.2,"mosquito_risk":4,"arthritis_risk":5,"migraine_risk":7,"frizz_risk":1,"updated_at":"2026-05-11T23:26:55.078329+05:30"},{"city":"Faridabad","state":"Haryana","latitude":28.4089,"longitude":77.3178,"temp":29.0,"humidity":53,"rain":0.0,"pressure":982.6,"uv_index":7.7,"wind_gusts":26.3,"aqi":603,"pm10":1326.2,"pm2_5":178.8,"no2":31.3,"co":674.0,"o3":116.0,"so2":24.8,"mosquito_risk":4,"arthritis_risk":5,"migraine_risk":7,"frizz_risk":1,"updated_at":"2026-05-11T23:26:55.078336+05:30"},{"city":"Meerut","state":"Uttar Pradesh","latitude":28.9845,"longitude":77.7064,"temp":26.0,"humidity":72,"rain":0.0,"pressure":980.5,"uv_index":7.55,"wind_gusts":27.4,"aqi":188,"pm10":204.9,"pm2_5":68.5,"no2":13.7,"co":510.0,"o3":113.0,"so2":12.2,"mosquito_risk":7,"arthritis_risk":5,"migraine_risk":7,"frizz_risk":1,"updated_at":"2026-05-11T23:26:55.078343+05:30"},{"city":"Agra","state":"Uttar Pradesh","latitude":27.1767,"longitude":78.0081,"temp":30.0,"humidity":48,"rain":0.0,"pressure":986.6,"uv_index":8.0,"wind_gusts":25.2,"aqi":376,"pm10":990.9,"pm2_5":127.6,"no2":11.9,"co":525.0,"o3":116.0,"so2":14.8,"mosquito_risk":4,"arthritis_risk":5,"migraine_risk":7,"frizz_risk":1,"updated_at":"2026-05-11T23:26:55.078350+05:30"},{"city":"Varanasi","state":"Uttar Pradesh","latitude":25.3176,"longitude":82.9739,"temp":29.3,"humidity":50,"rain":0.0,"pressure":997.5,"uv_index":8.65,"wind_gusts":27.0,"aqi":155,"pm10":55.6,"pm2_5":49.5,"no2":16.9,"co":493.0,"o3":124.0,"so2":20.4,"mosquito_risk":4,"arthritis_risk":5,"migraine_risk":7,"frizz_risk":1,"updated_at":"2026-05-11T23:26:55.078357+05:30"},{"city":"Prayagraj","state":"Uttar Pradesh","latitude":25.4358,"longitude":81.8463,"temp":30.4,"humidity":40,"rain":0.0,"pressure":995.8,"uv_index":8.5,"wind_gusts":32.0,"aqi":135,"pm10":41.9,"pm2_5":36.8,"no2":17.3,"co":390.0,"o3":96.0,"so2":11.9,"mosquito_risk":0,"arthritis_risk":5,"migraine_risk":7,"frizz_risk":0,"updated_at":"2026-05-11T23:26:55.078367+05:30"},{"city":"Gorakhpur","state":"Uttar Pradesh","latitude":26.7606,"longitude":83.3732,"temp":26.9,"humidity":59,"rain":0.0,"pressure":998.0,"uv_index":8.5,"wind_gusts":32.0,"aqi":120,"pm10":42.6,"pm2_5":39.6,"no2":15.7,"co":426.0,"o3":114.0,"so2":13.4,"mosquito_risk":4,"arthritis_risk":5,"migraine_risk":7,"frizz_risk":1,"updated_at":"2026-05-11T23:26:55.078375+05:30"},{"city":"Bareilly","state":"Uttar Pradesh","latitude":28.367,"longitude":79.4304,"temp":26.4,"humidity":66,"rain":0.0,"pressure":986.4,"uv_index":7.95,"wind_gusts":27.0,"aqi":137,"pm10":64.3,"pm2_5":47.6,"no2":13.8,"co":449.0,"o3":104.0,"so2":8.6,"mosquito_risk":7,"arthritis_risk":5,"migraine_risk":7,"frizz_risk":1,"updated_at":"2026-05-11T23:26:55.078382+05:30"},{"city":"Aligarh","state":"Uttar Pradesh","latitude":27.8974,"longitude":78.088,"temp":28.2,"humidity":56,"rain":0.0,"pressure":984.8,"uv_index":7.8,"wind_gusts":29.9,"aqi":181,"pm10":480.6,"pm2_5":87.1,"no2":12.4,"co":558.0,"o3":112.0,"so2":14.9,"mosquito_risk":4,"arthritis_risk":5,"migraine_risk":7,"frizz_risk":1,"updated_at":"2026-05-11T23:26:55.078390+05:30"},{"city":"Moradabad","state":"Uttar Pradesh","latitude":28.8386,"longitude":78.7733,"temp":26.5,"humidity":71,"rain":0.0,"pressure":983.1,"uv_index":7.25,"wind_gusts":29.9,"aqi":149,"pm10":71.0,"pm2_5":56.6,"no2":15.4,"co":554.0,"o3":132.0,"so2":14.5,"mosquito_risk":7,"arthritis_risk":5,"migraine_risk":7,"frizz_risk":1,"updated_at":"2026-05-11T23:26:55.078396+05:30"},{"city":"Saharanpur","state":"Uttar Pradesh","latitude":29.9637,"longitude":77.546,"temp":24.3,"humidity":83,"rain":0.0,"pressure":975.0,"uv_index":7.35,"wind_gusts":31.7,"aqi":146,"pm10":81.7,"pm2_5":68.5,"no2":30.0,"co":554.0,"o3":84.0,"so2":15.2,"mosquito_risk":3,"arthritis_risk":5,"migraine_risk":7,"frizz_risk":1,"updated_at":"2026-05-11T23:26:55.078425+05:30"},{"city":"Jhansi","state":"Uttar Pradesh","latitude":25.4484,"longitude":78.5685,"temp":29.9,"humidity":47,"rain":0.0,"pressure":977.0,"uv_index":8.45,"wind_gusts":40.7,"aqi":143,"pm10":79.9,"pm2_5":40.3,"no2":4.0,"co":330.0,"o3":123.0,"so2":8.6,"mosquito_risk":4,"arthritis_risk":5,"migraine_risk":7,"frizz_risk":1,"updated_at":"2026-05-11T23:26:58.390812+05:30"},{"city":"Surat","state":"Gujarat","latitude":21.1702,"longitude":72.8311,"temp":32.3,"humidity":57,"rain":0.0,"pressure":1003.0,"uv_index":7.75,"wind_gusts":38.2,"aqi":100,"pm10":41.7,"pm2_5":29.0,"no2":40.5,"co":483.0,"o3":56.0,"so2":53.1,"mosquito_risk":0,"arthritis_risk":5,"migraine_risk":4,"frizz_risk":1,"updated_at":"2026-05-11T23:26:58.390846+05:30"},{"city":"Vadodara","state":"Gujarat","latitude":22.3072,"longitude":73.1812,"temp":35.7,"humidity":22,"rain":0.0,"pressure":1000.7,"uv_index":8.1,"wind_gusts":33.5,"aqi":127,"pm10":53.8,"pm2_5":34.2,"no2":26.4,"co":484.0,"o3":104.0,"so2":21.8,"mosquito_risk":0,"arthritis_risk":5,"migraine_risk":7,"frizz_risk":0,"updated_at":"2026-05-11T23:26:58.390857+05:30"},{"city":"Rajkot","state":"Gujarat","latitude":22.3039,"longitude":70.8022,"temp":29.4,"humidity":52,"rain":0.0,"pressure":993.2,"uv_index":7.7,"wind_gusts":49.3,"aqi":66,"pm10":31.8,"pm2_5":13.1,"no2":6.5,"co":178.0,"o3":69.0,"so2":7.1,"mosquito_risk":4,"arthritis_risk":5,"migraine_risk":7,"frizz_risk":1,"updated_at":"2026-05-11T23:26:58.390866+05:30"},{"city":"Thane","state":"Maharashtra","latitude":19.2183,"longitude":72.9781,"temp":29.7,"humidity":76,"rain":0.0,"pressure":1005.5,"uv_index":7.9,"wind_gusts":54.0,"aqi":87,"pm10":55.3,"pm2_5":22.1,"no2":13.4,"co":323.0,"o3":68.0,"so2":9.8,"mosquito_risk":7,"arthritis_risk":5,"migraine_risk":4,"frizz_risk":1,"updated_at":"2026-05-11T23:26:58.390874+05:30"},{"city":"Nagpur","state":"Maharashtra","latitude":21.1458,"longitude":79.0882,"temp":33.1,"humidity":36,"rain":0.0,"pressure":971.9,"uv_index":8.9,"wind_gusts":36.7,"aqi":109,"pm10":97.8,"pm2_5":61.0,"no2":48.4,"co":461.0,"o3":52.0,"so2":27.9,"mosquito_risk":0,"arthritis_risk":5,"migraine_risk":7,"frizz_risk":0,"updated_at":"2026-05-11T23:26:58.390882+05:30"},{"city":"Nashik","state":"Maharashtra","latitude":19.9975,"longitude":73.7898,"temp":28.6,"humidity":40,"rain":0.0,"pressure":944.0,"uv_index":8.2,"wind_gusts":50.4,"aqi":121,"pm10":41.9,"pm2_5":28.7,"no2":20.9,"co":264.0,"o3":104.0,"so2":19.1,"mosquito_risk":4,"arthritis_risk":5,"migraine_risk":7,"frizz_risk":0,"updated_at":"2026-05-11T23:26:58.390890+05:30"},{"city":"Aurangabad","state":"Maharashtra","latitude":19.8762,"longitude":75.3433,"temp":33.3,"humidity":19,"rain":0.0,"pressure":942.4,"uv_index":9.05,"wind_gusts":40.0,"aqi":131,"pm10":49.4,"pm2_5":29.9,"no2":20.5,"co":435.0,"o3":107.0,"so2":12.2,"mosquito_risk":0,"arthritis_risk":5,"migraine_risk":7,"frizz_risk":0,"updated_at":"2026-05-11T23:26:58.390897+05:30"},{"city":"Solapur","state":"Maharashtra","latitude":17.6599,"longitude":75.9064,"temp":33.3,"humidity":29,"rain":0.0,"pressure":955.5,"uv_index":9.05,"wind_gusts":33.8,"aqi":120,"pm10":33.1,"pm2_5":24.9,"no2":11.6,"co":362.0,"o3":98.0,"so2":7.9,"mosquito_risk":0,"arthritis_risk":5,"migraine_risk":7,"frizz_risk":0,"updated_at":"2026-05-11T23:26:58.390905+05:30"},{"city":"Kolhapur","state":"Maharashtra","latitude":16.705,"longitude":74.2433,"temp":26.1,"humidity":79,"rain":0.0,"pressure":946.8,"uv_index":8.85,"wind_gusts":56.2,"aqi":96,"pm10":30.7,"pm2_5":20.3,"no2":9.3,"co":240.0,"o3":85.0,"so2":6.2,"mosquito_risk":7,"arthritis_risk":5,"migraine_risk":7,"frizz_risk":1,"updated_at":"2026-05-11T23:26:58.390912+05:30"},{"city":"Goa","state":"Goa","latitude":15.2993,"longitude":74.124,"temp":28.5,"humidity":89,"rain":0.0,"pressure":997.1,"uv_index":8.85,"wind_gusts":28.4,"aqi":80,"pm10":52.0,"pm2_5":24.3,"no2":8.9,"co":287.0,"o3":63.0,"so2":2.6,"mosquito_risk":7,"arthritis_risk":5,"migraine_risk":7,"frizz_risk":1,"updated_at":"2026-05-11T23:26:58.390920+05:30"},{"city":"Jodhpur","state":"Rajasthan","latitude":26.2389,"longitude":73.0243,"temp":35.7,"humidity":16,"rain":0.0,"pressure":980.2,"uv_index":8.4,"wind_gusts":38.2,"aqi":119,"pm10":190.9,"pm2_5":28.8,"no2":5.5,"co":225.0,"o3":97.0,"so2":3.5,"mosquito_risk":0,"arthritis_risk":5,"migraine_risk":10,"frizz_risk":0,"updated_at":"2026-05-11T23:26:58.390927+05:30"},{"city":"Udaipur","state":"Rajasthan","latitude":24.5854,"longitude":73.7125,"temp":31.8,"humidity":22,"rain":0.0,"pressure":945.2,"uv_index":8.8,"wind_gusts":38.9,"aqi":72,"pm10":31.7,"pm2_5":13.9,"no2":7.3,"co":357.0,"o3":80.0,"so2":4.2,"mosquito_risk":0,"arthritis_risk":5,"migraine_risk":7,"frizz_risk":0,"updated_at":"2026-05-11T23:26:58.390935+05:30"},{"city":"Kota","state":"Rajasthan","latitude":25.2138,"longitude":75.8648,"temp":31.6,"humidity":36,"rain":0.0,"pressure":976.9,"uv_index":8.4,"wind_gusts":36.7,"aqi":98,"pm10":152.3,"pm2_5":49.5,"no2":16.5,"co":586.0,"o3":81.0,"so2":11.9,"mosquito_risk":0,"arthritis_risk":5,"migraine_risk":7,"frizz_risk":0,"updated_at":"2026-05-11T23:26:58.390942+05:30"},{"city":"Bikaner","state":"Rajasthan","latitude":28.0229,"longitude":73.3119,"temp":33.0,"humidity":34,"rain":0.0,"pressure":979.1,"uv_index":8.3,"wind_gusts":43.6,"aqi":87,"pm10":66.8,"pm2_5":21.4,"no2":6.9,"co":309.0,"o3":73.0,"so2":5.6,"mosquito_risk":0,"arthritis_risk":5,"migraine_risk":7,"frizz_risk":0,"updated_at":"2026-05-11T23:26:58.390949+05:30"},{"city":"Ajmer","state":"Rajasthan","latitude":26.4499,"longitude":74.6399,"temp":31.2,"humidity":33,"rain":0.0,"pressure":953.1,"uv_index":8.35,"wind_gusts":32.4,"aqi":90,"pm10":111.5,"pm2_5":37.7,"no2":19.0,"co":364.0,"o3":63.0,"so2":6.9,"mosquito_risk":0,"arthritis_risk":5,"migraine_risk":7,"frizz_risk":0,"updated_at":"2026-05-11T23:26:58.390956+05:30"},{"city":"Gwalior","state":"Madhya Pradesh","latitude":26.2183,"longitude":78.1828,"temp":30.4,"humidity":43,"rain":0.0,"pressure":982.1,"uv_index":8.2,"wind_gusts":29.9,"aqi":138,"pm10":103.1,"pm2_5":44.1,"no2":5.1,"co":449.0,"o3":123.0,"so2":8.9,"mosquito_risk":0,"arthritis_risk":5,"migraine_risk":7,"frizz_risk":1,"updated_at":"2026-05-11T23:26:58.390963+05:30"},{"city":"Indore","state":"Madhya Pradesh","latitude":22.7196,"longitude":75.8577,"temp":33.0,"humidity":20,"rain":0.0,"pressure":946.8,"uv_index":8.7,"wind_gusts":46.4,"aqi":83,"pm10":51.6,"pm2_5":32.6,"no2":15.3,"co":408.0,"o3":78.0,"so2":10.0,"mosquito_risk":0,"arthritis_risk":5,"migraine_risk":7,"frizz_risk":0,"updated_at":"2026-05-11T23:26:58.390970+05:30"},{"city":"Bhopal","state":"Madhya Pradesh","latitude":23.2599,"longitude":77.4126,"temp":31.8,"humidity":31,"rain":0.0,"pressure":952.9,"uv_index":8.7,"wind_gusts":41.4,"aqi":89,"pm10":82.0,"pm2_5":40.0,"no2":17.0,"co":365.0,"o3":78.0,"so2":8.6,"mosquito_risk":0,"arthritis_risk":5,"migraine_risk":7,"frizz_risk":0,"updated_at":"2026-05-11T23:26:58.390978+05:30"},{"city":"Jabalpur","state":"Madhya Pradesh","latitude":23.1815,"longitude":79.9864,"temp":29.9,"humidity":37,"rain":0.0,"pressure":960.8,"uv_index":8.85,"wind_gusts":43.9,"aqi":120,"pm10":63.1,"pm2_5":35.6,"no2":8.7,"co":284.0,"o3":116.0,"so2":6.0,"mosquito_risk":4,"arthritis_risk":5,"migraine_risk":7,"frizz_risk":0,"updated_at":"2026-05-11T23:26:58.390985+05:30"},{"city":"Ujjain","state":"Madhya Pradesh","latitude":23.1765,"longitude":75.7885,"temp":32.7,"humidity":22,"rain":0.0,"pressure":952.0,"uv_index":8.65,"wind_gusts":49.3,"aqi":80,"pm10":58.8,"pm2_5":33.5,"no2":11.8,"co":292.0,"o3":78.0,"so2":8.3,"mosquito_risk":0,"arthritis_risk":5,"migraine_risk":7,"frizz_risk":0,"updated_at":"2026-05-11T23:26:58.390992+05:30"},{"city":"Visakhapatnam","state":"Andhra Pradesh","latitude":17.6868,"longitude":83.2185,"temp":27.9,"humidity":82,"rain":0.0,"pressure":1004.2,"uv_index":9.1,"wind_gusts":34.9,"aqi":69,"pm10":16.9,"pm2_5":15.1,"no2":20.0,"co":669.0,"o3":29.0,"so2":5.7,"mosquito_risk":7,"arthritis_risk":5,"migraine_risk":4,"frizz_risk":1,"updated_at":"2026-05-11T23:26:58.391000+05:30"},{"city":"Vijayawada","state":"Andhra Pradesh","latitude":16.5062,"longitude":80.648,"temp":28.8,"humidity":77,"rain":0.0,"pressure":1002.5,"uv_index":8.45,"wind_gusts":33.8,"aqi":50,"pm10":11.2,"pm2_5":9.5,"no2":7.6,"co":164.0,"o3":39.0,"so2":6.1,"mosquito_risk":7,"arthritis_risk":5,"migraine_risk":4,"frizz_risk":1,"updated_at":"2026-05-11T23:26:58.391007+05:30"},{"city":"Guntur","state":"Andhra Pradesh","latitude":16.3067,"longitude":80.4365,"temp":28.5,"humidity":78,"rain":0.0,"pressure":1003.7,"uv_index":8.45,"wind_gusts":34.6,"aqi":51,"pm10":10.6,"pm2_5":8.7,"no2":8.2,"co":159.0,"o3":45.0,"so2":7.9,"mosquito_risk":7,"arthritis_risk":5,"migraine_risk":4,"frizz_risk":1,"updated_at":"2026-05-11T23:26:58.391014+05:30"},{"city":"Nellore","state":"Andhra Pradesh","latitude":14.4426,"longitude":79.9865,"temp":27.4,"humidity":84,"rain":0.0,"pressure":1005.6,"uv_index":9.15,"wind_gusts":37.1,"aqi":25,"pm10":7.9,"pm2_5":5.9,"no2":3.9,"co":204.0,"o3":42.0,"so2":2.3,"mosquito_risk":7,"arthritis_risk":5,"migraine_risk":4,"frizz_risk":1,"updated_at":"2026-05-11T23:26:58.391022+05:30"},{"city":"Kurnool","state":"Andhra Pradesh","latitude":15.8281,"longitude":78.0373,"temp":31.2,"humidity":45,"rain":0.0,"pressure":976.0,"uv_index":8.65,"wind_gusts":40.3,"aqi":59,"pm10":36.0,"pm2_5":22.8,"no2":8.5,"co":188.0,"o3":82.0,"so2":3.3,"mosquito_risk":0,"arthritis_risk":5,"migraine_risk":7,"frizz_risk":1,"updated_at":"2026-05-11T23:26:58.391030+05:30"},{"city":"Kakinada","state":"Andhra Pradesh","latitude":16.9891,"longitude":82.2475,"temp":28.0,"humidity":81,"rain":0.0,"pressure":1007.6,"uv_index":9.1,"wind_gusts":37.8,"aqi":26,"pm10":5.9,"pm2_5":3.5,"no2":1.0,"co":164.0,"o3":54.0,"so2":0.4,"mosquito_risk":7,"arthritis_risk":5,"migraine_risk":4,"frizz_risk":1,"updated_at":"2026-05-11T23:26:58.391037+05:30"},{"city":"Tirupati","state":"Andhra Pradesh","latitude":13.6288,"longitude":79.4192,"temp":26.6,"humidity":83,"rain":0.0,"pressure":991.1,"uv_index":9.05,"wind_gusts":43.2,"aqi":47,"pm10":17.5,"pm2_5":15.1,"no2":18.9,"co":229.0,"o3":22.0,"so2":3.0,"mosquito_risk":7,"arthritis_risk":5,"migraine_risk":7,"frizz_risk":1,"updated_at":"2026-05-11T23:26:58.391045+05:30"},{"city":"Warangal","state":"Telangana","latitude":17.9689,"longitude":79.5941,"temp":30.5,"humidity":52,"rain":0.0,"pressure":978.0,"uv_index":9.15,"wind_gusts":43.6,"aqi":90,"pm10":37.3,"pm2_5":28.9,"no2":9.4,"co":332.0,"o3":108.0,"so2":9.8,"mosquito_risk":0,"arthritis_risk":5,"migraine_risk":7,"frizz_risk":1,"updated_at":"2026-05-11T23:26:58.391052+05:30"},{"city":"Nizamabad","state":"Telangana","latitude":18.6725,"longitude":78.0941,"temp":30.0,"humidity":46,"rain":0.0,"pressure":963.2,"uv_index":9.1,"wind_gusts":32.0,"aqi":87,"pm10":64.0,"pm2_5":48.0,"no2":25.8,"co":294.0,"o3":69.0,"so2":7.8,"mosquito_risk":4,"arthritis_risk":5,"migraine_risk":7,"frizz_risk":1,"updated_at":"2026-05-11T23:26:58.391059+05:30"},{"city":"Mysore","state":"Karnataka","latitude":12.2958,"longitude":76.6396,"temp":24.4,"humidity":78,"rain":0.0,"pressure":927.6,"uv_index":8.6,"wind_gusts":31.7,"aqi":81,"pm10":43.4,"pm2_5":34.1,"no2":33.2,"co":338.0,"o3":69.0,"so2":6.4,"mosquito_risk":3,"arthritis_risk":5,"migraine_risk":7,"frizz_risk":1,"updated_at":"2026-05-11T23:26:58.391067+05:30"},{"city":"Mangalore","state":"Karnataka","latitude":12.9141,"longitude":74.856,"temp":26.1,"humidity":96,"rain":0.0,"pressure":1006.0,"uv_index":8.45,"wind_gusts":36.4,"aqi":70,"pm10":46.3,"pm2_5":34.9,"no2":18.4,"co":613.0,"o3":64.0,"so2":6.8,"mosquito_risk":7,"arthritis_risk":5,"migraine_risk":4,"frizz_risk":1,"updated_at":"2026-05-11T23:26:58.391074+05:30"},{"city":"Hubli-Dharwad","state":"Karnataka","latitude":15.3647,"longitude":75.124,"temp":25.6,"humidity":85,"rain":0.0,"pressure":940.2,"uv_index":8.8,"wind_gusts":41.4,"aqi":107,"pm10":22.7,"pm2_5":15.8,"no2":8.5,"co":217.0,"o3":70.0,"so2":2.1,"mosquito_risk":7,"arthritis_risk":5,"migraine_risk":7,"frizz_risk":1,"updated_at":"2026-05-11T23:26:58.391081+05:30"},{"city":"Belgaum","state":"Karnataka","latitude":15.8497,"longitude":74.4977,"temp":24.2,"humidity":93,"rain":0.0,"pressure":925.2,"uv_index":8.85,"wind_gusts":46.8,"aqi":84,"pm10":30.0,"pm2_5":16.7,"no2":8.1,"co":183.0,"o3":59.0,"so2":3.1,"mosquito_risk":3,"arthritis_risk":5,"migraine_risk":7,"frizz_risk":1,"updated_at":"2026-05-11T23:27:01.709695+05:30"},{"city":"Coimbatore","state":"Tamil Nadu","latitude":11.0168,"longitude":76.9558,"temp":25.0,"humidity":89,"rain":0.0,"pressure":960.6,"uv_index":9.2,"wind_gusts":28.4,"aqi":85,"pm10":33.1,"pm2_5":25.7,"no2":16.6,"co":387.0,"o3":66.0,"so2":5.1,"mosquito_risk":7,"arthritis_risk":5,"migraine_risk":7,"frizz_risk":1,"updated_at":"2026-05-11T23:27:01.709727+05:30"},{"city":"Madurai","state":"Tamil Nadu","latitude":9.9252,"longitude":78.1198,"temp":26.6,"humidity":91,"rain":0.0,"pressure":992.4,"uv_index":8.95,"wind_gusts":29.9,"aqi":83,"pm10":38.3,"pm2_5":34.0,"no2":30.3,"co":332.0,"o3":61.0,"so2":11.7,"mosquito_risk":7,"arthritis_risk":5,"migraine_risk":7,"frizz_risk":1,"updated_at":"2026-05-11T23:27:01.709737+05:30"},{"city":"Trichy","state":"Tamil Nadu","latitude":10.7905,"longitude":78.7047,"temp":27.0,"humidity":87,"rain":0.0,"pressure":999.1,"uv_index":9.15,"wind_gusts":28.1,"aqi":77,"pm10":21.8,"pm2_5":21.3,"no2":24.9,"co":359.0,"o3":38.0,"so2":16.1,"mosquito_risk":7,"arthritis_risk":5,"migraine_risk":7,"frizz_risk":1,"updated_at":"2026-05-11T23:27:01.709746+05:30"},{"city":"Salem","state":"Tamil Nadu","latitude":11.6643,"longitude":78.146,"temp":26.8,"humidity":79,"rain":0.0,"pressure":976.5,"uv_index":9.15,"wind_gusts":32.4,"aqi":80,"pm10":33.9,"pm2_5":28.3,"no2":32.5,"co":344.0,"o3":45.0,"so2":9.1,"mosquito_risk":7,"arthritis_risk":5,"migraine_risk":7,"frizz_risk":1,"updated_at":"2026-05-11T23:27:01.709754+05:30"},{"city":"Tirunelveli","state":"Tamil Nadu","latitude":8.7139,"longitude":77.7567,"temp":28.3,"humidity":74,"rain":0.0,"pressure":1001.7,"uv_index":9.05,"wind_gusts":42.1,"aqi":56,"pm10":23.6,"pm2_5":21.8,"no2":20.0,"co":475.0,"o3":37.0,"so2":2.7,"mosquito_risk":7,"arthritis_risk":5,"migraine_risk":4,"frizz_risk":1,"updated_at":"2026-05-11T23:27:01.709762+05:30"},{"city":"Vellore","state":"Tamil Nadu","latitude":12.9165,"longitude":79.1325,"temp":26.2,"humidity":86,"rain":0.0,"pressure":984.4,"uv_index":8.75,"wind_gusts":30.6,"aqi":58,"pm10":30.3,"pm2_5":27.8,"no2":28.4,"co":327.0,"o3":29.0,"so2":12.7,"mosquito_risk":7,"arthritis_risk":5,"migraine_risk":7,"frizz_risk":1,"updated_at":"2026-05-11T23:27:01.709770+05:30"},{"city":"Erode","state":"Tamil Nadu","latitude":11.341,"longitude":77.7172,"temp":27.1,"humidity":75,"rain":0.0,"pressure":988.3,"uv_index":9.15,"wind_gusts":22.7,"aqi":82,"pm10":47.6,"pm2_5":39.2,"no2":42.9,"co":524.0,"o3":52.0,"so2":7.0,"mosquito_risk":7,"arthritis_risk":5,"migraine_risk":7,"frizz_risk":1,"updated_at":"2026-05-11T23:27:01.709777+05:30"},{"city":"Kochi","state":"Kerala","latitude":9.9312,"longitude":76.2673,"temp":25.6,"humidity":91,"rain":0.0,"pressure":1008.2,"uv_index":8.95,"wind_gusts":33.5,"aqi":64,"pm10":23.0,"pm2_5":21.5,"no2":31.7,"co":554.0,"o3":47.0,"so2":6.5,"mosquito_risk":7,"arthritis_risk":0,"migraine_risk":4,"frizz_risk":1,"updated_at":"2026-05-11T23:27:01.709785+05:30"},{"city":"Thiruvananthapuram","state":"Kerala","latitude":8.5241,"longitude":76.9366,"temp":25.2,"humidity":90,"rain":0.0,"pressure":1007.2,"uv_index":8.75,"wind_gusts":32.8,"aqi":47,"pm10":12.0,"pm2_5":8.3,"no2":4.2,"co":382.0,"o3":94.0,"so2":2.1,"mosquito_risk":7,"arthritis_risk":5,"migraine_risk":4,"frizz_risk":1,"updated_at":"2026-05-11T23:27:01.709792+05:30"},{"city":"Kozhikode","state":"Kerala","latitude":11.2588,"longitude":75.7804,"temp":25.6,"humidity":92,"rain":0.0,"pressure":1007.2,"uv_index":8.8,"wind_gusts":33.5,"aqi":51,"pm10":16.7,"pm2_5":12.9,"no2":3.7,"co":548.0,"o3":104.0,"so2":2.5,"mosquito_risk":7,"arthritis_risk":5,"migraine_risk":4,"frizz_risk":1,"updated_at":"2026-05-11T23:27:01.709800+05:30"},{"city":"Thrissur","state":"Kerala","latitude":10.5276,"longitude":76.2144,"temp":24.5,"humidity":97,"rain":0.0,"pressure":1006.5,"uv_index":8.95,"wind_gusts":31.7,"aqi":66,"pm10":26.4,"pm2_5":24.2,"no2":16.4,"co":577.0,"o3":63.0,"so2":3.8,"mosquito_risk":3,"arthritis_risk":5,"migraine_risk":4,"frizz_risk":1,"updated_at":"2026-05-11T23:27:01.709808+05:30"},{"city":"Kannur","state":"Kerala","latitude":11.8745,"longitude":75.3704,"temp":25.8,"humidity":88,"rain":0.0,"pressure":1006.1,"uv_index":8.65,"wind_gusts":34.9,"aqi":55,"pm10":27.2,"pm2_5":24.2,"no2":26.1,"co":604.0,"o3":43.0,"so2":4.4,"mosquito_risk":7,"arthritis_risk":5,"migraine_risk":4,"frizz_risk":1,"updated_at":"2026-05-11T23:27:01.709816+05:30"},{"city":"Patna","state":"Bihar","latitude":25.5941,"longitude":85.1376,"temp":27.2,"humidity":65,"rain":0.0,"pressure":1001.5,"uv_index":8.7,"wind_gusts":26.3,"aqi":182,"pm10":49.5,"pm2_5":46.2,"no2":13.8,"co":431.0,"o3":136.0,"so2":18.8,"mosquito_risk":7,"arthritis_risk":5,"migraine_risk":4,"frizz_risk":1,"updated_at":"2026-05-11T23:27:01.709824+05:30"},{"city":"Gaya","state":"Bihar","latitude":24.7914,"longitude":85.0002,"temp":28.0,"humidity":57,"rain":0.0,"pressure":994.5,"uv_index":8.75,"wind_gusts":27.4,"aqi":172,"pm10":44.9,"pm2_5":41.1,"no2":12.4,"co":315.0,"o3":134.0,"so2":30.8,"mosquito_risk":4,"arthritis_risk":5,"migraine_risk":7,"frizz_risk":1,"updated_at":"2026-05-11T23:27:01.709831+05:30"},{"city":"Muzaffarpur","state":"Bihar","latitude":26.1209,"longitude":85.3647,"temp":26.1,"humidity":69,"rain":0.0,"pressure":1002.0,"uv_index":8.7,"wind_gusts":27.4,"aqi":155,"pm10":45.5,"pm2_5":42.7,"no2":15.9,"co":465.0,"o3":122.0,"so2":17.0,"mosquito_risk":7,"arthritis_risk":5,"migraine_risk":4,"frizz_risk":1,"updated_at":"2026-05-11T23:27:01.709839+05:30"},{"city":"Bhagalpur","state":"Bihar","latitude":25.2425,"longitude":87.0117,"temp":27.4,"humidity":68,"rain":0.0,"pressure":1003.5,"uv_index":8.6,"wind_gusts":27.0,"aqi":164,"pm10":48.7,"pm2_5":45.2,"no2":16.3,"co":293.0,"o3":118.0,"so2":15.6,"mosquito_risk":7,"arthritis_risk":5,"migraine_risk":4,"frizz_risk":1,"updated_at":"2026-05-11T23:27:01.709846+05:30"},{"city":"Ranchi","state":"Jharkhand","latitude":23.3441,"longitude":85.3096,"temp":23.0,"humidity":78,"rain":0.0,"pressure":938.9,"uv_index":9.2,"wind_gusts":30.6,"aqi":126,"pm10":50.2,"pm2_5":37.4,"no2":7.5,"co":261.0,"o3":120.0,"so2":12.5,"mosquito_risk":3,"arthritis_risk":5,"migraine_risk":7,"frizz_risk":1,"updated_at":"2026-05-11T23:27:01.709853+05:30"},{"city":"Jamshedpur","state":"Jharkhand","latitude":22.8046,"longitude":86.2029,"temp":25.5,"humidity":82,"rain":0.0,"pressure":992.5,"uv_index":9.0,"wind_gusts":32.4,"aqi":92,"pm10":32.6,"pm2_5":29.3,"no2":21.7,"co":215.0,"o3":63.0,"so2":21.5,"mosquito_risk":7,"arthritis_risk":5,"migraine_risk":7,"frizz_risk":1,"updated_at":"2026-05-11T23:27:01.709860+05:30"},{"city":"Dhanbad","state":"Jharkhand","latitude":23.7957,"longitude":86.4304,"temp":25.5,"humidity":82,"rain":0.0,"pressure":981.9,"uv_index":8.95,"wind_gusts":40.3,"aqi":152,"pm10":52.0,"pm2_5":50.1,"no2":59.7,"co":220.0,"o3":40.0,"so2":69.1,"mosquito_risk":7,"arthritis_risk":5,"migraine_risk":7,"frizz_risk":1,"updated_at":"2026-05-11T23:27:01.709867+05:30"},{"city":"Bokaro","state":"Jharkhand","latitude":23.6693,"longitude":86.1511,"temp":26.0,"humidity":80,"rain":0.0,"pressure":985.5,"uv_index":8.95,"wind_gusts":36.4,"aqi":152,"pm10":53.0,"pm2_5":51.0,"no2":52.5,"co":1301.0,"o3":55.0,"so2":64.3,"mosquito_risk":7,"arthritis_risk":5,"migraine_risk":7,"frizz_risk":1,"updated_at":"2026-05-11T23:27:01.709874+05:30"},{"city":"Bhubaneswar","state":"Odisha","latitude":20.2961,"longitude":85.8245,"temp":26.4,"humidity":88,"rain":0.0,"pressure":1004.3,"uv_index":9.1,"wind_gusts":31.7,"aqi":72,"pm10":27.8,"pm2_5":25.3,"no2":21.0,"co":362.0,"o3":28.0,"so2":6.5,"mosquito_risk":7,"arthritis_risk":5,"migraine_risk":4,"frizz_risk":1,"updated_at":"2026-05-11T23:27:01.709881+05:30"},{"city":"Cuttack","state":"Odisha","latitude":20.4625,"longitude":85.8828,"temp":26.6,"humidity":88,"rain":0.0,"pressure":1006.3,"uv_index":9.15,"wind_gusts":40.7,"aqi":72,"pm10":27.8,"pm2_5":25.3,"no2":21.0,"co":293.0,"o3":28.0,"so2":6.5,"mosquito_risk":7,"arthritis_risk":5,"migraine_risk":4,"frizz_risk":1,"updated_at":"2026-05-11T23:27:01.709888+05:30"},{"city":"Rourkela","state":"Odisha","latitude":22.2604,"longitude":84.8536,"temp":26.1,"humidity":78,"rain":0.0,"pressure":986.0,"uv_index":8.95,"wind_gusts":29.5,"aqi":126,"pm10":71.5,"pm2_5":51.7,"no2":15.0,"co":495.0,"o3":107.0,"so2":45.8,"mosquito_risk":7,"arthritis_risk":5,"migraine_risk":7,"frizz_risk":1,"updated_at":"2026-05-11T23:27:01.709895+05:30"},{"city":"Raipur","state":"Chhattisgarh","latitude":21.2514,"longitude":81.6296,"temp":32.1,"humidity":38,"rain":0.0,"pressure":972.8,"uv_index":9.0,"wind_gusts":31.7,"aqi":147,"pm10":64.3,"pm2_5":43.9,"no2":25.6,"co":419.0,"o3":98.0,"so2":7.7,"mosquito_risk":0,"arthritis_risk":5,"migraine_risk":7,"frizz_risk":1,"updated_at":"2026-05-11T23:27:01.709902+05:30"},{"city":"Bhilai","state":"Chhattisgarh","latitude":21.1938,"longitude":81.3509,"temp":30.5,"humidity":46,"rain":0.0,"pressure":973.3,"uv_index":9.0,"wind_gusts":32.0,"aqi":110,"pm10":60.1,"pm2_5":42.4,"no2":32.8,"co":451.0,"o3":79.0,"so2":8.2,"mosquito_risk":0,"arthritis_risk":5,"migraine_risk":7,"frizz_risk":1,"updated_at":"2026-05-11T23:27:01.709909+05:30"},{"city":"Guwahati","state":"Assam","latitude":26.1158,"longitude":91.7086,"temp":21.5,"humidity":89,"rain":0.0,"pressure":1005.4,"uv_index":8.6,"wind_gusts":32.4,"aqi":74,"pm10":42.7,"pm2_5":40.2,"no2":19.8,"co":503.0,"o3":42.0,"so2":3.9,"mosquito_risk":3,"arthritis_risk":5,"migraine_risk":4,"frizz_risk":1,"updated_at":"2026-05-11T23:27:01.709916+05:30"},{"city":"Agartala","state":"Tripura","latitude":23.8315,"longitude":91.2868,"temp":22.0,"humidity":95,"rain":0.0,"pressure":1009.6,"uv_index":8.8,"wind_gusts":27.7,"aqi":126,"pm10":33.9,"pm2_5":29.9,"no2":14.6,"co":457.0,"o3":89.0,"so2":2.4,"mosquito_risk":3,"arthritis_risk":0,"migraine_risk":4,"frizz_risk":1,"updated_at":"2026-05-11T23:27:01.709923+05:30"},{"city":"Shillong","state":"Meghalaya","latitude":25.5788,"longitude":91.8933,"temp":13.7,"humidity":94,"rain":0.0,"pressure":857.7,"uv_index":8.85,"wind_gusts":22.7,"aqi":71,"pm10":26.4,"pm2_5":23.3,"no2":18.2,"co":583.0,"o3":46.0,"so2":1.3,"mosquito_risk":3,"arthritis_risk":10,"migraine_risk":7,"frizz_risk":0,"updated_at":"2026-05-11T23:27:01.709931+05:30"},{"city":"Imphal","state":"Manipur","latitude":24.817,"longitude":93.9368,"temp":17.1,"humidity":96,"rain":0.0,"pressure":925.5,"uv_index":8.55,"wind_gusts":28.4,"aqi":76,"pm10":32.0,"pm2_5":29.7,"no2":26.9,"co":827.0,"o3":36.0,"so2":4.1,"mosquito_risk":3,"arthritis_risk":10,"migraine_risk":7,"frizz_risk":1,"updated_at":"2026-05-11T23:27:01.709939+05:30"},{"city":"Aizawl","state":"Mizoram","latitude":23.7271,"longitude":92.7176,"temp":15.8,"humidity":91,"rain":0.0,"pressure":893.7,"uv_index":9.0,"wind_gusts":25.2,"aqi":76,"pm10":18.5,"pm2_5":16.5,"no2":11.8,"co":356.0,"o3":34.0,"so2":0.6,"mosquito_risk":3,"arthritis_risk":10,"migraine_risk":7,"frizz_risk":0,"updated_at":"2026-05-11T23:27:01.709947+05:30"},{"city":"Kohima","state":"Nagaland","latitude":25.6701,"longitude":94.1077,"temp":13.3,"humidity":96,"rain":0.0,"pressure":855.4,"uv_index":8.65,"wind_gusts":20.9,"aqi":51,"pm10":17.1,"pm2_5":15.1,"no2":10.5,"co":382.0,"o3":51.0,"so2":1.2,"mosquito_risk":3,"arthritis_risk":10,"migraine_risk":7,"frizz_risk":0,"updated_at":"2026-05-11T23:27:01.709955+05:30"},{"city":"Gangtok","state":"Sikkim","latitude":27.3314,"longitude":88.6138,"temp":12.5,"humidity":96,"rain":0.0,"pressure":838.6,"uv_index":8.95,"wind_gusts":46.4,"aqi":66,"pm10":42.6,"pm2_5":33.2,"no2":23.4,"co":492.0,"o3":63.0,"so2":1.7,"mosquito_risk":3,"arthritis_risk":10,"migraine_risk":7,"frizz_risk":0,"updated_at":"2026-05-11T23:27:01.709962+05:30"},{"city":"Siliguri","state":"West Bengal","latitude":26.7271,"longitude":88.3953,"temp":22.1,"humidity":90,"rain":0.1,"pressure":997.6,"uv_index":8.55,"wind_gusts":26.3,"aqi":93,"pm10":57.5,"pm2_5":43.2,"no2":22.7,"co":489.0,"o3":96.0,"so2":5.5,"mosquito_risk":6,"arthritis_risk":5,"migraine_risk":7,"frizz_risk":1,"updated_at":"2026-05-11T23:27:05.032980+05:30"},{"city":"Durgapur","state":"West Bengal","latitude":23.5204,"longitude":87.3119,"temp":25.2,"humidity":87,"rain":0.0,"pressure":997.2,"uv_index":8.85,"wind_gusts":40.0,"aqi":154,"pm10":49.9,"pm2_5":47.6,"no2":31.8,"co":273.0,"o3":66.0,"so2":36.0,"mosquito_risk":7,"arthritis_risk":5,"migraine_risk":7,"frizz_risk":1,"updated_at":"2026-05-11T23:27:05.033014+05:30"},{"city":"Asansol","state":"West Bengal","latitude":23.6739,"longitude":86.9524,"temp":25.2,"humidity":84,"rain":0.0,"pressure":995.7,"uv_index":8.9,"wind_gusts":38.5,"aqi":147,"pm10":40.6,"pm2_5":38.3,"no2":34.6,"co":606.0,"o3":60.0,"so2":46.6,"mosquito_risk":7,"arthritis_risk":5,"migraine_risk":7,"frizz_risk":1,"updated_at":"2026-05-11T23:27:05.033025+05:30"},{"city":"Pondicherry","state":"Puducherry","latitude":11.9139,"longitude":79.8145,"temp":27.9,"humidity":87,"rain":0.0,"pressure":1007.6,"uv_index":8.85,"wind_gusts":33.5,"aqi":31,"pm10":8.1,"pm2_5":5.9,"no2":4.6,"co":200.0,"o3":37.0,"so2":0.8,"mosquito_risk":7,"arthritis_risk":5,"migraine_risk":4,"frizz_risk":1,"updated_at":"2026-05-11T23:27:05.033034+05:30"},{"city":"Port Blair","state":"Andaman and Nicobar Islands","latitude":11.6234,"longitude":92.7265,"temp":25.9,"humidity":94,"rain":0.0,"pressure":1007.4,"uv_index":8.35,"wind_gusts":34.2,"aqi":26,"pm10":2.0,"pm2_5":1.6,"no2":0.5,"co":198.0,"o3":57.0,"so2":0.1,"mosquito_risk":7,"arthritis_risk":5,"migraine_risk":4,"frizz_risk":1,"updated_at":"2026-05-11T23:27:05.033044+05:30"},{"city":"Haridwar","state":"Uttarakhand","latitude":29.9457,"longitude":78.1642,"temp":23.6,"humidity":80,"rain":0.0,"pressure":973.3,"uv_index":6.3,"wind_gusts":30.6,"aqi":147,"pm10":75.9,"pm2_5":56.6,"no2":20.1,"co":427.0,"o3":95.0,"so2":10.5,"mosquito_risk":3,"arthritis_risk":5,"migraine_risk":7,"frizz_risk":1,"updated_at":"2026-05-11T23:27:05.033052+05:30"},{"city":"Rishikesh","state":"Uttarakhand","latitude":30.0869,"longitude":78.2676,"temp":21.4,"humidity":84,"rain":0.0,"pressure":965.9,"uv_index":5.95,"wind_gusts":27.4,"aqi":143,"pm10":78.0,"pm2_5":50.4,"no2":15.8,"co":424.0,"o3":96.0,"so2":6.6,"mosquito_risk":3,"arthritis_risk":5,"migraine_risk":3,"frizz_risk":1,"updated_at":"2026-05-11T23:27:05.033061+05:30"},{"city":"Nainital","state":"Uttarakhand","latitude":29.3919,"longitude":79.4542,"temp":12.5,"humidity":92,"rain":0.0,"pressure":804.6,"uv_index":6.15,"wind_gusts":32.4,"aqi":142,"pm10":70.8,"pm2_5":53.1,"no2":20.8,"co":373.0,"o3":89.0,"so2":8.4,"mosquito_risk":3,"arthritis_risk":10,"migraine_risk":7,"frizz_risk":0,"updated_at":"2026-05-11T23:27:05.033068+05:30"},{"city":"Mussoorie","state":"Uttarakhand","latitude":30.4599,"longitude":78.0664,"temp":12.3,"humidity":95,"rain":0.0,"pressure":801.3,"uv_index":6.15,"wind_gusts":45.0,"aqi":153,"pm10":70.8,"pm2_5":51.6,"no2":21.5,"co":457.0,"o3":119.0,"so2":13.5,"mosquito_risk":3,"arthritis_risk":10,"migraine_risk":7,"frizz_risk":0,"updated_at":"2026-05-11T23:27:05.033077+05:30"},{"city":"Dharamshala","state":"Himachal Pradesh","latitude":32.219,"longitude":76.3234,"temp":18.7,"humidity":64,"rain":0.0,"pressure":868.4,"uv_index":8.35,"wind_gusts":38.9,"aqi":93,"pm10":47.0,"pm2_5":29.4,"no2":12.8,"co":375.0,"o3":62.0,"so2":0.7,"mosquito_risk":3,"arthritis_risk":5,"migraine_risk":7,"frizz_risk":0,"updated_at":"2026-05-11T23:27:05.033085+05:30"},{"city":"Dalhousie","state":"Himachal Pradesh","latitude":32.5387,"longitude":75.971,"temp":10.8,"humidity":81,"rain":0.0,"pressure":801.2,"uv_index":8.55,"wind_gusts":36.4,"aqi":152,"pm10":105.7,"pm2_5":60.1,"no2":38.0,"co":692.0,"o3":60.0,"so2":3.6,"mosquito_risk":3,"arthritis_risk":10,"migraine_risk":7,"frizz_risk":0,"updated_at":"2026-05-11T23:27:05.033093+05:30"},{"city":"Patiala","state":"Punjab","latitude":30.3398,"longitude":76.3869,"temp":24.2,"humidity":79,"rain":0.0,"pressure":976.8,"uv_index":7.55,"wind_gusts":67.3,"aqi":461,"pm10":183.5,"pm2_5":74.7,"no2":14.3,"co":601.0,"o3":118.0,"so2":22.8,"mosquito_risk":3,"arthritis_risk":5,"migraine_risk":7,"frizz_risk":1,"updated_at":"2026-05-11T23:27:05.033101+05:30"},{"city":"Bhatinda","state":"Punjab","latitude":30.211,"longitude":74.9455,"temp":26.5,"humidity":65,"rain":0.0,"pressure":981.9,"uv_index":8.2,"wind_gusts":43.6,"aqi":436,"pm10":271.0,"pm2_5":84.5,"no2":10.0,"co":516.0,"o3":117.0,"so2":13.5,"mosquito_risk":7,"arthritis_risk":5,"migraine_risk":7,"frizz_risk":1,"updated_at":"2026-05-11T23:27:05.033109+05:30"},{"city":"Rohtak","state":"Haryana","latitude":28.8955,"longitude":76.6066,"temp":27.8,"humidity":57,"rain":0.0,"pressure":980.4,"uv_index":7.65,"wind_gusts":33.8,"aqi":258,"pm10":435.9,"pm2_5":97.1,"no2":28.2,"co":511.0,"o3":127.0,"so2":27.9,"mosquito_risk":4,"arthritis_risk":5,"migraine_risk":7,"frizz_risk":1,"updated_at":"2026-05-11T23:27:05.033117+05:30"},{"city":"Panipat","state":"Haryana","latitude":29.3909,"longitude":76.9635,"temp":25.0,"humidity":73,"rain":0.0,"pressure":979.1,"uv_index":7.5,"wind_gusts":33.8,"aqi":536,"pm10":410.7,"pm2_5":100.6,"no2":21.4,"co":574.0,"o3":125.0,"so2":20.0,"mosquito_risk":7,"arthritis_risk":5,"migraine_risk":7,"frizz_risk":1,"updated_at":"2026-05-11T23:27:05.033124+05:30"},{"city":"Mathura","state":"Uttar Pradesh","latitude":27.4924,"longitude":77.6737,"temp":28.5,"humidity":56,"rain":0.0,"pressure":985.6,"uv_index":7.95,"wind_gusts":27.0,"aqi":373,"pm10":815.8,"pm2_5":115.5,"no2":13.7,"co":517.0,"o3":112.0,"so2":12.3,"mosquito_risk":4,"arthritis_risk":5,"migraine_risk":7,"frizz_risk":1,"updated_at":"2026-05-11T23:27:05.033132+05:30"},{"city":"Vrindavan","state":"Uttar Pradesh","latitude":27.5823,"longitude":77.7027,"temp":28.5,"humidity":55,"rain":0.0,"pressure":986.0,"uv_index":7.9,"wind_gusts":27.7,"aqi":373,"pm10":815.8,"pm2_5":115.5,"no2":13.7,"co":498.0,"o3":112.0,"so2":12.3,"mosquito_risk":4,"arthritis_risk":5,"migraine_risk":7,"frizz_risk":1,"updated_at":"2026-05-11T23:27:05.033140+05:30"},{"city":"Ayodhya","state":"Uttar Pradesh","latitude":26.7922,"longitude":82.1998,"temp":26.6,"humidity":57,"rain":0.0,"pressure":995.7,"uv_index":8.25,"wind_gusts":33.5,"aqi":103,"pm10":65.9,"pm2_5":56.9,"no2":45.7,"co":466.0,"o3":64.0,"so2":13.9,"mosquito_risk":4,"arthritis_risk":5,"migraine_risk":7,"frizz_risk":1,"updated_at":"2026-05-11T23:27:05.033148+05:30"},{"city":"Ratlam","state":"Madhya Pradesh","latitude":23.3315,"longitude":75.0367,"temp":31.0,"humidity":25,"rain":0.0,"pressure":952.5,"uv_index":8.55,"wind_gusts":43.2,"aqi":79,"pm10":46.7,"pm2_5":22.5,"no2":5.2,"co":313.0,"o3":92.0,"so2":7.7,"mosquito_risk":0,"arthritis_risk":5,"migraine_risk":7,"frizz_risk":0,"updated_at":"2026-05-11T23:27:05.033155+05:30"},{"city":"Sagar","state":"Madhya Pradesh","latitude":23.8388,"longitude":78.7378,"temp":29.2,"humidity":41,"rain":0.0,"pressure":949.7,"uv_index":8.7,"wind_gusts":44.6,"aqi":116,"pm10":68.9,"pm2_5":37.3,"no2":5.6,"co":337.0,"o3":122.0,"so2":7.3,"mosquito_risk":4,"arthritis_risk":5,"migraine_risk":7,"frizz_risk":0,"updated_at":"2026-05-11T23:27:05.033163+05:30"},{"city":"Satna","state":"Madhya Pradesh","latitude":24.6005,"longitude":80.8322,"temp":29.1,"humidity":41,"rain":0.0,"pressure":970.9,"uv_index":8.75,"wind_gusts":46.4,"aqi":160,"pm10":50.8,"pm2_5":34.8,"no2":8.0,"co":310.0,"o3":134.0,"so2":10.1,"mosquito_risk":4,"arthritis_risk":5,"migraine_risk":7,"frizz_risk":0,"updated_at":"2026-05-11T23:27:05.033170+05:30"},{"city":"Akola","state":"Maharashtra","latitude":20.7002,"longitude":77.0082,"temp":33.5,"humidity":28,"rain":0.0,"pressure":972.5,"uv_index":8.85,"wind_gusts":43.6,"aqi":96,"pm10":60.8,"pm2_5":36.4,"no2":22.0,"co":311.0,"o3":71.0,"so2":8.4,"mosquito_risk":0,"arthritis_risk":5,"migraine_risk":7,"frizz_risk":0,"updated_at":"2026-05-11T23:27:05.033179+05:30"},{"city":"Amravati","state":"Maharashtra","latitude":20.9374,"longitude":77.7796,"temp":34.0,"humidity":27,"rain":0.0,"pressure":965.1,"uv_index":8.9,"wind_gusts":39.2,"aqi":102,"pm10":71.5,"pm2_5":40.0,"no2":25.8,"co":275.0,"o3":72.0,"so2":8.9,"mosquito_risk":0,"arthritis_risk":5,"migraine_risk":7,"frizz_risk":0,"updated_at":"2026-05-11T23:27:05.033188+05:30"},{"city":"Latur","state":"Maharashtra","latitude":18.4088,"longitude":76.5604,"temp":30.6,"humidity":32,"rain":0.0,"pressure":938.4,"uv_index":9.05,"wind_gusts":39.6,"aqi":118,"pm10":49.6,"pm2_5":34.6,"no2":15.2,"co":329.0,"o3":97.0,"so2":10.9,"mosquito_risk":0,"arthritis_risk":5,"migraine_risk":7,"frizz_risk":0,"updated_at":"2026-05-11T23:27:05.033196+05:30"},{"city":"Nanded","state":"Maharashtra","latitude":19.1383,"longitude":77.3091,"temp":31.6,"humidity":35,"rain":0.0,"pressure":966.8,"uv_index":9.0,"wind_gusts":32.0,"aqi":100,"pm10":56.1,"pm2_5":37.5,"no2":23.8,"co":313.0,"o3":72.0,"so2":7.3,"mosquito_risk":0,"arthritis_risk":5,"migraine_risk":7,"frizz_risk":0,"updated_at":"2026-05-11T23:27:05.033204+05:30"},{"city":"Gulbarga","state":"Karnataka","latitude":17.3297,"longitude":76.8343,"temp":31.0,"humidity":40,"rain":0.0,"pressure":957.4,"uv_index":9.05,"wind_gusts":30.2,"aqi":114,"pm10":30.5,"pm2_5":21.0,"no2":12.6,"co":325.0,"o3":95.0,"so2":8.7,"mosquito_risk":0,"arthritis_risk":5,"migraine_risk":7,"frizz_risk":0,"updated_at":"2026-05-11T23:27:05.033211+05:30"},{"city":"Bidar","state":"Karnataka","latitude":17.9104,"longitude":77.5199,"temp":29.1,"humidity":43,"rain":0.0,"pressure":934.5,"uv_index":9.1,"wind_gusts":32.8,"aqi":93,"pm10":44.7,"pm2_5":31.8,"no2":19.0,"co":311.0,"o3":79.0,"so2":6.2,"mosquito_risk":4,"arthritis_risk":5,"migraine_risk":7,"frizz_risk":0,"updated_at":"2026-05-11T23:27:05.033218+05:30"},{"city":"Hospet","state":"Karnataka","latitude":15.2689,"longitude":76.3909,"temp":29.1,"humidity":40,"rain":0.0,"pressure":954.2,"uv_index":8.75,"wind_gusts":32.4,"aqi":121,"pm10":36.2,"pm2_5":24.3,"no2":17.0,"co":293.0,"o3":88.0,"so2":9.9,"mosquito_risk":4,"arthritis_risk":5,"migraine_risk":7,"frizz_risk":0,"updated_at":"2026-05-11T23:27:05.033226+05:30"},{"city":"Tirupur","state":"Tamil Nadu","latitude":11.1085,"longitude":77.3411,"temp":26.1,"humidity":84,"rain":0.0,"pressure":974.1,"uv_index":9.25,"wind_gusts":32.0,"aqi":90,"pm10":37.3,"pm2_5":30.4,"no2":26.3,"co":331.0,"o3":65.0,"so2":7.0,"mosquito_risk":7,"arthritis_risk":5,"migraine_risk":7,"frizz_risk":1,"updated_at":"2026-05-11T23:27:05.033233+05:30"},{"city":"Alappuzha","state":"Kerala","latitude":9.4981,"longitude":76.3388,"temp":26.5,"humidity":92,"rain":0.0,"pressure":1008.2,"uv_index":8.65,"wind_gusts":33.1,"aqi":53,"pm10":23.1,"pm2_5":20.0,"no2":17.0,"co":156.0,"o3":78.0,"so2":5.0,"mosquito_risk":7,"arthritis_risk":0,"migraine_risk":4,"frizz_risk":1,"updated_at":"2026-05-11T23:27:05.033241+05:30"},{"city":"Munnar","state":"Kerala","latitude":10.0889,"longitude":77.0595,"temp":17.9,"humidity":77,"rain":0.0,"pressure":855.5,"uv_index":9.45,"wind_gusts":24.5,"aqi":61,"pm10":30.5,"pm2_5":27.0,"no2":16.7,"co":331.0,"o3":38.0,"so2":2.7,"mosquito_risk":3,"arthritis_risk":5,"migraine_risk":7,"frizz_risk":0,"updated_at":"2026-05-11T23:27:05.033249+05:30"},{"city":"Silchar","state":"Assam","latitude":24.8333,"longitude":92.7789,"temp":22.2,"humidity":95,"rain":0.0,"pressure":1008.5,"uv_index":8.8,"wind_gusts":19.1,"aqi":113,"pm10":44.1,"pm2_5":37.5,"no2":6.6,"co":614.0,"o3":111.0,"so2":5.6,"mosquito_risk":3,"arthritis_risk":0,"migraine_risk":4,"frizz_risk":1,"updated_at":"2026-05-11T23:27:05.033257+05:30"},{"city":"Dibrugarh","state":"Assam","latitude":27.4728,"longitude":94.912,"temp":19.6,"humidity":95,"rain":0.0,"pressure":999.3,"uv_index":6.15,"wind_gusts":22.3,"aqi":69,"pm10":52.4,"pm2_5":47.6,"no2":35.4,"co":489.0,"o3":26.0,"so2":4.3,"mosquito_risk":3,"arthritis_risk":10,"migraine_risk":7,"frizz_risk":1,"updated_at":"2026-05-11T23:27:05.033265+05:30"}]