[{"city":"Delhi","state":"Delhi","latitude":28.6139,"longitude":77.209,"temp":31.1,"humidity":37,"rain":0.0,"pressure":986.1,"uv_index":5.4,"wind_gusts":28.4,"aqi":152,"pm10":88.5,"pm2_5":23.7,"mosquito_risk":0,"arthritis_risk":5,"migraine_risk":3,"frizz_risk":0,"updated_at":"2026-03-31T12:50:26.232427+05:30"},{"city":"Mumbai","state":"Maharashtra","latitude":19.076,"longitude":72.8777,"temp":27.9,"humidity":78,"rain":0.0,"pressure":1009.9,"uv_index":8.0,"wind_gusts":25.2,"aqi":67,"pm10":39.0,"pm2_5":26.6,"mosquito_risk":7,"arthritis_risk":0,"migraine_risk":4,"frizz_risk":1,"updated_at":"2026-03-31T12:50:26.232472+05:30"},{"city":"Bangalore","state":"Karnataka","latitude":12.9716,"longitude":77.5946,"temp":31.9,"humidity":36,"rain":0.0,"pressure":913.0,"uv_index":9.55,"wind_gusts":24.8,"aqi":88,"pm10":31.5,"pm2_5":23.9,"mosquito_risk":0,"arthritis_risk":5,"migraine_risk":7,"frizz_risk":0,"updated_at":"2026-03-31T12:50:26.232488+05:30"},{"city":"Hyderabad","state":"Telangana","latitude":17.385,"longitude":78.4867,"temp":32.4,"humidity":47,"rain":0.0,"pressure":955.2,"uv_index":9.05,"wind_gusts":37.4,"aqi":105,"pm10":37.7,"pm2_5":31.2,"mosquito_risk":0,"arthritis_risk":5,"migraine_risk":7,"frizz_risk":1,"updated_at":"2026-03-31T12:50:26.232499+05:30"},{"city":"Chennai","state":"Tamil Nadu","latitude":13.0827,"longitude":80.2707,"temp":33.6,"humidity":51,"rain":0.0,"pressure":1008.3,"uv_index":9.25,"wind_gusts":30.2,"aqi":49,"pm10":16.7,"pm2_5":12.8,"mosquito_risk":0,"arthritis_risk":0,"migraine_risk":4,"frizz_risk":1,"updated_at":"2026-03-31T12:50:26.232507+05:30"},{"city":"Kolkata","state":"West Bengal","latitude":22.5726,"longitude":88.3639,"temp":32.0,"humidity":66,"rain":0.0,"pressure":1007.7,"uv_index":7.6,"wind_gusts":27.0,"aqi":88,"pm10":36.7,"pm2_5":31.2,"mosquito_risk":3,"arthritis_risk":5,"migraine_risk":4,"frizz_risk":1,"updated_at":"2026-03-31T12:50:26.232516+05:30"},{"city":"Pune","state":"Maharashtra","latitude":18.5204,"longitude":73.8567,"temp":35.0,"humidity":33,"rain":0.0,"pressure":949.9,"uv_index":8.55,"wind_gusts":31.0,"aqi":91,"pm10":34.7,"pm2_5":25.0,"mosquito_risk":0,"arthritis_risk":5,"migraine_risk":7,"frizz_risk":1,"updated_at":"2026-03-31T12:50:26.232528+05:30"},{"city":"Ahmedabad","state":"Gujarat","latitude":23.0225,"longitude":72.5714,"temp":34.8,"humidity":38,"rain":0.0,"pressure":1003.5,"uv_index":7.8,"wind_gusts":27.4,"aqi":68,"pm10":38.8,"pm2_5":19.4,"mosquito_risk":0,"arthritis_risk":5,"migraine_risk":4,"frizz_risk":1,"updated_at":"2026-03-31T12:50:26.232535+05:30"},{"city":"Jaipur","state":"Rajasthan","latitude":26.9124,"longitude":75.7873,"temp":26.2,"humidity":56,"rain":0.0,"pressure":963.9,"uv_index":7.45,"wind_gusts":50.4,"aqi":67,"pm10":116.2,"pm2_5":18.9,"mosquito_risk":4,"arthritis_risk":5,"migraine_risk":7,"frizz_risk":1,"updated_at":"2026-03-31T12:50:26.232543+05:30"},{"city":"Lucknow","state":"Uttar Pradesh","latitude":26.8467,"longitude":80.9462,"temp":35.6,"humidity":26,"rain":0.0,"pressure":995.2,"uv_index":7.3,"wind_gusts":27.0,"aqi":152,"pm10":93.1,"pm2_5":28.2,"mosquito_risk":0,"arthritis_risk":5,"migraine_risk":10,"frizz_risk":0,"updated_at":"2026-03-31T12:50:26.232550+05:30"},{"city":"Kanpur","state":"Uttar Pradesh","latitude":26.4499,"longitude":80.3319,"temp":33.7,"humidity":34,"rain":0.0,"pressure":994.1,"uv_index":7.25,"wind_gusts":28.1,"aqi":485,"pm10":314.8,"pm2_5":49.4,"mosquito_risk":0,"arthritis_risk":5,"migraine_risk":7,"frizz_risk":0,"updated_at":"2026-03-31T12:50:26.232558+05:30"},{"city":"Chandigarh","state":"Chandigarh","latitude":30.7333,"longitude":76.7794,"temp":30.6,"humidity":37,"rain":0.0,"pressure":971.5,"uv_index":6.05,"wind_gusts":23.0,"aqi":112,"pm10":87.5,"pm2_5":27.0,"mosquito_risk":0,"arthritis_risk":5,"migraine_risk":7,"frizz_risk":0,"updated_at":"2026-03-31T12:50:26.232565+05:30"},{"city":"Srinagar","state":"Jammu and Kashmir","latitude":34.0837,"longitude":74.7973,"temp":15.4,"humidity":63,"rain":0.0,"pressure":845.3,"uv_index":7.65,"wind_gusts":16.9,"aqi":72,"pm10":23.3,"pm2_5":9.7,"mosquito_risk":3,"arthritis_risk":5,"migraine_risk":7,"frizz_risk":0,"updated_at":"2026-03-31T12:50:26.232572+05:30"},{"city":"Jammu","state":"Jammu and Kashmir","latitude":32.7266,"longitude":74.857,"temp":32.9,"humidity":26,"rain":0.0,"pressure":975.0,"uv_index":6.8,"wind_gusts":38.2,"aqi":72,"pm10":79.9,"pm2_5":20.4,"mosquito_risk":0,"arthritis_risk":5,"migraine_risk":7,"frizz_risk":0,"updated_at":"2026-03-31T12:50:26.232579+05:30"},{"city":"Amritsar","state":"Punjab","latitude":31.634,"longitude":74.8723,"temp":31.0,"humidity":41,"rain":0.0,"pressure":983.3,"uv_index":6.35,"wind_gusts":28.4,"aqi":150,"pm10":128.1,"pm2_5":34.1,"mosquito_risk":0,"arthritis_risk":5,"migraine_risk":7,"frizz_risk":1,"updated_at":"2026-03-31T12:50:26.232586+05:30"},{"city":"Ludhiana","state":"Punjab","latitude":30.901,"longitude":75.8573,"temp":31.4,"humidity":36,"rain":0.0,"pressure":981.3,"uv_index":6.35,"wind_gusts":20.2,"aqi":334,"pm10":172.3,"pm2_5":44.4,"mosquito_risk":0,"arthritis_risk":5,"migraine_risk":7,"frizz_risk":0,"updated_at":"2026-03-31T12:50:26.232593+05:30"},{"city":"Jalandhar","state":"Punjab","latitude":31.326,"longitude":75.5762,"temp":31.6,"humidity":35,"rain":0.0,"pressure":982.3,"uv_index":6.35,"wind_gusts":27.0,"aqi":214,"pm10":174.6,"pm2_5":40.4,"mosquito_risk":0,"arthritis_risk":5,"migraine_risk":7,"frizz_risk":0,"updated_at":"2026-03-31T12:50:26.232602+05:30"},{"city":"Dehradun","state":"Uttarakhand","latitude":30.6284,"longitude":78.0322,"temp":22.1,"humidity":41,"rain":0.0,"pressure":834.0,"uv_index":6.5,"wind_gusts":34.9,"aqi":46,"pm10":17.6,"pm2_5":5.6,"mosquito_risk":0,"arthritis_risk":5,"migraine_risk":7,"frizz_risk":0,"updated_at":"2026-03-31T12:50:26.232608+05:30"},{"city":"Shimla","state":"Himachal Pradesh","latitude":31.1048,"longitude":77.1734,"temp":19.5,"humidity":51,"rain":0.0,"pressure":788.5,"uv_index":6.5,"wind_gusts":32.4,"aqi":56,"pm10":27.2,"pm2_5":9.0,"mosquito_risk":0,"arthritis_risk":5,"migraine_risk":7,"frizz_risk":0,"updated_at":"2026-03-31T12:50:26.232615+05:30"},{"city":"Manali","state":"Himachal Pradesh","latitude":32.2396,"longitude":77.1887,"temp":22.5,"humidity":23,"rain":0.0,"pressure":823.2,"uv_index":9.0,"wind_gusts":35.6,"aqi":53,"pm10":4.0,"pm2_5":2.3,"mosquito_risk":0,"arthritis_risk":5,"migraine_risk":7,"frizz_risk":0,"updated_at":"2026-03-31T12:50:26.232622+05:30"},{"city":"Gurgaon","state":"Haryana","latitude":28.4595,"longitude":77.0266,"temp":30.2,"humidity":43,"rain":0.0,"pressure":984.8,"uv_index":5.95,"wind_gusts":27.0,"aqi":567,"pm10":380.0,"pm2_5":54.7,"mosquito_risk":0,"arthritis_risk":5,"migraine_risk":3,"frizz_risk":1,"updated_at":"2026-03-31T12:50:26.232628+05:30"},{"city":"Noida","state":"Uttar Pradesh","latitude":28.5355,"longitude":77.391,"temp":31.6,"humidity":35,"rain":0.0,"pressure":987.6,"uv_index":5.7,"wind_gusts":27.0,"aqi":567,"pm10":380.0,"pm2_5":54.7,"mosquito_risk":0,"arthritis_risk":5,"migraine_risk":3,"frizz_risk":0,"updated_at":"2026-03-31T12:50:26.232635+05:30"},{"city":"Ghaziabad","state":"Uttar Pradesh","latitude":28.6692,"longitude":77.4538,"temp":31.4,"humidity":37,"rain":0.0,"pressure":985.7,"uv_index":5.6,"wind_gusts":25.2,"aqi":145,"pm10":66.6,"pm2_5":19.9,"mosquito_risk":0,"arthritis_risk":5,"migraine_risk":3,"frizz_risk":0,"updated_at":"2026-03-31T12:50:26.232641+05:30"},{"city":"Faridabad","state":"Haryana","latitude":28.4089,"longitude":77.3178,"temp":31.2,"humidity":37,"rain":0.0,"pressure":987.1,"uv_index":5.95,"wind_gusts":29.5,"aqi":567,"pm10":380.0,"pm2_5":54.7,"mosquito_risk":0,"arthritis_risk":5,"migraine_risk":3,"frizz_risk":0,"updated_at":"2026-03-31T12:50:26.232648+05:30"},{"city":"Meerut","state":"Uttar Pradesh","latitude":28.9845,"longitude":77.7064,"temp":32.1,"humidity":33,"rain":0.0,"pressure":984.3,"uv_index":5.8,"wind_gusts":28.1,"aqi":145,"pm10":66.6,"pm2_5":19.9,"mosquito_risk":0,"arthritis_risk":5,"migraine_risk":3,"frizz_risk":0,"updated_at":"2026-03-31T12:50:26.232655+05:30"},{"city":"Agra","state":"Uttar Pradesh","latitude":27.1767,"longitude":78.0081,"temp":35.0,"humidity":27,"rain":0.0,"pressure":990.5,"uv_index":7.15,"wind_gusts":31.7,"aqi":550,"pm10":369.7,"pm2_5":41.7,"mosquito_risk":0,"arthritis_risk":5,"migraine_risk":7,"frizz_risk":0,"updated_at":"2026-03-31T12:50:26.232663+05:30"},{"city":"Varanasi","state":"Uttar Pradesh","latitude":25.3176,"longitude":82.9739,"temp":36.5,"humidity":31,"rain":0.0,"pressure":998.8,"uv_index":7.65,"wind_gusts":29.9,"aqi":127,"pm10":231.0,"pm2_5":65.2,"mosquito_risk":0,"arthritis_risk":5,"migraine_risk":10,"frizz_risk":1,"updated_at":"2026-03-31T12:50:26.232673+05:30"},{"city":"Prayagraj","state":"Uttar Pradesh","latitude":25.4358,"longitude":81.8463,"temp":36.5,"humidity":28,"rain":0.0,"pressure":997.7,"uv_index":7.8,"wind_gusts":26.6,"aqi":137,"pm10":163.4,"pm2_5":53.9,"mosquito_risk":0,"arthritis_risk":5,"migraine_risk":10,"frizz_risk":0,"updated_at":"2026-03-31T12:50:26.232680+05:30"},{"city":"Gorakhpur","state":"Uttar Pradesh","latitude":26.7606,"longitude":83.3732,"temp":32.8,"humidity":50,"rain":0.0,"pressure":999.0,"uv_index":7.45,"wind_gusts":22.0,"aqi":158,"pm10":96.4,"pm2_5":46.1,"mosquito_risk":0,"arthritis_risk":5,"migraine_risk":7,"frizz_risk":1,"updated_at":"2026-03-31T12:50:26.232687+05:30"},{"city":"Bareilly","state":"Uttar Pradesh","latitude":28.367,"longitude":79.4304,"temp":33.8,"humidity":31,"rain":0.0,"pressure":988.8,"uv_index":6.4,"wind_gusts":32.0,"aqi":104,"pm10":38.9,"pm2_5":15.9,"mosquito_risk":0,"arthritis_risk":5,"migraine_risk":7,"frizz_risk":0,"updated_at":"2026-03-31T12:50:26.232694+05:30"},{"city":"Aligarh","state":"Uttar Pradesh","latitude":27.8974,"longitude":78.088,"temp":32.8,"humidity":32,"rain":0.0,"pressure":988.4,"uv_index":6.45,"wind_gusts":36.7,"aqi":577,"pm10":204.0,"pm2_5":37.5,"mosquito_risk":0,"arthritis_risk":5,"migraine_risk":7,"frizz_risk":0,"updated_at":"2026-03-31T12:50:26.232703+05:30"},{"city":"Moradabad","state":"Uttar Pradesh","latitude":28.8386,"longitude":78.7733,"temp":33.1,"humidity":31,"rain":0.0,"pressure":986.0,"uv_index":6.3,"wind_gusts":29.9,"aqi":116,"pm10":57.3,"pm2_5":21.2,"mosquito_risk":0,"arthritis_risk":5,"migraine_risk":7,"frizz_risk":0,"updated_at":"2026-03-31T12:50:26.232709+05:30"},{"city":"Saharanpur","state":"Uttar Pradesh","latitude":29.9637,"longitude":77.546,"temp":31.4,"humidity":36,"rain":0.0,"pressure":978.4,"uv_index":5.7,"wind_gusts":26.3,"aqi":153,"pm10":88.2,"pm2_5":28.3,"mosquito_risk":0,"arthritis_risk":5,"migraine_risk":3,"frizz_risk":0,"updated_at":"2026-03-31T12:50:26.232715+05:30"},{"city":"Jhansi","state":"Uttar Pradesh","latitude":25.4484,"longitude":78.5685,"temp":36.5,"humidity":25,"rain":0.0,"pressure":980.3,"uv_index":7.75,"wind_gusts":32.8,"aqi":55,"pm10":35.9,"pm2_5":14.5,"mosquito_risk":0,"arthritis_risk":5,"migraine_risk":10,"frizz_risk":0,"updated_at":"2026-03-31T12:50:29.592831+05:30"},{"city":"Surat","state":"Gujarat","latitude":21.1702,"longitude":72.8311,"temp":31.2,"humidity":62,"rain":0.0,"pressure":1008.8,"uv_index":7.8,"wind_gusts":28.8,"aqi":88,"pm10":50.6,"pm2_5":36.1,"mosquito_risk":3,"arthritis_risk":0,"migraine_risk":4,"frizz_risk":1,"updated_at":"2026-03-31T12:50:29.592866+05:30"},{"city":"Vadodara","state":"Gujarat","latitude":22.3072,"longitude":73.1812,"temp":36.1,"humidity":37,"rain":0.0,"pressure":1005.7,"uv_index":8.0,"wind_gusts":28.4,"aqi":87,"pm10":40.2,"pm2_5":28.2,"mosquito_risk":0,"arthritis_risk":5,"migraine_risk":7,"frizz_risk":1,"updated_at":"2026-03-31T12:50:29.592878+05:30"},{"city":"Rajkot","state":"Gujarat","latitude":22.3039,"longitude":70.8022,"temp":33.5,"humidity":40,"rain":0.0,"pressure":996.1,"uv_index":7.75,"wind_gusts":40.0,"aqi":57,"pm10":56.0,"pm2_5":20.3,"mosquito_risk":0,"arthritis_risk":5,"migraine_risk":7,"frizz_risk":1,"updated_at":"2026-03-31T12:50:29.592889+05:30"},{"city":"Thane","state":"Maharashtra","latitude":19.2183,"longitude":72.9781,"temp":32.2,"humidity":56,"rain":0.0,"pressure":1009.4,"uv_index":8.05,"wind_gusts":37.4,"aqi":67,"pm10":39.0,"pm2_5":26.6,"mosquito_risk":0,"arthritis_risk":0,"migraine_risk":4,"frizz_risk":1,"updated_at":"2026-03-31T12:50:29.592897+05:30"},{"city":"Nagpur","state":"Maharashtra","latitude":21.1458,"longitude":79.0882,"temp":34.6,"humidity":35,"rain":0.0,"pressure":975.6,"uv_index":8.3,"wind_gusts":20.2,"aqi":61,"pm10":28.6,"pm2_5":17.6,"mosquito_risk":0,"arthritis_risk":5,"migraine_risk":7,"frizz_risk":1,"updated_at":"2026-03-31T12:50:29.592905+05:30"},{"city":"Nashik","state":"Maharashtra","latitude":19.9975,"longitude":73.7898,"temp":32.5,"humidity":42,"rain":0.0,"pressure":947.4,"uv_index":8.25,"wind_gusts":29.5,"aqi":66,"pm10":29.3,"pm2_5":16.7,"mosquito_risk":0,"arthritis_risk":5,"migraine_risk":7,"frizz_risk":1,"updated_at":"2026-03-31T12:50:29.592912+05:30"},{"city":"Aurangabad","state":"Maharashtra","latitude":19.8762,"longitude":75.3433,"temp":33.7,"humidity":36,"rain":0.0,"pressure":946.3,"uv_index":8.75,"wind_gusts":22.7,"aqi":64,"pm10":29.0,"pm2_5":21.0,"mosquito_risk":0,"arthritis_risk":5,"migraine_risk":7,"frizz_risk":1,"updated_at":"2026-03-31T12:50:29.592919+05:30"},{"city":"Solapur","state":"Maharashtra","latitude":17.6599,"longitude":75.9064,"temp":32.2,"humidity":43,"rain":0.0,"pressure":959.1,"uv_index":8.9,"wind_gusts":24.8,"aqi":91,"pm10":43.5,"pm2_5":33.1,"mosquito_risk":0,"arthritis_risk":5,"migraine_risk":7,"frizz_risk":1,"updated_at":"2026-03-31T12:50:29.592927+05:30"},{"city":"Kolhapur","state":"Maharashtra","latitude":16.705,"longitude":74.2433,"temp":32.4,"humidity":44,"rain":0.0,"pressure":949.6,"uv_index":8.9,"wind_gusts":34.9,"aqi":93,"pm10":42.0,"pm2_5":33.5,"mosquito_risk":0,"arthritis_risk":5,"migraine_risk":7,"frizz_risk":1,"updated_at":"2026-03-31T12:50:29.592934+05:30"},{"city":"Goa","state":"Goa","latitude":15.2993,"longitude":74.124,"temp":33.0,"humidity":54,"rain":0.0,"pressure":998.8,"uv_index":9.0,"wind_gusts":32.8,"aqi":75,"pm10":37.7,"pm2_5":25.0,"mosquito_risk":0,"arthritis_risk":5,"migraine_risk":7,"frizz_risk":1,"updated_at":"2026-03-31T12:50:29.592941+05:30"},{"city":"Jodhpur","state":"Rajasthan","latitude":26.2389,"longitude":73.0243,"temp":33.0,"humidity":36,"rain":0.0,"pressure":984.8,"uv_index":7.7,"wind_gusts":36.4,"aqi":72,"pm10":74.7,"pm2_5":15.7,"mosquito_risk":0,"arthritis_risk":5,"migraine_risk":7,"frizz_risk":0,"updated_at":"2026-03-31T12:50:29.592949+05:30"},{"city":"Udaipur","state":"Rajasthan","latitude":24.5854,"longitude":73.7125,"temp":31.6,"humidity":32,"rain":0.0,"pressure":948.5,"uv_index":8.35,"wind_gusts":37.1,"aqi":40,"pm10":18.8,"pm2_5":7.7,"mosquito_risk":0,"arthritis_risk":5,"migraine_risk":7,"frizz_risk":0,"updated_at":"2026-03-31T12:50:29.592955+05:30"},{"city":"Kota","state":"Rajasthan","latitude":25.2138,"longitude":75.8648,"temp":36.7,"humidity":28,"rain":0.0,"pressure":980.5,"uv_index":7.8,"wind_gusts":42.5,"aqi":54,"pm10":32.2,"pm2_5":16.9,"mosquito_risk":0,"arthritis_risk":5,"migraine_risk":10,"frizz_risk":0,"updated_at":"2026-03-31T12:50:29.592962+05:30"},{"city":"Bikaner","state":"Rajasthan","latitude":28.0229,"longitude":73.3119,"temp":29.9,"humidity":45,"rain":0.0,"pressure":984.4,"uv_index":7.35,"wind_gusts":38.5,"aqi":74,"pm10":61.0,"pm2_5":17.9,"mosquito_risk":4,"arthritis_risk":5,"migraine_risk":7,"frizz_risk":1,"updated_at":"2026-03-31T12:50:29.592968+05:30"},{"city":"Ajmer","state":"Rajasthan","latitude":26.4499,"longitude":74.6399,"temp":31.0,"humidity":42,"rain":0.0,"pressure":957.2,"uv_index":7.7,"wind_gusts":37.1,"aqi":43,"pm10":33.4,"pm2_5":9.7,"mosquito_risk":0,"arthritis_risk":5,"migraine_risk":7,"frizz_risk":1,"updated_at":"2026-03-31T12:50:29.592975+05:30"},{"city":"Gwalior","state":"Madhya Pradesh","latitude":26.2183,"longitude":78.1828,"temp":36.3,"humidity":26,"rain":0.0,"pressure":985.7,"uv_index":7.45,"wind_gusts":26.3,"aqi":53,"pm10":12.1,"pm2_5":5.5,"mosquito_risk":0,"arthritis_risk":5,"migraine_risk":10,"frizz_risk":0,"updated_at":"2026-03-31T12:50:29.592981+05:30"},{"city":"Indore","state":"Madhya Pradesh","latitude":22.7196,"longitude":75.8577,"temp":34.5,"humidity":31,"rain":0.0,"pressure":950.3,"uv_index":8.3,"wind_gusts":26.3,"aqi":50,"pm10":20.4,"pm2_5":12.0,"mosquito_risk":0,"arthritis_risk":5,"migraine_risk":7,"frizz_risk":0,"updated_at":"2026-03-31T12:50:29.592988+05:30"},{"city":"Bhopal","state":"Madhya Pradesh","latitude":23.2599,"longitude":77.4126,"temp":36.1,"humidity":25,"rain":0.0,"pressure":956.1,"uv_index":8.25,"wind_gusts":26.6,"aqi":50,"pm10":22.9,"pm2_5":11.3,"mosquito_risk":0,"arthritis_risk":5,"migraine_risk":10,"frizz_risk":0,"updated_at":"2026-03-31T12:50:29.592994+05:30"},{"city":"Jabalpur","state":"Madhya Pradesh","latitude":23.1815,"longitude":79.9864,"temp":34.9,"humidity":32,"rain":0.0,"pressure":964.1,"uv_index":8.35,"wind_gusts":18.0,"aqi":63,"pm10":106.6,"pm2_5":23.6,"mosquito_risk":0,"arthritis_risk":5,"migraine_risk":7,"frizz_risk":0,"updated_at":"2026-03-31T12:50:29.593001+05:30"},{"city":"Ujjain","state":"Madhya Pradesh","latitude":23.1765,"longitude":75.7885,"temp":34.9,"humidity":31,"rain":0.0,"pressure":956.0,"uv_index":8.2,"wind_gusts":27.7,"aqi":50,"pm10":20.1,"pm2_5":10.9,"mosquito_risk":0,"arthritis_risk":5,"migraine_risk":7,"frizz_risk":0,"updated_at":"2026-03-31T12:50:29.593008+05:30"},{"city":"Visakhapatnam","state":"Andhra Pradesh","latitude":17.6868,"longitude":83.2185,"temp":34.7,"humidity":46,"rain":0.0,"pressure":1005.4,"uv_index":9.05,"wind_gusts":34.6,"aqi":63,"pm10":27.8,"pm2_5":23.5,"mosquito_risk":0,"arthritis_risk":5,"migraine_risk":4,"frizz_risk":1,"updated_at":"2026-03-31T12:50:29.593014+05:30"},{"city":"Vijayawada","state":"Andhra Pradesh","latitude":16.5062,"longitude":80.648,"temp":33.7,"humidity":51,"rain":0.0,"pressure":1004.3,"uv_index":9.05,"wind_gusts":23.8,"aqi":63,"pm10":25.0,"pm2_5":20.3,"mosquito_risk":0,"arthritis_risk":5,"migraine_risk":4,"frizz_risk":1,"updated_at":"2026-03-31T12:50:29.593022+05:30"},{"city":"Guntur","state":"Andhra Pradesh","latitude":16.3067,"longitude":80.4365,"temp":34.3,"humidity":49,"rain":0.0,"pressure":1005.2,"uv_index":9.1,"wind_gusts":27.7,"aqi":63,"pm10":25.4,"pm2_5":20.5,"mosquito_risk":0,"arthritis_risk":5,"migraine_risk":4,"frizz_risk":1,"updated_at":"2026-03-31T12:50:29.593028+05:30"},{"city":"Nellore","state":"Andhra Pradesh","latitude":14.4426,"longitude":79.9865,"temp":34.4,"humidity":51,"rain":0.0,"pressure":1006.8,"uv_index":9.2,"wind_gusts":30.2,"aqi":55,"pm10":21.9,"pm2_5":18.4,"mosquito_risk":0,"arthritis_risk":5,"migraine_risk":4,"frizz_risk":1,"updated_at":"2026-03-31T12:50:29.593036+05:30"},{"city":"Kurnool","state":"Andhra Pradesh","latitude":15.8281,"longitude":78.0373,"temp":35.3,"humidity":40,"rain":0.0,"pressure":977.9,"uv_index":9.1,"wind_gusts":31.7,"aqi":84,"pm10":31.2,"pm2_5":25.7,"mosquito_risk":0,"arthritis_risk":5,"migraine_risk":10,"frizz_risk":1,"updated_at":"2026-03-31T12:50:29.593043+05:30"},{"city":"Kakinada","state":"Andhra Pradesh","latitude":16.9891,"longitude":82.2475,"temp":35.2,"humidity":45,"rain":0.0,"pressure":1009.1,"uv_index":9.05,"wind_gusts":31.3,"aqi":48,"pm10":19.0,"pm2_5":14.6,"mosquito_risk":0,"arthritis_risk":0,"migraine_risk":7,"frizz_risk":1,"updated_at":"2026-03-31T12:50:29.593050+05:30"},{"city":"Tirupati","state":"Andhra Pradesh","latitude":13.6288,"longitude":79.4192,"temp":34.4,"humidity":45,"rain":0.0,"pressure":992.5,"uv_index":9.3,"wind_gusts":32.8,"aqi":80,"pm10":22.5,"pm2_5":19.6,"mosquito_risk":0,"arthritis_risk":5,"migraine_risk":7,"frizz_risk":1,"updated_at":"2026-03-31T12:50:29.593056+05:30"},{"city":"Warangal","state":"Telangana","latitude":17.9689,"longitude":79.5941,"temp":33.2,"humidity":51,"rain":0.0,"pressure":980.8,"uv_index":8.9,"wind_gusts":26.3,"aqi":104,"pm10":39.7,"pm2_5":33.4,"mosquito_risk":0,"arthritis_risk":5,"migraine_risk":7,"frizz_risk":1,"updated_at":"2026-03-31T12:50:29.593063+05:30"},{"city":"Nizamabad","state":"Telangana","latitude":18.6725,"longitude":78.0941,"temp":33.9,"humidity":41,"rain":0.0,"pressure":967.0,"uv_index":8.8,"wind_gusts":38.5,"aqi":97,"pm10":55.1,"pm2_5":43.9,"mosquito_risk":0,"arthritis_risk":5,"migraine_risk":7,"frizz_risk":1,"updated_at":"2026-03-31T12:50:29.593069+05:30"},{"city":"Mysore","state":"Karnataka","latitude":12.2958,"longitude":76.6396,"temp":30.8,"humidity":46,"rain":0.0,"pressure":929.5,"uv_index":9.5,"wind_gusts":30.6,"aqi":109,"pm10":35.2,"pm2_5":29.6,"mosquito_risk":0,"arthritis_risk":5,"migraine_risk":7,"frizz_risk":1,"updated_at":"2026-03-31T12:50:29.593076+05:30"},{"city":"Mangalore","state":"Karnataka","latitude":12.9141,"longitude":74.856,"temp":29.5,"humidity":80,"rain":0.0,"pressure":1006.7,"uv_index":8.8,"wind_gusts":27.0,"aqi":95,"pm10":27.0,"pm2_5":20.8,"mosquito_risk":7,"arthritis_risk":5,"migraine_risk":4,"frizz_risk":1,"updated_at":"2026-03-31T12:50:29.593082+05:30"},{"city":"Hubli-Dharwad","state":"Karnataka","latitude":15.3647,"longitude":75.124,"temp":33.9,"humidity":37,"rain":0.0,"pressure":942.2,"uv_index":9.05,"wind_gusts":27.4,"aqi":76,"pm10":40.9,"pm2_5":33.2,"mosquito_risk":0,"arthritis_risk":5,"migraine_risk":7,"frizz_risk":1,"updated_at":"2026-03-31T12:50:29.593089+05:30"},{"city":"Belgaum","state":"Karnataka","latitude":15.8497,"longitude":74.4977,"temp":31.5,"humidity":42,"rain":0.0,"pressure":927.5,"uv_index":9.1,"wind_gusts":36.4,"aqi":78,"pm10":44.2,"pm2_5":34.9,"mosquito_risk":0,"arthritis_risk":5,"migraine_risk":7,"frizz_risk":1,"updated_at":"2026-03-31T12:50:32.949963+05:30"},{"city":"Coimbatore","state":"Tamil Nadu","latitude":11.0168,"longitude":76.9558,"temp":34.0,"humidity":40,"rain":0.0,"pressure":962.3,"uv_index":9.5,"wind_gusts":38.2,"aqi":89,"pm10":14.4,"pm2_5":10.9,"mosquito_risk":0,"arthritis_risk":5,"migraine_risk":7,"frizz_risk":1,"updated_at":"2026-03-31T12:50:32.949997+05:30"},{"city":"Madurai","state":"Tamil Nadu","latitude":9.9252,"longitude":78.1198,"temp":35.3,"humidity":36,"rain":0.0,"pressure":993.2,"uv_index":9.25,"wind_gusts":31.0,"aqi":69,"pm10":15.5,"pm2_5":13.6,"mosquito_risk":0,"arthritis_risk":5,"migraine_risk":10,"frizz_risk":1,"updated_at":"2026-03-31T12:50:32.950010+05:30"},{"city":"Trichy","state":"Tamil Nadu","latitude":10.7905,"longitude":78.7047,"temp":34.5,"humidity":45,"rain":0.0,"pressure":1000.2,"uv_index":9.35,"wind_gusts":24.1,"aqi":61,"pm10":13.4,"pm2_5":11.6,"mosquito_risk":0,"arthritis_risk":5,"migraine_risk":4,"frizz_risk":1,"updated_at":"2026-03-31T12:50:32.950020+05:30"},{"city":"Salem","state":"Tamil Nadu","latitude":11.6643,"longitude":78.146,"temp":35.2,"humidity":41,"rain":0.0,"pressure":977.7,"uv_index":9.45,"wind_gusts":31.0,"aqi":67,"pm10":19.7,"pm2_5":15.6,"mosquito_risk":0,"arthritis_risk":5,"migraine_risk":10,"frizz_risk":1,"updated_at":"2026-03-31T12:50:32.950029+05:30"},{"city":"Tirunelveli","state":"Tamil Nadu","latitude":8.7139,"longitude":77.7567,"temp":36.1,"humidity":37,"rain":0.0,"pressure":1002.7,"uv_index":8.65,"wind_gusts":43.6,"aqi":79,"pm10":20.8,"pm2_5":18.5,"mosquito_risk":0,"arthritis_risk":5,"migraine_risk":7,"frizz_risk":1,"updated_at":"2026-03-31T12:50:32.950038+05:30"},{"city":"Vellore","state":"Tamil Nadu","latitude":12.9165,"longitude":79.1325,"temp":34.5,"humidity":42,"rain":0.0,"pressure":985.4,"uv_index":9.35,"wind_gusts":32.4,"aqi":99,"pm10":27.4,"pm2_5":25.0,"mosquito_risk":0,"arthritis_risk":5,"migraine_risk":7,"frizz_risk":1,"updated_at":"2026-03-31T12:50:32.950046+05:30"},{"city":"Erode","state":"Tamil Nadu","latitude":11.341,"longitude":77.7172,"temp":35.6,"humidity":41,"rain":0.0,"pressure":989.2,"uv_index":9.4,"wind_gusts":29.2,"aqi":57,"pm10":12.2,"pm2_5":10.2,"mosquito_risk":0,"arthritis_risk":5,"migraine_risk":10,"frizz_risk":1,"updated_at":"2026-03-31T12:50:32.950055+05:30"},{"city":"Kochi","state":"Kerala","latitude":9.9312,"longitude":76.2673,"temp":29.3,"humidity":79,"rain":0.0,"pressure":1008.2,"uv_index":9.2,"wind_gusts":27.7,"aqi":111,"pm10":38.2,"pm2_5":33.9,"mosquito_risk":7,"arthritis_risk":0,"migraine_risk":4,"frizz_risk":1,"updated_at":"2026-03-31T12:50:32.950063+05:30"},{"city":"Thiruvananthapuram","state":"Kerala","latitude":8.5241,"longitude":76.9366,"temp":29.1,"humidity":76,"rain":0.0,"pressure":1007.6,"uv_index":9.05,"wind_gusts":24.5,"aqi":82,"pm10":29.7,"pm2_5":25.6,"mosquito_risk":7,"arthritis_risk":5,"migraine_risk":4,"frizz_risk":1,"updated_at":"2026-03-31T12:50:32.950071+05:30"},{"city":"Kozhikode","state":"Kerala","latitude":11.2588,"longitude":75.7804,"temp":30.9,"humidity":72,"rain":0.0,"pressure":1007.5,"uv_index":8.95,"wind_gusts":27.7,"aqi":113,"pm10":45.5,"pm2_5":38.8,"mosquito_risk":3,"arthritis_risk":5,"migraine_risk":4,"frizz_risk":1,"updated_at":"2026-03-31T12:50:32.950079+05:30"},{"city":"Thrissur","state":"Kerala","latitude":10.5276,"longitude":76.2144,"temp":35.1,"humidity":50,"rain":0.0,"pressure":1006.4,"uv_index":8.7,"wind_gusts":37.4,"aqi":133,"pm10":31.8,"pm2_5":27.8,"mosquito_risk":0,"arthritis_risk":5,"migraine_risk":7,"frizz_risk":1,"updated_at":"2026-03-31T12:50:32.950088+05:30"},{"city":"Kannur","state":"Kerala","latitude":11.8745,"longitude":75.3704,"temp":32.2,"humidity":64,"rain":0.0,"pressure":1007.0,"uv_index":8.75,"wind_gusts":30.2,"aqi":116,"pm10":39.9,"pm2_5":33.4,"mosquito_risk":3,"arthritis_risk":5,"migraine_risk":4,"frizz_risk":1,"updated_at":"2026-03-31T12:50:32.950096+05:30"},{"city":"Patna","state":"Bihar","latitude":25.5941,"longitude":85.1376,"temp":31.9,"humidity":59,"rain":0.0,"pressure":1002.1,"uv_index":8.0,"wind_gusts":28.1,"aqi":166,"pm10":102.0,"pm2_5":70.1,"mosquito_risk":0,"arthritis_risk":5,"migraine_risk":4,"frizz_risk":1,"updated_at":"2026-03-31T12:50:32.950103+05:30"},{"city":"Gaya","state":"Bihar","latitude":24.7914,"longitude":85.0002,"temp":35.3,"humidity":37,"rain":0.0,"pressure":995.0,"uv_index":8.2,"wind_gusts":20.9,"aqi":132,"pm10":82.4,"pm2_5":33.9,"mosquito_risk":0,"arthritis_risk":5,"migraine_risk":10,"frizz_risk":1,"updated_at":"2026-03-31T12:50:32.950111+05:30"},{"city":"Muzaffarpur","state":"Bihar","latitude":26.1209,"longitude":85.3647,"temp":31.2,"humidity":59,"rain":0.0,"pressure":1002.4,"uv_index":7.8,"wind_gusts":26.6,"aqi":172,"pm10":109.0,"pm2_5":81.7,"mosquito_risk":0,"arthritis_risk":5,"migraine_risk":4,"frizz_risk":1,"updated_at":"2026-03-31T12:50:32.950119+05:30"},{"city":"Bhagalpur","state":"Bihar","latitude":25.2425,"longitude":87.0117,"temp":30.7,"humidity":62,"rain":0.0,"pressure":1003.3,"uv_index":8.15,"wind_gusts":21.6,"aqi":164,"pm10":92.9,"pm2_5":75.7,"mosquito_risk":3,"arthritis_risk":5,"migraine_risk":4,"frizz_risk":1,"updated_at":"2026-03-31T12:50:32.950127+05:30"},{"city":"Ranchi","state":"Jharkhand","latitude":23.3441,"longitude":85.3096,"temp":32.8,"humidity":37,"rain":0.0,"pressure":940.0,"uv_index":8.45,"wind_gusts":27.0,"aqi":127,"pm10":49.4,"pm2_5":26.9,"mosquito_risk":0,"arthritis_risk":5,"migraine_risk":7,"frizz_risk":1,"updated_at":"2026-03-31T12:50:32.950135+05:30"},{"city":"Jamshedpur","state":"Jharkhand","latitude":22.8046,"longitude":86.2029,"temp":35.4,"humidity":43,"rain":0.0,"pressure":991.9,"uv_index":8.65,"wind_gusts":27.4,"aqi":152,"pm10":72.9,"pm2_5":59.8,"mosquito_risk":0,"arthritis_risk":5,"migraine_risk":10,"frizz_risk":1,"updated_at":"2026-03-31T12:50:32.950143+05:30"},{"city":"Dhanbad","state":"Jharkhand","latitude":23.7957,"longitude":86.4304,"temp":34.6,"humidity":40,"rain":0.0,"pressure":981.1,"uv_index":8.55,"wind_gusts":30.2,"aqi":171,"pm10":82.2,"pm2_5":60.5,"mosquito_risk":0,"arthritis_risk":5,"migraine_risk":7,"frizz_risk":1,"updated_at":"2026-03-31T12:50:32.950181+05:30"},{"city":"Bokaro","state":"Jharkhand","latitude":23.6693,"longitude":86.1511,"temp":34.4,"humidity":43,"rain":0.0,"pressure":985.1,"uv_index":8.55,"wind_gusts":31.7,"aqi":168,"pm10":77.1,"pm2_5":52.0,"mosquito_risk":0,"arthritis_risk":5,"migraine_risk":7,"frizz_risk":1,"updated_at":"2026-03-31T12:50:32.950191+05:30"},{"city":"Bhubaneswar","state":"Odisha","latitude":20.2961,"longitude":85.8245,"temp":34.4,"humidity":52,"rain":0.0,"pressure":1003.8,"uv_index":8.85,"wind_gusts":26.6,"aqi":64,"pm10":41.7,"pm2_5":35.4,"mosquito_risk":0,"arthritis_risk":5,"migraine_risk":4,"frizz_risk":1,"updated_at":"2026-03-31T12:50:32.950199+05:30"},{"city":"Cuttack","state":"Odisha","latitude":20.4625,"longitude":85.8828,"temp":34.1,"humidity":53,"rain":0.0,"pressure":1005.8,"uv_index":8.9,"wind_gusts":30.6,"aqi":64,"pm10":41.7,"pm2_5":35.4,"mosquito_risk":0,"arthritis_risk":5,"migraine_risk":4,"frizz_risk":1,"updated_at":"2026-03-31T12:50:32.950208+05:30"},{"city":"Rourkela","state":"Odisha","latitude":22.2604,"longitude":84.8536,"temp":36.2,"humidity":37,"rain":0.0,"pressure":986.2,"uv_index":8.3,"wind_gusts":47.9,"aqi":113,"pm10":52.6,"pm2_5":36.8,"mosquito_risk":0,"arthritis_risk":5,"migraine_risk":10,"frizz_risk":1,"updated_at":"2026-03-31T12:50:32.950215+05:30"},{"city":"Raipur","state":"Chhattisgarh","latitude":21.2514,"longitude":81.6296,"temp":34.4,"humidity":32,"rain":0.0,"pressure":976.5,"uv_index":7.0,"wind_gusts":33.1,"aqi":112,"pm10":149.9,"pm2_5":44.4,"mosquito_risk":0,"arthritis_risk":5,"migraine_risk":7,"frizz_risk":0,"updated_at":"2026-03-31T12:50:32.950223+05:30"},{"city":"Bhilai","state":"Chhattisgarh","latitude":21.1938,"longitude":81.3509,"temp":34.0,"humidity":35,"rain":0.0,"pressure":976.7,"uv_index":8.35,"wind_gusts":29.2,"aqi":91,"pm10":106.6,"pm2_5":30.4,"mosquito_risk":0,"arthritis_risk":5,"migraine_risk":7,"frizz_risk":1,"updated_at":"2026-03-31T12:50:32.950230+05:30"},{"city":"Guwahati","state":"Assam","latitude":26.1158,"longitude":91.7086,"temp":28.0,"humidity":69,"rain":0.0,"pressure":1004.1,"uv_index":8.0,"wind_gusts":22.7,"aqi":133,"pm10":51.2,"pm2_5":37.4,"mosquito_risk":7,"arthritis_risk":5,"migraine_risk":4,"frizz_risk":1,"updated_at":"2026-03-31T12:50:32.950237+05:30"},{"city":"Agartala","state":"Tripura","latitude":23.8315,"longitude":91.2868,"temp":27.9,"humidity":79,"rain":0.0,"pressure":1008.7,"uv_index":8.3,"wind_gusts":20.2,"aqi":113,"pm10":29.3,"pm2_5":25.7,"mosquito_risk":7,"arthritis_risk":0,"migraine_risk":4,"frizz_risk":1,"updated_at":"2026-03-31T12:50:32.950244+05:30"},{"city":"Shillong","state":"Meghalaya","latitude":25.5788,"longitude":91.8933,"temp":18.3,"humidity":77,"rain":0.0,"pressure":858.7,"uv_index":8.35,"wind_gusts":37.4,"aqi":116,"pm10":39.5,"pm2_5":26.9,"mosquito_risk":3,"arthritis_risk":5,"migraine_risk":7,"frizz_risk":0,"updated_at":"2026-03-31T12:50:32.950250+05:30"},{"city":"Imphal","state":"Manipur","latitude":24.817,"longitude":93.9368,"temp":19.6,"humidity":88,"rain":0.0,"pressure":925.3,"uv_index":8.6,"wind_gusts":55.1,"aqi":74,"pm10":18.3,"pm2_5":13.3,"mosquito_risk":3,"arthritis_risk":10,"migraine_risk":7,"frizz_risk":1,"updated_at":"2026-03-31T12:50:32.950258+05:30"},{"city":"Aizawl","state":"Mizoram","latitude":23.7271,"longitude":92.7176,"temp":23.2,"humidity":74,"rain":0.0,"pressure":895.5,"uv_index":8.55,"wind_gusts":40.7,"aqi":123,"pm10":46.4,"pm2_5":35.6,"mosquito_risk":3,"arthritis_risk":5,"migraine_risk":7,"frizz_risk":1,"updated_at":"2026-03-31T12:50:32.950264+05:30"},{"city":"Kohima","state":"Nagaland","latitude":25.6701,"longitude":94.1077,"temp":19.1,"humidity":78,"rain":0.0,"pressure":857.6,"uv_index":8.45,"wind_gusts":66.6,"aqi":76,"pm10":28.8,"pm2_5":18.3,"mosquito_risk":3,"arthritis_risk":5,"migraine_risk":7,"frizz_risk":0,"updated_at":"2026-03-31T12:50:32.950271+05:30"},{"city":"Gangtok","state":"Sikkim","latitude":27.3314,"longitude":88.6138,"temp":19.2,"humidity":74,"rain":0.0,"pressure":840.1,"uv_index":8.15,"wind_gusts":16.6,"aqi":134,"pm10":26.1,"pm2_5":19.9,"mosquito_risk":3,"arthritis_risk":5,"migraine_risk":7,"frizz_risk":0,"updated_at":"2026-03-31T12:50:32.950277+05:30"},{"city":"Siliguri","state":"West Bengal","latitude":26.7271,"longitude":88.3953,"temp":23.2,"humidity":72,"rain":0.0,"pressure":996.9,"uv_index":7.5,"wind_gusts":20.5,"aqi":164,"pm10":61.9,"pm2_5":46.1,"mosquito_risk":3,"arthritis_risk":5,"migraine_risk":7,"frizz_risk":1,"updated_at":"2026-03-31T12:50:36.307241+05:30"},{"city":"Durgapur","state":"West Bengal","latitude":23.5204,"longitude":87.3119,"temp":33.9,"humidity":52,"rain":0.0,"pressure":996.4,"uv_index":8.5,"wind_gusts":20.9,"aqi":160,"pm10":94.5,"pm2_5":84.8,"mosquito_risk":0,"arthritis_risk":5,"migraine_risk":7,"frizz_risk":1,"updated_at":"2026-03-31T12:50:36.307276+05:30"},{"city":"Asansol","state":"West Bengal","latitude":23.6739,"longitude":86.9524,"temp":33.9,"humidity":51,"rain":0.0,"pressure":994.8,"uv_index":8.5,"wind_gusts":26.6,"aqi":160,"pm10":90.1,"pm2_5":73.6,"mosquito_risk":0,"arthritis_risk":5,"migraine_risk":7,"frizz_risk":1,"updated_at":"2026-03-31T12:50:36.307288+05:30"},{"city":"Pondicherry","state":"Puducherry","latitude":11.9139,"longitude":79.8145,"temp":33.5,"humidity":55,"rain":0.0,"pressure":1009.0,"uv_index":9.25,"wind_gusts":26.3,"aqi":44,"pm10":14.9,"pm2_5":10.7,"mosquito_risk":0,"arthritis_risk":0,"migraine_risk":4,"frizz_risk":1,"updated_at":"2026-03-31T12:50:36.307298+05:30"},{"city":"Port Blair","state":"Andaman and Nicobar Islands","latitude":11.6234,"longitude":92.7265,"temp":28.9,"humidity":75,"rain":0.0,"pressure":1007.6,"uv_index":9.15,"wind_gusts":12.6,"aqi":52,"pm10":17.1,"pm2_5":14.6,"mosquito_risk":7,"arthritis_risk":5,"migraine_risk":4,"frizz_risk":1,"updated_at":"2026-03-31T12:50:36.307307+05:30"},{"city":"Haridwar","state":"Uttarakhand","latitude":29.9457,"longitude":78.1642,"temp":32.5,"humidity":33,"rain":0.0,"pressure":976.8,"uv_index":6.0,"wind_gusts":30.6,"aqi":100,"pm10":59.1,"pm2_5":19.0,"mosquito_risk":0,"arthritis_risk":5,"migraine_risk":3,"frizz_risk":0,"updated_at":"2026-03-31T12:50:36.307316+05:30"},{"city":"Rishikesh","state":"Uttarakhand","latitude":30.0869,"longitude":78.2676,"temp":32.1,"humidity":30,"rain":0.0,"pressure":969.5,"uv_index":6.1,"wind_gusts":28.4,"aqi":72,"pm10":38.2,"pm2_5":12.1,"mosquito_risk":0,"arthritis_risk":5,"migraine_risk":7,"frizz_risk":0,"updated_at":"2026-03-31T12:50:36.307325+05:30"},{"city":"Nainital","state":"Uttarakhand","latitude":29.3919,"longitude":79.4542,"temp":26.1,"humidity":37,"rain":0.0,"pressure":811.1,"uv_index":7.4,"wind_gusts":43.6,"aqi":78,"pm10":30.9,"pm2_5":11.3,"mosquito_risk":4,"arthritis_risk":5,"migraine_risk":7,"frizz_risk":0,"updated_at":"2026-03-31T12:50:36.307333+05:30"},{"city":"Mussoorie","state":"Uttarakhand","latitude":30.4599,"longitude":78.0664,"temp":23.0,"humidity":38,"rain":0.0,"pressure":807.2,"uv_index":6.4,"wind_gusts":34.6,"aqi":71,"pm10":33.1,"pm2_5":11.3,"mosquito_risk":0,"arthritis_risk":5,"migraine_risk":7,"frizz_risk":0,"updated_at":"2026-03-31T12:50:36.307341+05:30"},{"city":"Dharamshala","state":"Himachal Pradesh","latitude":32.219,"longitude":76.3234,"temp":24.7,"humidity":47,"rain":0.0,"pressure":872.4,"uv_index":6.65,"wind_gusts":22.7,"aqi":41,"pm10":12.4,"pm2_5":4.0,"mosquito_risk":0,"arthritis_risk":5,"migraine_risk":7,"frizz_risk":0,"updated_at":"2026-03-31T12:50:36.307349+05:30"},{"city":"Dalhousie","state":"Himachal Pradesh","latitude":32.5387,"longitude":75.971,"temp":22.6,"humidity":39,"rain":0.0,"pressure":807.6,"uv_index":6.95,"wind_gusts":27.4,"aqi":70,"pm10":54.7,"pm2_5":14.0,"mosquito_risk":0,"arthritis_risk":5,"migraine_risk":7,"frizz_risk":0,"updated_at":"2026-03-31T12:50:36.307358+05:30"},{"city":"Patiala","state":"Punjab","latitude":30.3398,"longitude":76.3869,"temp":31.2,"humidity":35,"rain":0.0,"pressure":980.9,"uv_index":5.3,"wind_gusts":24.1,"aqi":454,"pm10":258.9,"pm2_5":49.6,"mosquito_risk":0,"arthritis_risk":5,"migraine_risk":3,"frizz_risk":0,"updated_at":"2026-03-31T12:50:36.307366+05:30"},{"city":"Bhatinda","state":"Punjab","latitude":30.211,"longitude":74.9455,"temp":29.9,"humidity":43,"rain":0.0,"pressure":986.5,"uv_index":6.15,"wind_gusts":34.9,"aqi":117,"pm10":109.2,"pm2_5":29.7,"mosquito_risk":4,"arthritis_risk":5,"migraine_risk":7,"frizz_risk":0,"updated_at":"2026-03-31T12:50:36.307374+05:30"},{"city":"Rohtak","state":"Haryana","latitude":28.8955,"longitude":76.6066,"temp":28.1,"humidity":53,"rain":0.0,"pressure":985.1,"uv_index":6.2,"wind_gusts":28.1,"aqi":162,"pm10":112.7,"pm2_5":23.5,"mosquito_risk":4,"arthritis_risk":5,"migraine_risk":7,"frizz_risk":1,"updated_at":"2026-03-31T12:50:36.307382+05:30"},{"city":"Panipat","state":"Haryana","latitude":29.3909,"longitude":76.9635,"temp":30.4,"humidity":40,"rain":0.0,"pressure":983.5,"uv_index":5.25,"wind_gusts":24.1,"aqi":286,"pm10":215.1,"pm2_5":31.1,"mosquito_risk":0,"arthritis_risk":5,"migraine_risk":3,"frizz_risk":0,"updated_at":"2026-03-31T12:50:36.307390+05:30"},{"city":"Mathura","state":"Uttar Pradesh","latitude":27.4924,"longitude":77.6737,"temp":32.2,"humidity":38,"rain":0.0,"pressure":990.4,"uv_index":6.9,"wind_gusts":30.6,"aqi":292,"pm10":210.9,"pm2_5":31.8,"mosquito_risk":0,"arthritis_risk":5,"migraine_risk":7,"frizz_risk":1,"updated_at":"2026-03-31T12:50:36.307397+05:30"},{"city":"Vrindavan","state":"Uttar Pradesh","latitude":27.5823,"longitude":77.7027,"temp":32.8,"humidity":36,"rain":0.0,"pressure":990.5,"uv_index":6.8,"wind_gusts":35.6,"aqi":292,"pm10":210.9,"pm2_5":31.8,"mosquito_risk":0,"arthritis_risk":5,"migraine_risk":7,"frizz_risk":0,"updated_at":"2026-03-31T12:50:36.307405+05:30"},{"city":"Ayodhya","state":"Uttar Pradesh","latitude":26.7922,"longitude":82.1998,"temp":35.3,"humidity":35,"rain":0.0,"pressure":996.9,"uv_index":7.15,"wind_gusts":30.6,"aqi":127,"pm10":86.6,"pm2_5":32.4,"mosquito_risk":0,"arthritis_risk":5,"migraine_risk":10,"frizz_risk":1,"updated_at":"2026-03-31T12:50:36.307413+05:30"},{"city":"Ratlam","state":"Madhya Pradesh","latitude":23.3315,"longitude":75.0367,"temp":34.2,"humidity":35,"rain":0.0,"pressure":956.8,"uv_index":8.1,"wind_gusts":29.2,"aqi":46,"pm10":17.9,"pm2_5":9.8,"mosquito_risk":0,"arthritis_risk":5,"migraine_risk":7,"frizz_risk":1,"updated_at":"2026-03-31T12:50:36.307420+05:30"},{"city":"Sagar","state":"Madhya Pradesh","latitude":23.8388,"longitude":78.7378,"temp":35.9,"humidity":24,"rain":0.0,"pressure":952.8,"uv_index":8.2,"wind_gusts":23.8,"aqi":54,"pm10":65.2,"pm2_5":16.3,"mosquito_risk":0,"arthritis_risk":5,"migraine_risk":10,"frizz_risk":0,"updated_at":"2026-03-31T12:50:36.307428+05:30"},{"city":"Satna","state":"Madhya Pradesh","latitude":24.6005,"longitude":80.8322,"temp":36.4,"humidity":24,"rain":0.0,"pressure":973.8,"uv_index":8.2,"wind_gusts":23.8,"aqi":134,"pm10":162.1,"pm2_5":34.8,"mosquito_risk":0,"arthritis_risk":5,"migraine_risk":10,"frizz_risk":0,"updated_at":"2026-03-31T12:50:36.307436+05:30"},{"city":"Akola","state":"Maharashtra","latitude":20.7002,"longitude":77.0082,"temp":36.5,"humidity":31,"rain":0.0,"pressure":977.3,"uv_index":8.55,"wind_gusts":18.0,"aqi":70,"pm10":28.8,"pm2_5":21.3,"mosquito_risk":0,"arthritis_risk":5,"migraine_risk":10,"frizz_risk":1,"updated_at":"2026-03-31T12:50:36.307445+05:30"},{"city":"Amravati","state":"Maharashtra","latitude":20.9374,"longitude":77.7796,"temp":36.0,"humidity":33,"rain":0.0,"pressure":969.7,"uv_index":8.55,"wind_gusts":17.3,"aqi":66,"pm10":27.1,"pm2_5":19.8,"mosquito_risk":0,"arthritis_risk":5,"migraine_risk":10,"frizz_risk":1,"updated_at":"2026-03-31T12:50:36.307453+05:30"},{"city":"Latur","state":"Maharashtra","latitude":18.4088,"longitude":76.5604,"temp":32.7,"humidity":39,"rain":0.0,"pressure":942.2,"uv_index":8.85,"wind_gusts":29.2,"aqi":87,"pm10":47.6,"pm2_5":36.3,"mosquito_risk":0,"arthritis_risk":5,"migraine_risk":7,"frizz_risk":1,"updated_at":"2026-03-31T12:50:36.307461+05:30"},{"city":"Nanded","state":"Maharashtra","latitude":19.1383,"longitude":77.3091,"temp":35.2,"humidity":37,"rain":0.0,"pressure":970.9,"uv_index":8.7,"wind_gusts":26.3,"aqi":79,"pm10":50.1,"pm2_5":38.6,"mosquito_risk":0,"arthritis_risk":5,"migraine_risk":10,"frizz_risk":1,"updated_at":"2026-03-31T12:50:36.307469+05:30"},{"city":"Gulbarga","state":"Karnataka","latitude":17.3297,"longitude":76.8343,"temp":34.6,"humidity":37,"rain":0.0,"pressure":960.5,"uv_index":8.95,"wind_gusts":40.7,"aqi":113,"pm10":49.9,"pm2_5":40.4,"mosquito_risk":0,"arthritis_risk":5,"migraine_risk":7,"frizz_risk":1,"updated_at":"2026-03-31T12:50:36.307476+05:30"},{"city":"Bidar","state":"Karnataka","latitude":17.9104,"longitude":77.5199,"temp":33.1,"humidity":40,"rain":0.0,"pressure":937.7,"uv_index":8.95,"wind_gusts":40.3,"aqi":110,"pm10":49.2,"pm2_5":39.5,"mosquito_risk":0,"arthritis_risk":5,"migraine_risk":7,"frizz_risk":1,"updated_at":"2026-03-31T12:50:36.307484+05:30"},{"city":"Hospet","state":"Karnataka","latitude":15.2689,"longitude":76.3909,"temp":32.7,"humidity":49,"rain":0.0,"pressure":956.8,"uv_index":8.8,"wind_gusts":21.6,"aqi":94,"pm10":50.3,"pm2_5":43.9,"mosquito_risk":0,"arthritis_risk":5,"migraine_risk":7,"frizz_risk":1,"updated_at":"2026-03-31T12:50:36.307491+05:30"},{"city":"Tirupur","state":"Tamil Nadu","latitude":11.1085,"longitude":77.3411,"temp":34.5,"humidity":42,"rain":0.0,"pressure":975.8,"uv_index":9.5,"wind_gusts":28.1,"aqi":73,"pm10":13.3,"pm2_5":11.1,"mosquito_risk":0,"arthritis_risk":5,"migraine_risk":7,"frizz_risk":1,"updated_at":"2026-03-31T12:50:36.307498+05:30"},{"city":"Alappuzha","state":"Kerala","latitude":9.4981,"longitude":76.3388,"temp":28.9,"humidity":81,"rain":0.0,"pressure":1008.4,"uv_index":9.2,"wind_gusts":25.9,"aqi":109,"pm10":44.1,"pm2_5":39.9,"mosquito_risk":7,"arthritis_risk":0,"migraine_risk":4,"frizz_risk":1,"updated_at":"2026-03-31T12:50:36.307506+05:30"},{"city":"Munnar","state":"Kerala","latitude":10.0889,"longitude":77.0595,"temp":30.6,"humidity":39,"rain":0.0,"pressure":859.5,"uv_index":9.75,"wind_gusts":28.4,"aqi":79,"pm10":14.1,"pm2_5":11.2,"mosquito_risk":0,"arthritis_risk":5,"migraine_risk":7,"frizz_risk":0,"updated_at":"2026-03-31T12:50:36.307514+05:30"},{"city":"Silchar","state":"Assam","latitude":24.8333,"longitude":92.7789,"temp":24.4,"humidity":87,"rain":0.0,"pressure":1008.4,"uv_index":8.35,"wind_gusts":23.4,"aqi":94,"pm10":27.2,"pm2_5":22.1,"mosquito_risk":3,"arthritis_risk":0,"migraine_risk":4,"frizz_risk":1,"updated_at":"2026-03-31T12:50:36.307522+05:30"},{"city":"Dibrugarh","state":"Assam","latitude":27.4728,"longitude":94.912,"temp":26.7,"humidity":66,"rain":0.0,"pressure":997.7,"uv_index":8.15,"wind_gusts":13.7,"aqi":95,"pm10":35.5,"pm2_5":24.0,"mosquito_risk":7,"arthritis_risk":5,"migraine_risk":7,"frizz_risk":1,"updated_at":"2026-03-31T12:50:36.307530+05:30"}]