[{"city":"Delhi","state":"Delhi","latitude":28.6139,"longitude":77.209,"temp":28.2,"humidity":59,"rain":0.0,"pressure":977.9,"uv_index":7.65,"wind_gusts":33.8,"aqi":244,"pm10":212.8,"pm2_5":70.1,"no2":26.6,"co":714.0,"o3":89.0,"so2":22.0,"mosquito_risk":4,"arthritis_risk":5,"migraine_risk":7,"frizz_risk":1,"updated_at":"2026-05-13T02:15:20.473843+05:30"},{"city":"Mumbai","state":"Maharashtra","latitude":19.076,"longitude":72.8777,"temp":29.5,"humidity":82,"rain":0.0,"pressure":1003.6,"uv_index":7.9,"wind_gusts":41.0,"aqi":86,"pm10":41.6,"pm2_5":21.2,"no2":13.5,"co":317.0,"o3":69.0,"so2":17.7,"mosquito_risk":7,"arthritis_risk":5,"migraine_risk":4,"frizz_risk":1,"updated_at":"2026-05-13T02:15:20.473891+05:30"},{"city":"Bangalore","state":"Karnataka","latitude":12.9716,"longitude":77.5946,"temp":24.6,"humidity":63,"rain":0.0,"pressure":908.6,"uv_index":9.45,"wind_gusts":38.9,"aqi":73,"pm10":28.8,"pm2_5":21.2,"no2":23.3,"co":330.0,"o3":61.0,"so2":8.5,"mosquito_risk":3,"arthritis_risk":5,"migraine_risk":7,"frizz_risk":1,"updated_at":"2026-05-13T02:15:20.473912+05:30"},{"city":"Hyderabad","state":"Telangana","latitude":17.385,"longitude":78.4867,"temp":27.8,"humidity":64,"rain":0.0,"pressure":950.2,"uv_index":9.3,"wind_gusts":31.7,"aqi":65,"pm10":19.1,"pm2_5":15.6,"no2":9.1,"co":254.0,"o3":71.0,"so2":5.3,"mosquito_risk":7,"arthritis_risk":5,"migraine_risk":7,"frizz_risk":1,"updated_at":"2026-05-13T02:15:20.473923+05:30"},{"city":"Chennai","state":"Tamil Nadu","latitude":13.0827,"longitude":80.2707,"temp":28.8,"humidity":77,"rain":0.0,"pressure":1002.9,"uv_index":6.65,"wind_gusts":44.3,"aqi":27,"pm10":9.1,"pm2_5":7.3,"no2":9.6,"co":157.0,"o3":38.0,"so2":2.1,"mosquito_risk":7,"arthritis_risk":5,"migraine_risk":4,"frizz_risk":1,"updated_at":"2026-05-13T02:15:20.473932+05:30"},{"city":"Kolkata","state":"West Bengal","latitude":22.5726,"longitude":88.3639,"temp":26.8,"humidity":85,"rain":0.0,"pressure":1003.5,"uv_index":8.95,"wind_gusts":30.2,"aqi":80,"pm10":22.4,"pm2_5":19.2,"no2":10.4,"co":224.0,"o3":39.0,"so2":4.7,"mosquito_risk":7,"arthritis_risk":5,"migraine_risk":4,"frizz_risk":1,"updated_at":"2026-05-13T02:15:20.473942+05:30"},{"city":"Pune","state":"Maharashtra","latitude":18.5204,"longitude":73.8567,"temp":28.0,"humidity":54,"rain":0.0,"pressure":944.0,"uv_index":8.15,"wind_gusts":45.4,"aqi":90,"pm10":30.9,"pm2_5":18.9,"no2":15.7,"co":246.0,"o3":82.0,"so2":20.0,"mosquito_risk":4,"arthritis_risk":5,"migraine_risk":7,"frizz_risk":1,"updated_at":"2026-05-13T02:15:20.473950+05:30"},{"city":"Ahmedabad","state":"Gujarat","latitude":23.0225,"longitude":72.5714,"temp":33.8,"humidity":26,"rain":0.0,"pressure":996.1,"uv_index":8.2,"wind_gusts":38.9,"aqi":67,"pm10":34.3,"pm2_5":19.0,"no2":17.3,"co":195.0,"o3":62.0,"so2":11.9,"mosquito_risk":0,"arthritis_risk":5,"migraine_risk":7,"frizz_risk":0,"updated_at":"2026-05-13T02:15:20.473961+05:30"},{"city":"Jaipur","state":"Rajasthan","latitude":26.9124,"longitude":75.7873,"temp":31.0,"humidity":29,"rain":0.0,"pressure":954.7,"uv_index":8.2,"wind_gusts":38.5,"aqi":161,"pm10":271.9,"pm2_5":67.3,"no2":7.7,"co":408.0,"o3":108.0,"so2":9.1,"mosquito_risk":0,"arthritis_risk":5,"migraine_risk":7,"frizz_risk":0,"updated_at":"2026-05-13T02:15:20.473969+05:30"},{"city":"Lucknow","state":"Uttar Pradesh","latitude":26.8467,"longitude":80.9462,"temp":28.6,"humidity":58,"rain":0.0,"pressure":989.3,"uv_index":8.15,"wind_gusts":56.2,"aqi":119,"pm10":56.2,"pm2_5":45.1,"no2":10.4,"co":441.0,"o3":113.0,"so2":10.5,"mosquito_risk":4,"arthritis_risk":5,"migraine_risk":7,"frizz_risk":1,"updated_at":"2026-05-13T02:15:20.473978+05:30"},{"city":"Kanpur","state":"Uttar Pradesh","latitude":26.4499,"longitude":80.3319,"temp":30.0,"humidity":53,"rain":0.0,"pressure":987.1,"uv_index":8.15,"wind_gusts":39.6,"aqi":138,"pm10":285.9,"pm2_5":62.9,"no2":7.6,"co":446.0,"o3":118.0,"so2":9.7,"mosquito_risk":4,"arthritis_risk":5,"migraine_risk":7,"frizz_risk":1,"updated_at":"2026-05-13T02:15:20.473985+05:30"},{"city":"Chandigarh","state":"Chandigarh","latitude":30.7333,"longitude":76.7794,"temp":23.4,"humidity":70,"rain":0.0,"pressure":964.0,"uv_index":7.7,"wind_gusts":34.6,"aqi":127,"pm10":58.9,"pm2_5":44.2,"no2":38.5,"co":1019.0,"o3":24.0,"so2":8.8,"mosquito_risk":3,"arthritis_risk":5,"migraine_risk":7,"frizz_risk":1,"updated_at":"2026-05-13T02:15:20.473994+05:30"},{"city":"Srinagar","state":"Jammu and Kashmir","latitude":34.0837,"longitude":74.7973,"temp":10.4,"humidity":99,"rain":0.0,"pressure":840.9,"uv_index":8.75,"wind_gusts":31.7,"aqi":87,"pm10":40.9,"pm2_5":30.4,"no2":15.1,"co":473.0,"o3":58.0,"so2":1.3,"mosquito_risk":3,"arthritis_risk":10,"migraine_risk":7,"frizz_risk":0,"updated_at":"2026-05-13T02:15:20.474004+05:30"},{"city":"Jammu","state":"Jammu and Kashmir","latitude":32.7266,"longitude":74.857,"temp":21.7,"humidity":62,"rain":0.0,"pressure":967.8,"uv_index":8.45,"wind_gusts":28.1,"aqi":117,"pm10":47.7,"pm2_5":39.6,"no2":21.8,"co":384.0,"o3":42.0,"so2":2.5,"mosquito_risk":3,"arthritis_risk":5,"migraine_risk":7,"frizz_risk":0,"updated_at":"2026-05-13T02:15:20.474012+05:30"},{"city":"Amritsar","state":"Punjab","latitude":31.634,"longitude":74.8723,"temp":25.6,"humidity":56,"rain":0.0,"pressure":976.1,"uv_index":8.4,"wind_gusts":47.5,"aqi":152,"pm10":102.2,"pm2_5":64.5,"no2":13.5,"co":642.0,"o3":81.0,"so2":8.0,"mosquito_risk":4,"arthritis_risk":5,"migraine_risk":7,"frizz_risk":1,"updated_at":"2026-05-13T02:15:20.474019+05:30"},{"city":"Ludhiana","state":"Punjab","latitude":30.901,"longitude":75.8573,"temp":26.6,"humidity":65,"rain":0.0,"pressure":974.0,"uv_index":7.95,"wind_gusts":65.5,"aqi":158,"pm10":129.5,"pm2_5":101.3,"no2":31.3,"co":749.0,"o3":58.0,"so2":24.7,"mosquito_risk":7,"arthritis_risk":5,"migraine_risk":7,"frizz_risk":1,"updated_at":"2026-05-13T02:15:20.474027+05:30"},{"city":"Jalandhar","state":"Punjab","latitude":31.326,"longitude":75.5762,"temp":25.6,"humidity":59,"rain":0.0,"pressure":974.8,"uv_index":8.1,"wind_gusts":48.6,"aqi":153,"pm10":103.8,"pm2_5":68.9,"no2":20.8,"co":741.0,"o3":63.0,"so2":11.3,"mosquito_risk":4,"arthritis_risk":5,"migraine_risk":7,"frizz_risk":1,"updated_at":"2026-05-13T02:15:20.474036+05:30"},{"city":"Dehradun","state":"Uttarakhand","latitude":30.6284,"longitude":78.0322,"temp":13.0,"humidity":94,"rain":0.0,"pressure":825.6,"uv_index":8.15,"wind_gusts":32.0,"aqi":70,"pm10":42.6,"pm2_5":22.9,"no2":28.6,"co":330.0,"o3":30.0,"so2":0.5,"mosquito_risk":3,"arthritis_risk":10,"migraine_risk":7,"frizz_risk":0,"updated_at":"2026-05-13T02:15:20.474046+05:30"},{"city":"Shimla","state":"Himachal Pradesh","latitude":31.1048,"longitude":77.1734,"temp":11.2,"humidity":49,"rain":0.0,"pressure":779.5,"uv_index":8.2,"wind_gusts":40.0,"aqi":90,"pm10":50.6,"pm2_5":28.9,"no2":30.7,"co":372.0,"o3":37.0,"so2":3.1,"mosquito_risk":0,"arthritis_risk":5,"migraine_risk":7,"frizz_risk":0,"updated_at":"2026-05-13T02:15:20.474054+05:30"},{"city":"Manali","state":"Himachal Pradesh","latitude":32.2396,"longitude":77.1887,"temp":8.8,"humidity":48,"rain":0.0,"pressure":812.1,"uv_index":9.3,"wind_gusts":42.1,"aqi":48,"pm10":2.7,"pm2_5":1.9,"no2":22.4,"co":209.0,"o3":95.0,"so2":0.0,"mosquito_risk":0,"arthritis_risk":5,"migraine_risk":7,"frizz_risk":1,"updated_at":"2026-05-13T02:15:20.474060+05:30"},{"city":"Gurgaon","state":"Haryana","latitude":28.4595,"longitude":77.0266,"temp":27.0,"humidity":65,"rain":0.0,"pressure":976.0,"uv_index":7.75,"wind_gusts":31.0,"aqi":928,"pm10":802.8,"pm2_5":121.5,"no2":23.1,"co":746.0,"o3":93.0,"so2":21.4,"mosquito_risk":7,"arthritis_risk":5,"migraine_risk":7,"frizz_risk":1,"updated_at":"2026-05-13T02:15:20.474068+05:30"},{"city":"Noida","state":"Uttar Pradesh","latitude":28.5355,"longitude":77.391,"temp":26.0,"humidity":71,"rain":0.0,"pressure":979.3,"uv_index":7.7,"wind_gusts":29.2,"aqi":928,"pm10":802.8,"pm2_5":121.5,"no2":23.1,"co":713.0,"o3":93.0,"so2":21.4,"mosquito_risk":7,"arthritis_risk":5,"migraine_risk":7,"frizz_risk":1,"updated_at":"2026-05-13T02:15:20.474074+05:30"},{"city":"Ghaziabad","state":"Uttar Pradesh","latitude":28.6692,"longitude":77.4538,"temp":26.2,"humidity":69,"rain":0.0,"pressure":977.5,"uv_index":7.65,"wind_gusts":28.1,"aqi":154,"pm10":170.4,"pm2_5":62.4,"no2":12.8,"co":519.0,"o3":95.0,"so2":13.0,"mosquito_risk":7,"arthritis_risk":5,"migraine_risk":7,"frizz_risk":1,"updated_at":"2026-05-13T02:15:20.474081+05:30"},{"city":"Faridabad","state":"Haryana","latitude":28.4089,"longitude":77.3178,"temp":27.1,"humidity":64,"rain":0.0,"pressure":978.6,"uv_index":7.75,"wind_gusts":31.7,"aqi":928,"pm10":802.8,"pm2_5":121.5,"no2":23.1,"co":787.0,"o3":93.0,"so2":21.4,"mosquito_risk":7,"arthritis_risk":5,"migraine_risk":7,"frizz_risk":1,"updated_at":"2026-05-13T02:15:20.474088+05:30"},{"city":"Meerut","state":"Uttar Pradesh","latitude":28.9845,"longitude":77.7064,"temp":26.5,"humidity":68,"rain":0.0,"pressure":976.6,"uv_index":7.6,"wind_gusts":36.4,"aqi":154,"pm10":170.4,"pm2_5":62.4,"no2":12.8,"co":494.0,"o3":95.0,"so2":13.0,"mosquito_risk":7,"arthritis_risk":5,"migraine_risk":7,"frizz_risk":1,"updated_at":"2026-05-13T02:15:20.474095+05:30"},{"city":"Agra","state":"Uttar Pradesh","latitude":27.1767,"longitude":78.0081,"temp":28.8,"humidity":52,"rain":0.0,"pressure":982.3,"uv_index":8.0,"wind_gusts":54.4,"aqi":614,"pm10":1151.1,"pm2_5":147.1,"no2":9.3,"co":444.0,"o3":102.0,"so2":16.0,"mosquito_risk":4,"arthritis_risk":5,"migraine_risk":7,"frizz_risk":1,"updated_at":"2026-05-13T02:15:20.474103+05:30"},{"city":"Varanasi","state":"Uttar Pradesh","latitude":25.3176,"longitude":82.9739,"temp":29.0,"humidity":67,"rain":0.0,"pressure":993.5,"uv_index":8.7,"wind_gusts":30.6,"aqi":135,"pm10":65.4,"pm2_5":58.2,"no2":9.1,"co":417.0,"o3":136.0,"so2":17.0,"mosquito_risk":7,"arthritis_risk":5,"migraine_risk":7,"frizz_risk":1,"updated_at":"2026-05-13T02:15:20.474110+05:30"},{"city":"Prayagraj","state":"Uttar Pradesh","latitude":25.4358,"longitude":81.8463,"temp":29.6,"humidity":56,"rain":0.0,"pressure":991.4,"uv_index":8.55,"wind_gusts":27.4,"aqi":131,"pm10":58.3,"pm2_5":53.8,"no2":11.4,"co":483.0,"o3":120.0,"so2":16.8,"mosquito_risk":4,"arthritis_risk":5,"migraine_risk":7,"frizz_risk":1,"updated_at":"2026-05-13T02:15:20.474120+05:30"},{"city":"Gorakhpur","state":"Uttar Pradesh","latitude":26.7606,"longitude":83.3732,"temp":26.0,"humidity":78,"rain":0.0,"pressure":994.4,"uv_index":8.55,"wind_gusts":32.8,"aqi":121,"pm10":48.2,"pm2_5":45.3,"no2":10.0,"co":451.0,"o3":116.0,"so2":9.7,"mosquito_risk":7,"arthritis_risk":5,"migraine_risk":7,"frizz_risk":1,"updated_at":"2026-05-13T02:15:20.474127+05:30"},{"city":"Bareilly","state":"Uttar Pradesh","latitude":28.367,"longitude":79.4304,"temp":26.5,"humidity":70,"rain":0.0,"pressure":982.6,"uv_index":7.95,"wind_gusts":29.9,"aqi":124,"pm10":63.1,"pm2_5":48.7,"no2":11.1,"co":456.0,"o3":95.0,"so2":7.1,"mosquito_risk":7,"arthritis_risk":5,"migraine_risk":7,"frizz_risk":1,"updated_at":"2026-05-13T02:15:20.474136+05:30"},{"city":"Aligarh","state":"Uttar Pradesh","latitude":27.8974,"longitude":78.088,"temp":27.3,"humidity":62,"rain":0.0,"pressure":980.3,"uv_index":7.85,"wind_gusts":44.6,"aqi":383,"pm10":538.3,"pm2_5":92.4,"no2":9.5,"co":540.0,"o3":105.0,"so2":17.4,"mosquito_risk":7,"arthritis_risk":5,"migraine_risk":7,"frizz_risk":1,"updated_at":"2026-05-13T02:15:20.474143+05:30"},{"city":"Moradabad","state":"Uttar Pradesh","latitude":28.8386,"longitude":78.7733,"temp":26.0,"humidity":71,"rain":0.0,"pressure":979.3,"uv_index":7.8,"wind_gusts":33.1,"aqi":128,"pm10":76.8,"pm2_5":53.0,"no2":14.0,"co":546.0,"o3":94.0,"so2":8.5,"mosquito_risk":7,"arthritis_risk":5,"migraine_risk":7,"frizz_risk":1,"updated_at":"2026-05-13T02:15:20.474151+05:30"},{"city":"Saharanpur","state":"Uttar Pradesh","latitude":29.9637,"longitude":77.546,"temp":25.5,"humidity":77,"rain":0.0,"pressure":971.4,"uv_index":7.4,"wind_gusts":35.6,"aqi":154,"pm10":148.5,"pm2_5":92.0,"no2":40.2,"co":636.0,"o3":43.0,"so2":15.3,"mosquito_risk":7,"arthritis_risk":5,"migraine_risk":7,"frizz_risk":1,"updated_at":"2026-05-13T02:15:20.474157+05:30"},{"city":"Jhansi","state":"Uttar Pradesh","latitude":25.4484,"longitude":78.5685,"temp":28.8,"humidity":50,"rain":0.0,"pressure":972.0,"uv_index":8.45,"wind_gusts":47.9,"aqi":93,"pm10":83.1,"pm2_5":36.1,"no2":9.6,"co":375.0,"o3":63.0,"so2":8.4,"mosquito_risk":4,"arthritis_risk":5,"migraine_risk":7,"frizz_risk":1,"updated_at":"2026-05-13T02:15:23.724503+05:30"},{"city":"Surat","state":"Gujarat","latitude":21.1702,"longitude":72.8311,"temp":30.8,"humidity":75,"rain":0.0,"pressure":1000.2,"uv_index":6.2,"wind_gusts":41.8,"aqi":97,"pm10":26.8,"pm2_5":18.6,"no2":23.6,"co":284.0,"o3":48.0,"so2":37.3,"mosquito_risk":3,"arthritis_risk":5,"migraine_risk":4,"frizz_risk":1,"updated_at":"2026-05-13T02:15:23.724559+05:30"},{"city":"Vadodara","state":"Gujarat","latitude":22.3072,"longitude":73.1812,"temp":32.6,"humidity":45,"rain":0.0,"pressure":997.6,"uv_index":5.9,"wind_gusts":36.7,"aqi":75,"pm10":26.4,"pm2_5":18.5,"no2":13.6,"co":244.0,"o3":64.0,"so2":14.4,"mosquito_risk":0,"arthritis_risk":5,"migraine_risk":3,"frizz_risk":1,"updated_at":"2026-05-13T02:15:23.724572+05:30"},{"city":"Rajkot","state":"Gujarat","latitude":22.3039,"longitude":70.8022,"temp":28.2,"humidity":72,"rain":0.0,"pressure":989.2,"uv_index":7.75,"wind_gusts":53.3,"aqi":53,"pm10":23.3,"pm2_5":11.8,"no2":5.4,"co":170.0,"o3":64.0,"so2":7.2,"mosquito_risk":7,"arthritis_risk":5,"migraine_risk":7,"frizz_risk":1,"updated_at":"2026-05-13T02:15:23.724582+05:30"},{"city":"Thane","state":"Maharashtra","latitude":19.2183,"longitude":72.9781,"temp":29.5,"humidity":79,"rain":0.0,"pressure":1003.0,"uv_index":7.9,"wind_gusts":35.6,"aqi":86,"pm10":41.6,"pm2_5":21.2,"no2":13.5,"co":225.0,"o3":69.0,"so2":17.7,"mosquito_risk":7,"arthritis_risk":5,"migraine_risk":4,"frizz_risk":1,"updated_at":"2026-05-13T02:15:23.724592+05:30"},{"city":"Nagpur","state":"Maharashtra","latitude":21.1458,"longitude":79.0882,"temp":32.5,"humidity":36,"rain":0.0,"pressure":968.8,"uv_index":8.95,"wind_gusts":38.2,"aqi":109,"pm10":97.3,"pm2_5":47.6,"no2":28.0,"co":349.0,"o3":66.0,"so2":18.6,"mosquito_risk":0,"arthritis_risk":5,"migraine_risk":7,"frizz_risk":0,"updated_at":"2026-05-13T02:15:23.724601+05:30"},{"city":"Nashik","state":"Maharashtra","latitude":19.9975,"longitude":73.7898,"temp":28.3,"humidity":38,"rain":0.0,"pressure":941.2,"uv_index":8.2,"wind_gusts":41.4,"aqi":67,"pm10":38.0,"pm2_5":20.1,"no2":19.7,"co":215.0,"o3":49.0,"so2":3.4,"mosquito_risk":4,"arthritis_risk":5,"migraine_risk":7,"frizz_risk":0,"updated_at":"2026-05-13T02:15:23.724611+05:30"},{"city":"Aurangabad","state":"Maharashtra","latitude":19.8762,"longitude":75.3433,"temp":32.2,"humidity":28,"rain":0.0,"pressure":940.4,"uv_index":9.1,"wind_gusts":33.1,"aqi":72,"pm10":73.8,"pm2_5":39.5,"no2":32.6,"co":323.0,"o3":51.0,"so2":12.0,"mosquito_risk":0,"arthritis_risk":5,"migraine_risk":7,"frizz_risk":0,"updated_at":"2026-05-13T02:15:23.724620+05:30"},{"city":"Solapur","state":"Maharashtra","latitude":17.6599,"longitude":75.9064,"temp":31.4,"humidity":47,"rain":0.0,"pressure":953.6,"uv_index":9.1,"wind_gusts":36.0,"aqi":75,"pm10":32.7,"pm2_5":23.7,"no2":11.2,"co":313.0,"o3":91.0,"so2":8.5,"mosquito_risk":0,"arthritis_risk":5,"migraine_risk":7,"frizz_risk":1,"updated_at":"2026-05-13T02:15:23.724628+05:30"},{"city":"Kolhapur","state":"Maharashtra","latitude":16.705,"longitude":74.2433,"temp":25.0,"humidity":85,"rain":0.0,"pressure":944.6,"uv_index":9.0,"wind_gusts":40.7,"aqi":67,"pm10":32.9,"pm2_5":20.2,"no2":13.9,"co":214.0,"o3":52.0,"so2":5.4,"mosquito_risk":7,"arthritis_risk":5,"migraine_risk":7,"frizz_risk":1,"updated_at":"2026-05-13T02:15:23.724637+05:30"},{"city":"Goa","state":"Goa","latitude":15.2993,"longitude":74.124,"temp":28.0,"humidity":91,"rain":0.2,"pressure":994.8,"uv_index":8.95,"wind_gusts":32.0,"aqi":76,"pm10":50.6,"pm2_5":28.6,"no2":12.5,"co":270.0,"o3":58.0,"so2":3.2,"mosquito_risk":10,"arthritis_risk":5,"migraine_risk":7,"frizz_risk":1,"updated_at":"2026-05-13T02:15:23.724646+05:30"},{"city":"Jodhpur","state":"Rajasthan","latitude":26.2389,"longitude":73.0243,"temp":32.8,"humidity":28,"rain":0.0,"pressure":977.2,"uv_index":8.4,"wind_gusts":40.3,"aqi":124,"pm10":213.7,"pm2_5":34.3,"no2":2.3,"co":186.0,"o3":106.0,"so2":2.3,"mosquito_risk":0,"arthritis_risk":5,"migraine_risk":7,"frizz_risk":0,"updated_at":"2026-05-13T02:15:23.724654+05:30"},{"city":"Udaipur","state":"Rajasthan","latitude":24.5854,"longitude":73.7125,"temp":31.4,"humidity":27,"rain":0.0,"pressure":942.0,"uv_index":8.85,"wind_gusts":46.1,"aqi":71,"pm10":31.1,"pm2_5":14.9,"no2":1.8,"co":194.0,"o3":106.0,"so2":2.5,"mosquito_risk":0,"arthritis_risk":5,"migraine_risk":7,"frizz_risk":0,"updated_at":"2026-05-13T02:15:23.724663+05:30"},{"city":"Kota","state":"Rajasthan","latitude":25.2138,"longitude":75.8648,"temp":32.8,"humidity":25,"rain":0.0,"pressure":973.3,"uv_index":8.4,"wind_gusts":38.5,"aqi":84,"pm10":45.2,"pm2_5":22.8,"no2":11.9,"co":393.0,"o3":54.0,"so2":4.5,"mosquito_risk":0,"arthritis_risk":5,"migraine_risk":7,"frizz_risk":0,"updated_at":"2026-05-13T02:15:23.724672+05:30"},{"city":"Bikaner","state":"Rajasthan","latitude":28.0229,"longitude":73.3119,"temp":28.5,"humidity":52,"rain":0.0,"pressure":975.4,"uv_index":8.35,"wind_gusts":25.2,"aqi":95,"pm10":140.2,"pm2_5":46.8,"no2":3.4,"co":273.0,"o3":108.0,"so2":6.6,"mosquito_risk":4,"arthritis_risk":5,"migraine_risk":7,"frizz_risk":1,"updated_at":"2026-05-13T02:15:23.724680+05:30"},{"city":"Ajmer","state":"Rajasthan","latitude":26.4499,"longitude":74.6399,"temp":31.8,"humidity":25,"rain":0.0,"pressure":950.0,"uv_index":8.35,"wind_gusts":51.1,"aqi":61,"pm10":90.6,"pm2_5":30.2,"no2":8.2,"co":280.0,"o3":71.0,"so2":4.9,"mosquito_risk":0,"arthritis_risk":5,"migraine_risk":7,"frizz_risk":0,"updated_at":"2026-05-13T02:15:23.724689+05:30"},{"city":"Gwalior","state":"Madhya Pradesh","latitude":26.2183,"longitude":78.1828,"temp":30.4,"humidity":43,"rain":0.0,"pressure":976.9,"uv_index":8.2,"wind_gusts":57.2,"aqi":102,"pm10":179.7,"pm2_5":52.6,"no2":8.3,"co":475.0,"o3":81.0,"so2":8.9,"mosquito_risk":0,"arthritis_risk":5,"migraine_risk":7,"frizz_risk":1,"updated_at":"2026-05-13T02:15:23.724697+05:30"},{"city":"Indore","state":"Madhya Pradesh","latitude":22.7196,"longitude":75.8577,"temp":33.5,"humidity":23,"rain":0.0,"pressure":943.6,"uv_index":8.7,"wind_gusts":32.8,"aqi":85,"pm10":76.1,"pm2_5":32.7,"no2":7.4,"co":327.0,"o3":94.0,"so2":6.4,"mosquito_risk":0,"arthritis_risk":5,"migraine_risk":7,"frizz_risk":0,"updated_at":"2026-05-13T02:15:23.724704+05:30"},{"city":"Bhopal","state":"Madhya Pradesh","latitude":23.2599,"longitude":77.4126,"temp":30.6,"humidity":33,"rain":0.0,"pressure":948.7,"uv_index":8.75,"wind_gusts":38.5,"aqi":94,"pm10":105.7,"pm2_5":40.7,"no2":11.3,"co":434.0,"o3":74.0,"so2":7.1,"mosquito_risk":0,"arthritis_risk":5,"migraine_risk":7,"frizz_risk":0,"updated_at":"2026-05-13T02:15:23.724713+05:30"},{"city":"Jabalpur","state":"Madhya Pradesh","latitude":23.1815,"longitude":79.9864,"temp":29.5,"humidity":37,"rain":0.0,"pressure":956.9,"uv_index":8.85,"wind_gusts":36.4,"aqi":98,"pm10":100.4,"pm2_5":43.8,"no2":32.3,"co":303.0,"o3":38.0,"so2":6.9,"mosquito_risk":4,"arthritis_risk":5,"migraine_risk":7,"frizz_risk":0,"updated_at":"2026-05-13T02:15:23.724721+05:30"},{"city":"Ujjain","state":"Madhya Pradesh","latitude":23.1765,"longitude":75.7885,"temp":33.1,"humidity":24,"rain":0.0,"pressure":949.0,"uv_index":8.65,"wind_gusts":35.6,"aqi":88,"pm10":86.8,"pm2_5":43.8,"no2":11.9,"co":356.0,"o3":61.0,"so2":7.1,"mosquito_risk":0,"arthritis_risk":5,"migraine_risk":7,"frizz_risk":0,"updated_at":"2026-05-13T02:15:23.724729+05:30"},{"city":"Visakhapatnam","state":"Andhra Pradesh","latitude":17.6868,"longitude":83.2185,"temp":27.5,"humidity":85,"rain":0.0,"pressure":1000.4,"uv_index":9.15,"wind_gusts":40.0,"aqi":64,"pm10":28.2,"pm2_5":25.0,"no2":22.6,"co":1400.0,"o3":24.0,"so2":6.6,"mosquito_risk":7,"arthritis_risk":5,"migraine_risk":4,"frizz_risk":1,"updated_at":"2026-05-13T02:15:23.724738+05:30"},{"city":"Vijayawada","state":"Andhra Pradesh","latitude":16.5062,"longitude":80.648,"temp":28.5,"humidity":80,"rain":0.0,"pressure":999.4,"uv_index":9.2,"wind_gusts":39.2,"aqi":53,"pm10":12.3,"pm2_5":10.5,"no2":9.6,"co":171.0,"o3":30.0,"so2":5.1,"mosquito_risk":7,"arthritis_risk":5,"migraine_risk":7,"frizz_risk":1,"updated_at":"2026-05-13T02:15:23.724746+05:30"},{"city":"Guntur","state":"Andhra Pradesh","latitude":16.3067,"longitude":80.4365,"temp":28.5,"humidity":79,"rain":0.0,"pressure":1000.6,"uv_index":9.25,"wind_gusts":35.3,"aqi":55,"pm10":10.9,"pm2_5":9.1,"no2":9.7,"co":172.0,"o3":31.0,"so2":7.0,"mosquito_risk":7,"arthritis_risk":5,"migraine_risk":4,"frizz_risk":1,"updated_at":"2026-05-13T02:15:23.724754+05:30"},{"city":"Nellore","state":"Andhra Pradesh","latitude":14.4426,"longitude":79.9865,"temp":27.2,"humidity":86,"rain":0.0,"pressure":1002.2,"uv_index":6.85,"wind_gusts":38.9,"aqi":28,"pm10":8.8,"pm2_5":6.4,"no2":5.6,"co":284.0,"o3":35.0,"so2":2.6,"mosquito_risk":7,"arthritis_risk":5,"migraine_risk":4,"frizz_risk":1,"updated_at":"2026-05-13T02:15:23.724763+05:30"},{"city":"Kurnool","state":"Andhra Pradesh","latitude":15.8281,"longitude":78.0373,"temp":29.6,"humidity":56,"rain":0.0,"pressure":973.6,"uv_index":9.1,"wind_gusts":31.7,"aqi":54,"pm10":13.1,"pm2_5":8.9,"no2":4.4,"co":175.0,"o3":65.0,"so2":1.6,"mosquito_risk":4,"arthritis_risk":5,"migraine_risk":7,"frizz_risk":1,"updated_at":"2026-05-13T02:15:23.724772+05:30"},{"city":"Kakinada","state":"Andhra Pradesh","latitude":16.9891,"longitude":82.2475,"temp":28.6,"humidity":79,"rain":0.0,"pressure":1004.0,"uv_index":9.0,"wind_gusts":39.6,"aqi":23,"pm10":8.5,"pm2_5":4.9,"no2":1.2,"co":174.0,"o3":47.0,"so2":0.5,"mosquito_risk":7,"arthritis_risk":5,"migraine_risk":4,"frizz_risk":1,"updated_at":"2026-05-13T02:15:23.724780+05:30"},{"city":"Tirupati","state":"Andhra Pradesh","latitude":13.6288,"longitude":79.4192,"temp":26.0,"humidity":87,"rain":0.0,"pressure":987.7,"uv_index":8.65,"wind_gusts":33.8,"aqi":52,"pm10":20.4,"pm2_5":18.2,"no2":28.2,"co":282.0,"o3":5.0,"so2":3.9,"mosquito_risk":7,"arthritis_risk":5,"migraine_risk":7,"frizz_risk":1,"updated_at":"2026-05-13T02:15:23.724789+05:30"},{"city":"Warangal","state":"Telangana","latitude":17.9689,"longitude":79.5941,"temp":28.0,"humidity":73,"rain":0.0,"pressure":975.1,"uv_index":7.9,"wind_gusts":35.3,"aqi":64,"pm10":16.4,"pm2_5":14.5,"no2":8.9,"co":208.0,"o3":66.0,"so2":10.1,"mosquito_risk":7,"arthritis_risk":5,"migraine_risk":7,"frizz_risk":1,"updated_at":"2026-05-13T02:15:23.724797+05:30"},{"city":"Nizamabad","state":"Telangana","latitude":18.6725,"longitude":78.0941,"temp":30.0,"humidity":50,"rain":0.0,"pressure":960.7,"uv_index":9.15,"wind_gusts":31.7,"aqi":73,"pm10":36.2,"pm2_5":26.5,"no2":10.1,"co":265.0,"o3":86.0,"so2":5.5,"mosquito_risk":4,"arthritis_risk":5,"migraine_risk":7,"frizz_risk":1,"updated_at":"2026-05-13T02:15:23.724805+05:30"},{"city":"Mysore","state":"Karnataka","latitude":12.2958,"longitude":76.6396,"temp":22.8,"humidity":90,"rain":0.0,"pressure":924.7,"uv_index":6.6,"wind_gusts":35.6,"aqi":85,"pm10":42.0,"pm2_5":33.1,"no2":27.9,"co":259.0,"o3":54.0,"so2":5.4,"mosquito_risk":3,"arthritis_risk":5,"migraine_risk":7,"frizz_risk":1,"updated_at":"2026-05-13T02:15:23.724813+05:30"},{"city":"Mangalore","state":"Karnataka","latitude":12.9141,"longitude":74.856,"temp":25.6,"humidity":97,"rain":0.0,"pressure":1003.5,"uv_index":9.0,"wind_gusts":41.0,"aqi":84,"pm10":48.8,"pm2_5":30.3,"no2":17.8,"co":314.0,"o3":38.0,"so2":4.6,"mosquito_risk":7,"arthritis_risk":5,"migraine_risk":4,"frizz_risk":1,"updated_at":"2026-05-13T02:15:23.724823+05:30"},{"city":"Hubli-Dharwad","state":"Karnataka","latitude":15.3647,"longitude":75.124,"temp":24.4,"humidity":99,"rain":0.0,"pressure":937.4,"uv_index":9.2,"wind_gusts":41.4,"aqi":68,"pm10":29.4,"pm2_5":15.8,"no2":6.3,"co":199.0,"o3":55.0,"so2":2.4,"mosquito_risk":3,"arthritis_risk":5,"migraine_risk":7,"frizz_risk":1,"updated_at":"2026-05-13T02:15:23.724831+05:30"},{"city":"Belgaum","state":"Karnataka","latitude":15.8497,"longitude":74.4977,"temp":23.0,"humidity":90,"rain":0.0,"pressure":922.6,"uv_index":8.4,"wind_gusts":50.8,"aqi":69,"pm10":32.8,"pm2_5":17.8,"no2":11.7,"co":179.0,"o3":43.0,"so2":3.1,"mosquito_risk":3,"arthritis_risk":5,"migraine_risk":7,"frizz_risk":1,"updated_at":"2026-05-13T02:15:26.969175+05:30"},{"city":"Coimbatore","state":"Tamil Nadu","latitude":11.0168,"longitude":76.9558,"temp":24.7,"humidity":91,"rain":0.0,"pressure":957.8,"uv_index":9.2,"wind_gusts":35.3,"aqi":73,"pm10":25.1,"pm2_5":20.3,"no2":9.2,"co":275.0,"o3":80.0,"so2":4.3,"mosquito_risk":3,"arthritis_risk":5,"migraine_risk":7,"frizz_risk":1,"updated_at":"2026-05-13T02:15:26.969207+05:30"},{"city":"Madurai","state":"Tamil Nadu","latitude":9.9252,"longitude":78.1198,"temp":27.6,"humidity":83,"rain":0.0,"pressure":989.0,"uv_index":8.75,"wind_gusts":33.5,"aqi":82,"pm10":30.2,"pm2_5":28.6,"no2":26.7,"co":301.0,"o3":38.0,"so2":9.8,"mosquito_risk":7,"arthritis_risk":5,"migraine_risk":7,"frizz_risk":1,"updated_at":"2026-05-13T02:15:26.969219+05:30"},{"city":"Trichy","state":"Tamil Nadu","latitude":10.7905,"longitude":78.7047,"temp":26.8,"humidity":89,"rain":0.0,"pressure":995.7,"uv_index":9.1,"wind_gusts":30.6,"aqi":68,"pm10":23.5,"pm2_5":22.6,"no2":23.3,"co":281.0,"o3":25.0,"so2":7.0,"mosquito_risk":7,"arthritis_risk":5,"migraine_risk":7,"frizz_risk":1,"updated_at":"2026-05-13T02:15:26.969229+05:30"},{"city":"Salem","state":"Tamil Nadu","latitude":11.6643,"longitude":78.146,"temp":26.6,"humidity":81,"rain":0.0,"pressure":973.9,"uv_index":8.95,"wind_gusts":29.2,"aqi":86,"pm10":38.6,"pm2_5":33.9,"no2":32.4,"co":383.0,"o3":39.0,"so2":12.9,"mosquito_risk":7,"arthritis_risk":5,"migraine_risk":7,"frizz_risk":1,"updated_at":"2026-05-13T02:15:26.969238+05:30"},{"city":"Tirunelveli","state":"Tamil Nadu","latitude":8.7139,"longitude":77.7567,"temp":27.9,"humidity":77,"rain":0.0,"pressure":998.8,"uv_index":7.75,"wind_gusts":23.0,"aqi":73,"pm10":19.4,"pm2_5":17.9,"no2":10.4,"co":363.0,"o3":58.0,"so2":1.6,"mosquito_risk":7,"arthritis_risk":5,"migraine_risk":7,"frizz_risk":1,"updated_at":"2026-05-13T02:15:26.969247+05:30"},{"city":"Vellore","state":"Tamil Nadu","latitude":12.9165,"longitude":79.1325,"temp":25.9,"humidity":85,"rain":0.0,"pressure":980.9,"uv_index":7.7,"wind_gusts":33.1,"aqi":69,"pm10":31.8,"pm2_5":29.5,"no2":29.9,"co":291.0,"o3":13.0,"so2":13.3,"mosquito_risk":7,"arthritis_risk":5,"migraine_risk":7,"frizz_risk":1,"updated_at":"2026-05-13T02:15:26.969256+05:30"},{"city":"Erode","state":"Tamil Nadu","latitude":11.341,"longitude":77.7172,"temp":27.2,"humidity":73,"rain":0.0,"pressure":985.2,"uv_index":9.15,"wind_gusts":27.0,"aqi":93,"pm10":39.0,"pm2_5":33.3,"no2":34.1,"co":308.0,"o3":40.0,"so2":10.2,"mosquito_risk":7,"arthritis_risk":5,"migraine_risk":7,"frizz_risk":1,"updated_at":"2026-05-13T02:15:26.969265+05:30"},{"city":"Kochi","state":"Kerala","latitude":9.9312,"longitude":76.2673,"temp":26.9,"humidity":99,"rain":0.0,"pressure":1005.1,"uv_index":8.7,"wind_gusts":33.5,"aqi":86,"pm10":39.3,"pm2_5":32.1,"no2":21.3,"co":260.0,"o3":42.0,"so2":5.4,"mosquito_risk":7,"arthritis_risk":5,"migraine_risk":4,"frizz_risk":1,"updated_at":"2026-05-13T02:15:26.969274+05:30"},{"city":"Thiruvananthapuram","state":"Kerala","latitude":8.5241,"longitude":76.9366,"temp":25.2,"humidity":94,"rain":0.1,"pressure":1004.6,"uv_index":8.05,"wind_gusts":33.8,"aqi":61,"pm10":26.5,"pm2_5":16.3,"no2":3.8,"co":254.0,"o3":95.0,"so2":2.3,"mosquito_risk":10,"arthritis_risk":5,"migraine_risk":4,"frizz_risk":1,"updated_at":"2026-05-13T02:15:26.969282+05:30"},{"city":"Kozhikode","state":"Kerala","latitude":11.2588,"longitude":75.7804,"temp":24.5,"humidity":99,"rain":0.0,"pressure":1004.7,"uv_index":8.6,"wind_gusts":34.9,"aqi":70,"pm10":40.9,"pm2_5":20.1,"no2":2.1,"co":213.0,"o3":107.0,"so2":1.7,"mosquito_risk":3,"arthritis_risk":5,"migraine_risk":4,"frizz_risk":1,"updated_at":"2026-05-13T02:15:26.969291+05:30"},{"city":"Thrissur","state":"Kerala","latitude":10.5276,"longitude":76.2144,"temp":25.0,"humidity":99,"rain":0.0,"pressure":1003.7,"uv_index":8.3,"wind_gusts":33.5,"aqi":88,"pm10":34.8,"pm2_5":26.8,"no2":14.2,"co":326.0,"o3":54.0,"so2":3.7,"mosquito_risk":7,"arthritis_risk":5,"migraine_risk":4,"frizz_risk":1,"updated_at":"2026-05-13T02:15:26.969300+05:30"},{"city":"Kannur","state":"Kerala","latitude":11.8745,"longitude":75.3704,"temp":25.0,"humidity":98,"rain":0.1,"pressure":1003.9,"uv_index":8.6,"wind_gusts":35.3,"aqi":81,"pm10":52.5,"pm2_5":41.1,"no2":33.3,"co":279.0,"o3":32.0,"so2":3.7,"mosquito_risk":10,"arthritis_risk":5,"migraine_risk":4,"frizz_risk":1,"updated_at":"2026-05-13T02:15:26.969309+05:30"},{"city":"Patna","state":"Bihar","latitude":25.5941,"longitude":85.1376,"temp":24.8,"humidity":89,"rain":0.0,"pressure":997.4,"uv_index":8.75,"wind_gusts":36.4,"aqi":141,"pm10":66.4,"pm2_5":61.9,"no2":14.1,"co":407.0,"o3":97.0,"so2":13.1,"mosquito_risk":3,"arthritis_risk":5,"migraine_risk":7,"frizz_risk":1,"updated_at":"2026-05-13T02:15:26.969317+05:30"},{"city":"Gaya","state":"Bihar","latitude":24.7914,"longitude":85.0002,"temp":26.1,"humidity":80,"rain":0.0,"pressure":989.9,"uv_index":8.85,"wind_gusts":30.6,"aqi":141,"pm10":61.9,"pm2_5":55.1,"no2":18.6,"co":369.0,"o3":81.0,"so2":20.5,"mosquito_risk":7,"arthritis_risk":5,"migraine_risk":7,"frizz_risk":1,"updated_at":"2026-05-13T02:15:26.969326+05:30"},{"city":"Muzaffarpur","state":"Bihar","latitude":26.1209,"longitude":85.3647,"temp":23.5,"humidity":90,"rain":0.0,"pressure":998.1,"uv_index":8.75,"wind_gusts":33.5,"aqi":131,"pm10":61.0,"pm2_5":56.8,"no2":12.7,"co":407.0,"o3":103.0,"so2":9.8,"mosquito_risk":3,"arthritis_risk":5,"migraine_risk":7,"frizz_risk":1,"updated_at":"2026-05-13T02:15:26.969334+05:30"},{"city":"Bhagalpur","state":"Bihar","latitude":25.2425,"longitude":87.0117,"temp":23.0,"humidity":97,"rain":0.1,"pressure":999.2,"uv_index":8.75,"wind_gusts":32.8,"aqi":136,"pm10":48.4,"pm2_5":38.8,"no2":10.2,"co":262.0,"o3":106.0,"so2":10.0,"mosquito_risk":6,"arthritis_risk":5,"migraine_risk":7,"frizz_risk":1,"updated_at":"2026-05-13T02:15:26.969342+05:30"},{"city":"Ranchi","state":"Jharkhand","latitude":23.3441,"longitude":85.3096,"temp":23.0,"humidity":86,"rain":0.0,"pressure":934.7,"uv_index":9.3,"wind_gusts":34.6,"aqi":109,"pm10":49.4,"pm2_5":37.7,"no2":8.4,"co":382.0,"o3":103.0,"so2":14.7,"mosquito_risk":3,"arthritis_risk":5,"migraine_risk":7,"frizz_risk":1,"updated_at":"2026-05-13T02:15:26.969351+05:30"},{"city":"Jamshedpur","state":"Jharkhand","latitude":22.8046,"longitude":86.2029,"temp":26.1,"humidity":80,"rain":0.0,"pressure":988.1,"uv_index":9.15,"wind_gusts":27.0,"aqi":95,"pm10":25.5,"pm2_5":22.1,"no2":15.8,"co":363.0,"o3":39.0,"so2":22.0,"mosquito_risk":7,"arthritis_risk":5,"migraine_risk":7,"frizz_risk":1,"updated_at":"2026-05-13T02:15:26.969359+05:30"},{"city":"Dhanbad","state":"Jharkhand","latitude":23.7957,"longitude":86.4304,"temp":25.5,"humidity":89,"rain":0.0,"pressure":976.7,"uv_index":9.1,"wind_gusts":25.6,"aqi":145,"pm10":59.0,"pm2_5":54.2,"no2":52.6,"co":302.0,"o3":24.0,"so2":60.7,"mosquito_risk":7,"arthritis_risk":5,"migraine_risk":7,"frizz_risk":1,"updated_at":"2026-05-13T02:15:26.969367+05:30"},{"city":"Bokaro","state":"Jharkhand","latitude":23.6693,"longitude":86.1511,"temp":26.2,"humidity":78,"rain":0.0,"pressure":980.5,"uv_index":9.1,"wind_gusts":26.3,"aqi":148,"pm10":92.4,"pm2_5":79.4,"no2":53.4,"co":2573.0,"o3":36.0,"so2":64.9,"mosquito_risk":7,"arthritis_risk":5,"migraine_risk":7,"frizz_risk":1,"updated_at":"2026-05-13T02:15:26.969375+05:30"},{"city":"Bhubaneswar","state":"Odisha","latitude":20.2961,"longitude":85.8245,"temp":26.6,"humidity":87,"rain":0.0,"pressure":999.9,"uv_index":9.0,"wind_gusts":38.9,"aqi":56,"pm10":14.3,"pm2_5":11.4,"no2":8.4,"co":200.0,"o3":39.0,"so2":2.6,"mosquito_risk":7,"arthritis_risk":5,"migraine_risk":7,"frizz_risk":1,"updated_at":"2026-05-13T02:15:26.969383+05:30"},{"city":"Cuttack","state":"Odisha","latitude":20.4625,"longitude":85.8828,"temp":26.8,"humidity":88,"rain":0.0,"pressure":1001.8,"uv_index":9.05,"wind_gusts":41.8,"aqi":56,"pm10":14.3,"pm2_5":11.4,"no2":8.4,"co":226.0,"o3":39.0,"so2":2.6,"mosquito_risk":7,"arthritis_risk":5,"migraine_risk":4,"frizz_risk":1,"updated_at":"2026-05-13T02:15:26.969391+05:30"},{"city":"Rourkela","state":"Odisha","latitude":22.2604,"longitude":84.8536,"temp":26.8,"humidity":79,"rain":0.0,"pressure":981.7,"uv_index":9.05,"wind_gusts":47.2,"aqi":95,"pm10":21.5,"pm2_5":18.1,"no2":13.5,"co":204.0,"o3":63.0,"so2":39.9,"mosquito_risk":7,"arthritis_risk":5,"migraine_risk":7,"frizz_risk":1,"updated_at":"2026-05-13T02:15:26.969399+05:30"},{"city":"Raipur","state":"Chhattisgarh","latitude":21.2514,"longitude":81.6296,"temp":30.6,"humidity":46,"rain":0.0,"pressure":970.3,"uv_index":9.05,"wind_gusts":34.9,"aqi":104,"pm10":63.3,"pm2_5":43.9,"no2":27.3,"co":426.0,"o3":63.0,"so2":6.4,"mosquito_risk":0,"arthritis_risk":5,"migraine_risk":7,"frizz_risk":1,"updated_at":"2026-05-13T02:15:26.969407+05:30"},{"city":"Bhilai","state":"Chhattisgarh","latitude":21.1938,"longitude":81.3509,"temp":30.2,"humidity":50,"rain":0.0,"pressure":970.7,"uv_index":9.05,"wind_gusts":37.1,"aqi":99,"pm10":56.0,"pm2_5":38.8,"no2":29.7,"co":460.0,"o3":66.0,"so2":7.0,"mosquito_risk":0,"arthritis_risk":5,"migraine_risk":7,"frizz_risk":1,"updated_at":"2026-05-13T02:15:26.969415+05:30"},{"city":"Guwahati","state":"Assam","latitude":26.1158,"longitude":91.7086,"temp":22.5,"humidity":92,"rain":0.0,"pressure":1000.1,"uv_index":8.75,"wind_gusts":24.1,"aqi":87,"pm10":46.7,"pm2_5":44.1,"no2":22.8,"co":428.0,"o3":20.0,"so2":1.2,"mosquito_risk":3,"arthritis_risk":5,"migraine_risk":4,"frizz_risk":1,"updated_at":"2026-05-13T02:15:26.969423+05:30"},{"city":"Agartala","state":"Tripura","latitude":23.8315,"longitude":91.2868,"temp":24.2,"humidity":92,"rain":0.0,"pressure":1004.5,"uv_index":8.9,"wind_gusts":20.9,"aqi":104,"pm10":40.0,"pm2_5":38.1,"no2":25.7,"co":375.0,"o3":50.0,"so2":3.9,"mosquito_risk":3,"arthritis_risk":5,"migraine_risk":4,"frizz_risk":1,"updated_at":"2026-05-13T02:15:26.969431+05:30"},{"city":"Shillong","state":"Meghalaya","latitude":25.5788,"longitude":91.8933,"temp":14.4,"humidity":95,"rain":0.0,"pressure":853.9,"uv_index":6.45,"wind_gusts":25.9,"aqi":70,"pm10":29.4,"pm2_5":27.6,"no2":10.0,"co":295.0,"o3":72.0,"so2":1.6,"mosquito_risk":3,"arthritis_risk":10,"migraine_risk":7,"frizz_risk":0,"updated_at":"2026-05-13T02:15:26.969440+05:30"},{"city":"Imphal","state":"Manipur","latitude":24.817,"longitude":93.9368,"temp":18.5,"humidity":93,"rain":0.0,"pressure":921.5,"uv_index":9.3,"wind_gusts":25.2,"aqi":95,"pm10":57.9,"pm2_5":53.0,"no2":28.7,"co":622.0,"o3":37.0,"so2":6.5,"mosquito_risk":3,"arthritis_risk":10,"migraine_risk":7,"frizz_risk":1,"updated_at":"2026-05-13T02:15:26.969448+05:30"},{"city":"Aizawl","state":"Mizoram","latitude":23.7271,"longitude":92.7176,"temp":16.3,"humidity":96,"rain":0.0,"pressure":889.7,"uv_index":9.1,"wind_gusts":25.9,"aqi":71,"pm10":37.5,"pm2_5":31.1,"no2":10.2,"co":369.0,"o3":50.0,"so2":1.5,"mosquito_risk":3,"arthritis_risk":10,"migraine_risk":7,"frizz_risk":0,"updated_at":"2026-05-13T02:15:26.969456+05:30"},{"city":"Kohima","state":"Nagaland","latitude":25.6701,"longitude":94.1077,"temp":14.1,"humidity":98,"rain":0.0,"pressure":852.2,"uv_index":8.65,"wind_gusts":25.9,"aqi":60,"pm10":26.2,"pm2_5":23.3,"no2":10.7,"co":302.0,"o3":53.0,"so2":0.9,"mosquito_risk":3,"arthritis_risk":10,"migraine_risk":7,"frizz_risk":0,"updated_at":"2026-05-13T02:15:26.969465+05:30"},{"city":"Gangtok","state":"Sikkim","latitude":27.3314,"longitude":88.6138,"temp":12.9,"humidity":84,"rain":0.0,"pressure":834.1,"uv_index":8.8,"wind_gusts":33.8,"aqi":62,"pm10":16.5,"pm2_5":14.8,"no2":14.1,"co":473.0,"o3":83.0,"so2":1.0,"mosquito_risk":3,"arthritis_risk":10,"migraine_risk":7,"frizz_risk":0,"updated_at":"2026-05-13T02:15:26.969473+05:30"},{"city":"Siliguri","state":"West Bengal","latitude":26.7271,"longitude":88.3953,"temp":22.0,"humidity":96,"rain":0.0,"pressure":991.5,"uv_index":8.65,"wind_gusts":30.2,"aqi":123,"pm10":62.9,"pm2_5":56.0,"no2":34.7,"co":551.0,"o3":58.0,"so2":5.8,"mosquito_risk":3,"arthritis_risk":5,"migraine_risk":7,"frizz_risk":1,"updated_at":"2026-05-13T02:15:30.230758+05:30"},{"city":"Durgapur","state":"West Bengal","latitude":23.5204,"longitude":87.3119,"temp":25.0,"humidity":91,"rain":0.0,"pressure":992.0,"uv_index":9.0,"wind_gusts":35.6,"aqi":112,"pm10":25.6,"pm2_5":23.3,"no2":20.4,"co":238.0,"o3":39.0,"so2":23.9,"mosquito_risk":7,"arthritis_risk":5,"migraine_risk":7,"frizz_risk":1,"updated_at":"2026-05-13T02:15:30.230790+05:30"},{"city":"Asansol","state":"West Bengal","latitude":23.6739,"longitude":86.9524,"temp":26.5,"humidity":86,"rain":0.0,"pressure":990.6,"uv_index":9.05,"wind_gusts":31.7,"aqi":110,"pm10":25.5,"pm2_5":23.1,"no2":21.9,"co":433.0,"o3":37.0,"so2":30.3,"mosquito_risk":7,"arthritis_risk":5,"migraine_risk":7,"frizz_risk":1,"updated_at":"2026-05-13T02:15:30.230801+05:30"},{"city":"Pondicherry","state":"Puducherry","latitude":11.9139,"longitude":79.8145,"temp":27.0,"humidity":92,"rain":0.0,"pressure":1004.0,"uv_index":9.05,"wind_gusts":32.4,"aqi":29,"pm10":7.3,"pm2_5":5.4,"no2":4.9,"co":344.0,"o3":37.0,"so2":1.0,"mosquito_risk":7,"arthritis_risk":5,"migraine_risk":4,"frizz_risk":1,"updated_at":"2026-05-13T02:15:30.230811+05:30"},{"city":"Port Blair","state":"Andaman and Nicobar Islands","latitude":11.6234,"longitude":92.7265,"temp":25.6,"humidity":97,"rain":0.1,"pressure":1003.5,"uv_index":6.65,"wind_gusts":39.2,"aqi":23,"pm10":2.1,"pm2_5":1.4,"no2":0.3,"co":97.0,"o3":44.0,"so2":0.1,"mosquito_risk":10,"arthritis_risk":5,"migraine_risk":4,"frizz_risk":1,"updated_at":"2026-05-13T02:15:30.230821+05:30"},{"city":"Haridwar","state":"Uttarakhand","latitude":29.9457,"longitude":78.1642,"temp":23.5,"humidity":81,"rain":0.0,"pressure":969.6,"uv_index":7.5,"wind_gusts":29.2,"aqi":149,"pm10":120.6,"pm2_5":73.3,"no2":30.4,"co":421.0,"o3":45.0,"so2":10.9,"mosquito_risk":3,"arthritis_risk":5,"migraine_risk":7,"frizz_risk":1,"updated_at":"2026-05-13T02:15:30.230830+05:30"},{"city":"Rishikesh","state":"Uttarakhand","latitude":30.0869,"longitude":78.2676,"temp":20.9,"humidity":89,"rain":0.0,"pressure":962.2,"uv_index":7.6,"wind_gusts":29.9,"aqi":124,"pm10":128.1,"pm2_5":56.0,"no2":15.2,"co":429.0,"o3":85.0,"so2":7.8,"mosquito_risk":3,"arthritis_risk":5,"migraine_risk":7,"frizz_risk":1,"updated_at":"2026-05-13T02:15:30.230839+05:30"},{"city":"Nainital","state":"Uttarakhand","latitude":29.3919,"longitude":79.4542,"temp":12.5,"humidity":90,"rain":0.0,"pressure":801.6,"uv_index":8.45,"wind_gusts":52.6,"aqi":117,"pm10":78.9,"pm2_5":48.3,"no2":22.0,"co":323.0,"o3":57.0,"so2":5.5,"mosquito_risk":3,"arthritis_risk":10,"migraine_risk":7,"frizz_risk":0,"updated_at":"2026-05-13T02:15:30.230847+05:30"},{"city":"Mussoorie","state":"Uttarakhand","latitude":30.4599,"longitude":78.0664,"temp":12.7,"humidity":93,"rain":0.0,"pressure":798.4,"uv_index":8.0,"wind_gusts":43.6,"aqi":118,"pm10":112.5,"pm2_5":54.7,"no2":35.0,"co":328.0,"o3":47.0,"so2":11.5,"mosquito_risk":3,"arthritis_risk":10,"migraine_risk":7,"frizz_risk":0,"updated_at":"2026-05-13T02:15:30.230857+05:30"},{"city":"Dharamshala","state":"Himachal Pradesh","latitude":32.219,"longitude":76.3234,"temp":20.2,"humidity":47,"rain":0.0,"pressure":865.9,"uv_index":8.35,"wind_gusts":43.2,"aqi":64,"pm10":13.3,"pm2_5":9.6,"no2":13.4,"co":267.0,"o3":44.0,"so2":0.0,"mosquito_risk":0,"arthritis_risk":5,"migraine_risk":7,"frizz_risk":0,"updated_at":"2026-05-13T02:15:30.230865+05:30"},{"city":"Dalhousie","state":"Himachal Pradesh","latitude":32.5387,"longitude":75.971,"temp":11.8,"humidity":62,"rain":0.0,"pressure":799.6,"uv_index":8.6,"wind_gusts":34.2,"aqi":98,"pm10":33.4,"pm2_5":23.6,"no2":20.1,"co":437.0,"o3":45.0,"so2":1.0,"mosquito_risk":3,"arthritis_risk":5,"migraine_risk":7,"frizz_risk":0,"updated_at":"2026-05-13T02:15:30.230874+05:30"},{"city":"Patiala","state":"Punjab","latitude":30.3398,"longitude":76.3869,"temp":25.8,"humidity":73,"rain":0.0,"pressure":973.5,"uv_index":7.6,"wind_gusts":46.8,"aqi":347,"pm10":170.9,"pm2_5":96.2,"no2":24.7,"co":720.0,"o3":76.0,"so2":16.5,"mosquito_risk":7,"arthritis_risk":5,"migraine_risk":7,"frizz_risk":1,"updated_at":"2026-05-13T02:15:30.230882+05:30"},{"city":"Bhatinda","state":"Punjab","latitude":30.211,"longitude":74.9455,"temp":27.8,"humidity":58,"rain":0.0,"pressure":978.4,"uv_index":8.25,"wind_gusts":41.4,"aqi":414,"pm10":275.7,"pm2_5":86.8,"no2":9.0,"co":437.0,"o3":96.0,"so2":13.4,"mosquito_risk":4,"arthritis_risk":5,"migraine_risk":7,"frizz_risk":1,"updated_at":"2026-05-13T02:15:30.230891+05:30"},{"city":"Rohtak","state":"Haryana","latitude":28.8955,"longitude":76.6066,"temp":26.7,"humidity":67,"rain":0.0,"pressure":976.2,"uv_index":7.7,"wind_gusts":40.0,"aqi":516,"pm10":338.1,"pm2_5":80.8,"no2":27.2,"co":539.0,"o3":87.0,"so2":28.6,"mosquito_risk":7,"arthritis_risk":5,"migraine_risk":7,"frizz_risk":1,"updated_at":"2026-05-13T02:15:30.230899+05:30"},{"city":"Panipat","state":"Haryana","latitude":29.3909,"longitude":76.9635,"temp":25.5,"humidity":73,"rain":0.0,"pressure":975.5,"uv_index":7.55,"wind_gusts":41.8,"aqi":744,"pm10":285.9,"pm2_5":81.0,"no2":23.2,"co":590.0,"o3":78.0,"so2":13.7,"mosquito_risk":7,"arthritis_risk":5,"migraine_risk":7,"frizz_risk":1,"updated_at":"2026-05-13T02:15:30.230908+05:30"},{"city":"Mathura","state":"Uttar Pradesh","latitude":27.4924,"longitude":77.6737,"temp":27.5,"humidity":58,"rain":0.0,"pressure":981.4,"uv_index":7.95,"wind_gusts":62.3,"aqi":571,"pm10":760.0,"pm2_5":112.7,"no2":10.8,"co":463.0,"o3":100.0,"so2":15.4,"mosquito_risk":4,"arthritis_risk":5,"migraine_risk":7,"frizz_risk":1,"updated_at":"2026-05-13T02:15:30.230916+05:30"},{"city":"Vrindavan","state":"Uttar Pradesh","latitude":27.5823,"longitude":77.7027,"temp":27.2,"humidity":60,"rain":0.0,"pressure":981.9,"uv_index":7.95,"wind_gusts":61.6,"aqi":571,"pm10":760.0,"pm2_5":112.7,"no2":10.8,"co":471.0,"o3":100.0,"so2":15.4,"mosquito_risk":4,"arthritis_risk":5,"migraine_risk":7,"frizz_risk":1,"updated_at":"2026-05-13T02:15:30.230924+05:30"},{"city":"Ayodhya","state":"Uttar Pradesh","latitude":26.7922,"longitude":82.1998,"temp":27.0,"humidity":70,"rain":0.0,"pressure":991.8,"uv_index":8.3,"wind_gusts":30.6,"aqi":137,"pm10":45.3,"pm2_5":41.8,"no2":10.3,"co":459.0,"o3":112.0,"so2":9.2,"mosquito_risk":7,"arthritis_risk":5,"migraine_risk":7,"frizz_risk":1,"updated_at":"2026-05-13T02:15:30.230933+05:30"},{"city":"Ratlam","state":"Madhya Pradesh","latitude":23.3315,"longitude":75.0367,"temp":31.2,"humidity":29,"rain":0.0,"pressure":949.8,"uv_index":8.55,"wind_gusts":39.2,"aqi":68,"pm10":39.2,"pm2_5":25.2,"no2":6.4,"co":247.0,"o3":76.0,"so2":5.9,"mosquito_risk":0,"arthritis_risk":5,"migraine_risk":7,"frizz_risk":0,"updated_at":"2026-05-13T02:15:30.230941+05:30"},{"city":"Sagar","state":"Madhya Pradesh","latitude":23.8388,"longitude":78.7378,"temp":30.7,"humidity":33,"rain":0.0,"pressure":945.2,"uv_index":8.75,"wind_gusts":40.7,"aqi":87,"pm10":79.4,"pm2_5":31.0,"no2":17.4,"co":334.0,"o3":58.0,"so2":6.0,"mosquito_risk":0,"arthritis_risk":5,"migraine_risk":7,"frizz_risk":0,"updated_at":"2026-05-13T02:15:30.230950+05:30"},{"city":"Satna","state":"Madhya Pradesh","latitude":24.6005,"longitude":80.8322,"temp":28.7,"humidity":46,"rain":0.0,"pressure":966.4,"uv_index":8.8,"wind_gusts":48.2,"aqi":103,"pm10":57.6,"pm2_5":41.3,"no2":7.9,"co":382.0,"o3":129.0,"so2":11.8,"mosquito_risk":4,"arthritis_risk":5,"migraine_risk":7,"frizz_risk":0,"updated_at":"2026-05-13T02:15:30.230958+05:30"},{"city":"Akola","state":"Maharashtra","latitude":20.7002,"longitude":77.0082,"temp":34.0,"humidity":30,"rain":0.0,"pressure":969.9,"uv_index":8.9,"wind_gusts":32.4,"aqi":83,"pm10":83.8,"pm2_5":38.2,"no2":26.2,"co":336.0,"o3":54.0,"so2":5.5,"mosquito_risk":0,"arthritis_risk":5,"migraine_risk":7,"frizz_risk":0,"updated_at":"2026-05-13T02:15:30.230967+05:30"},{"city":"Amravati","state":"Maharashtra","latitude":20.9374,"longitude":77.7796,"temp":32.2,"humidity":37,"rain":0.0,"pressure":962.6,"uv_index":8.95,"wind_gusts":27.7,"aqi":84,"pm10":93.6,"pm2_5":44.7,"no2":34.5,"co":331.0,"o3":48.0,"so2":7.8,"mosquito_risk":0,"arthritis_risk":5,"migraine_risk":7,"frizz_risk":0,"updated_at":"2026-05-13T02:15:30.230975+05:30"},{"city":"Latur","state":"Maharashtra","latitude":18.4088,"longitude":76.5604,"temp":30.9,"humidity":41,"rain":0.0,"pressure":936.3,"uv_index":8.4,"wind_gusts":32.0,"aqi":69,"pm10":34.0,"pm2_5":23.2,"no2":8.6,"co":288.0,"o3":101.0,"so2":5.0,"mosquito_risk":0,"arthritis_risk":5,"migraine_risk":7,"frizz_risk":1,"updated_at":"2026-05-13T02:15:30.230984+05:30"},{"city":"Nanded","state":"Maharashtra","latitude":19.1383,"longitude":77.3091,"temp":31.5,"humidity":44,"rain":0.0,"pressure":964.3,"uv_index":8.2,"wind_gusts":28.4,"aqi":70,"pm10":37.8,"pm2_5":26.6,"no2":9.7,"co":291.0,"o3":87.0,"so2":5.0,"mosquito_risk":0,"arthritis_risk":5,"migraine_risk":7,"frizz_risk":1,"updated_at":"2026-05-13T02:15:30.230993+05:30"},{"city":"Gulbarga","state":"Karnataka","latitude":17.3297,"longitude":76.8343,"temp":30.0,"humidity":46,"rain":0.0,"pressure":955.1,"uv_index":9.0,"wind_gusts":27.7,"aqi":68,"pm10":34.7,"pm2_5":22.4,"no2":13.7,"co":301.0,"o3":87.0,"so2":8.6,"mosquito_risk":4,"arthritis_risk":5,"migraine_risk":7,"frizz_risk":1,"updated_at":"2026-05-13T02:15:30.231001+05:30"},{"city":"Bidar","state":"Karnataka","latitude":17.9104,"longitude":77.5199,"temp":28.0,"humidity":55,"rain":0.0,"pressure":932.0,"uv_index":9.15,"wind_gusts":33.8,"aqi":70,"pm10":40.0,"pm2_5":28.8,"no2":13.1,"co":273.0,"o3":90.0,"so2":8.4,"mosquito_risk":4,"arthritis_risk":5,"migraine_risk":7,"frizz_risk":1,"updated_at":"2026-05-13T02:15:30.231010+05:30"},{"city":"Hospet","state":"Karnataka","latitude":15.2689,"longitude":76.3909,"temp":27.0,"humidity":71,"rain":0.0,"pressure":952.6,"uv_index":9.1,"wind_gusts":44.3,"aqi":74,"pm10":36.1,"pm2_5":25.7,"no2":22.2,"co":352.0,"o3":60.0,"so2":8.1,"mosquito_risk":7,"arthritis_risk":5,"migraine_risk":7,"frizz_risk":1,"updated_at":"2026-05-13T02:15:30.231018+05:30"},{"city":"Tirupur","state":"Tamil Nadu","latitude":11.1085,"longitude":77.3411,"temp":26.2,"humidity":83,"rain":0.0,"pressure":971.3,"uv_index":9.25,"wind_gusts":38.2,"aqi":92,"pm10":41.0,"pm2_5":34.9,"no2":29.9,"co":207.0,"o3":56.0,"so2":7.6,"mosquito_risk":7,"arthritis_risk":5,"migraine_risk":7,"frizz_risk":1,"updated_at":"2026-05-13T02:15:30.231026+05:30"},{"city":"Alappuzha","state":"Kerala","latitude":9.4981,"longitude":76.3388,"temp":27.1,"humidity":94,"rain":0.0,"pressure":1005.2,"uv_index":7.85,"wind_gusts":33.5,"aqi":75,"pm10":44.7,"pm2_5":28.5,"no2":11.0,"co":183.0,"o3":73.0,"so2":4.1,"mosquito_risk":7,"arthritis_risk":5,"migraine_risk":4,"frizz_risk":1,"updated_at":"2026-05-13T02:15:30.231034+05:30"},{"city":"Munnar","state":"Kerala","latitude":10.0889,"longitude":77.0595,"temp":16.9,"humidity":77,"rain":0.0,"pressure":852.9,"uv_index":9.15,"wind_gusts":27.0,"aqi":73,"pm10":29.3,"pm2_5":26.0,"no2":11.0,"co":310.0,"o3":50.0,"so2":0.9,"mosquito_risk":3,"arthritis_risk":5,"migraine_risk":7,"frizz_risk":0,"updated_at":"2026-05-13T02:15:30.231043+05:30"},{"city":"Silchar","state":"Assam","latitude":24.8333,"longitude":92.7789,"temp":23.2,"humidity":90,"rain":0.0,"pressure":1003.5,"uv_index":8.9,"wind_gusts":23.0,"aqi":103,"pm10":69.8,"pm2_5":65.2,"no2":25.5,"co":646.0,"o3":54.0,"so2":9.5,"mosquito_risk":3,"arthritis_risk":5,"migraine_risk":4,"frizz_risk":1,"updated_at":"2026-05-13T02:15:30.231052+05:30"},{"city":"Dibrugarh","state":"Assam","latitude":27.4728,"longitude":94.912,"temp":22.5,"humidity":87,"rain":0.0,"pressure":994.5,"uv_index":8.85,"wind_gusts":23.4,"aqi":83,"pm10":42.0,"pm2_5":38.6,"no2":32.6,"co":629.0,"o3":19.0,"so2":2.1,"mosquito_risk":3,"arthritis_risk":5,"migraine_risk":7,"frizz_risk":1,"updated_at":"2026-05-13T02:15:30.231060+05:30"}]