[{"city":"Delhi","state":"Delhi","latitude":28.6139,"longitude":77.209,"temp":29.0,"humidity":52,"rain":0.0,"pressure":981.5,"uv_index":7.6,"wind_gusts":43.6,"aqi":462,"pm10":249.6,"pm2_5":56.6,"no2":15.3,"co":518.0,"o3":130.0,"so2":21.5,"mosquito_risk":4,"arthritis_risk":5,"migraine_risk":7,"frizz_risk":1,"updated_at":"2026-05-03T23:20:23.201350+05:30"},{"city":"Mumbai","state":"Maharashtra","latitude":19.076,"longitude":72.8777,"temp":29.0,"humidity":77,"rain":0.0,"pressure":1008.0,"uv_index":7.85,"wind_gusts":41.0,"aqi":69,"pm10":35.7,"pm2_5":17.0,"no2":10.5,"co":224.0,"o3":63.0,"so2":17.6,"mosquito_risk":7,"arthritis_risk":0,"migraine_risk":4,"frizz_risk":1,"updated_at":"2026-05-03T23:20:23.201418+05:30"},{"city":"Bangalore","state":"Karnataka","latitude":12.9716,"longitude":77.5946,"temp":25.4,"humidity":53,"rain":0.0,"pressure":911.6,"uv_index":7.85,"wind_gusts":29.2,"aqi":79,"pm10":58.2,"pm2_5":37.0,"no2":63.3,"co":1195.0,"o3":38.0,"so2":16.4,"mosquito_risk":4,"arthritis_risk":5,"migraine_risk":7,"frizz_risk":0,"updated_at":"2026-05-03T23:20:23.201437+05:30"},{"city":"Hyderabad","state":"Telangana","latitude":17.385,"longitude":78.4867,"temp":31.0,"humidity":40,"rain":0.0,"pressure":952.0,"uv_index":9.25,"wind_gusts":33.8,"aqi":71,"pm10":79.6,"pm2_5":52.3,"no2":63.3,"co":671.0,"o3":29.0,"so2":19.7,"mosquito_risk":0,"arthritis_risk":5,"migraine_risk":7,"frizz_risk":0,"updated_at":"2026-05-03T23:20:23.201450+05:30"},{"city":"Chennai","state":"Tamil Nadu","latitude":13.0827,"longitude":80.2707,"temp":30.2,"humidity":85,"rain":0.0,"pressure":1005.7,"uv_index":8.65,"wind_gusts":51.1,"aqi":149,"pm10":31.2,"pm2_5":25.0,"no2":7.0,"co":228.0,"o3":128.0,"so2":3.1,"mosquito_risk":3,"arthritis_risk":5,"migraine_risk":4,"frizz_risk":1,"updated_at":"2026-05-03T23:20:23.201465+05:30"},{"city":"Kolkata","state":"West Bengal","latitude":22.5726,"longitude":88.3639,"temp":25.2,"humidity":91,"rain":0.0,"pressure":1006.3,"uv_index":8.95,"wind_gusts":42.8,"aqi":114,"pm10":61.2,"pm2_5":52.3,"no2":18.8,"co":537.0,"o3":71.0,"so2":15.3,"mosquito_risk":7,"arthritis_risk":5,"migraine_risk":4,"frizz_risk":1,"updated_at":"2026-05-03T23:20:23.201475+05:30"},{"city":"Pune","state":"Maharashtra","latitude":18.5204,"longitude":73.8567,"temp":24.8,"humidity":74,"rain":0.0,"pressure":947.9,"uv_index":8.5,"wind_gusts":47.9,"aqi":60,"pm10":26.5,"pm2_5":13.2,"no2":11.8,"co":250.0,"o3":59.0,"so2":9.2,"mosquito_risk":3,"arthritis_risk":5,"migraine_risk":7,"frizz_risk":1,"updated_at":"2026-05-03T23:20:23.201486+05:30"},{"city":"Ahmedabad","state":"Gujarat","latitude":23.0225,"longitude":72.5714,"temp":30.6,"humidity":71,"rain":0.0,"pressure":998.0,"uv_index":8.1,"wind_gusts":47.5,"aqi":62,"pm10":34.5,"pm2_5":15.5,"no2":7.1,"co":288.0,"o3":88.0,"so2":6.9,"mosquito_risk":3,"arthritis_risk":5,"migraine_risk":7,"frizz_risk":1,"updated_at":"2026-05-03T23:20:23.201497+05:30"},{"city":"Jaipur","state":"Rajasthan","latitude":26.9124,"longitude":75.7873,"temp":28.2,"humidity":45,"rain":0.0,"pressure":956.7,"uv_index":8.15,"wind_gusts":43.2,"aqi":113,"pm10":81.5,"pm2_5":35.9,"no2":31.4,"co":340.0,"o3":52.0,"so2":8.7,"mosquito_risk":4,"arthritis_risk":5,"migraine_risk":7,"frizz_risk":0,"updated_at":"2026-05-03T23:20:23.201507+05:30"},{"city":"Lucknow","state":"Uttar Pradesh","latitude":26.8467,"longitude":80.9462,"temp":26.9,"humidity":63,"rain":0.0,"pressure":993.2,"uv_index":8.1,"wind_gusts":36.4,"aqi":140,"pm10":53.2,"pm2_5":38.8,"no2":7.6,"co":372.0,"o3":137.0,"so2":8.3,"mosquito_risk":7,"arthritis_risk":5,"migraine_risk":7,"frizz_risk":1,"updated_at":"2026-05-03T23:20:23.201515+05:30"},{"city":"Kanpur","state":"Uttar Pradesh","latitude":26.4499,"longitude":80.3319,"temp":28.3,"humidity":59,"rain":0.0,"pressure":990.7,"uv_index":8.1,"wind_gusts":38.2,"aqi":176,"pm10":536.4,"pm2_5":79.2,"no2":6.5,"co":332.0,"o3":141.0,"so2":8.9,"mosquito_risk":4,"arthritis_risk":5,"migraine_risk":7,"frizz_risk":1,"updated_at":"2026-05-03T23:20:23.201523+05:30"},{"city":"Chandigarh","state":"Chandigarh","latitude":30.7333,"longitude":76.7794,"temp":23.5,"humidity":56,"rain":0.0,"pressure":966.5,"uv_index":7.6,"wind_gusts":62.3,"aqi":120,"pm10":112.9,"pm2_5":43.9,"no2":22.3,"co":549.0,"o3":89.0,"so2":11.4,"mosquito_risk":0,"arthritis_risk":5,"migraine_risk":7,"frizz_risk":0,"updated_at":"2026-05-03T23:20:23.201531+05:30"},{"city":"Srinagar","state":"Jammu and Kashmir","latitude":34.0837,"longitude":74.7973,"temp":10.6,"humidity":98,"rain":0.0,"pressure":841.1,"uv_index":8.75,"wind_gusts":38.9,"aqi":72,"pm10":29.6,"pm2_5":20.5,"no2":13.2,"co":1150.0,"o3":104.0,"so2":3.4,"mosquito_risk":3,"arthritis_risk":10,"migraine_risk":7,"frizz_risk":0,"updated_at":"2026-05-03T23:20:23.201540+05:30"},{"city":"Jammu","state":"Jammu and Kashmir","latitude":32.7266,"longitude":74.857,"temp":23.4,"humidity":56,"rain":0.0,"pressure":971.3,"uv_index":8.25,"wind_gusts":32.4,"aqi":119,"pm10":53.3,"pm2_5":35.6,"no2":21.8,"co":323.0,"o3":93.0,"so2":7.3,"mosquito_risk":0,"arthritis_risk":5,"migraine_risk":7,"frizz_risk":0,"updated_at":"2026-05-03T23:20:23.201549+05:30"},{"city":"Amritsar","state":"Punjab","latitude":31.634,"longitude":74.8723,"temp":22.8,"humidity":64,"rain":0.0,"pressure":979.4,"uv_index":8.1,"wind_gusts":51.5,"aqi":142,"pm10":134.1,"pm2_5":47.5,"no2":7.2,"co":446.0,"o3":126.0,"so2":8.2,"mosquito_risk":3,"arthritis_risk":5,"migraine_risk":7,"frizz_risk":0,"updated_at":"2026-05-03T23:20:23.201557+05:30"},{"city":"Ludhiana","state":"Punjab","latitude":30.901,"longitude":75.8573,"temp":24.8,"humidity":54,"rain":0.0,"pressure":977.3,"uv_index":7.85,"wind_gusts":47.9,"aqi":195,"pm10":377.2,"pm2_5":82.2,"no2":11.3,"co":551.0,"o3":112.0,"so2":8.9,"mosquito_risk":0,"arthritis_risk":5,"migraine_risk":7,"frizz_risk":0,"updated_at":"2026-05-03T23:20:23.201565+05:30"},{"city":"Jalandhar","state":"Punjab","latitude":31.326,"longitude":75.5762,"temp":23.1,"humidity":63,"rain":0.0,"pressure":978.3,"uv_index":8.05,"wind_gusts":49.7,"aqi":146,"pm10":286.8,"pm2_5":66.8,"no2":9.9,"co":467.0,"o3":117.0,"so2":7.4,"mosquito_risk":3,"arthritis_risk":5,"migraine_risk":7,"frizz_risk":0,"updated_at":"2026-05-03T23:20:23.201572+05:30"},{"city":"Dehradun","state":"Uttarakhand","latitude":30.6284,"longitude":78.0322,"temp":12.6,"humidity":91,"rain":0.0,"pressure":828.1,"uv_index":7.45,"wind_gusts":42.5,"aqi":83,"pm10":58.9,"pm2_5":30.4,"no2":29.0,"co":310.0,"o3":69.0,"so2":2.1,"mosquito_risk":3,"arthritis_risk":10,"migraine_risk":7,"frizz_risk":0,"updated_at":"2026-05-03T23:20:23.201582+05:30"},{"city":"Shimla","state":"Himachal Pradesh","latitude":31.1048,"longitude":77.1734,"temp":10.6,"humidity":71,"rain":0.0,"pressure":780.8,"uv_index":7.65,"wind_gusts":42.1,"aqi":123,"pm10":98.3,"pm2_5":35.0,"no2":22.0,"co":336.0,"o3":103.0,"so2":9.7,"mosquito_risk":3,"arthritis_risk":5,"migraine_risk":7,"frizz_risk":0,"updated_at":"2026-05-03T23:20:23.201590+05:30"},{"city":"Manali","state":"Himachal Pradesh","latitude":32.2396,"longitude":77.1887,"temp":9.0,"humidity":78,"rain":0.1,"pressure":814.6,"uv_index":9.7,"wind_gusts":40.7,"aqi":113,"pm10":11.4,"pm2_5":8.1,"no2":18.1,"co":251.0,"o3":124.0,"so2":0.3,"mosquito_risk":6,"arthritis_risk":5,"migraine_risk":7,"frizz_risk":0,"updated_at":"2026-05-03T23:20:23.201597+05:30"},{"city":"Gurgaon","state":"Haryana","latitude":28.4595,"longitude":77.0266,"temp":25.9,"humidity":67,"rain":0.0,"pressure":980.0,"uv_index":7.7,"wind_gusts":45.7,"aqi":1393,"pm10":2510.8,"pm2_5":272.9,"no2":17.1,"co":551.0,"o3":120.0,"so2":20.4,"mosquito_risk":7,"arthritis_risk":5,"migraine_risk":7,"frizz_risk":1,"updated_at":"2026-05-03T23:20:23.201605+05:30"},{"city":"Noida","state":"Uttar Pradesh","latitude":28.5355,"longitude":77.391,"temp":26.4,"humidity":63,"rain":0.0,"pressure":983.0,"uv_index":7.6,"wind_gusts":45.4,"aqi":1393,"pm10":2510.8,"pm2_5":272.9,"no2":17.1,"co":485.0,"o3":120.0,"so2":20.4,"mosquito_risk":7,"arthritis_risk":5,"migraine_risk":7,"frizz_risk":1,"updated_at":"2026-05-03T23:20:23.201612+05:30"},{"city":"Ghaziabad","state":"Uttar Pradesh","latitude":28.6692,"longitude":77.4538,"temp":26.9,"humidity":59,"rain":0.0,"pressure":981.0,"uv_index":7.6,"wind_gusts":50.4,"aqi":294,"pm10":172.8,"pm2_5":48.3,"no2":6.7,"co":409.0,"o3":142.0,"so2":17.2,"mosquito_risk":4,"arthritis_risk":5,"migraine_risk":7,"frizz_risk":1,"updated_at":"2026-05-03T23:20:23.201619+05:30"},{"city":"Faridabad","state":"Haryana","latitude":28.4089,"longitude":77.3178,"temp":26.1,"humidity":65,"rain":0.0,"pressure":982.8,"uv_index":7.65,"wind_gusts":49.0,"aqi":1393,"pm10":2510.8,"pm2_5":272.9,"no2":17.1,"co":485.0,"o3":120.0,"so2":20.4,"mosquito_risk":7,"arthritis_risk":5,"migraine_risk":7,"frizz_risk":1,"updated_at":"2026-05-03T23:20:23.201628+05:30"},{"city":"Meerut","state":"Uttar Pradesh","latitude":28.9845,"longitude":77.7064,"temp":25.6,"humidity":65,"rain":0.0,"pressure":980.2,"uv_index":7.45,"wind_gusts":47.5,"aqi":294,"pm10":172.8,"pm2_5":48.3,"no2":6.7,"co":436.0,"o3":142.0,"so2":17.2,"mosquito_risk":7,"arthritis_risk":5,"migraine_risk":7,"frizz_risk":1,"updated_at":"2026-05-03T23:20:23.201635+05:30"},{"city":"Agra","state":"Uttar Pradesh","latitude":27.1767,"longitude":78.0081,"temp":29.0,"humidity":49,"rain":0.0,"pressure":984.7,"uv_index":7.95,"wind_gusts":69.8,"aqi":772,"pm10":1743.4,"pm2_5":195.6,"no2":13.3,"co":350.0,"o3":113.0,"so2":13.9,"mosquito_risk":4,"arthritis_risk":5,"migraine_risk":7,"frizz_risk":1,"updated_at":"2026-05-03T23:20:23.201642+05:30"},{"city":"Varanasi","state":"Uttar Pradesh","latitude":25.3176,"longitude":82.9739,"temp":28.0,"humidity":59,"rain":0.0,"pressure":997.3,"uv_index":8.65,"wind_gusts":36.4,"aqi":184,"pm10":71.2,"pm2_5":64.7,"no2":10.5,"co":398.0,"o3":153.0,"so2":17.3,"mosquito_risk":4,"arthritis_risk":5,"migraine_risk":7,"frizz_risk":1,"updated_at":"2026-05-03T23:20:23.201651+05:30"},{"city":"Prayagraj","state":"Uttar Pradesh","latitude":25.4358,"longitude":81.8463,"temp":28.0,"humidity":61,"rain":0.0,"pressure":995.2,"uv_index":8.5,"wind_gusts":36.0,"aqi":171,"pm10":60.1,"pm2_5":53.9,"no2":9.8,"co":378.0,"o3":141.0,"so2":11.3,"mosquito_risk":7,"arthritis_risk":5,"migraine_risk":7,"frizz_risk":1,"updated_at":"2026-05-03T23:20:23.201661+05:30"},{"city":"Gorakhpur","state":"Uttar Pradesh","latitude":26.7606,"longitude":83.3732,"temp":24.6,"humidity":73,"rain":0.0,"pressure":998.5,"uv_index":7.95,"wind_gusts":37.8,"aqi":138,"pm10":41.1,"pm2_5":32.4,"no2":8.8,"co":408.0,"o3":125.0,"so2":6.7,"mosquito_risk":3,"arthritis_risk":5,"migraine_risk":7,"frizz_risk":1,"updated_at":"2026-05-03T23:20:23.201668+05:30"},{"city":"Bareilly","state":"Uttar Pradesh","latitude":28.367,"longitude":79.4304,"temp":26.4,"humidity":60,"rain":0.0,"pressure":986.1,"uv_index":7.9,"wind_gusts":42.1,"aqi":135,"pm10":74.7,"pm2_5":38.3,"no2":9.2,"co":328.0,"o3":103.0,"so2":7.7,"mosquito_risk":4,"arthritis_risk":5,"migraine_risk":7,"frizz_risk":1,"updated_at":"2026-05-03T23:20:23.201675+05:30"},{"city":"Aligarh","state":"Uttar Pradesh","latitude":27.8974,"longitude":78.088,"temp":27.2,"humidity":58,"rain":0.0,"pressure":983.1,"uv_index":7.75,"wind_gusts":50.4,"aqi":801,"pm10":1043.1,"pm2_5":129.9,"no2":7.0,"co":381.0,"o3":136.0,"so2":15.7,"mosquito_risk":4,"arthritis_risk":5,"migraine_risk":7,"frizz_risk":1,"updated_at":"2026-05-03T23:20:23.201682+05:30"},{"city":"Moradabad","state":"Uttar Pradesh","latitude":28.8386,"longitude":78.7733,"temp":26.0,"humidity":62,"rain":0.0,"pressure":982.9,"uv_index":7.7,"wind_gusts":46.8,"aqi":125,"pm10":101.5,"pm2_5":48.0,"no2":16.2,"co":366.0,"o3":97.0,"so2":9.5,"mosquito_risk":7,"arthritis_risk":5,"migraine_risk":7,"frizz_risk":1,"updated_at":"2026-05-03T23:20:23.201689+05:30"},{"city":"Saharanpur","state":"Uttar Pradesh","latitude":29.9637,"longitude":77.546,"temp":25.1,"humidity":67,"rain":0.0,"pressure":974.3,"uv_index":7.3,"wind_gusts":45.4,"aqi":144,"pm10":91.3,"pm2_5":44.9,"no2":12.1,"co":446.0,"o3":122.0,"so2":13.5,"mosquito_risk":7,"arthritis_risk":5,"migraine_risk":7,"frizz_risk":1,"updated_at":"2026-05-03T23:20:23.201696+05:30"},{"city":"Jhansi","state":"Uttar Pradesh","latitude":25.4484,"longitude":78.5685,"temp":29.8,"humidity":46,"rain":0.0,"pressure":975.3,"uv_index":8.4,"wind_gusts":29.5,"aqi":107,"pm10":66.8,"pm2_5":24.0,"no2":4.7,"co":296.0,"o3":108.0,"so2":15.2,"mosquito_risk":4,"arthritis_risk":5,"migraine_risk":7,"frizz_risk":1,"updated_at":"2026-05-03T23:20:26.458772+05:30"},{"city":"Surat","state":"Gujarat","latitude":21.1702,"longitude":72.8311,"temp":29.0,"humidity":82,"rain":0.0,"pressure":1004.5,"uv_index":7.7,"wind_gusts":55.8,"aqi":60,"pm10":24.0,"pm2_5":14.9,"no2":15.7,"co":244.0,"o3":59.0,"so2":26.0,"mosquito_risk":7,"arthritis_risk":5,"migraine_risk":4,"frizz_risk":1,"updated_at":"2026-05-03T23:20:26.458810+05:30"},{"city":"Vadodara","state":"Gujarat","latitude":22.3072,"longitude":73.1812,"temp":29.1,"humidity":80,"rain":0.0,"pressure":1001.0,"uv_index":8.05,"wind_gusts":51.8,"aqi":53,"pm10":18.8,"pm2_5":12.1,"no2":12.1,"co":255.0,"o3":60.0,"so2":15.9,"mosquito_risk":7,"arthritis_risk":5,"migraine_risk":4,"frizz_risk":1,"updated_at":"2026-05-03T23:20:26.458821+05:30"},{"city":"Rajkot","state":"Gujarat","latitude":22.3039,"longitude":70.8022,"temp":29.1,"humidity":67,"rain":0.0,"pressure":990.7,"uv_index":7.7,"wind_gusts":51.1,"aqi":49,"pm10":28.7,"pm2_5":13.3,"no2":4.9,"co":174.0,"o3":74.0,"so2":6.5,"mosquito_risk":7,"arthritis_risk":5,"migraine_risk":7,"frizz_risk":1,"updated_at":"2026-05-03T23:20:26.458830+05:30"},{"city":"Thane","state":"Maharashtra","latitude":19.2183,"longitude":72.9781,"temp":28.8,"humidity":77,"rain":0.0,"pressure":1007.4,"uv_index":7.9,"wind_gusts":39.6,"aqi":69,"pm10":35.7,"pm2_5":17.0,"no2":10.5,"co":233.0,"o3":63.0,"so2":17.6,"mosquito_risk":7,"arthritis_risk":5,"migraine_risk":4,"frizz_risk":1,"updated_at":"2026-05-03T23:20:26.458838+05:30"},{"city":"Nagpur","state":"Maharashtra","latitude":21.1458,"longitude":79.0882,"temp":32.5,"humidity":21,"rain":0.0,"pressure":969.9,"uv_index":8.9,"wind_gusts":37.1,"aqi":78,"pm10":77.3,"pm2_5":29.3,"no2":17.0,"co":330.0,"o3":73.0,"so2":12.2,"mosquito_risk":0,"arthritis_risk":5,"migraine_risk":7,"frizz_risk":0,"updated_at":"2026-05-03T23:20:26.458846+05:30"},{"city":"Nashik","state":"Maharashtra","latitude":19.9975,"longitude":73.7898,"temp":23.9,"humidity":82,"rain":0.0,"pressure":944.8,"uv_index":8.15,"wind_gusts":49.0,"aqi":62,"pm10":24.4,"pm2_5":13.3,"no2":10.4,"co":208.0,"o3":64.0,"so2":11.8,"mosquito_risk":3,"arthritis_risk":5,"migraine_risk":7,"frizz_risk":1,"updated_at":"2026-05-03T23:20:26.458854+05:30"},{"city":"Aurangabad","state":"Maharashtra","latitude":19.8762,"longitude":75.3433,"temp":28.5,"humidity":38,"rain":0.0,"pressure":943.4,"uv_index":9.05,"wind_gusts":50.8,"aqi":56,"pm10":24.4,"pm2_5":12.1,"no2":6.6,"co":180.0,"o3":86.0,"so2":8.6,"mosquito_risk":4,"arthritis_risk":5,"migraine_risk":7,"frizz_risk":0,"updated_at":"2026-05-03T23:20:26.458861+05:30"},{"city":"Solapur","state":"Maharashtra","latitude":17.6599,"longitude":75.9064,"temp":31.7,"humidity":29,"rain":0.0,"pressure":956.0,"uv_index":9.1,"wind_gusts":40.7,"aqi":57,"pm10":28.9,"pm2_5":14.8,"no2":6.3,"co":207.0,"o3":87.0,"so2":3.4,"mosquito_risk":0,"arthritis_risk":5,"migraine_risk":7,"frizz_risk":0,"updated_at":"2026-05-03T23:20:26.458869+05:30"},{"city":"Kolhapur","state":"Maharashtra","latitude":16.705,"longitude":74.2433,"temp":23.6,"humidity":88,"rain":0.0,"pressure":948.0,"uv_index":8.95,"wind_gusts":47.2,"aqi":62,"pm10":27.8,"pm2_5":14.3,"no2":8.2,"co":205.0,"o3":60.0,"so2":2.8,"mosquito_risk":3,"arthritis_risk":5,"migraine_risk":7,"frizz_risk":1,"updated_at":"2026-05-03T23:20:26.458876+05:30"},{"city":"Goa","state":"Goa","latitude":15.2993,"longitude":74.124,"temp":28.4,"humidity":77,"rain":0.0,"pressure":998.5,"uv_index":8.9,"wind_gusts":36.7,"aqi":67,"pm10":53.6,"pm2_5":20.6,"no2":6.4,"co":208.0,"o3":60.0,"so2":1.8,"mosquito_risk":7,"arthritis_risk":5,"migraine_risk":7,"frizz_risk":1,"updated_at":"2026-05-03T23:20:26.458883+05:30"},{"city":"Jodhpur","state":"Rajasthan","latitude":26.2389,"longitude":73.0243,"temp":28.8,"humidity":52,"rain":0.0,"pressure":977.5,"uv_index":8.3,"wind_gusts":69.8,"aqi":119,"pm10":218.4,"pm2_5":37.1,"no2":4.2,"co":328.0,"o3":104.0,"so2":3.2,"mosquito_risk":4,"arthritis_risk":5,"migraine_risk":7,"frizz_risk":1,"updated_at":"2026-05-03T23:20:26.458891+05:30"},{"city":"Udaipur","state":"Rajasthan","latitude":24.5854,"longitude":73.7125,"temp":27.4,"humidity":41,"rain":0.0,"pressure":942.7,"uv_index":8.8,"wind_gusts":39.2,"aqi":78,"pm10":45.1,"pm2_5":16.1,"no2":4.2,"co":193.0,"o3":101.0,"so2":3.3,"mosquito_risk":4,"arthritis_risk":5,"migraine_risk":7,"frizz_risk":0,"updated_at":"2026-05-03T23:20:26.458899+05:30"},{"city":"Kota","state":"Rajasthan","latitude":25.2138,"longitude":75.8648,"temp":32.0,"humidity":27,"rain":0.0,"pressure":974.3,"uv_index":8.35,"wind_gusts":37.8,"aqi":72,"pm10":19.1,"pm2_5":11.9,"no2":5.2,"co":203.0,"o3":106.0,"so2":7.1,"mosquito_risk":0,"arthritis_risk":5,"migraine_risk":7,"frizz_risk":0,"updated_at":"2026-05-03T23:20:26.458906+05:30"},{"city":"Bikaner","state":"Rajasthan","latitude":28.0229,"longitude":73.3119,"temp":31.0,"humidity":29,"rain":0.0,"pressure":977.6,"uv_index":8.25,"wind_gusts":44.3,"aqi":83,"pm10":153.2,"pm2_5":34.8,"no2":2.0,"co":172.0,"o3":112.0,"so2":5.2,"mosquito_risk":0,"arthritis_risk":5,"migraine_risk":7,"frizz_risk":0,"updated_at":"2026-05-03T23:20:26.458914+05:30"},{"city":"Ajmer","state":"Rajasthan","latitude":26.4499,"longitude":74.6399,"temp":29.2,"humidity":34,"rain":0.0,"pressure":951.3,"uv_index":8.3,"wind_gusts":45.4,"aqi":69,"pm10":56.7,"pm2_5":19.7,"no2":6.0,"co":206.0,"o3":94.0,"so2":4.4,"mosquito_risk":4,"arthritis_risk":5,"migraine_risk":7,"frizz_risk":0,"updated_at":"2026-05-03T23:20:26.458921+05:30"},{"city":"Gwalior","state":"Madhya Pradesh","latitude":26.2183,"longitude":78.1828,"temp":30.5,"humidity":41,"rain":0.0,"pressure":980.2,"uv_index":8.15,"wind_gusts":42.8,"aqi":82,"pm10":62.9,"pm2_5":24.6,"no2":5.3,"co":291.0,"o3":97.0,"so2":6.9,"mosquito_risk":0,"arthritis_risk":5,"migraine_risk":7,"frizz_risk":0,"updated_at":"2026-05-03T23:20:26.458928+05:30"},{"city":"Indore","state":"Madhya Pradesh","latitude":22.7196,"longitude":75.8577,"temp":30.4,"humidity":34,"rain":0.0,"pressure":945.9,"uv_index":8.7,"wind_gusts":41.8,"aqi":73,"pm10":16.4,"pm2_5":12.4,"no2":5.6,"co":256.0,"o3":107.0,"so2":6.6,"mosquito_risk":0,"arthritis_risk":5,"migraine_risk":7,"frizz_risk":0,"updated_at":"2026-05-03T23:20:26.458935+05:30"},{"city":"Bhopal","state":"Madhya Pradesh","latitude":23.2599,"longitude":77.4126,"temp":31.6,"humidity":19,"rain":0.0,"pressure":950.6,"uv_index":8.65,"wind_gusts":32.4,"aqi":68,"pm10":62.4,"pm2_5":27.7,"no2":13.1,"co":308.0,"o3":60.0,"so2":4.9,"mosquito_risk":0,"arthritis_risk":5,"migraine_risk":7,"frizz_risk":0,"updated_at":"2026-05-03T23:20:26.458942+05:30"},{"city":"Jabalpur","state":"Madhya Pradesh","latitude":23.1815,"longitude":79.9864,"temp":28.3,"humidity":30,"rain":0.0,"pressure":958.5,"uv_index":8.85,"wind_gusts":29.2,"aqi":70,"pm10":70.3,"pm2_5":25.6,"no2":13.7,"co":317.0,"o3":74.0,"so2":4.3,"mosquito_risk":4,"arthritis_risk":5,"migraine_risk":7,"frizz_risk":0,"updated_at":"2026-05-03T23:20:26.458949+05:30"},{"city":"Ujjain","state":"Madhya Pradesh","latitude":23.1765,"longitude":75.7885,"temp":30.5,"humidity":33,"rain":0.0,"pressure":951.1,"uv_index":8.6,"wind_gusts":42.5,"aqi":75,"pm10":17.1,"pm2_5":12.7,"no2":3.4,"co":209.0,"o3":103.0,"so2":4.9,"mosquito_risk":0,"arthritis_risk":5,"migraine_risk":7,"frizz_risk":0,"updated_at":"2026-05-03T23:20:26.458957+05:30"},{"city":"Visakhapatnam","state":"Andhra Pradesh","latitude":17.6868,"longitude":83.2185,"temp":28.0,"humidity":95,"rain":0.0,"pressure":1003.3,"uv_index":9.15,"wind_gusts":47.5,"aqi":67,"pm10":30.9,"pm2_5":24.1,"no2":21.8,"co":329.0,"o3":77.0,"so2":4.3,"mosquito_risk":7,"arthritis_risk":5,"migraine_risk":4,"frizz_risk":1,"updated_at":"2026-05-03T23:20:26.458964+05:30"},{"city":"Vijayawada","state":"Andhra Pradesh","latitude":16.5062,"longitude":80.648,"temp":29.4,"humidity":82,"rain":0.0,"pressure":1001.0,"uv_index":9.15,"wind_gusts":29.2,"aqi":141,"pm10":36.0,"pm2_5":29.6,"no2":6.1,"co":373.0,"o3":125.0,"so2":6.1,"mosquito_risk":7,"arthritis_risk":5,"migraine_risk":4,"frizz_risk":1,"updated_at":"2026-05-03T23:20:26.458972+05:30"},{"city":"Guntur","state":"Andhra Pradesh","latitude":16.3067,"longitude":80.4365,"temp":30.2,"humidity":74,"rain":0.0,"pressure":1002.3,"uv_index":9.2,"wind_gusts":34.6,"aqi":103,"pm10":36.8,"pm2_5":30.4,"no2":9.0,"co":298.0,"o3":125.0,"so2":7.4,"mosquito_risk":3,"arthritis_risk":5,"migraine_risk":4,"frizz_risk":1,"updated_at":"2026-05-03T23:20:26.458979+05:30"},{"city":"Nellore","state":"Andhra Pradesh","latitude":14.4426,"longitude":79.9865,"temp":30.4,"humidity":68,"rain":0.0,"pressure":1004.0,"uv_index":9.2,"wind_gusts":37.1,"aqi":150,"pm10":33.3,"pm2_5":28.9,"no2":7.5,"co":315.0,"o3":141.0,"so2":9.6,"mosquito_risk":3,"arthritis_risk":5,"migraine_risk":4,"frizz_risk":1,"updated_at":"2026-05-03T23:20:26.458988+05:30"},{"city":"Kurnool","state":"Andhra Pradesh","latitude":15.8281,"longitude":78.0373,"temp":32.5,"humidity":27,"rain":0.0,"pressure":974.2,"uv_index":9.15,"wind_gusts":41.4,"aqi":64,"pm10":58.4,"pm2_5":31.0,"no2":17.7,"co":534.0,"o3":82.0,"so2":8.1,"mosquito_risk":0,"arthritis_risk":5,"migraine_risk":7,"frizz_risk":0,"updated_at":"2026-05-03T23:20:26.458996+05:30"},{"city":"Kakinada","state":"Andhra Pradesh","latitude":16.9891,"longitude":82.2475,"temp":28.2,"humidity":93,"rain":0.0,"pressure":1006.7,"uv_index":9.15,"wind_gusts":33.1,"aqi":62,"pm10":31.2,"pm2_5":22.4,"no2":1.9,"co":294.0,"o3":108.0,"so2":2.4,"mosquito_risk":7,"arthritis_risk":5,"migraine_risk":4,"frizz_risk":1,"updated_at":"2026-05-03T23:20:26.459003+05:30"},{"city":"Tirupati","state":"Andhra Pradesh","latitude":13.6288,"longitude":79.4192,"temp":30.1,"humidity":61,"rain":0.0,"pressure":990.1,"uv_index":7.25,"wind_gusts":27.4,"aqi":88,"pm10":35.6,"pm2_5":31.8,"no2":15.4,"co":344.0,"o3":115.0,"so2":7.3,"mosquito_risk":3,"arthritis_risk":5,"migraine_risk":7,"frizz_risk":1,"updated_at":"2026-05-03T23:20:26.459010+05:30"},{"city":"Warangal","state":"Telangana","latitude":17.9689,"longitude":79.5941,"temp":30.0,"humidity":58,"rain":0.0,"pressure":976.7,"uv_index":9.15,"wind_gusts":38.9,"aqi":85,"pm10":62.6,"pm2_5":44.1,"no2":19.3,"co":321.0,"o3":83.0,"so2":12.3,"mosquito_risk":4,"arthritis_risk":5,"migraine_risk":7,"frizz_risk":1,"updated_at":"2026-05-03T23:20:26.459017+05:30"},{"city":"Nizamabad","state":"Telangana","latitude":18.6725,"longitude":78.0941,"temp":30.4,"humidity":25,"rain":0.0,"pressure":961.7,"uv_index":9.1,"wind_gusts":44.6,"aqi":75,"pm10":119.2,"pm2_5":47.0,"no2":31.4,"co":373.0,"o3":49.0,"so2":7.4,"mosquito_risk":0,"arthritis_risk":5,"migraine_risk":7,"frizz_risk":0,"updated_at":"2026-05-03T23:20:26.459023+05:30"},{"city":"Mysore","state":"Karnataka","latitude":12.2958,"longitude":76.6396,"temp":23.9,"humidity":85,"rain":0.0,"pressure":929.0,"uv_index":8.95,"wind_gusts":36.7,"aqi":67,"pm10":36.7,"pm2_5":20.8,"no2":13.0,"co":214.0,"o3":68.0,"so2":3.1,"mosquito_risk":3,"arthritis_risk":5,"migraine_risk":7,"frizz_risk":1,"updated_at":"2026-05-03T23:20:26.459029+05:30"},{"city":"Mangalore","state":"Karnataka","latitude":12.9141,"longitude":74.856,"temp":29.2,"humidity":72,"rain":0.0,"pressure":1007.6,"uv_index":9.0,"wind_gusts":42.8,"aqi":68,"pm10":50.6,"pm2_5":16.8,"no2":3.8,"co":234.0,"o3":61.0,"so2":1.8,"mosquito_risk":7,"arthritis_risk":5,"migraine_risk":4,"frizz_risk":1,"updated_at":"2026-05-03T23:20:26.459036+05:30"},{"city":"Hubli-Dharwad","state":"Karnataka","latitude":15.3647,"longitude":75.124,"temp":23.9,"humidity":89,"rain":0.0,"pressure":941.0,"uv_index":9.15,"wind_gusts":44.6,"aqi":58,"pm10":26.8,"pm2_5":12.9,"no2":6.4,"co":191.0,"o3":58.0,"so2":1.7,"mosquito_risk":3,"arthritis_risk":5,"migraine_risk":7,"frizz_risk":1,"updated_at":"2026-05-03T23:20:26.459044+05:30"},{"city":"Belgaum","state":"Karnataka","latitude":15.8497,"longitude":74.4977,"temp":22.0,"humidity":96,"rain":0.0,"pressure":925.7,"uv_index":9.15,"wind_gusts":45.0,"aqi":59,"pm10":29.5,"pm2_5":15.0,"no2":9.9,"co":181.0,"o3":47.0,"so2":2.1,"mosquito_risk":3,"arthritis_risk":5,"migraine_risk":7,"frizz_risk":1,"updated_at":"2026-05-03T23:20:29.713315+05:30"},{"city":"Coimbatore","state":"Tamil Nadu","latitude":11.0168,"longitude":76.9558,"temp":26.2,"humidity":78,"rain":0.0,"pressure":962.3,"uv_index":9.25,"wind_gusts":49.0,"aqi":63,"pm10":35.7,"pm2_5":23.3,"no2":10.4,"co":222.0,"o3":59.0,"so2":3.8,"mosquito_risk":7,"arthritis_risk":5,"migraine_risk":7,"frizz_risk":1,"updated_at":"2026-05-03T23:20:29.713351+05:30"},{"city":"Madurai","state":"Tamil Nadu","latitude":9.9252,"longitude":78.1198,"temp":31.0,"humidity":56,"rain":0.0,"pressure":992.9,"uv_index":8.9,"wind_gusts":33.1,"aqi":96,"pm10":29.9,"pm2_5":26.3,"no2":23.3,"co":417.0,"o3":58.0,"so2":6.6,"mosquito_risk":0,"arthritis_risk":5,"migraine_risk":7,"frizz_risk":1,"updated_at":"2026-05-03T23:20:29.713363+05:30"},{"city":"Trichy","state":"Tamil Nadu","latitude":10.7905,"longitude":78.7047,"temp":30.7,"humidity":53,"rain":0.0,"pressure":999.3,"uv_index":9.2,"wind_gusts":40.0,"aqi":107,"pm10":31.4,"pm2_5":27.3,"no2":14.6,"co":299.0,"o3":89.0,"so2":4.5,"mosquito_risk":0,"arthritis_risk":5,"migraine_risk":7,"frizz_risk":1,"updated_at":"2026-05-03T23:20:29.713372+05:30"},{"city":"Salem","state":"Tamil Nadu","latitude":11.6643,"longitude":78.146,"temp":30.4,"humidity":58,"rain":0.0,"pressure":977.4,"uv_index":9.25,"wind_gusts":42.1,"aqi":122,"pm10":30.5,"pm2_5":24.2,"no2":13.6,"co":297.0,"o3":88.0,"so2":8.1,"mosquito_risk":0,"arthritis_risk":5,"migraine_risk":7,"frizz_risk":1,"updated_at":"2026-05-03T23:20:29.713380+05:30"},{"city":"Tirunelveli","state":"Tamil Nadu","latitude":8.7139,"longitude":77.7567,"temp":30.1,"humidity":64,"rain":0.0,"pressure":1003.2,"uv_index":8.15,"wind_gusts":36.0,"aqi":72,"pm10":24.3,"pm2_5":20.8,"no2":10.0,"co":247.0,"o3":57.0,"so2":2.7,"mosquito_risk":3,"arthritis_risk":5,"migraine_risk":4,"frizz_risk":1,"updated_at":"2026-05-03T23:20:29.713388+05:30"},{"city":"Vellore","state":"Tamil Nadu","latitude":12.9165,"longitude":79.1325,"temp":30.8,"humidity":64,"rain":0.0,"pressure":983.5,"uv_index":9.3,"wind_gusts":38.9,"aqi":89,"pm10":42.3,"pm2_5":38.1,"no2":12.2,"co":292.0,"o3":122.0,"so2":11.7,"mosquito_risk":3,"arthritis_risk":5,"migraine_risk":7,"frizz_risk":1,"updated_at":"2026-05-03T23:20:29.713395+05:30"},{"city":"Erode","state":"Tamil Nadu","latitude":11.341,"longitude":77.7172,"temp":29.0,"humidity":64,"rain":0.0,"pressure":988.9,"uv_index":9.25,"wind_gusts":46.1,"aqi":74,"pm10":26.1,"pm2_5":21.4,"no2":16.3,"co":225.0,"o3":62.0,"so2":3.6,"mosquito_risk":7,"arthritis_risk":5,"migraine_risk":7,"frizz_risk":1,"updated_at":"2026-05-03T23:20:29.713421+05:30"},{"city":"Kochi","state":"Kerala","latitude":9.9312,"longitude":76.2673,"temp":27.4,"humidity":96,"rain":0.0,"pressure":1010.0,"uv_index":9.05,"wind_gusts":32.0,"aqi":97,"pm10":73.8,"pm2_5":59.3,"no2":51.5,"co":524.0,"o3":5.0,"so2":12.3,"mosquito_risk":7,"arthritis_risk":0,"migraine_risk":4,"frizz_risk":1,"updated_at":"2026-05-03T23:20:29.713430+05:30"},{"city":"Thiruvananthapuram","state":"Kerala","latitude":8.5241,"longitude":76.9366,"temp":26.1,"humidity":96,"rain":0.0,"pressure":1009.3,"uv_index":8.65,"wind_gusts":36.0,"aqi":56,"pm10":28.2,"pm2_5":17.6,"no2":3.0,"co":405.0,"o3":68.0,"so2":1.3,"mosquito_risk":7,"arthritis_risk":0,"migraine_risk":4,"frizz_risk":1,"updated_at":"2026-05-03T23:20:29.713437+05:30"},{"city":"Kozhikode","state":"Kerala","latitude":11.2588,"longitude":75.7804,"temp":27.8,"humidity":86,"rain":0.0,"pressure":1008.9,"uv_index":9.0,"wind_gusts":42.1,"aqi":64,"pm10":65.2,"pm2_5":19.8,"no2":2.0,"co":262.0,"o3":70.0,"so2":0.9,"mosquito_risk":7,"arthritis_risk":0,"migraine_risk":4,"frizz_risk":1,"updated_at":"2026-05-03T23:20:29.713445+05:30"},{"city":"Thrissur","state":"Kerala","latitude":10.5276,"longitude":76.2144,"temp":26.8,"humidity":85,"rain":0.0,"pressure":1008.4,"uv_index":8.75,"wind_gusts":36.7,"aqi":94,"pm10":66.4,"pm2_5":44.4,"no2":31.7,"co":645.0,"o3":31.0,"so2":5.9,"mosquito_risk":7,"arthritis_risk":0,"migraine_risk":4,"frizz_risk":1,"updated_at":"2026-05-03T23:20:29.713453+05:30"},{"city":"Kannur","state":"Kerala","latitude":11.8745,"longitude":75.3704,"temp":29.2,"humidity":72,"rain":0.0,"pressure":1008.0,"uv_index":9.0,"wind_gusts":46.8,"aqi":66,"pm10":51.1,"pm2_5":16.9,"no2":4.2,"co":249.0,"o3":57.0,"so2":1.2,"mosquito_risk":7,"arthritis_risk":0,"migraine_risk":4,"frizz_risk":1,"updated_at":"2026-05-03T23:20:29.713460+05:30"},{"city":"Patna","state":"Bihar","latitude":25.5941,"longitude":85.1376,"temp":24.9,"humidity":82,"rain":0.0,"pressure":1001.7,"uv_index":8.55,"wind_gusts":41.8,"aqi":162,"pm10":56.2,"pm2_5":48.7,"no2":11.3,"co":421.0,"o3":131.0,"so2":10.3,"mosquito_risk":3,"arthritis_risk":5,"migraine_risk":4,"frizz_risk":1,"updated_at":"2026-05-03T23:20:29.713467+05:30"},{"city":"Gaya","state":"Bihar","latitude":24.7914,"longitude":85.0002,"temp":26.4,"humidity":72,"rain":0.0,"pressure":994.2,"uv_index":8.7,"wind_gusts":41.0,"aqi":179,"pm10":65.9,"pm2_5":58.4,"no2":8.9,"co":354.0,"o3":139.0,"so2":11.7,"mosquito_risk":7,"arthritis_risk":5,"migraine_risk":7,"frizz_risk":1,"updated_at":"2026-05-03T23:20:29.713475+05:30"},{"city":"Muzaffarpur","state":"Bihar","latitude":26.1209,"longitude":85.3647,"temp":24.3,"humidity":80,"rain":0.0,"pressure":1002.3,"uv_index":8.7,"wind_gusts":41.4,"aqi":118,"pm10":49.2,"pm2_5":42.5,"no2":14.6,"co":439.0,"o3":101.0,"so2":9.2,"mosquito_risk":3,"arthritis_risk":5,"migraine_risk":4,"frizz_risk":1,"updated_at":"2026-05-03T23:20:29.713482+05:30"},{"city":"Bhagalpur","state":"Bihar","latitude":25.2425,"longitude":87.0117,"temp":23.4,"humidity":90,"rain":0.0,"pressure":1003.3,"uv_index":8.65,"wind_gusts":41.8,"aqi":131,"pm10":53.4,"pm2_5":43.0,"no2":12.1,"co":359.0,"o3":102.0,"so2":7.7,"mosquito_risk":3,"arthritis_risk":5,"migraine_risk":4,"frizz_risk":1,"updated_at":"2026-05-03T23:20:29.713489+05:30"},{"city":"Ranchi","state":"Jharkhand","latitude":23.3441,"longitude":85.3096,"temp":22.9,"humidity":77,"rain":0.0,"pressure":937.7,"uv_index":9.25,"wind_gusts":29.2,"aqi":96,"pm10":52.2,"pm2_5":40.2,"no2":12.2,"co":458.0,"o3":112.0,"so2":19.7,"mosquito_risk":3,"arthritis_risk":5,"migraine_risk":7,"frizz_risk":1,"updated_at":"2026-05-03T23:20:29.713496+05:30"},{"city":"Jamshedpur","state":"Jharkhand","latitude":22.8046,"longitude":86.2029,"temp":25.0,"humidity":81,"rain":0.0,"pressure":991.0,"uv_index":9.05,"wind_gusts":38.5,"aqi":164,"pm10":46.8,"pm2_5":36.3,"no2":8.6,"co":319.0,"o3":106.0,"so2":12.5,"mosquito_risk":7,"arthritis_risk":5,"migraine_risk":7,"frizz_risk":1,"updated_at":"2026-05-03T23:20:29.713504+05:30"},{"city":"Dhanbad","state":"Jharkhand","latitude":23.7957,"longitude":86.4304,"temp":23.6,"humidity":90,"rain":0.0,"pressure":980.6,"uv_index":9.0,"wind_gusts":30.2,"aqi":162,"pm10":71.7,"pm2_5":62.9,"no2":36.8,"co":851.0,"o3":88.0,"so2":62.8,"mosquito_risk":3,"arthritis_risk":5,"migraine_risk":7,"frizz_risk":1,"updated_at":"2026-05-03T23:20:29.713511+05:30"},{"city":"Bokaro","state":"Jharkhand","latitude":23.6693,"longitude":86.1511,"temp":23.8,"humidity":90,"rain":0.0,"pressure":984.5,"uv_index":9.0,"wind_gusts":39.2,"aqi":203,"pm10":78.5,"pm2_5":68.0,"no2":39.4,"co":802.0,"o3":91.0,"so2":78.3,"mosquito_risk":3,"arthritis_risk":5,"migraine_risk":7,"frizz_risk":1,"updated_at":"2026-05-03T23:20:29.713518+05:30"},{"city":"Bhubaneswar","state":"Odisha","latitude":20.2961,"longitude":85.8245,"temp":26.1,"humidity":97,"rain":0.0,"pressure":1002.6,"uv_index":9.1,"wind_gusts":41.4,"aqi":70,"pm10":19.6,"pm2_5":16.3,"no2":7.0,"co":236.0,"o3":68.0,"so2":3.8,"mosquito_risk":7,"arthritis_risk":5,"migraine_risk":4,"frizz_risk":1,"updated_at":"2026-05-03T23:20:29.713525+05:30"},{"city":"Cuttack","state":"Odisha","latitude":20.4625,"longitude":85.8828,"temp":26.1,"humidity":95,"rain":0.0,"pressure":1004.4,"uv_index":9.15,"wind_gusts":41.0,"aqi":70,"pm10":19.6,"pm2_5":16.3,"no2":7.0,"co":277.0,"o3":68.0,"so2":3.8,"mosquito_risk":7,"arthritis_risk":5,"migraine_risk":4,"frizz_risk":1,"updated_at":"2026-05-03T23:20:29.713531+05:30"},{"city":"Rourkela","state":"Odisha","latitude":22.2604,"longitude":84.8536,"temp":27.1,"humidity":72,"rain":0.0,"pressure":984.1,"uv_index":8.95,"wind_gusts":38.5,"aqi":106,"pm10":91.3,"pm2_5":61.0,"no2":34.1,"co":324.0,"o3":71.0,"so2":34.3,"mosquito_risk":7,"arthritis_risk":5,"migraine_risk":7,"frizz_risk":1,"updated_at":"2026-05-03T23:20:29.713538+05:30"},{"city":"Raipur","state":"Chhattisgarh","latitude":21.2514,"longitude":81.6296,"temp":31.0,"humidity":27,"rain":0.0,"pressure":971.9,"uv_index":9.0,"wind_gusts":32.4,"aqi":98,"pm10":99.9,"pm2_5":74.7,"no2":52.2,"co":762.0,"o3":41.0,"so2":14.6,"mosquito_risk":0,"arthritis_risk":5,"migraine_risk":7,"frizz_risk":0,"updated_at":"2026-05-03T23:20:29.713544+05:30"},{"city":"Bhilai","state":"Chhattisgarh","latitude":21.1938,"longitude":81.3509,"temp":30.5,"humidity":29,"rain":0.0,"pressure":972.2,"uv_index":9.0,"wind_gusts":35.6,"aqi":91,"pm10":91.0,"pm2_5":58.4,"no2":48.8,"co":1026.0,"o3":42.0,"so2":12.0,"mosquito_risk":0,"arthritis_risk":5,"migraine_risk":7,"frizz_risk":0,"updated_at":"2026-05-03T23:20:29.713551+05:30"},{"city":"Guwahati","state":"Assam","latitude":26.1158,"longitude":91.7086,"temp":21.0,"humidity":97,"rain":0.0,"pressure":1004.7,"uv_index":7.2,"wind_gusts":19.1,"aqi":56,"pm10":20.5,"pm2_5":18.2,"no2":13.3,"co":398.0,"o3":50.0,"so2":2.0,"mosquito_risk":3,"arthritis_risk":5,"migraine_risk":4,"frizz_risk":1,"updated_at":"2026-05-03T23:20:29.713557+05:30"},{"city":"Agartala","state":"Tripura","latitude":23.8315,"longitude":91.2868,"temp":22.0,"humidity":96,"rain":0.0,"pressure":1008.5,"uv_index":8.7,"wind_gusts":36.7,"aqi":58,"pm10":12.3,"pm2_5":10.5,"no2":11.6,"co":230.0,"o3":61.0,"so2":1.8,"mosquito_risk":3,"arthritis_risk":0,"migraine_risk":4,"frizz_risk":1,"updated_at":"2026-05-03T23:20:29.713563+05:30"},{"city":"Shillong","state":"Meghalaya","latitude":25.5788,"longitude":91.8933,"temp":13.6,"humidity":93,"rain":0.0,"pressure":856.7,"uv_index":6.5,"wind_gusts":24.8,"aqi":44,"pm10":20.1,"pm2_5":17.5,"no2":14.2,"co":411.0,"o3":56.0,"so2":1.2,"mosquito_risk":3,"arthritis_risk":10,"migraine_risk":7,"frizz_risk":0,"updated_at":"2026-05-03T23:20:29.713570+05:30"},{"city":"Imphal","state":"Manipur","latitude":24.817,"longitude":93.9368,"temp":17.5,"humidity":97,"rain":0.0,"pressure":925.1,"uv_index":9.15,"wind_gusts":37.8,"aqi":63,"pm10":50.6,"pm2_5":41.0,"no2":32.5,"co":750.0,"o3":26.0,"so2":5.1,"mosquito_risk":3,"arthritis_risk":10,"migraine_risk":7,"frizz_risk":1,"updated_at":"2026-05-03T23:20:29.713577+05:30"},{"city":"Aizawl","state":"Mizoram","latitude":23.7271,"longitude":92.7176,"temp":15.7,"humidity":96,"rain":0.0,"pressure":892.8,"uv_index":8.5,"wind_gusts":55.1,"aqi":41,"pm10":20.4,"pm2_5":16.5,"no2":10.4,"co":345.0,"o3":36.0,"so2":0.8,"mosquito_risk":3,"arthritis_risk":10,"migraine_risk":7,"frizz_risk":0,"updated_at":"2026-05-03T23:20:29.713584+05:30"},{"city":"Kohima","state":"Nagaland","latitude":25.6701,"longitude":94.1077,"temp":13.6,"humidity":96,"rain":0.0,"pressure":855.2,"uv_index":4.25,"wind_gusts":24.8,"aqi":40,"pm10":13.3,"pm2_5":9.8,"no2":9.9,"co":289.0,"o3":51.0,"so2":0.6,"mosquito_risk":3,"arthritis_risk":10,"migraine_risk":3,"frizz_risk":0,"updated_at":"2026-05-03T23:20:29.713591+05:30"},{"city":"Gangtok","state":"Sikkim","latitude":27.3314,"longitude":88.6138,"temp":12.6,"humidity":99,"rain":0.1,"pressure":838.1,"uv_index":7.95,"wind_gusts":42.1,"aqi":77,"pm10":15.3,"pm2_5":14.2,"no2":9.7,"co":513.0,"o3":108.0,"so2":1.7,"mosquito_risk":6,"arthritis_risk":10,"migraine_risk":7,"frizz_risk":0,"updated_at":"2026-05-03T23:20:29.713598+05:30"},{"city":"Siliguri","state":"West Bengal","latitude":26.7271,"longitude":88.3953,"temp":21.9,"humidity":81,"rain":0.0,"pressure":995.8,"uv_index":8.15,"wind_gusts":28.1,"aqi":77,"pm10":27.8,"pm2_5":25.3,"no2":12.6,"co":406.0,"o3":108.0,"so2":4.1,"mosquito_risk":3,"arthritis_risk":5,"migraine_risk":7,"frizz_risk":1,"updated_at":"2026-05-03T23:20:33.019116+05:30"},{"city":"Durgapur","state":"West Bengal","latitude":23.5204,"longitude":87.3119,"temp":23.5,"humidity":96,"rain":0.0,"pressure":995.5,"uv_index":8.9,"wind_gusts":32.8,"aqi":142,"pm10":64.0,"pm2_5":57.7,"no2":24.2,"co":411.0,"o3":86.0,"so2":26.5,"mosquito_risk":3,"arthritis_risk":5,"migraine_risk":7,"frizz_risk":1,"updated_at":"2026-05-03T23:20:33.019152+05:30"},{"city":"Asansol","state":"West Bengal","latitude":23.6739,"longitude":86.9524,"temp":23.4,"humidity":94,"rain":0.0,"pressure":994.3,"uv_index":8.95,"wind_gusts":29.2,"aqi":152,"pm10":68.0,"pm2_5":61.0,"no2":28.4,"co":452.0,"o3":90.0,"so2":43.5,"mosquito_risk":3,"arthritis_risk":5,"migraine_risk":7,"frizz_risk":1,"updated_at":"2026-05-03T23:20:33.019163+05:30"},{"city":"Pondicherry","state":"Puducherry","latitude":11.9139,"longitude":79.8145,"temp":30.3,"humidity":78,"rain":0.0,"pressure":1007.5,"uv_index":8.55,"wind_gusts":44.3,"aqi":142,"pm10":22.6,"pm2_5":17.8,"no2":6.8,"co":226.0,"o3":92.0,"so2":4.5,"mosquito_risk":3,"arthritis_risk":5,"migraine_risk":4,"frizz_risk":1,"updated_at":"2026-05-03T23:20:33.019172+05:30"},{"city":"Port Blair","state":"Andaman and Nicobar Islands","latitude":11.6234,"longitude":92.7265,"temp":27.5,"humidity":85,"rain":0.0,"pressure":1008.9,"uv_index":8.9,"wind_gusts":25.6,"aqi":26,"pm10":5.5,"pm2_5":3.9,"no2":0.6,"co":381.0,"o3":54.0,"so2":0.3,"mosquito_risk":7,"arthritis_risk":0,"migraine_risk":4,"frizz_risk":1,"updated_at":"2026-05-03T23:20:33.019180+05:30"},{"city":"Haridwar","state":"Uttarakhand","latitude":29.9457,"longitude":78.1642,"temp":23.0,"humidity":77,"rain":0.0,"pressure":972.7,"uv_index":7.35,"wind_gusts":40.0,"aqi":131,"pm10":96.9,"pm2_5":43.3,"no2":9.7,"co":411.0,"o3":119.0,"so2":10.2,"mosquito_risk":3,"arthritis_risk":5,"migraine_risk":7,"frizz_risk":1,"updated_at":"2026-05-03T23:20:33.019188+05:30"},{"city":"Rishikesh","state":"Uttarakhand","latitude":30.0869,"longitude":78.2676,"temp":20.4,"humidity":85,"rain":0.0,"pressure":965.4,"uv_index":7.45,"wind_gusts":37.4,"aqi":117,"pm10":143.4,"pm2_5":45.6,"no2":10.2,"co":462.0,"o3":110.0,"so2":6.8,"mosquito_risk":3,"arthritis_risk":5,"migraine_risk":7,"frizz_risk":1,"updated_at":"2026-05-03T23:20:33.019196+05:30"},{"city":"Nainital","state":"Uttarakhand","latitude":29.3919,"longitude":79.4542,"temp":11.3,"humidity":93,"rain":0.0,"pressure":803.6,"uv_index":8.4,"wind_gusts":34.9,"aqi":114,"pm10":81.7,"pm2_5":37.7,"no2":8.6,"co":360.0,"o3":100.0,"so2":3.7,"mosquito_risk":3,"arthritis_risk":10,"migraine_risk":7,"frizz_risk":0,"updated_at":"2026-05-03T23:20:33.019204+05:30"},{"city":"Mussoorie","state":"Uttarakhand","latitude":30.4599,"longitude":78.0664,"temp":11.2,"humidity":92,"rain":0.0,"pressure":800.1,"uv_index":7.3,"wind_gusts":53.3,"aqi":111,"pm10":128.5,"pm2_5":47.8,"no2":21.6,"co":381.0,"o3":97.0,"so2":12.4,"mosquito_risk":3,"arthritis_risk":10,"migraine_risk":7,"frizz_risk":0,"updated_at":"2026-05-03T23:20:33.019212+05:30"},{"city":"Dharamshala","state":"Himachal Pradesh","latitude":32.219,"longitude":76.3234,"temp":16.5,"humidity":61,"rain":0.0,"pressure":866.8,"uv_index":6.85,"wind_gusts":41.4,"aqi":107,"pm10":43.8,"pm2_5":23.1,"no2":12.5,"co":231.0,"o3":89.0,"so2":2.1,"mosquito_risk":3,"arthritis_risk":5,"migraine_risk":7,"frizz_risk":0,"updated_at":"2026-05-03T23:20:33.019219+05:30"},{"city":"Dalhousie","state":"Himachal Pradesh","latitude":32.5387,"longitude":75.971,"temp":9.7,"humidity":93,"rain":0.0,"pressure":800.1,"uv_index":7.95,"wind_gusts":48.2,"aqi":111,"pm10":52.2,"pm2_5":27.9,"no2":27.4,"co":338.0,"o3":90.0,"so2":4.2,"mosquito_risk":3,"arthritis_risk":10,"migraine_risk":7,"frizz_risk":0,"updated_at":"2026-05-03T23:20:33.019227+05:30"},{"city":"Patiala","state":"Punjab","latitude":30.3398,"longitude":76.3869,"temp":27.0,"humidity":56,"rain":0.0,"pressure":976.0,"uv_index":7.5,"wind_gusts":63.0,"aqi":786,"pm10":428.4,"pm2_5":80.1,"no2":10.0,"co":400.0,"o3":107.0,"so2":9.3,"mosquito_risk":4,"arthritis_risk":5,"migraine_risk":7,"frizz_risk":1,"updated_at":"2026-05-03T23:20:33.019235+05:30"},{"city":"Bhatinda","state":"Punjab","latitude":30.211,"longitude":74.9455,"temp":26.1,"humidity":54,"rain":0.0,"pressure":980.9,"uv_index":8.15,"wind_gusts":56.5,"aqi":424,"pm10":414.4,"pm2_5":82.0,"no2":4.7,"co":370.0,"o3":139.0,"so2":9.8,"mosquito_risk":4,"arthritis_risk":5,"migraine_risk":7,"frizz_risk":1,"updated_at":"2026-05-03T23:20:33.019242+05:30"},{"city":"Rohtak","state":"Haryana","latitude":28.8955,"longitude":76.6066,"temp":27.1,"humidity":59,"rain":0.0,"pressure":979.6,"uv_index":7.65,"wind_gusts":52.6,"aqi":759,"pm10":927.6,"pm2_5":116.2,"no2":13.4,"co":458.0,"o3":132.0,"so2":21.2,"mosquito_risk":4,"arthritis_risk":5,"migraine_risk":7,"frizz_risk":1,"updated_at":"2026-05-03T23:20:33.019249+05:30"},{"city":"Panipat","state":"Haryana","latitude":29.3909,"longitude":76.9635,"temp":26.0,"humidity":65,"rain":0.0,"pressure":978.4,"uv_index":7.45,"wind_gusts":54.0,"aqi":1269,"pm10":2630.1,"pm2_5":266.4,"no2":7.0,"co":426.0,"o3":139.0,"so2":12.2,"mosquito_risk":7,"arthritis_risk":5,"migraine_risk":7,"frizz_risk":1,"updated_at":"2026-05-03T23:20:33.019256+05:30"},{"city":"Mathura","state":"Uttar Pradesh","latitude":27.4924,"longitude":77.6737,"temp":27.8,"humidity":55,"rain":0.0,"pressure":983.8,"uv_index":7.9,"wind_gusts":60.8,"aqi":930,"pm10":1974.4,"pm2_5":223.1,"no2":9.5,"co":342.0,"o3":115.0,"so2":9.3,"mosquito_risk":4,"arthritis_risk":5,"migraine_risk":7,"frizz_risk":1,"updated_at":"2026-05-03T23:20:33.019263+05:30"},{"city":"Vrindavan","state":"Uttar Pradesh","latitude":27.5823,"longitude":77.7027,"temp":27.6,"humidity":56,"rain":0.0,"pressure":984.3,"uv_index":7.9,"wind_gusts":59.4,"aqi":930,"pm10":1974.4,"pm2_5":223.1,"no2":9.5,"co":345.0,"o3":115.0,"so2":9.3,"mosquito_risk":4,"arthritis_risk":5,"migraine_risk":7,"frizz_risk":1,"updated_at":"2026-05-03T23:20:33.019270+05:30"},{"city":"Ayodhya","state":"Uttar Pradesh","latitude":26.7922,"longitude":82.1998,"temp":25.2,"humidity":67,"rain":0.0,"pressure":996.0,"uv_index":8.25,"wind_gusts":40.7,"aqi":138,"pm10":48.7,"pm2_5":36.1,"no2":9.4,"co":334.0,"o3":120.0,"so2":6.1,"mosquito_risk":7,"arthritis_risk":5,"migraine_risk":7,"frizz_risk":1,"updated_at":"2026-05-03T23:20:33.019277+05:30"},{"city":"Ratlam","state":"Madhya Pradesh","latitude":23.3315,"longitude":75.0367,"temp":28.9,"humidity":42,"rain":0.0,"pressure":952.3,"uv_index":8.5,"wind_gusts":47.2,"aqi":83,"pm10":16.2,"pm2_5":11.2,"no2":2.5,"co":196.0,"o3":106.0,"so2":5.5,"mosquito_risk":4,"arthritis_risk":5,"migraine_risk":7,"frizz_risk":0,"updated_at":"2026-05-03T23:20:33.019284+05:30"},{"city":"Sagar","state":"Madhya Pradesh","latitude":23.8388,"longitude":78.7378,"temp":28.9,"humidity":36,"rain":0.0,"pressure":946.8,"uv_index":8.7,"wind_gusts":39.6,"aqi":69,"pm10":68.5,"pm2_5":23.9,"no2":5.1,"co":305.0,"o3":88.0,"so2":3.1,"mosquito_risk":4,"arthritis_risk":5,"migraine_risk":7,"frizz_risk":0,"updated_at":"2026-05-03T23:20:33.019291+05:30"},{"city":"Satna","state":"Madhya Pradesh","latitude":24.6005,"longitude":80.8322,"temp":27.9,"humidity":56,"rain":0.0,"pressure":969.3,"uv_index":8.7,"wind_gusts":27.7,"aqi":91,"pm10":47.1,"pm2_5":27.8,"no2":11.6,"co":290.0,"o3":102.0,"so2":6.8,"mosquito_risk":4,"arthritis_risk":5,"migraine_risk":7,"frizz_risk":1,"updated_at":"2026-05-03T23:20:33.019297+05:30"},{"city":"Akola","state":"Maharashtra","latitude":20.7002,"longitude":77.0082,"temp":32.6,"humidity":17,"rain":0.0,"pressure":972.6,"uv_index":8.85,"wind_gusts":41.4,"aqi":63,"pm10":16.3,"pm2_5":9.6,"no2":6.6,"co":183.0,"o3":96.0,"so2":10.4,"mosquito_risk":0,"arthritis_risk":5,"migraine_risk":7,"frizz_risk":0,"updated_at":"2026-05-03T23:20:33.019305+05:30"},{"city":"Amravati","state":"Maharashtra","latitude":20.9374,"longitude":77.7796,"temp":32.0,"humidity":16,"rain":0.0,"pressure":964.4,"uv_index":8.85,"wind_gusts":42.1,"aqi":60,"pm10":23.5,"pm2_5":11.4,"no2":7.4,"co":230.0,"o3":94.0,"so2":10.5,"mosquito_risk":0,"arthritis_risk":5,"migraine_risk":7,"frizz_risk":0,"updated_at":"2026-05-03T23:20:33.019313+05:30"},{"city":"Latur","state":"Maharashtra","latitude":18.4088,"longitude":76.5604,"temp":30.6,"humidity":19,"rain":0.0,"pressure":938.4,"uv_index":9.05,"wind_gusts":40.0,"aqi":64,"pm10":47.3,"pm2_5":23.3,"no2":10.6,"co":308.0,"o3":79.0,"so2":5.3,"mosquito_risk":0,"arthritis_risk":5,"migraine_risk":7,"frizz_risk":0,"updated_at":"2026-05-03T23:20:33.019320+05:30"},{"city":"Nanded","state":"Maharashtra","latitude":19.1383,"longitude":77.3091,"temp":31.6,"humidity":19,"rain":0.0,"pressure":966.0,"uv_index":9.0,"wind_gusts":36.0,"aqi":63,"pm10":43.9,"pm2_5":21.0,"no2":11.2,"co":233.0,"o3":74.0,"so2":3.4,"mosquito_risk":0,"arthritis_risk":5,"migraine_risk":7,"frizz_risk":0,"updated_at":"2026-05-03T23:20:33.019327+05:30"},{"city":"Gulbarga","state":"Karnataka","latitude":17.3297,"longitude":76.8343,"temp":33.0,"humidity":17,"rain":0.0,"pressure":956.5,"uv_index":9.1,"wind_gusts":41.4,"aqi":60,"pm10":43.9,"pm2_5":22.4,"no2":18.8,"co":259.0,"o3":58.0,"so2":3.8,"mosquito_risk":0,"arthritis_risk":5,"migraine_risk":7,"frizz_risk":0,"updated_at":"2026-05-03T23:20:33.019334+05:30"},{"city":"Bidar","state":"Karnataka","latitude":17.9104,"longitude":77.5199,"temp":29.7,"humidity":28,"rain":0.0,"pressure":933.6,"uv_index":9.15,"wind_gusts":37.4,"aqi":71,"pm10":60.1,"pm2_5":32.2,"no2":20.1,"co":462.0,"o3":64.0,"so2":5.3,"mosquito_risk":4,"arthritis_risk":5,"migraine_risk":7,"frizz_risk":0,"updated_at":"2026-05-03T23:20:33.019340+05:30"},{"city":"Hospet","state":"Karnataka","latitude":15.2689,"longitude":76.3909,"temp":27.8,"humidity":70,"rain":0.0,"pressure":955.8,"uv_index":9.2,"wind_gusts":36.7,"aqi":62,"pm10":25.7,"pm2_5":15.4,"no2":17.6,"co":217.0,"o3":60.0,"so2":2.9,"mosquito_risk":7,"arthritis_risk":5,"migraine_risk":7,"frizz_risk":1,"updated_at":"2026-05-03T23:20:33.019346+05:30"},{"city":"Tirupur","state":"Tamil Nadu","latitude":11.1085,"longitude":77.3411,"temp":27.1,"humidity":74,"rain":0.0,"pressure":975.4,"uv_index":9.35,"wind_gusts":51.8,"aqi":71,"pm10":32.9,"pm2_5":23.7,"no2":18.8,"co":201.0,"o3":59.0,"so2":6.0,"mosquito_risk":7,"arthritis_risk":5,"migraine_risk":7,"frizz_risk":1,"updated_at":"2026-05-03T23:20:33.019353+05:30"},{"city":"Alappuzha","state":"Kerala","latitude":9.4981,"longitude":76.3388,"temp":27.7,"humidity":91,"rain":0.0,"pressure":1010.0,"uv_index":9.0,"wind_gusts":36.0,"aqi":82,"pm10":53.8,"pm2_5":34.5,"no2":22.0,"co":135.0,"o3":49.0,"so2":4.2,"mosquito_risk":7,"arthritis_risk":0,"migraine_risk":4,"frizz_risk":1,"updated_at":"2026-05-03T23:20:33.019360+05:30"},{"city":"Munnar","state":"Kerala","latitude":10.0889,"longitude":77.0595,"temp":17.5,"humidity":99,"rain":0.0,"pressure":857.6,"uv_index":9.3,"wind_gusts":28.1,"aqi":68,"pm10":29.0,"pm2_5":24.3,"no2":10.7,"co":262.0,"o3":55.0,"so2":1.6,"mosquito_risk":3,"arthritis_risk":10,"migraine_risk":7,"frizz_risk":1,"updated_at":"2026-05-03T23:20:33.019367+05:30"},{"city":"Silchar","state":"Assam","latitude":24.8333,"longitude":92.7789,"temp":20.7,"humidity":99,"rain":0.0,"pressure":1008.5,"uv_index":8.35,"wind_gusts":36.4,"aqi":57,"pm10":42.0,"pm2_5":29.1,"no2":10.3,"co":400.0,"o3":74.0,"so2":5.3,"mosquito_risk":3,"arthritis_risk":0,"migraine_risk":4,"frizz_risk":1,"updated_at":"2026-05-03T23:20:33.019374+05:30"},{"city":"Dibrugarh","state":"Assam","latitude":27.4728,"longitude":94.912,"temp":21.2,"humidity":92,"rain":0.0,"pressure":999.1,"uv_index":8.2,"wind_gusts":21.6,"aqi":60,"pm10":23.0,"pm2_5":22.6,"no2":21.4,"co":721.0,"o3":20.0,"so2":1.6,"mosquito_risk":3,"arthritis_risk":5,"migraine_risk":7,"frizz_risk":1,"updated_at":"2026-05-03T23:20:33.019381+05:30"}]