[{"city":"Delhi","state":"Delhi","latitude":28.6139,"longitude":77.209,"temp":24.7,"humidity":43,"rain":0.0,"pressure":980.6,"uv_index":7.3,"wind_gusts":33.8,"aqi":491,"pm10":542.0,"pm2_5":100.8,"mosquito_risk":0,"arthritis_risk":5,"migraine_risk":7,"frizz_risk":0,"updated_at":"2026-04-21T04:22:29.047684+05:30"},{"city":"Mumbai","state":"Maharashtra","latitude":19.076,"longitude":72.8777,"temp":28.4,"humidity":81,"rain":0.0,"pressure":1006.4,"uv_index":8.0,"wind_gusts":20.5,"aqi":79,"pm10":54.7,"pm2_5":24.3,"mosquito_risk":7,"arthritis_risk":5,"migraine_risk":4,"frizz_risk":1,"updated_at":"2026-04-21T04:22:29.047721+05:30"},{"city":"Bangalore","state":"Karnataka","latitude":12.9716,"longitude":77.5946,"temp":23.7,"humidity":70,"rain":0.0,"pressure":909.9,"uv_index":9.6,"wind_gusts":26.3,"aqi":81,"pm10":23.6,"pm2_5":22.3,"mosquito_risk":3,"arthritis_risk":5,"migraine_risk":7,"frizz_risk":1,"updated_at":"2026-04-21T04:22:29.047736+05:30"},{"city":"Hyderabad","state":"Telangana","latitude":17.385,"longitude":78.4867,"temp":26.0,"humidity":65,"rain":0.0,"pressure":951.3,"uv_index":9.3,"wind_gusts":32.8,"aqi":112,"pm10":23.7,"pm2_5":22.0,"mosquito_risk":7,"arthritis_risk":5,"migraine_risk":7,"frizz_risk":1,"updated_at":"2026-04-21T04:22:29.047746+05:30"},{"city":"Chennai","state":"Tamil Nadu","latitude":13.0827,"longitude":80.2707,"temp":28.3,"humidity":86,"rain":0.0,"pressure":1005.4,"uv_index":9.3,"wind_gusts":34.6,"aqi":38,"pm10":10.3,"pm2_5":7.0,"mosquito_risk":7,"arthritis_risk":5,"migraine_risk":4,"frizz_risk":1,"updated_at":"2026-04-21T04:22:29.047754+05:30"},{"city":"Kolkata","state":"West Bengal","latitude":22.5726,"longitude":88.3639,"temp":27.4,"humidity":91,"rain":0.0,"pressure":1002.0,"uv_index":8.95,"wind_gusts":31.3,"aqi":83,"pm10":22.8,"pm2_5":18.7,"mosquito_risk":7,"arthritis_risk":5,"migraine_risk":4,"frizz_risk":1,"updated_at":"2026-04-21T04:22:29.047767+05:30"},{"city":"Pune","state":"Maharashtra","latitude":18.5204,"longitude":73.8567,"temp":24.4,"humidity":75,"rain":0.0,"pressure":946.4,"uv_index":8.5,"wind_gusts":37.8,"aqi":111,"pm10":47.4,"pm2_5":41.3,"mosquito_risk":3,"arthritis_risk":5,"migraine_risk":7,"frizz_risk":1,"updated_at":"2026-04-21T04:22:29.047775+05:30"},{"city":"Ahmedabad","state":"Gujarat","latitude":23.0225,"longitude":72.5714,"temp":26.4,"humidity":56,"rain":0.0,"pressure":1000.8,"uv_index":8.2,"wind_gusts":26.6,"aqi":53,"pm10":15.5,"pm2_5":10.0,"mosquito_risk":4,"arthritis_risk":5,"migraine_risk":4,"frizz_risk":1,"updated_at":"2026-04-21T04:22:29.047781+05:30"},{"city":"Jaipur","state":"Rajasthan","latitude":26.9124,"longitude":75.7873,"temp":29.6,"humidity":32,"rain":0.0,"pressure":958.3,"uv_index":7.95,"wind_gusts":27.0,"aqi":145,"pm10":191.9,"pm2_5":31.1,"mosquito_risk":4,"arthritis_risk":5,"migraine_risk":7,"frizz_risk":0,"updated_at":"2026-04-21T04:22:29.047789+05:30"},{"city":"Lucknow","state":"Uttar Pradesh","latitude":26.8467,"longitude":80.9462,"temp":25.8,"humidity":53,"rain":0.0,"pressure":989.6,"uv_index":7.9,"wind_gusts":43.2,"aqi":116,"pm10":110.8,"pm2_5":38.1,"mosquito_risk":4,"arthritis_risk":5,"migraine_risk":7,"frizz_risk":0,"updated_at":"2026-04-21T04:22:29.047796+05:30"},{"city":"Kanpur","state":"Uttar Pradesh","latitude":26.4499,"longitude":80.3319,"temp":24.4,"humidity":60,"rain":0.0,"pressure":988.0,"uv_index":7.9,"wind_gusts":32.4,"aqi":195,"pm10":389.3,"pm2_5":70.8,"mosquito_risk":0,"arthritis_risk":5,"migraine_risk":7,"frizz_risk":1,"updated_at":"2026-04-21T04:22:29.047803+05:30"},{"city":"Chandigarh","state":"Chandigarh","latitude":30.7333,"longitude":76.7794,"temp":22.1,"humidity":47,"rain":0.0,"pressure":966.1,"uv_index":7.25,"wind_gusts":30.6,"aqi":57,"pm10":20.8,"pm2_5":14.7,"mosquito_risk":0,"arthritis_risk":5,"migraine_risk":7,"frizz_risk":0,"updated_at":"2026-04-21T04:22:29.047810+05:30"},{"city":"Srinagar","state":"Jammu and Kashmir","latitude":34.0837,"longitude":74.7973,"temp":7.8,"humidity":76,"rain":0.0,"pressure":838.7,"uv_index":8.45,"wind_gusts":16.2,"aqi":87,"pm10":51.8,"pm2_5":34.0,"mosquito_risk":3,"arthritis_risk":5,"migraine_risk":7,"frizz_risk":0,"updated_at":"2026-04-21T04:22:29.047818+05:30"},{"city":"Jammu","state":"Jammu and Kashmir","latitude":32.7266,"longitude":74.857,"temp":20.5,"humidity":57,"rain":0.0,"pressure":970.2,"uv_index":8.0,"wind_gusts":29.9,"aqi":61,"pm10":21.5,"pm2_5":16.1,"mosquito_risk":0,"arthritis_risk":5,"migraine_risk":7,"frizz_risk":0,"updated_at":"2026-04-21T04:22:29.047824+05:30"},{"city":"Amritsar","state":"Punjab","latitude":31.634,"longitude":74.8723,"temp":22.1,"humidity":62,"rain":0.0,"pressure":978.6,"uv_index":7.95,"wind_gusts":29.5,"aqi":71,"pm10":32.2,"pm2_5":21.1,"mosquito_risk":3,"arthritis_risk":5,"migraine_risk":7,"frizz_risk":0,"updated_at":"2026-04-21T04:22:29.047831+05:30"},{"city":"Ludhiana","state":"Punjab","latitude":30.901,"longitude":75.8573,"temp":23.4,"humidity":48,"rain":0.0,"pressure":976.6,"uv_index":7.55,"wind_gusts":31.3,"aqi":65,"pm10":35.6,"pm2_5":26.3,"mosquito_risk":0,"arthritis_risk":5,"migraine_risk":7,"frizz_risk":0,"updated_at":"2026-04-21T04:22:29.047839+05:30"},{"city":"Jalandhar","state":"Punjab","latitude":31.326,"longitude":75.5762,"temp":22.4,"humidity":58,"rain":0.0,"pressure":977.7,"uv_index":7.7,"wind_gusts":31.3,"aqi":72,"pm10":43.3,"pm2_5":31.0,"mosquito_risk":0,"arthritis_risk":5,"migraine_risk":7,"frizz_risk":0,"updated_at":"2026-04-21T04:22:29.047845+05:30"},{"city":"Dehradun","state":"Uttarakhand","latitude":30.6284,"longitude":78.0322,"temp":15.6,"humidity":42,"rain":0.0,"pressure":828.4,"uv_index":7.7,"wind_gusts":42.8,"aqi":44,"pm10":14.9,"pm2_5":12.0,"mosquito_risk":0,"arthritis_risk":5,"migraine_risk":7,"frizz_risk":0,"updated_at":"2026-04-21T04:22:29.047851+05:30"},{"city":"Shimla","state":"Himachal Pradesh","latitude":31.1048,"longitude":77.1734,"temp":14.4,"humidity":42,"rain":0.0,"pressure":783.1,"uv_index":7.75,"wind_gusts":48.6,"aqi":50,"pm10":33.2,"pm2_5":14.9,"mosquito_risk":0,"arthritis_risk":5,"migraine_risk":7,"frizz_risk":0,"updated_at":"2026-04-21T04:22:29.047858+05:30"},{"city":"Manali","state":"Himachal Pradesh","latitude":32.2396,"longitude":77.1887,"temp":15.4,"humidity":35,"rain":0.0,"pressure":819.1,"uv_index":9.2,"wind_gusts":31.7,"aqi":50,"pm10":23.4,"pm2_5":11.1,"mosquito_risk":0,"arthritis_risk":5,"migraine_risk":7,"frizz_risk":0,"updated_at":"2026-04-21T04:22:29.047865+05:30"},{"city":"Gurgaon","state":"Haryana","latitude":28.4595,"longitude":77.0266,"temp":21.8,"humidity":53,"rain":0.0,"pressure":978.9,"uv_index":7.4,"wind_gusts":32.4,"aqi":1376,"pm10":1277.8,"pm2_5":168.6,"mosquito_risk":0,"arthritis_risk":5,"migraine_risk":7,"frizz_risk":0,"updated_at":"2026-04-21T04:22:29.047871+05:30"},{"city":"Noida","state":"Uttar Pradesh","latitude":28.5355,"longitude":77.391,"temp":24.6,"humidity":43,"rain":0.0,"pressure":982.0,"uv_index":7.35,"wind_gusts":33.5,"aqi":1376,"pm10":1277.8,"pm2_5":168.6,"mosquito_risk":0,"arthritis_risk":5,"migraine_risk":7,"frizz_risk":0,"updated_at":"2026-04-21T04:22:29.047877+05:30"},{"city":"Ghaziabad","state":"Uttar Pradesh","latitude":28.6692,"longitude":77.4538,"temp":23.8,"humidity":46,"rain":0.0,"pressure":980.1,"uv_index":7.3,"wind_gusts":33.8,"aqi":318,"pm10":429.3,"pm2_5":88.5,"mosquito_risk":0,"arthritis_risk":5,"migraine_risk":7,"frizz_risk":0,"updated_at":"2026-04-21T04:22:29.047882+05:30"},{"city":"Faridabad","state":"Haryana","latitude":28.4089,"longitude":77.3178,"temp":24.4,"humidity":40,"rain":0.0,"pressure":981.2,"uv_index":7.35,"wind_gusts":32.0,"aqi":1376,"pm10":1277.8,"pm2_5":168.6,"mosquito_risk":0,"arthritis_risk":5,"migraine_risk":7,"frizz_risk":0,"updated_at":"2026-04-21T04:22:29.047889+05:30"},{"city":"Meerut","state":"Uttar Pradesh","latitude":28.9845,"longitude":77.7064,"temp":22.1,"humidity":49,"rain":0.0,"pressure":978.6,"uv_index":7.2,"wind_gusts":37.1,"aqi":318,"pm10":429.3,"pm2_5":88.5,"mosquito_risk":0,"arthritis_risk":5,"migraine_risk":7,"frizz_risk":0,"updated_at":"2026-04-21T04:22:29.047895+05:30"},{"city":"Agra","state":"Uttar Pradesh","latitude":27.1767,"longitude":78.0081,"temp":25.4,"humidity":48,"rain":0.0,"pressure":985.0,"uv_index":7.7,"wind_gusts":26.6,"aqi":1018,"pm10":1128.8,"pm2_5":160.7,"mosquito_risk":4,"arthritis_risk":5,"migraine_risk":7,"frizz_risk":0,"updated_at":"2026-04-21T04:22:29.047905+05:30"},{"city":"Varanasi","state":"Uttar Pradesh","latitude":25.3176,"longitude":82.9739,"temp":25.9,"humidity":49,"rain":0.0,"pressure":993.1,"uv_index":8.55,"wind_gusts":40.7,"aqi":88,"pm10":60.5,"pm2_5":29.7,"mosquito_risk":4,"arthritis_risk":5,"migraine_risk":7,"frizz_risk":0,"updated_at":"2026-04-21T04:22:29.047912+05:30"},{"city":"Prayagraj","state":"Uttar Pradesh","latitude":25.4358,"longitude":81.8463,"temp":27.6,"humidity":49,"rain":0.0,"pressure":992.0,"uv_index":8.4,"wind_gusts":34.2,"aqi":86,"pm10":114.6,"pm2_5":38.9,"mosquito_risk":4,"arthritis_risk":5,"migraine_risk":7,"frizz_risk":0,"updated_at":"2026-04-21T04:22:29.047919+05:30"},{"city":"Gorakhpur","state":"Uttar Pradesh","latitude":26.7606,"longitude":83.3732,"temp":23.9,"humidity":76,"rain":0.0,"pressure":992.6,"uv_index":8.35,"wind_gusts":43.9,"aqi":114,"pm10":31.3,"pm2_5":19.1,"mosquito_risk":3,"arthritis_risk":5,"migraine_risk":7,"frizz_risk":1,"updated_at":"2026-04-21T04:22:29.047926+05:30"},{"city":"Bareilly","state":"Uttar Pradesh","latitude":28.367,"longitude":79.4304,"temp":22.5,"humidity":53,"rain":0.0,"pressure":983.2,"uv_index":7.6,"wind_gusts":41.8,"aqi":75,"pm10":148.5,"pm2_5":42.7,"mosquito_risk":0,"arthritis_risk":5,"migraine_risk":7,"frizz_risk":0,"updated_at":"2026-04-21T04:22:29.047932+05:30"},{"city":"Aligarh","state":"Uttar Pradesh","latitude":27.8974,"longitude":78.088,"temp":23.4,"humidity":51,"rain":0.0,"pressure":982.8,"uv_index":7.5,"wind_gusts":34.9,"aqi":743,"pm10":1020.7,"pm2_5":144.8,"mosquito_risk":0,"arthritis_risk":5,"migraine_risk":7,"frizz_risk":0,"updated_at":"2026-04-21T04:22:29.047938+05:30"},{"city":"Moradabad","state":"Uttar Pradesh","latitude":28.8386,"longitude":78.7733,"temp":22.3,"humidity":49,"rain":0.0,"pressure":980.2,"uv_index":7.4,"wind_gusts":40.0,"aqi":89,"pm10":191.4,"pm2_5":57.6,"mosquito_risk":0,"arthritis_risk":5,"migraine_risk":7,"frizz_risk":0,"updated_at":"2026-04-21T04:22:29.047944+05:30"},{"city":"Saharanpur","state":"Uttar Pradesh","latitude":29.9637,"longitude":77.546,"temp":21.9,"humidity":52,"rain":0.0,"pressure":972.7,"uv_index":7.0,"wind_gusts":31.0,"aqi":74,"pm10":47.0,"pm2_5":25.6,"mosquito_risk":0,"arthritis_risk":5,"migraine_risk":7,"frizz_risk":0,"updated_at":"2026-04-21T04:22:29.047952+05:30"},{"city":"Jhansi","state":"Uttar Pradesh","latitude":25.4484,"longitude":78.5685,"temp":27.4,"humidity":37,"rain":0.0,"pressure":974.8,"uv_index":8.25,"wind_gusts":32.8,"aqi":62,"pm10":98.3,"pm2_5":18.8,"mosquito_risk":4,"arthritis_risk":5,"migraine_risk":7,"frizz_risk":0,"updated_at":"2026-04-21T04:22:32.388551+05:30"},{"city":"Surat","state":"Gujarat","latitude":21.1702,"longitude":72.8311,"temp":26.5,"humidity":92,"rain":0.0,"pressure":1005.0,"uv_index":7.85,"wind_gusts":29.2,"aqi":96,"pm10":44.2,"pm2_5":33.8,"mosquito_risk":7,"arthritis_risk":5,"migraine_risk":4,"frizz_risk":1,"updated_at":"2026-04-21T04:22:32.388583+05:30"},{"city":"Vadodara","state":"Gujarat","latitude":22.3072,"longitude":73.1812,"temp":27.8,"humidity":64,"rain":0.0,"pressure":1002.9,"uv_index":8.15,"wind_gusts":26.3,"aqi":89,"pm10":42.8,"pm2_5":34.0,"mosquito_risk":7,"arthritis_risk":5,"migraine_risk":4,"frizz_risk":1,"updated_at":"2026-04-21T04:22:32.388593+05:30"},{"city":"Rajkot","state":"Gujarat","latitude":22.3039,"longitude":70.8022,"temp":23.6,"humidity":87,"rain":0.0,"pressure":993.7,"uv_index":7.85,"wind_gusts":24.5,"aqi":51,"pm10":40.6,"pm2_5":15.3,"mosquito_risk":3,"arthritis_risk":5,"migraine_risk":7,"frizz_risk":1,"updated_at":"2026-04-21T04:22:32.388601+05:30"},{"city":"Thane","state":"Maharashtra","latitude":19.2183,"longitude":72.9781,"temp":26.0,"humidity":92,"rain":0.0,"pressure":1005.9,"uv_index":8.0,"wind_gusts":33.1,"aqi":79,"pm10":54.7,"pm2_5":24.3,"mosquito_risk":7,"arthritis_risk":5,"migraine_risk":4,"frizz_risk":1,"updated_at":"2026-04-21T04:22:32.388608+05:30"},{"city":"Nagpur","state":"Maharashtra","latitude":21.1458,"longitude":79.0882,"temp":27.6,"humidity":59,"rain":0.0,"pressure":970.7,"uv_index":8.45,"wind_gusts":23.8,"aqi":86,"pm10":36.8,"pm2_5":33.6,"mosquito_risk":4,"arthritis_risk":5,"migraine_risk":7,"frizz_risk":1,"updated_at":"2026-04-21T04:22:32.388614+05:30"},{"city":"Nashik","state":"Maharashtra","latitude":19.9975,"longitude":73.7898,"temp":24.6,"humidity":55,"rain":0.0,"pressure":944.0,"uv_index":8.3,"wind_gusts":34.9,"aqi":74,"pm10":36.2,"pm2_5":24.3,"mosquito_risk":0,"arthritis_risk":5,"migraine_risk":7,"frizz_risk":0,"updated_at":"2026-04-21T04:22:32.388620+05:30"},{"city":"Aurangabad","state":"Maharashtra","latitude":19.8762,"longitude":75.3433,"temp":28.1,"humidity":40,"rain":0.0,"pressure":942.8,"uv_index":9.0,"wind_gusts":24.8,"aqi":88,"pm10":36.8,"pm2_5":29.0,"mosquito_risk":4,"arthritis_risk":5,"migraine_risk":7,"frizz_risk":0,"updated_at":"2026-04-21T04:22:32.388627+05:30"},{"city":"Solapur","state":"Maharashtra","latitude":17.6599,"longitude":75.9064,"temp":26.7,"humidity":65,"rain":0.0,"pressure":955.2,"uv_index":9.0,"wind_gusts":20.9,"aqi":107,"pm10":42.3,"pm2_5":38.6,"mosquito_risk":7,"arthritis_risk":5,"migraine_risk":7,"frizz_risk":1,"updated_at":"2026-04-21T04:22:32.388633+05:30"},{"city":"Kolhapur","state":"Maharashtra","latitude":16.705,"longitude":74.2433,"temp":22.6,"humidity":87,"rain":0.0,"pressure":945.4,"uv_index":9.05,"wind_gusts":43.6,"aqi":112,"pm10":42.8,"pm2_5":38.9,"mosquito_risk":3,"arthritis_risk":5,"migraine_risk":7,"frizz_risk":1,"updated_at":"2026-04-21T04:22:32.388640+05:30"},{"city":"Goa","state":"Goa","latitude":15.2993,"longitude":74.124,"temp":28.1,"humidity":88,"rain":0.0,"pressure":995.1,"uv_index":9.05,"wind_gusts":25.2,"aqi":84,"pm10":39.5,"pm2_5":28.1,"mosquito_risk":7,"arthritis_risk":5,"migraine_risk":7,"frizz_risk":1,"updated_at":"2026-04-21T04:22:32.388646+05:30"},{"city":"Jodhpur","state":"Rajasthan","latitude":26.2389,"longitude":73.0243,"temp":28.6,"humidity":39,"rain":0.0,"pressure":981.1,"uv_index":7.7,"wind_gusts":36.7,"aqi":105,"pm10":170.0,"pm2_5":27.5,"mosquito_risk":4,"arthritis_risk":5,"migraine_risk":7,"frizz_risk":0,"updated_at":"2026-04-21T04:22:32.388652+05:30"},{"city":"Udaipur","state":"Rajasthan","latitude":24.5854,"longitude":73.7125,"temp":25.1,"humidity":31,"rain":0.0,"pressure":945.7,"uv_index":8.7,"wind_gusts":38.2,"aqi":44,"pm10":32.0,"pm2_5":11.6,"mosquito_risk":4,"arthritis_risk":5,"migraine_risk":7,"frizz_risk":0,"updated_at":"2026-04-21T04:22:32.388658+05:30"},{"city":"Kota","state":"Rajasthan","latitude":25.2138,"longitude":75.8648,"temp":26.3,"humidity":33,"rain":0.0,"pressure":976.6,"uv_index":8.2,"wind_gusts":27.0,"aqi":41,"pm10":12.7,"pm2_5":9.2,"mosquito_risk":4,"arthritis_risk":5,"migraine_risk":7,"frizz_risk":0,"updated_at":"2026-04-21T04:22:32.388664+05:30"},{"city":"Bikaner","state":"Rajasthan","latitude":28.0229,"longitude":73.3119,"temp":29.2,"humidity":34,"rain":0.0,"pressure":979.8,"uv_index":7.6,"wind_gusts":22.7,"aqi":54,"pm10":29.9,"pm2_5":15.3,"mosquito_risk":4,"arthritis_risk":5,"migraine_risk":7,"frizz_risk":0,"updated_at":"2026-04-21T04:22:32.388670+05:30"},{"city":"Ajmer","state":"Rajasthan","latitude":26.4499,"longitude":74.6399,"temp":25.8,"humidity":41,"rain":0.0,"pressure":953.0,"uv_index":8.15,"wind_gusts":45.4,"aqi":62,"pm10":41.3,"pm2_5":13.8,"mosquito_risk":4,"arthritis_risk":5,"migraine_risk":7,"frizz_risk":0,"updated_at":"2026-04-21T04:22:32.388676+05:30"},{"city":"Gwalior","state":"Madhya Pradesh","latitude":26.2183,"longitude":78.1828,"temp":27.7,"humidity":43,"rain":0.0,"pressure":980.7,"uv_index":7.95,"wind_gusts":27.4,"aqi":135,"pm10":855.0,"pm2_5":103.1,"mosquito_risk":4,"arthritis_risk":5,"migraine_risk":7,"frizz_risk":0,"updated_at":"2026-04-21T04:22:32.388682+05:30"},{"city":"Indore","state":"Madhya Pradesh","latitude":22.7196,"longitude":75.8577,"temp":25.1,"humidity":51,"rain":0.0,"pressure":946.8,"uv_index":8.6,"wind_gusts":39.6,"aqi":61,"pm10":22.4,"pm2_5":16.5,"mosquito_risk":4,"arthritis_risk":5,"migraine_risk":7,"frizz_risk":0,"updated_at":"2026-04-21T04:22:32.388688+05:30"},{"city":"Bhopal","state":"Madhya Pradesh","latitude":23.2599,"longitude":77.4126,"temp":25.8,"humidity":45,"rain":0.0,"pressure":952.1,"uv_index":8.6,"wind_gusts":31.3,"aqi":61,"pm10":17.2,"pm2_5":13.7,"mosquito_risk":4,"arthritis_risk":5,"migraine_risk":7,"frizz_risk":0,"updated_at":"2026-04-21T04:22:32.388693+05:30"},{"city":"Jabalpur","state":"Madhya Pradesh","latitude":23.1815,"longitude":79.9864,"temp":26.2,"humidity":59,"rain":0.0,"pressure":958.8,"uv_index":8.8,"wind_gusts":28.4,"aqi":71,"pm10":39.1,"pm2_5":35.4,"mosquito_risk":4,"arthritis_risk":5,"migraine_risk":7,"frizz_risk":1,"updated_at":"2026-04-21T04:22:32.388699+05:30"},{"city":"Ujjain","state":"Madhya Pradesh","latitude":23.1765,"longitude":75.7885,"temp":25.9,"humidity":48,"rain":0.0,"pressure":952.6,"uv_index":8.55,"wind_gusts":41.4,"aqi":57,"pm10":24.6,"pm2_5":17.2,"mosquito_risk":4,"arthritis_risk":5,"migraine_risk":7,"frizz_risk":0,"updated_at":"2026-04-21T04:22:32.388705+05:30"},{"city":"Visakhapatnam","state":"Andhra Pradesh","latitude":17.6868,"longitude":83.2185,"temp":27.0,"humidity":88,"rain":0.0,"pressure":1001.6,"uv_index":9.2,"wind_gusts":41.8,"aqi":55,"pm10":17.9,"pm2_5":13.9,"mosquito_risk":7,"arthritis_risk":5,"migraine_risk":4,"frizz_risk":1,"updated_at":"2026-04-21T04:22:32.388710+05:30"},{"city":"Vijayawada","state":"Andhra Pradesh","latitude":16.5062,"longitude":80.648,"temp":27.5,"humidity":88,"rain":0.0,"pressure":1000.8,"uv_index":9.25,"wind_gusts":28.1,"aqi":56,"pm10":12.8,"pm2_5":9.7,"mosquito_risk":7,"arthritis_risk":5,"migraine_risk":4,"frizz_risk":1,"updated_at":"2026-04-21T04:22:32.388716+05:30"},{"city":"Guntur","state":"Andhra Pradesh","latitude":16.3067,"longitude":80.4365,"temp":27.4,"humidity":88,"rain":0.0,"pressure":1002.0,"uv_index":9.25,"wind_gusts":27.0,"aqi":58,"pm10":12.6,"pm2_5":9.5,"mosquito_risk":7,"arthritis_risk":5,"migraine_risk":4,"frizz_risk":1,"updated_at":"2026-04-21T04:22:32.388722+05:30"},{"city":"Nellore","state":"Andhra Pradesh","latitude":14.4426,"longitude":79.9865,"temp":26.9,"humidity":88,"rain":0.0,"pressure":1003.7,"uv_index":9.3,"wind_gusts":35.6,"aqi":49,"pm10":10.2,"pm2_5":7.9,"mosquito_risk":7,"arthritis_risk":5,"migraine_risk":4,"frizz_risk":1,"updated_at":"2026-04-21T04:22:32.388729+05:30"},{"city":"Kurnool","state":"Andhra Pradesh","latitude":15.8281,"longitude":78.0373,"temp":28.2,"humidity":68,"rain":0.0,"pressure":974.5,"uv_index":9.25,"wind_gusts":50.0,"aqi":93,"pm10":14.7,"pm2_5":14.0,"mosquito_risk":7,"arthritis_risk":5,"migraine_risk":7,"frizz_risk":1,"updated_at":"2026-04-21T04:22:32.388736+05:30"},{"city":"Kakinada","state":"Andhra Pradesh","latitude":16.9891,"longitude":82.2475,"temp":26.7,"humidity":92,"rain":0.0,"pressure":1006.0,"uv_index":9.2,"wind_gusts":29.2,"aqi":45,"pm10":16.4,"pm2_5":10.7,"mosquito_risk":7,"arthritis_risk":5,"migraine_risk":4,"frizz_risk":1,"updated_at":"2026-04-21T04:22:32.388741+05:30"},{"city":"Tirupati","state":"Andhra Pradesh","latitude":13.6288,"longitude":79.4192,"temp":25.1,"humidity":87,"rain":0.0,"pressure":990.5,"uv_index":9.35,"wind_gusts":32.0,"aqi":60,"pm10":9.8,"pm2_5":8.0,"mosquito_risk":7,"arthritis_risk":5,"migraine_risk":7,"frizz_risk":1,"updated_at":"2026-04-21T04:22:32.388747+05:30"},{"city":"Warangal","state":"Telangana","latitude":17.9689,"longitude":79.5941,"temp":28.2,"humidity":78,"rain":0.0,"pressure":976.6,"uv_index":8.85,"wind_gusts":24.8,"aqi":105,"pm10":19.0,"pm2_5":18.6,"mosquito_risk":7,"arthritis_risk":5,"migraine_risk":7,"frizz_risk":1,"updated_at":"2026-04-21T04:22:32.388753+05:30"},{"city":"Nizamabad","state":"Telangana","latitude":18.6725,"longitude":78.0941,"temp":28.2,"humidity":58,"rain":0.0,"pressure":962.7,"uv_index":9.1,"wind_gusts":25.9,"aqi":111,"pm10":60.5,"pm2_5":56.2,"mosquito_risk":4,"arthritis_risk":5,"migraine_risk":7,"frizz_risk":1,"updated_at":"2026-04-21T04:22:32.388759+05:30"},{"city":"Mysore","state":"Karnataka","latitude":12.2958,"longitude":76.6396,"temp":23.0,"humidity":91,"rain":0.0,"pressure":926.7,"uv_index":9.5,"wind_gusts":37.8,"aqi":86,"pm10":34.0,"pm2_5":31.3,"mosquito_risk":3,"arthritis_risk":5,"migraine_risk":7,"frizz_risk":1,"updated_at":"2026-04-21T04:22:32.388765+05:30"},{"city":"Mangalore","state":"Karnataka","latitude":12.9141,"longitude":74.856,"temp":27.8,"humidity":86,"rain":0.0,"pressure":1004.6,"uv_index":9.15,"wind_gusts":24.5,"aqi":83,"pm10":43.9,"pm2_5":31.5,"mosquito_risk":7,"arthritis_risk":5,"migraine_risk":4,"frizz_risk":1,"updated_at":"2026-04-21T04:22:32.388771+05:30"},{"city":"Hubli-Dharwad","state":"Karnataka","latitude":15.3647,"longitude":75.124,"temp":24.5,"humidity":88,"rain":0.0,"pressure":939.1,"uv_index":9.25,"wind_gusts":28.8,"aqi":103,"pm10":28.1,"pm2_5":24.9,"mosquito_risk":3,"arthritis_risk":5,"migraine_risk":7,"frizz_risk":1,"updated_at":"2026-04-21T04:22:32.388777+05:30"},{"city":"Belgaum","state":"Karnataka","latitude":15.8497,"longitude":74.4977,"temp":22.9,"humidity":91,"rain":0.0,"pressure":923.8,"uv_index":9.3,"wind_gusts":36.4,"aqi":94,"pm10":38.0,"pm2_5":30.9,"mosquito_risk":3,"arthritis_risk":5,"migraine_risk":7,"frizz_risk":1,"updated_at":"2026-04-21T04:22:35.734573+05:30"},{"city":"Coimbatore","state":"Tamil Nadu","latitude":11.0168,"longitude":76.9558,"temp":24.4,"humidity":90,"rain":0.0,"pressure":960.1,"uv_index":9.25,"wind_gusts":53.6,"aqi":91,"pm10":34.9,"pm2_5":29.7,"mosquito_risk":3,"arthritis_risk":5,"migraine_risk":7,"frizz_risk":1,"updated_at":"2026-04-21T04:22:35.734608+05:30"},{"city":"Madurai","state":"Tamil Nadu","latitude":9.9252,"longitude":78.1198,"temp":26.7,"humidity":89,"rain":0.0,"pressure":991.2,"uv_index":8.85,"wind_gusts":40.0,"aqi":62,"pm10":20.2,"pm2_5":18.3,"mosquito_risk":7,"arthritis_risk":5,"migraine_risk":7,"frizz_risk":1,"updated_at":"2026-04-21T04:22:35.734622+05:30"},{"city":"Trichy","state":"Tamil Nadu","latitude":10.7905,"longitude":78.7047,"temp":26.6,"humidity":90,"rain":0.0,"pressure":998.1,"uv_index":8.95,"wind_gusts":27.0,"aqi":59,"pm10":13.0,"pm2_5":11.6,"mosquito_risk":7,"arthritis_risk":5,"migraine_risk":7,"frizz_risk":1,"updated_at":"2026-04-21T04:22:35.734631+05:30"},{"city":"Salem","state":"Tamil Nadu","latitude":11.6643,"longitude":78.146,"temp":26.9,"humidity":79,"rain":0.0,"pressure":975.6,"uv_index":9.4,"wind_gusts":18.7,"aqi":65,"pm10":16.9,"pm2_5":16.1,"mosquito_risk":7,"arthritis_risk":5,"migraine_risk":7,"frizz_risk":1,"updated_at":"2026-04-21T04:22:35.734640+05:30"},{"city":"Tirunelveli","state":"Tamil Nadu","latitude":8.7139,"longitude":77.7567,"temp":26.1,"humidity":84,"rain":0.0,"pressure":1001.3,"uv_index":8.7,"wind_gusts":45.0,"aqi":61,"pm10":22.4,"pm2_5":20.3,"mosquito_risk":7,"arthritis_risk":5,"migraine_risk":4,"frizz_risk":1,"updated_at":"2026-04-21T04:22:35.734648+05:30"},{"city":"Vellore","state":"Tamil Nadu","latitude":12.9165,"longitude":79.1325,"temp":25.0,"humidity":81,"rain":0.0,"pressure":983.1,"uv_index":9.4,"wind_gusts":28.4,"aqi":67,"pm10":14.8,"pm2_5":12.8,"mosquito_risk":7,"arthritis_risk":5,"migraine_risk":7,"frizz_risk":1,"updated_at":"2026-04-21T04:22:35.734655+05:30"},{"city":"Erode","state":"Tamil Nadu","latitude":11.341,"longitude":77.7172,"temp":28.5,"humidity":80,"rain":0.0,"pressure":987.3,"uv_index":9.2,"wind_gusts":24.8,"aqi":65,"pm10":10.3,"pm2_5":9.9,"mosquito_risk":7,"arthritis_risk":5,"migraine_risk":7,"frizz_risk":1,"updated_at":"2026-04-21T04:22:35.734662+05:30"},{"city":"Kochi","state":"Kerala","latitude":9.9312,"longitude":76.2673,"temp":27.9,"humidity":84,"rain":0.0,"pressure":1006.8,"uv_index":8.65,"wind_gusts":31.3,"aqi":66,"pm10":29.5,"pm2_5":24.9,"mosquito_risk":7,"arthritis_risk":5,"migraine_risk":4,"frizz_risk":1,"updated_at":"2026-04-21T04:22:35.734668+05:30"},{"city":"Thiruvananthapuram","state":"Kerala","latitude":8.5241,"longitude":76.9366,"temp":27.9,"humidity":85,"rain":0.0,"pressure":1005.8,"uv_index":8.4,"wind_gusts":28.8,"aqi":58,"pm10":19.1,"pm2_5":14.6,"mosquito_risk":7,"arthritis_risk":5,"migraine_risk":4,"frizz_risk":1,"updated_at":"2026-04-21T04:22:35.734674+05:30"},{"city":"Kozhikode","state":"Kerala","latitude":11.2588,"longitude":75.7804,"temp":27.6,"humidity":83,"rain":0.0,"pressure":1006.1,"uv_index":9.05,"wind_gusts":29.9,"aqi":68,"pm10":34.7,"pm2_5":21.7,"mosquito_risk":7,"arthritis_risk":5,"migraine_risk":4,"frizz_risk":1,"updated_at":"2026-04-21T04:22:35.734680+05:30"},{"city":"Thrissur","state":"Kerala","latitude":10.5276,"longitude":76.2144,"temp":27.0,"humidity":90,"rain":0.0,"pressure":1005.2,"uv_index":9.05,"wind_gusts":36.7,"aqi":69,"pm10":27.9,"pm2_5":24.2,"mosquito_risk":7,"arthritis_risk":5,"migraine_risk":4,"frizz_risk":1,"updated_at":"2026-04-21T04:22:35.734687+05:30"},{"city":"Kannur","state":"Kerala","latitude":11.8745,"longitude":75.3704,"temp":28.8,"humidity":80,"rain":0.0,"pressure":1005.2,"uv_index":9.1,"wind_gusts":31.7,"aqi":75,"pm10":38.1,"pm2_5":25.7,"mosquito_risk":7,"arthritis_risk":5,"migraine_risk":4,"frizz_risk":1,"updated_at":"2026-04-21T04:22:35.734693+05:30"},{"city":"Patna","state":"Bihar","latitude":25.5941,"longitude":85.1376,"temp":27.6,"humidity":82,"rain":0.0,"pressure":995.0,"uv_index":8.7,"wind_gusts":33.1,"aqi":119,"pm10":85.2,"pm2_5":39.5,"mosquito_risk":7,"arthritis_risk":5,"migraine_risk":7,"frizz_risk":1,"updated_at":"2026-04-21T04:22:35.734700+05:30"},{"city":"Gaya","state":"Bihar","latitude":24.7914,"longitude":85.0002,"temp":27.9,"humidity":48,"rain":0.0,"pressure":988.9,"uv_index":8.75,"wind_gusts":30.2,"aqi":94,"pm10":55.3,"pm2_5":32.8,"mosquito_risk":4,"arthritis_risk":5,"migraine_risk":7,"frizz_risk":0,"updated_at":"2026-04-21T04:22:35.734707+05:30"},{"city":"Muzaffarpur","state":"Bihar","latitude":26.1209,"longitude":85.3647,"temp":26.6,"humidity":87,"rain":0.0,"pressure":995.1,"uv_index":8.65,"wind_gusts":30.6,"aqi":131,"pm10":97.1,"pm2_5":46.3,"mosquito_risk":7,"arthritis_risk":5,"migraine_risk":7,"frizz_risk":1,"updated_at":"2026-04-21T04:22:35.734713+05:30"},{"city":"Bhagalpur","state":"Bihar","latitude":25.2425,"longitude":87.0117,"temp":27.4,"humidity":88,"rain":0.0,"pressure":995.4,"uv_index":8.7,"wind_gusts":25.2,"aqi":148,"pm10":68.0,"pm2_5":57.3,"mosquito_risk":7,"arthritis_risk":5,"migraine_risk":7,"frizz_risk":1,"updated_at":"2026-04-21T04:22:35.734719+05:30"},{"city":"Ranchi","state":"Jharkhand","latitude":23.3441,"longitude":85.3096,"temp":24.9,"humidity":67,"rain":0.0,"pressure":934.5,"uv_index":9.25,"wind_gusts":35.6,"aqi":82,"pm10":49.7,"pm2_5":28.1,"mosquito_risk":3,"arthritis_risk":5,"migraine_risk":7,"frizz_risk":1,"updated_at":"2026-04-21T04:22:35.734725+05:30"},{"city":"Jamshedpur","state":"Jharkhand","latitude":22.8046,"longitude":86.2029,"temp":28.2,"humidity":78,"rain":0.0,"pressure":986.8,"uv_index":9.05,"wind_gusts":21.6,"aqi":136,"pm10":58.7,"pm2_5":53.9,"mosquito_risk":7,"arthritis_risk":5,"migraine_risk":7,"frizz_risk":1,"updated_at":"2026-04-21T04:22:35.734731+05:30"},{"city":"Dhanbad","state":"Jharkhand","latitude":23.7957,"longitude":86.4304,"temp":29.1,"humidity":69,"rain":0.0,"pressure":975.3,"uv_index":8.85,"wind_gusts":29.2,"aqi":148,"pm10":92.2,"pm2_5":69.8,"mosquito_risk":7,"arthritis_risk":5,"migraine_risk":7,"frizz_risk":1,"updated_at":"2026-04-21T04:22:35.734737+05:30"},{"city":"Bokaro","state":"Jharkhand","latitude":23.6693,"longitude":86.1511,"temp":28.0,"humidity":59,"rain":0.0,"pressure":979.5,"uv_index":8.9,"wind_gusts":33.1,"aqi":123,"pm10":82.9,"pm2_5":58.2,"mosquito_risk":4,"arthritis_risk":5,"migraine_risk":7,"frizz_risk":1,"updated_at":"2026-04-21T04:22:35.734744+05:30"},{"city":"Bhubaneswar","state":"Odisha","latitude":20.2961,"longitude":85.8245,"temp":26.9,"humidity":94,"rain":0.0,"pressure":999.2,"uv_index":9.15,"wind_gusts":30.2,"aqi":71,"pm10":16.6,"pm2_5":14.3,"mosquito_risk":7,"arthritis_risk":5,"migraine_risk":7,"frizz_risk":1,"updated_at":"2026-04-21T04:22:35.734753+05:30"},{"city":"Cuttack","state":"Odisha","latitude":20.4625,"longitude":85.8828,"temp":26.9,"humidity":94,"rain":0.0,"pressure":1001.0,"uv_index":9.2,"wind_gusts":31.3,"aqi":71,"pm10":16.6,"pm2_5":14.3,"mosquito_risk":7,"arthritis_risk":5,"migraine_risk":4,"frizz_risk":1,"updated_at":"2026-04-21T04:22:35.734762+05:30"},{"city":"Rourkela","state":"Odisha","latitude":22.2604,"longitude":84.8536,"temp":27.0,"humidity":82,"rain":0.0,"pressure":981.4,"uv_index":8.95,"wind_gusts":27.7,"aqi":122,"pm10":57.5,"pm2_5":48.8,"mosquito_risk":7,"arthritis_risk":5,"migraine_risk":7,"frizz_risk":1,"updated_at":"2026-04-21T04:22:35.734768+05:30"},{"city":"Raipur","state":"Chhattisgarh","latitude":21.2514,"longitude":81.6296,"temp":28.8,"humidity":46,"rain":0.0,"pressure":971.6,"uv_index":9.0,"wind_gusts":35.3,"aqi":98,"pm10":44.1,"pm2_5":40.3,"mosquito_risk":4,"arthritis_risk":5,"migraine_risk":7,"frizz_risk":1,"updated_at":"2026-04-21T04:22:35.734774+05:30"},{"city":"Bhilai","state":"Chhattisgarh","latitude":21.1938,"longitude":81.3509,"temp":27.6,"humidity":54,"rain":0.0,"pressure":971.8,"uv_index":9.0,"wind_gusts":33.5,"aqi":93,"pm10":41.0,"pm2_5":36.9,"mosquito_risk":4,"arthritis_risk":5,"migraine_risk":7,"frizz_risk":1,"updated_at":"2026-04-21T04:22:35.734779+05:30"},{"city":"Guwahati","state":"Assam","latitude":26.1158,"longitude":91.7086,"temp":23.3,"humidity":92,"rain":0.0,"pressure":998.6,"uv_index":8.45,"wind_gusts":49.3,"aqi":82,"pm10":23.1,"pm2_5":19.0,"mosquito_risk":3,"arthritis_risk":5,"migraine_risk":7,"frizz_risk":1,"updated_at":"2026-04-21T04:22:35.734785+05:30"},{"city":"Agartala","state":"Tripura","latitude":23.8315,"longitude":91.2868,"temp":27.1,"humidity":90,"rain":0.0,"pressure":1003.5,"uv_index":8.8,"wind_gusts":40.7,"aqi":87,"pm10":28.2,"pm2_5":22.9,"mosquito_risk":7,"arthritis_risk":5,"migraine_risk":4,"frizz_risk":1,"updated_at":"2026-04-21T04:22:35.734790+05:30"},{"city":"Shillong","state":"Meghalaya","latitude":25.5788,"longitude":91.8933,"temp":16.8,"humidity":92,"rain":0.0,"pressure":854.1,"uv_index":9.05,"wind_gusts":73.4,"aqi":60,"pm10":2.9,"pm2_5":2.4,"mosquito_risk":3,"arthritis_risk":10,"migraine_risk":7,"frizz_risk":0,"updated_at":"2026-04-21T04:22:35.734797+05:30"},{"city":"Imphal","state":"Manipur","latitude":24.817,"longitude":93.9368,"temp":19.3,"humidity":89,"rain":0.0,"pressure":921.7,"uv_index":9.2,"wind_gusts":82.4,"aqi":130,"pm10":96.2,"pm2_5":86.1,"mosquito_risk":3,"arthritis_risk":10,"migraine_risk":7,"frizz_risk":1,"updated_at":"2026-04-21T04:22:35.734803+05:30"},{"city":"Aizawl","state":"Mizoram","latitude":23.7271,"longitude":92.7176,"temp":20.7,"humidity":82,"rain":0.0,"pressure":891.5,"uv_index":9.05,"wind_gusts":58.7,"aqi":105,"pm10":43.9,"pm2_5":34.0,"mosquito_risk":3,"arthritis_risk":5,"migraine_risk":7,"frizz_risk":1,"updated_at":"2026-04-21T04:22:35.734808+05:30"},{"city":"Kohima","state":"Nagaland","latitude":25.6701,"longitude":94.1077,"temp":18.1,"humidity":81,"rain":0.0,"pressure":853.0,"uv_index":9.15,"wind_gusts":108.0,"aqi":85,"pm10":35.0,"pm2_5":28.9,"mosquito_risk":3,"arthritis_risk":10,"migraine_risk":7,"frizz_risk":0,"updated_at":"2026-04-21T04:22:35.734814+05:30"},{"city":"Gangtok","state":"Sikkim","latitude":27.3314,"longitude":88.6138,"temp":15.5,"humidity":70,"rain":0.0,"pressure":833.7,"uv_index":9.0,"wind_gusts":17.3,"aqi":64,"pm10":23.7,"pm2_5":18.3,"mosquito_risk":3,"arthritis_risk":5,"migraine_risk":7,"frizz_risk":0,"updated_at":"2026-04-21T04:22:35.734820+05:30"},{"city":"Siliguri","state":"West Bengal","latitude":26.7271,"longitude":88.3953,"temp":22.8,"humidity":80,"rain":0.0,"pressure":989.5,"uv_index":8.15,"wind_gusts":31.3,"aqi":113,"pm10":56.0,"pm2_5":47.1,"mosquito_risk":3,"arthritis_risk":5,"migraine_risk":7,"frizz_risk":1,"updated_at":"2026-04-21T04:22:39.074675+05:30"},{"city":"Durgapur","state":"West Bengal","latitude":23.5204,"longitude":87.3119,"temp":27.7,"humidity":88,"rain":0.0,"pressure":990.4,"uv_index":8.95,"wind_gusts":38.2,"aqi":151,"pm10":67.1,"pm2_5":61.9,"mosquito_risk":7,"arthritis_risk":5,"migraine_risk":7,"frizz_risk":1,"updated_at":"2026-04-21T04:22:39.074711+05:30"},{"city":"Asansol","state":"West Bengal","latitude":23.6739,"longitude":86.9524,"temp":28.3,"humidity":84,"rain":0.0,"pressure":989.0,"uv_index":9.0,"wind_gusts":30.6,"aqi":142,"pm10":82.4,"pm2_5":66.8,"mosquito_risk":7,"arthritis_risk":5,"migraine_risk":7,"frizz_risk":1,"updated_at":"2026-04-21T04:22:39.074724+05:30"},{"city":"Pondicherry","state":"Puducherry","latitude":11.9139,"longitude":79.8145,"temp":27.5,"humidity":93,"rain":0.0,"pressure":1006.7,"uv_index":9.2,"wind_gusts":32.8,"aqi":31,"pm10":8.7,"pm2_5":5.7,"mosquito_risk":7,"arthritis_risk":5,"migraine_risk":4,"frizz_risk":1,"updated_at":"2026-04-21T04:22:39.074735+05:30"},{"city":"Port Blair","state":"Andaman and Nicobar Islands","latitude":11.6234,"longitude":92.7265,"temp":29.6,"humidity":73,"rain":0.0,"pressure":1005.6,"uv_index":8.8,"wind_gusts":14.0,"aqi":63,"pm10":19.6,"pm2_5":15.9,"mosquito_risk":7,"arthritis_risk":5,"migraine_risk":4,"frizz_risk":1,"updated_at":"2026-04-21T04:22:39.074746+05:30"},{"city":"Haridwar","state":"Uttarakhand","latitude":29.9457,"longitude":78.1642,"temp":20.9,"humidity":56,"rain":0.0,"pressure":971.3,"uv_index":7.1,"wind_gusts":35.3,"aqi":60,"pm10":29.0,"pm2_5":25.7,"mosquito_risk":0,"arthritis_risk":5,"migraine_risk":7,"frizz_risk":0,"updated_at":"2026-04-21T04:22:39.074756+05:30"},{"city":"Rishikesh","state":"Uttarakhand","latitude":30.0869,"longitude":78.2676,"temp":20.9,"humidity":52,"rain":0.0,"pressure":964.3,"uv_index":7.2,"wind_gusts":35.3,"aqi":53,"pm10":25.3,"pm2_5":19.2,"mosquito_risk":0,"arthritis_risk":5,"migraine_risk":7,"frizz_risk":0,"updated_at":"2026-04-21T04:22:39.074766+05:30"},{"city":"Nainital","state":"Uttarakhand","latitude":29.3919,"longitude":79.4542,"temp":21.4,"humidity":27,"rain":0.0,"pressure":805.2,"uv_index":8.05,"wind_gusts":65.2,"aqi":68,"pm10":25.7,"pm2_5":16.2,"mosquito_risk":0,"arthritis_risk":5,"migraine_risk":7,"frizz_risk":0,"updated_at":"2026-04-21T04:22:39.074775+05:30"},{"city":"Mussoorie","state":"Uttarakhand","latitude":30.4599,"longitude":78.0664,"temp":18.1,"humidity":36,"rain":0.0,"pressure":801.5,"uv_index":7.6,"wind_gusts":41.8,"aqi":56,"pm10":24.0,"pm2_5":20.7,"mosquito_risk":0,"arthritis_risk":5,"migraine_risk":7,"frizz_risk":0,"updated_at":"2026-04-21T04:22:39.074784+05:30"},{"city":"Dharamshala","state":"Himachal Pradesh","latitude":32.219,"longitude":76.3234,"temp":21.9,"humidity":29,"rain":0.0,"pressure":867.8,"uv_index":7.85,"wind_gusts":31.7,"aqi":42,"pm10":18.5,"pm2_5":7.9,"mosquito_risk":0,"arthritis_risk":5,"migraine_risk":7,"frizz_risk":0,"updated_at":"2026-04-21T04:22:39.074793+05:30"},{"city":"Dalhousie","state":"Himachal Pradesh","latitude":32.5387,"longitude":75.971,"temp":18.2,"humidity":29,"rain":0.0,"pressure":802.5,"uv_index":8.1,"wind_gusts":30.6,"aqi":52,"pm10":20.0,"pm2_5":14.6,"mosquito_risk":0,"arthritis_risk":5,"migraine_risk":7,"frizz_risk":1,"updated_at":"2026-04-21T04:22:39.074803+05:30"},{"city":"Patiala","state":"Punjab","latitude":30.3398,"longitude":76.3869,"temp":22.1,"humidity":49,"rain":0.0,"pressure":975.8,"uv_index":7.2,"wind_gusts":26.6,"aqi":366,"pm10":441.4,"pm2_5":65.7,"mosquito_risk":0,"arthritis_risk":5,"migraine_risk":7,"frizz_risk":0,"updated_at":"2026-04-21T04:22:39.074812+05:30"},{"city":"Bhatinda","state":"Punjab","latitude":30.211,"longitude":74.9455,"temp":24.9,"humidity":49,"rain":0.0,"pressure":981.7,"uv_index":7.85,"wind_gusts":32.4,"aqi":72,"pm10":39.8,"pm2_5":30.7,"mosquito_risk":0,"arthritis_risk":5,"migraine_risk":7,"frizz_risk":0,"updated_at":"2026-04-21T04:22:39.074822+05:30"},{"city":"Rohtak","state":"Haryana","latitude":28.8955,"longitude":76.6066,"temp":21.3,"humidity":55,"rain":0.0,"pressure":979.3,"uv_index":7.35,"wind_gusts":37.1,"aqi":707,"pm10":694.8,"pm2_5":108.0,"mosquito_risk":0,"arthritis_risk":5,"migraine_risk":7,"frizz_risk":0,"updated_at":"2026-04-21T04:22:39.074830+05:30"},{"city":"Panipat","state":"Haryana","latitude":29.3909,"longitude":76.9635,"temp":22.4,"humidity":44,"rain":0.0,"pressure":977.8,"uv_index":7.15,"wind_gusts":33.8,"aqi":1201,"pm10":1352.3,"pm2_5":170.9,"mosquito_risk":0,"arthritis_risk":5,"migraine_risk":7,"frizz_risk":0,"updated_at":"2026-04-21T04:22:39.074838+05:30"},{"city":"Mathura","state":"Uttar Pradesh","latitude":27.4924,"longitude":77.6737,"temp":26.5,"humidity":41,"rain":0.0,"pressure":984.1,"uv_index":7.6,"wind_gusts":27.7,"aqi":1126,"pm10":1303.9,"pm2_5":183.9,"mosquito_risk":4,"arthritis_risk":5,"migraine_risk":7,"frizz_risk":0,"updated_at":"2026-04-21T04:22:39.074847+05:30"},{"city":"Vrindavan","state":"Uttar Pradesh","latitude":27.5823,"longitude":77.7027,"temp":24.4,"humidity":46,"rain":0.0,"pressure":984.5,"uv_index":7.6,"wind_gusts":31.7,"aqi":1126,"pm10":1303.9,"pm2_5":183.9,"mosquito_risk":0,"arthritis_risk":5,"migraine_risk":7,"frizz_risk":0,"updated_at":"2026-04-21T04:22:39.074856+05:30"},{"city":"Ayodhya","state":"Uttar Pradesh","latitude":26.7922,"longitude":82.1998,"temp":25.5,"humidity":52,"rain":0.0,"pressure":990.9,"uv_index":8.1,"wind_gusts":47.2,"aqi":103,"pm10":50.5,"pm2_5":24.9,"mosquito_risk":4,"arthritis_risk":5,"migraine_risk":7,"frizz_risk":0,"updated_at":"2026-04-21T04:22:39.074864+05:30"},{"city":"Ratlam","state":"Madhya Pradesh","latitude":23.3315,"longitude":75.0367,"temp":26.7,"humidity":52,"rain":0.0,"pressure":953.5,"uv_index":8.45,"wind_gusts":33.8,"aqi":65,"pm10":26.3,"pm2_5":17.2,"mosquito_risk":4,"arthritis_risk":5,"migraine_risk":7,"frizz_risk":0,"updated_at":"2026-04-21T04:22:39.074872+05:30"},{"city":"Sagar","state":"Madhya Pradesh","latitude":23.8388,"longitude":78.7378,"temp":26.4,"humidity":38,"rain":0.0,"pressure":948.2,"uv_index":8.65,"wind_gusts":30.6,"aqi":55,"pm10":12.4,"pm2_5":11.1,"mosquito_risk":4,"arthritis_risk":5,"migraine_risk":7,"frizz_risk":0,"updated_at":"2026-04-21T04:22:39.074880+05:30"},{"city":"Satna","state":"Madhya Pradesh","latitude":24.6005,"longitude":80.8322,"temp":26.8,"humidity":46,"rain":0.0,"pressure":968.1,"uv_index":8.65,"wind_gusts":35.3,"aqi":67,"pm10":17.1,"pm2_5":11.8,"mosquito_risk":4,"arthritis_risk":5,"migraine_risk":7,"frizz_risk":0,"updated_at":"2026-04-21T04:22:39.074888+05:30"},{"city":"Akola","state":"Maharashtra","latitude":20.7002,"longitude":77.0082,"temp":28.2,"humidity":56,"rain":0.0,"pressure":973.2,"uv_index":8.85,"wind_gusts":27.7,"aqi":87,"pm10":50.4,"pm2_5":45.8,"mosquito_risk":4,"arthritis_risk":5,"migraine_risk":7,"frizz_risk":1,"updated_at":"2026-04-21T04:22:39.074897+05:30"},{"city":"Amravati","state":"Maharashtra","latitude":20.9374,"longitude":77.7796,"temp":26.7,"humidity":62,"rain":0.0,"pressure":965.2,"uv_index":8.85,"wind_gusts":41.0,"aqi":81,"pm10":47.3,"pm2_5":43.1,"mosquito_risk":7,"arthritis_risk":5,"migraine_risk":7,"frizz_risk":1,"updated_at":"2026-04-21T04:22:39.074906+05:30"},{"city":"Latur","state":"Maharashtra","latitude":18.4088,"longitude":76.5604,"temp":24.5,"humidity":65,"rain":0.0,"pressure":937.8,"uv_index":9.1,"wind_gusts":37.8,"aqi":104,"pm10":51.3,"pm2_5":43.1,"mosquito_risk":3,"arthritis_risk":5,"migraine_risk":7,"frizz_risk":1,"updated_at":"2026-04-21T04:22:39.074916+05:30"},{"city":"Nanded","state":"Maharashtra","latitude":19.1383,"longitude":77.3091,"temp":27.0,"humidity":61,"rain":0.0,"pressure":966.5,"uv_index":9.0,"wind_gusts":26.3,"aqi":105,"pm10":40.4,"pm2_5":37.1,"mosquito_risk":7,"arthritis_risk":5,"migraine_risk":7,"frizz_risk":1,"updated_at":"2026-04-21T04:22:39.074924+05:30"},{"city":"Gulbarga","state":"Karnataka","latitude":17.3297,"longitude":76.8343,"temp":26.9,"humidity":61,"rain":0.0,"pressure":957.2,"uv_index":8.2,"wind_gusts":27.4,"aqi":110,"pm10":44.5,"pm2_5":39.7,"mosquito_risk":7,"arthritis_risk":5,"migraine_risk":7,"frizz_risk":1,"updated_at":"2026-04-21T04:22:39.074933+05:30"},{"city":"Bidar","state":"Karnataka","latitude":17.9104,"longitude":77.5199,"temp":26.6,"humidity":59,"rain":0.0,"pressure":933.8,"uv_index":8.45,"wind_gusts":31.7,"aqi":114,"pm10":49.9,"pm2_5":45.5,"mosquito_risk":4,"arthritis_risk":5,"migraine_risk":7,"frizz_risk":1,"updated_at":"2026-04-21T04:22:39.074941+05:30"},{"city":"Hospet","state":"Karnataka","latitude":15.2689,"longitude":76.3909,"temp":26.5,"humidity":87,"rain":0.0,"pressure":954.5,"uv_index":9.3,"wind_gusts":38.2,"aqi":127,"pm10":39.6,"pm2_5":36.4,"mosquito_risk":7,"arthritis_risk":5,"migraine_risk":7,"frizz_risk":1,"updated_at":"2026-04-21T04:22:39.074948+05:30"},{"city":"Tirupur","state":"Tamil Nadu","latitude":11.1085,"longitude":77.3411,"temp":27.2,"humidity":82,"rain":0.0,"pressure":973.6,"uv_index":9.2,"wind_gusts":34.6,"aqi":78,"pm10":24.4,"pm2_5":21.8,"mosquito_risk":7,"arthritis_risk":5,"migraine_risk":7,"frizz_risk":1,"updated_at":"2026-04-21T04:22:39.074954+05:30"},{"city":"Alappuzha","state":"Kerala","latitude":9.4981,"longitude":76.3388,"temp":27.2,"humidity":84,"rain":0.0,"pressure":1007.0,"uv_index":7.7,"wind_gusts":28.4,"aqi":65,"pm10":31.7,"pm2_5":26.1,"mosquito_risk":7,"arthritis_risk":5,"migraine_risk":4,"frizz_risk":1,"updated_at":"2026-04-21T04:22:39.074961+05:30"},{"city":"Munnar","state":"Kerala","latitude":10.0889,"longitude":77.0595,"temp":20.9,"humidity":90,"rain":0.0,"pressure":854.9,"uv_index":9.25,"wind_gusts":33.8,"aqi":68,"pm10":29.0,"pm2_5":27.2,"mosquito_risk":3,"arthritis_risk":5,"migraine_risk":7,"frizz_risk":1,"updated_at":"2026-04-21T04:22:39.074968+05:30"},{"city":"Silchar","state":"Assam","latitude":24.8333,"longitude":92.7789,"temp":23.3,"humidity":94,"rain":0.0,"pressure":1004.0,"uv_index":8.65,"wind_gusts":43.6,"aqi":133,"pm10":85.7,"pm2_5":68.5,"mosquito_risk":3,"arthritis_risk":5,"migraine_risk":4,"frizz_risk":1,"updated_at":"2026-04-21T04:22:39.074975+05:30"},{"city":"Dibrugarh","state":"Assam","latitude":27.4728,"longitude":94.912,"temp":23.4,"humidity":93,"rain":0.0,"pressure":992.6,"uv_index":7.0,"wind_gusts":31.0,"aqi":75,"pm10":23.1,"pm2_5":20.1,"mosquito_risk":3,"arthritis_risk":5,"migraine_risk":7,"frizz_risk":1,"updated_at":"2026-04-21T04:22:39.074981+05:30"}]