[{"city":"Delhi","state":"Delhi","latitude":28.6139,"longitude":77.209,"temp":29.7,"humidity":76,"rain":0.0,"pressure":977.9,"uv_index":7.7,"wind_gusts":27.4,"aqi":182,"pm10":132.2,"pm2_5":66.8,"no2":28.8,"co":397.0,"o3":43.0,"so2":18.6,"mosquito_risk":7,"arthritis_risk":5,"migraine_risk":7,"frizz_risk":1,"updated_at":"2026-07-15T08:10:10.883250+05:30"},{"city":"Mumbai","state":"Maharashtra","latitude":19.076,"longitude":72.8777,"temp":24.9,"humidity":93,"rain":0.4,"pressure":1007.8,"uv_index":7.75,"wind_gusts":42.8,"aqi":72,"pm10":44.9,"pm2_5":18.6,"no2":8.7,"co":223.0,"o3":47.0,"so2":7.2,"mosquito_risk":6,"arthritis_risk":5,"migraine_risk":4,"frizz_risk":1,"updated_at":"2026-07-15T08:10:10.883298+05:30"},{"city":"Bangalore","state":"Karnataka","latitude":12.9716,"longitude":77.5946,"temp":21.4,"humidity":81,"rain":0.0,"pressure":912.7,"uv_index":9.1,"wind_gusts":43.6,"aqi":63,"pm10":26.7,"pm2_5":17.0,"no2":12.2,"co":311.0,"o3":38.0,"so2":4.8,"mosquito_risk":3,"arthritis_risk":5,"migraine_risk":7,"frizz_risk":1,"updated_at":"2026-07-15T08:10:10.883315+05:30"},{"city":"Hyderabad","state":"Telangana","latitude":17.385,"longitude":78.4867,"temp":26.7,"humidity":60,"rain":0.0,"pressure":952.9,"uv_index":9.1,"wind_gusts":50.0,"aqi":73,"pm10":25.3,"pm2_5":18.0,"no2":7.5,"co":261.0,"o3":52.0,"so2":5.5,"mosquito_risk":4,"arthritis_risk":5,"migraine_risk":7,"frizz_risk":1,"updated_at":"2026-07-15T08:10:10.883326+05:30"},{"city":"Chennai","state":"Tamil Nadu","latitude":13.0827,"longitude":80.2707,"temp":31.0,"humidity":62,"rain":0.0,"pressure":1005.8,"uv_index":8.7,"wind_gusts":37.4,"aqi":85,"pm10":28.4,"pm2_5":22.5,"no2":17.5,"co":299.0,"o3":55.0,"so2":15.4,"mosquito_risk":3,"arthritis_risk":5,"migraine_risk":4,"frizz_risk":1,"updated_at":"2026-07-15T08:10:10.883336+05:30"},{"city":"Kolkata","state":"West Bengal","latitude":22.5726,"longitude":88.3639,"temp":29.4,"humidity":81,"rain":0.0,"pressure":1000.0,"uv_index":8.55,"wind_gusts":34.9,"aqi":143,"pm10":24.3,"pm2_5":21.2,"no2":13.1,"co":360.0,"o3":73.0,"so2":12.9,"mosquito_risk":7,"arthritis_risk":5,"migraine_risk":4,"frizz_risk":1,"updated_at":"2026-07-15T08:10:10.883345+05:30"},{"city":"Pune","state":"Maharashtra","latitude":18.5204,"longitude":73.8567,"temp":24.0,"humidity":81,"rain":0.0,"pressure":947.1,"uv_index":8.05,"wind_gusts":44.3,"aqi":59,"pm10":13.8,"pm2_5":6.7,"no2":7.0,"co":154.0,"o3":36.0,"so2":5.8,"mosquito_risk":3,"arthritis_risk":5,"migraine_risk":7,"frizz_risk":1,"updated_at":"2026-07-15T08:10:10.883352+05:30"},{"city":"Ahmedabad","state":"Gujarat","latitude":23.0225,"longitude":72.5714,"temp":28.4,"humidity":78,"rain":0.1,"pressure":999.5,"uv_index":7.55,"wind_gusts":39.2,"aqi":68,"pm10":18.2,"pm2_5":9.9,"no2":7.0,"co":157.0,"o3":34.0,"so2":4.9,"mosquito_risk":10,"arthritis_risk":5,"migraine_risk":7,"frizz_risk":1,"updated_at":"2026-07-15T08:10:10.883359+05:30"},{"city":"Jaipur","state":"Rajasthan","latitude":26.9124,"longitude":75.7873,"temp":29.7,"humidity":58,"rain":0.0,"pressure":956.1,"uv_index":8.1,"wind_gusts":40.7,"aqi":396,"pm10":368.8,"pm2_5":70.5,"no2":9.2,"co":164.0,"o3":42.0,"so2":5.2,"mosquito_risk":4,"arthritis_risk":5,"migraine_risk":7,"frizz_risk":1,"updated_at":"2026-07-15T08:10:10.883366+05:30"},{"city":"Lucknow","state":"Uttar Pradesh","latitude":26.8467,"longitude":80.9462,"temp":30.6,"humidity":73,"rain":0.0,"pressure":988.2,"uv_index":7.6,"wind_gusts":23.8,"aqi":167,"pm10":140.2,"pm2_5":68.7,"no2":14.3,"co":261.0,"o3":71.0,"so2":10.0,"mosquito_risk":3,"arthritis_risk":5,"migraine_risk":7,"frizz_risk":1,"updated_at":"2026-07-15T08:10:10.883377+05:30"},{"city":"Kanpur","state":"Uttar Pradesh","latitude":26.4499,"longitude":80.3319,"temp":30.5,"humidity":73,"rain":0.0,"pressure":986.7,"uv_index":7.5,"wind_gusts":36.7,"aqi":156,"pm10":140.6,"pm2_5":57.7,"no2":9.6,"co":189.0,"o3":76.0,"so2":6.1,"mosquito_risk":3,"arthritis_risk":5,"migraine_risk":7,"frizz_risk":1,"updated_at":"2026-07-15T08:10:10.883385+05:30"},{"city":"Chandigarh","state":"Chandigarh","latitude":30.7333,"longitude":76.7794,"temp":28.7,"humidity":78,"rain":0.0,"pressure":963.5,"uv_index":7.7,"wind_gusts":31.3,"aqi":168,"pm10":92.7,"pm2_5":66.1,"no2":21.4,"co":860.0,"o3":99.0,"so2":11.9,"mosquito_risk":7,"arthritis_risk":5,"migraine_risk":7,"frizz_risk":1,"updated_at":"2026-07-15T08:10:10.883392+05:30"},{"city":"Srinagar","state":"Jammu and Kashmir","latitude":34.0837,"longitude":74.7973,"temp":21.2,"humidity":71,"rain":0.0,"pressure":839.7,"uv_index":8.95,"wind_gusts":28.8,"aqi":82,"pm10":35.7,"pm2_5":31.7,"no2":13.4,"co":477.0,"o3":78.0,"so2":5.6,"mosquito_risk":3,"arthritis_risk":5,"migraine_risk":7,"frizz_risk":0,"updated_at":"2026-07-15T08:10:10.883399+05:30"},{"city":"Jammu","state":"Jammu and Kashmir","latitude":32.7266,"longitude":74.857,"temp":28.9,"humidity":73,"rain":0.0,"pressure":967.2,"uv_index":8.55,"wind_gusts":22.3,"aqi":154,"pm10":69.2,"pm2_5":59.0,"no2":28.2,"co":426.0,"o3":83.0,"so2":4.6,"mosquito_risk":7,"arthritis_risk":5,"migraine_risk":7,"frizz_risk":1,"updated_at":"2026-07-15T08:10:10.883405+05:30"},{"city":"Amritsar","state":"Punjab","latitude":31.634,"longitude":74.8723,"temp":29.0,"humidity":79,"rain":0.0,"pressure":975.4,"uv_index":8.35,"wind_gusts":23.8,"aqi":196,"pm10":136.4,"pm2_5":97.8,"no2":36.7,"co":1262.0,"o3":52.0,"so2":11.0,"mosquito_risk":7,"arthritis_risk":5,"migraine_risk":7,"frizz_risk":1,"updated_at":"2026-07-15T08:10:10.883412+05:30"},{"city":"Ludhiana","state":"Punjab","latitude":30.901,"longitude":75.8573,"temp":30.0,"humidity":73,"rain":0.0,"pressure":973.1,"uv_index":7.95,"wind_gusts":27.7,"aqi":190,"pm10":209.5,"pm2_5":146.2,"no2":47.0,"co":1042.0,"o3":65.0,"so2":15.8,"mosquito_risk":7,"arthritis_risk":5,"migraine_risk":7,"frizz_risk":1,"updated_at":"2026-07-15T08:10:10.883418+05:30"},{"city":"Jalandhar","state":"Punjab","latitude":31.326,"longitude":75.5762,"temp":29.4,"humidity":77,"rain":0.0,"pressure":974.2,"uv_index":8.15,"wind_gusts":24.5,"aqi":198,"pm10":192.3,"pm2_5":149.9,"no2":41.2,"co":1202.0,"o3":67.0,"so2":10.2,"mosquito_risk":7,"arthritis_risk":5,"migraine_risk":7,"frizz_risk":1,"updated_at":"2026-07-15T08:10:10.883424+05:30"},{"city":"Dehradun","state":"Uttarakhand","latitude":30.6284,"longitude":78.0322,"temp":20.8,"humidity":80,"rain":0.0,"pressure":828.7,"uv_index":7.85,"wind_gusts":28.4,"aqi":111,"pm10":41.2,"pm2_5":26.0,"no2":8.8,"co":262.0,"o3":97.0,"so2":0.8,"mosquito_risk":3,"arthritis_risk":5,"migraine_risk":7,"frizz_risk":1,"updated_at":"2026-07-15T08:10:10.883430+05:30"},{"city":"Shimla","state":"Himachal Pradesh","latitude":31.1048,"longitude":77.1734,"temp":19.3,"humidity":74,"rain":0.0,"pressure":783.7,"uv_index":8.25,"wind_gusts":40.0,"aqi":111,"pm10":44.9,"pm2_5":28.9,"no2":5.1,"co":293.0,"o3":118.0,"so2":2.4,"mosquito_risk":3,"arthritis_risk":5,"migraine_risk":7,"frizz_risk":0,"updated_at":"2026-07-15T08:10:10.883437+05:30"},{"city":"Manali","state":"Himachal Pradesh","latitude":32.2396,"longitude":77.1887,"temp":22.4,"humidity":58,"rain":0.0,"pressure":818.1,"uv_index":9.4,"wind_gusts":33.1,"aqi":53,"pm10":2.5,"pm2_5":2.0,"no2":8.0,"co":163.0,"o3":89.0,"so2":0.1,"mosquito_risk":0,"arthritis_risk":5,"migraine_risk":7,"frizz_risk":0,"updated_at":"2026-07-15T08:10:10.883446+05:30"},{"city":"Gurgaon","state":"Haryana","latitude":28.4595,"longitude":77.0266,"temp":31.0,"humidity":64,"rain":0.0,"pressure":976.5,"uv_index":7.75,"wind_gusts":31.7,"aqi":179,"pm10":116.2,"pm2_5":59.4,"no2":25.0,"co":293.0,"o3":31.0,"so2":10.1,"mosquito_risk":3,"arthritis_risk":5,"migraine_risk":7,"frizz_risk":1,"updated_at":"2026-07-15T08:10:10.883453+05:30"},{"city":"Noida","state":"Uttar Pradesh","latitude":28.5355,"longitude":77.391,"temp":28.8,"humidity":86,"rain":0.0,"pressure":979.2,"uv_index":7.7,"wind_gusts":29.9,"aqi":179,"pm10":116.2,"pm2_5":59.4,"no2":25.0,"co":447.0,"o3":31.0,"so2":10.1,"mosquito_risk":7,"arthritis_risk":5,"migraine_risk":7,"frizz_risk":1,"updated_at":"2026-07-15T08:10:10.883459+05:30"},{"city":"Ghaziabad","state":"Uttar Pradesh","latitude":28.6692,"longitude":77.4538,"temp":28.7,"humidity":84,"rain":0.0,"pressure":977.5,"uv_index":7.7,"wind_gusts":32.0,"aqi":176,"pm10":131.8,"pm2_5":65.7,"no2":24.9,"co":417.0,"o3":45.0,"so2":18.6,"mosquito_risk":7,"arthritis_risk":5,"migraine_risk":7,"frizz_risk":1,"updated_at":"2026-07-15T08:10:10.883468+05:30"},{"city":"Faridabad","state":"Haryana","latitude":28.4089,"longitude":77.3178,"temp":28.7,"humidity":89,"rain":0.0,"pressure":978.6,"uv_index":7.75,"wind_gusts":27.4,"aqi":179,"pm10":116.2,"pm2_5":59.4,"no2":25.0,"co":291.0,"o3":31.0,"so2":10.1,"mosquito_risk":7,"arthritis_risk":5,"migraine_risk":7,"frizz_risk":1,"updated_at":"2026-07-15T08:10:10.883475+05:30"},{"city":"Meerut","state":"Uttar Pradesh","latitude":28.9845,"longitude":77.7064,"temp":28.8,"humidity":84,"rain":0.0,"pressure":976.2,"uv_index":7.6,"wind_gusts":32.8,"aqi":176,"pm10":131.8,"pm2_5":65.7,"no2":24.9,"co":433.0,"o3":45.0,"so2":18.6,"mosquito_risk":7,"arthritis_risk":5,"migraine_risk":7,"frizz_risk":1,"updated_at":"2026-07-15T08:10:10.883481+05:30"},{"city":"Agra","state":"Uttar Pradesh","latitude":27.1767,"longitude":78.0081,"temp":29.9,"humidity":75,"rain":0.0,"pressure":982.8,"uv_index":7.95,"wind_gusts":32.4,"aqi":151,"pm10":140.2,"pm2_5":45.8,"no2":11.5,"co":210.0,"o3":58.0,"so2":4.5,"mosquito_risk":7,"arthritis_risk":5,"migraine_risk":7,"frizz_risk":1,"updated_at":"2026-07-15T08:10:10.883487+05:30"},{"city":"Varanasi","state":"Uttar Pradesh","latitude":25.3176,"longitude":82.9739,"temp":29.8,"humidity":77,"rain":0.0,"pressure":992.7,"uv_index":8.2,"wind_gusts":28.1,"aqi":171,"pm10":173.2,"pm2_5":90.1,"no2":18.8,"co":329.0,"o3":66.0,"so2":13.9,"mosquito_risk":7,"arthritis_risk":5,"migraine_risk":7,"frizz_risk":1,"updated_at":"2026-07-15T08:10:10.883494+05:30"},{"city":"Prayagraj","state":"Uttar Pradesh","latitude":25.4358,"longitude":81.8463,"temp":31.3,"humidity":69,"rain":0.0,"pressure":991.2,"uv_index":8.6,"wind_gusts":27.4,"aqi":165,"pm10":133.2,"pm2_5":73.8,"no2":14.6,"co":236.0,"o3":66.0,"so2":11.1,"mosquito_risk":3,"arthritis_risk":5,"migraine_risk":7,"frizz_risk":1,"updated_at":"2026-07-15T08:10:10.883501+05:30"},{"city":"Gorakhpur","state":"Uttar Pradesh","latitude":26.7606,"longitude":83.3732,"temp":27.6,"humidity":85,"rain":0.0,"pressure":992.6,"uv_index":7.25,"wind_gusts":23.0,"aqi":162,"pm10":94.3,"pm2_5":45.5,"no2":9.5,"co":354.0,"o3":101.0,"so2":7.1,"mosquito_risk":7,"arthritis_risk":5,"migraine_risk":7,"frizz_risk":1,"updated_at":"2026-07-15T08:10:10.883508+05:30"},{"city":"Bareilly","state":"Uttar Pradesh","latitude":28.367,"longitude":79.4304,"temp":28.5,"humidity":86,"rain":0.0,"pressure":981.7,"uv_index":8.0,"wind_gusts":24.5,"aqi":172,"pm10":167.2,"pm2_5":78.5,"no2":17.9,"co":491.0,"o3":80.0,"so2":14.7,"mosquito_risk":7,"arthritis_risk":5,"migraine_risk":7,"frizz_risk":1,"updated_at":"2026-07-15T08:10:10.883517+05:30"},{"city":"Aligarh","state":"Uttar Pradesh","latitude":27.8974,"longitude":78.088,"temp":29.6,"humidity":78,"rain":0.0,"pressure":980.3,"uv_index":7.75,"wind_gusts":29.9,"aqi":163,"pm10":129.5,"pm2_5":54.2,"no2":11.9,"co":242.0,"o3":51.0,"so2":4.8,"mosquito_risk":7,"arthritis_risk":5,"migraine_risk":7,"frizz_risk":1,"updated_at":"2026-07-15T08:10:10.883523+05:30"},{"city":"Moradabad","state":"Uttar Pradesh","latitude":28.8386,"longitude":78.7733,"temp":29.0,"humidity":78,"rain":0.0,"pressure":978.7,"uv_index":7.8,"wind_gusts":29.9,"aqi":176,"pm10":197.0,"pm2_5":87.5,"no2":24.1,"co":510.0,"o3":58.0,"so2":17.5,"mosquito_risk":7,"arthritis_risk":5,"migraine_risk":7,"frizz_risk":1,"updated_at":"2026-07-15T08:10:10.883529+05:30"},{"city":"Saharanpur","state":"Uttar Pradesh","latitude":29.9637,"longitude":77.546,"temp":28.5,"humidity":84,"rain":0.0,"pressure":970.5,"uv_index":7.35,"wind_gusts":29.2,"aqi":188,"pm10":208.6,"pm2_5":101.3,"no2":20.5,"co":948.0,"o3":67.0,"so2":14.9,"mosquito_risk":7,"arthritis_risk":5,"migraine_risk":7,"frizz_risk":1,"updated_at":"2026-07-15T08:10:10.883536+05:30"},{"city":"Jhansi","state":"Uttar Pradesh","latitude":25.4484,"longitude":78.5685,"temp":30.4,"humidity":65,"rain":0.0,"pressure":973.9,"uv_index":4.85,"wind_gusts":36.7,"aqi":118,"pm10":63.3,"pm2_5":34.1,"no2":7.4,"co":168.0,"o3":55.0,"so2":7.4,"mosquito_risk":3,"arthritis_risk":5,"migraine_risk":3,"frizz_risk":1,"updated_at":"2026-07-15T08:10:14.128159+05:30"},{"city":"Surat","state":"Gujarat","latitude":21.1702,"longitude":72.8311,"temp":27.0,"humidity":83,"rain":0.0,"pressure":1004.9,"uv_index":7.75,"wind_gusts":47.2,"aqi":72,"pm10":30.6,"pm2_5":20.1,"no2":21.6,"co":239.0,"o3":28.0,"so2":40.2,"mosquito_risk":7,"arthritis_risk":5,"migraine_risk":4,"frizz_risk":1,"updated_at":"2026-07-15T08:10:14.128196+05:30"},{"city":"Vadodara","state":"Gujarat","latitude":22.3072,"longitude":73.1812,"temp":26.5,"humidity":87,"rain":0.0,"pressure":1002.3,"uv_index":7.4,"wind_gusts":42.1,"aqi":67,"pm10":18.8,"pm2_5":11.1,"no2":7.8,"co":159.0,"o3":33.0,"so2":5.3,"mosquito_risk":7,"arthritis_risk":5,"migraine_risk":4,"frizz_risk":1,"updated_at":"2026-07-15T08:10:14.128207+05:30"},{"city":"Rajkot","state":"Gujarat","latitude":22.3039,"longitude":70.8022,"temp":27.6,"humidity":82,"rain":0.0,"pressure":990.9,"uv_index":7.2,"wind_gusts":43.2,"aqi":55,"pm10":17.8,"pm2_5":8.7,"no2":3.8,"co":108.0,"o3":39.0,"so2":3.3,"mosquito_risk":7,"arthritis_risk":5,"migraine_risk":7,"frizz_risk":1,"updated_at":"2026-07-15T08:10:14.128216+05:30"},{"city":"Thane","state":"Maharashtra","latitude":19.2183,"longitude":72.9781,"temp":24.4,"humidity":94,"rain":0.1,"pressure":1007.1,"uv_index":7.3,"wind_gusts":37.1,"aqi":72,"pm10":44.9,"pm2_5":18.6,"no2":8.7,"co":230.0,"o3":47.0,"so2":7.2,"mosquito_risk":6,"arthritis_risk":5,"migraine_risk":4,"frizz_risk":1,"updated_at":"2026-07-15T08:10:14.128225+05:30"},{"city":"Nagpur","state":"Maharashtra","latitude":21.1458,"longitude":79.0882,"temp":27.8,"humidity":69,"rain":0.0,"pressure":971.2,"uv_index":8.8,"wind_gusts":38.9,"aqi":90,"pm10":33.5,"pm2_5":24.3,"no2":9.4,"co":172.0,"o3":59.0,"so2":13.3,"mosquito_risk":7,"arthritis_risk":5,"migraine_risk":7,"frizz_risk":1,"updated_at":"2026-07-15T08:10:14.128233+05:30"},{"city":"Nashik","state":"Maharashtra","latitude":19.9975,"longitude":73.7898,"temp":22.8,"humidity":88,"rain":0.0,"pressure":944.1,"uv_index":7.85,"wind_gusts":44.6,"aqi":59,"pm10":9.9,"pm2_5":4.8,"no2":7.8,"co":141.0,"o3":34.0,"so2":5.8,"mosquito_risk":3,"arthritis_risk":5,"migraine_risk":7,"frizz_risk":1,"updated_at":"2026-07-15T08:10:14.128241+05:30"},{"city":"Aurangabad","state":"Maharashtra","latitude":19.8762,"longitude":75.3433,"temp":24.5,"humidity":78,"rain":0.0,"pressure":943.3,"uv_index":8.8,"wind_gusts":43.9,"aqi":63,"pm10":13.3,"pm2_5":7.0,"no2":6.2,"co":143.0,"o3":37.0,"so2":9.3,"mosquito_risk":3,"arthritis_risk":5,"migraine_risk":7,"frizz_risk":1,"updated_at":"2026-07-15T08:10:14.128248+05:30"},{"city":"Solapur","state":"Maharashtra","latitude":17.6599,"longitude":75.9064,"temp":25.8,"humidity":71,"rain":0.0,"pressure":957.5,"uv_index":8.85,"wind_gusts":49.3,"aqi":62,"pm10":15.0,"pm2_5":9.9,"no2":4.7,"co":127.0,"o3":43.0,"so2":2.8,"mosquito_risk":7,"arthritis_risk":5,"migraine_risk":7,"frizz_risk":1,"updated_at":"2026-07-15T08:10:14.128256+05:30"},{"city":"Kolhapur","state":"Maharashtra","latitude":16.705,"longitude":74.2433,"temp":23.6,"humidity":85,"rain":0.0,"pressure":948.2,"uv_index":8.1,"wind_gusts":47.5,"aqi":57,"pm10":18.2,"pm2_5":8.6,"no2":3.9,"co":145.0,"o3":43.0,"so2":2.4,"mosquito_risk":3,"arthritis_risk":5,"migraine_risk":7,"frizz_risk":1,"updated_at":"2026-07-15T08:10:14.128263+05:30"},{"city":"Goa","state":"Goa","latitude":15.2993,"longitude":74.124,"temp":25.4,"humidity":96,"rain":0.0,"pressure":999.5,"uv_index":8.15,"wind_gusts":30.6,"aqi":75,"pm10":48.3,"pm2_5":25.7,"no2":4.7,"co":229.0,"o3":49.0,"so2":2.1,"mosquito_risk":7,"arthritis_risk":5,"migraine_risk":7,"frizz_risk":1,"updated_at":"2026-07-15T08:10:14.128270+05:30"},{"city":"Jodhpur","state":"Rajasthan","latitude":26.2389,"longitude":73.0243,"temp":28.9,"humidity":67,"rain":0.0,"pressure":979.6,"uv_index":8.4,"wind_gusts":40.0,"aqi":169,"pm10":330.6,"pm2_5":75.4,"no2":3.0,"co":109.0,"o3":44.0,"so2":3.3,"mosquito_risk":7,"arthritis_risk":5,"migraine_risk":7,"frizz_risk":1,"updated_at":"2026-07-15T08:10:14.128278+05:30"},{"city":"Udaipur","state":"Rajasthan","latitude":24.5854,"longitude":73.7125,"temp":25.1,"humidity":80,"rain":0.0,"pressure":943.7,"uv_index":7.65,"wind_gusts":34.9,"aqi":73,"pm10":26.3,"pm2_5":11.3,"no2":4.1,"co":107.0,"o3":38.0,"so2":4.0,"mosquito_risk":7,"arthritis_risk":5,"migraine_risk":7,"frizz_risk":1,"updated_at":"2026-07-15T08:10:14.128285+05:30"},{"city":"Kota","state":"Rajasthan","latitude":25.2138,"longitude":75.8648,"temp":29.3,"humidity":69,"rain":0.0,"pressure":975.6,"uv_index":8.3,"wind_gusts":35.3,"aqi":94,"pm10":46.4,"pm2_5":29.2,"no2":9.0,"co":171.0,"o3":46.0,"so2":9.0,"mosquito_risk":7,"arthritis_risk":5,"migraine_risk":7,"frizz_risk":1,"updated_at":"2026-07-15T08:10:14.128292+05:30"},{"city":"Bikaner","state":"Rajasthan","latitude":28.0229,"longitude":73.3119,"temp":31.3,"humidity":56,"rain":0.0,"pressure":977.0,"uv_index":8.4,"wind_gusts":36.7,"aqi":166,"pm10":315.7,"pm2_5":96.2,"no2":1.9,"co":110.0,"o3":52.0,"so2":3.5,"mosquito_risk":0,"arthritis_risk":5,"migraine_risk":7,"frizz_risk":1,"updated_at":"2026-07-15T08:10:14.128299+05:30"},{"city":"Ajmer","state":"Rajasthan","latitude":26.4499,"longitude":74.6399,"temp":27.4,"humidity":67,"rain":0.0,"pressure":951.4,"uv_index":8.25,"wind_gusts":43.6,"aqi":100,"pm10":83.8,"pm2_5":32.0,"no2":4.9,"co":121.0,"o3":46.0,"so2":3.8,"mosquito_risk":7,"arthritis_risk":5,"migraine_risk":7,"frizz_risk":1,"updated_at":"2026-07-15T08:10:14.128307+05:30"},{"city":"Gwalior","state":"Madhya Pradesh","latitude":26.2183,"longitude":78.1828,"temp":30.1,"humidity":68,"rain":0.0,"pressure":979.0,"uv_index":6.4,"wind_gusts":34.9,"aqi":128,"pm10":104.8,"pm2_5":38.3,"no2":8.4,"co":163.0,"o3":54.0,"so2":3.0,"mosquito_risk":3,"arthritis_risk":5,"migraine_risk":7,"frizz_risk":1,"updated_at":"2026-07-15T08:10:14.128314+05:30"},{"city":"Indore","state":"Madhya Pradesh","latitude":22.7196,"longitude":75.8577,"temp":25.6,"humidity":80,"rain":0.0,"pressure":946.3,"uv_index":8.55,"wind_gusts":37.4,"aqi":72,"pm10":17.6,"pm2_5":11.0,"no2":7.1,"co":210.0,"o3":37.0,"so2":8.1,"mosquito_risk":7,"arthritis_risk":5,"migraine_risk":7,"frizz_risk":1,"updated_at":"2026-07-15T08:10:14.128321+05:30"},{"city":"Bhopal","state":"Madhya Pradesh","latitude":23.2599,"longitude":77.4126,"temp":26.7,"humidity":77,"rain":0.0,"pressure":951.5,"uv_index":7.25,"wind_gusts":41.0,"aqi":83,"pm10":29.8,"pm2_5":18.2,"no2":6.3,"co":207.0,"o3":45.0,"so2":8.1,"mosquito_risk":7,"arthritis_risk":5,"migraine_risk":7,"frizz_risk":1,"updated_at":"2026-07-15T08:10:14.128328+05:30"},{"city":"Jabalpur","state":"Madhya Pradesh","latitude":23.1815,"longitude":79.9864,"temp":27.5,"humidity":72,"rain":0.0,"pressure":958.7,"uv_index":7.25,"wind_gusts":31.7,"aqi":101,"pm10":52.3,"pm2_5":31.9,"no2":5.8,"co":243.0,"o3":68.0,"so2":4.9,"mosquito_risk":7,"arthritis_risk":5,"migraine_risk":7,"frizz_risk":1,"updated_at":"2026-07-15T08:10:14.128336+05:30"},{"city":"Ujjain","state":"Madhya Pradesh","latitude":23.1765,"longitude":75.7885,"temp":25.5,"humidity":85,"rain":0.0,"pressure":951.9,"uv_index":8.5,"wind_gusts":35.6,"aqi":72,"pm10":18.7,"pm2_5":11.4,"no2":6.0,"co":172.0,"o3":39.0,"so2":7.2,"mosquito_risk":7,"arthritis_risk":5,"migraine_risk":7,"frizz_risk":1,"updated_at":"2026-07-15T08:10:14.128344+05:30"},{"city":"Visakhapatnam","state":"Andhra Pradesh","latitude":17.6868,"longitude":83.2185,"temp":30.3,"humidity":68,"rain":0.0,"pressure":998.8,"uv_index":3.65,"wind_gusts":32.8,"aqi":137,"pm10":63.6,"pm2_5":45.3,"no2":35.9,"co":462.0,"o3":45.0,"so2":62.6,"mosquito_risk":3,"arthritis_risk":5,"migraine_risk":3,"frizz_risk":1,"updated_at":"2026-07-15T08:10:14.128351+05:30"},{"city":"Vijayawada","state":"Andhra Pradesh","latitude":16.5062,"longitude":80.648,"temp":32.1,"humidity":54,"rain":0.0,"pressure":1000.2,"uv_index":9.0,"wind_gusts":45.4,"aqi":91,"pm10":42.4,"pm2_5":33.9,"no2":11.4,"co":245.0,"o3":64.0,"so2":9.8,"mosquito_risk":0,"arthritis_risk":5,"migraine_risk":4,"frizz_risk":1,"updated_at":"2026-07-15T08:10:14.128358+05:30"},{"city":"Guntur","state":"Andhra Pradesh","latitude":16.3067,"longitude":80.4365,"temp":32.7,"humidity":50,"rain":0.0,"pressure":1001.5,"uv_index":8.95,"wind_gusts":46.8,"aqi":88,"pm10":33.4,"pm2_5":26.8,"no2":10.2,"co":219.0,"o3":62.0,"so2":8.2,"mosquito_risk":0,"arthritis_risk":5,"migraine_risk":4,"frizz_risk":1,"updated_at":"2026-07-15T08:10:14.128366+05:30"},{"city":"Nellore","state":"Andhra Pradesh","latitude":14.4426,"longitude":79.9865,"temp":31.5,"humidity":54,"rain":0.0,"pressure":1004.4,"uv_index":8.95,"wind_gusts":49.7,"aqi":84,"pm10":26.8,"pm2_5":20.2,"no2":9.6,"co":130.0,"o3":58.0,"so2":8.0,"mosquito_risk":0,"arthritis_risk":5,"migraine_risk":4,"frizz_risk":1,"updated_at":"2026-07-15T08:10:14.128374+05:30"},{"city":"Kurnool","state":"Andhra Pradesh","latitude":15.8281,"longitude":78.0373,"temp":28.2,"humidity":61,"rain":0.0,"pressure":977.2,"uv_index":8.95,"wind_gusts":63.0,"aqi":63,"pm10":20.0,"pm2_5":13.3,"no2":7.6,"co":143.0,"o3":40.0,"so2":5.6,"mosquito_risk":7,"arthritis_risk":5,"migraine_risk":7,"frizz_risk":1,"updated_at":"2026-07-15T08:10:14.128382+05:30"},{"city":"Kakinada","state":"Andhra Pradesh","latitude":16.9891,"longitude":82.2475,"temp":31.7,"humidity":61,"rain":0.0,"pressure":1003.3,"uv_index":5.0,"wind_gusts":49.0,"aqi":96,"pm10":53.7,"pm2_5":38.5,"no2":8.4,"co":275.0,"o3":76.0,"so2":8.3,"mosquito_risk":3,"arthritis_risk":5,"migraine_risk":0,"frizz_risk":1,"updated_at":"2026-07-15T08:10:14.128390+05:30"},{"city":"Tirupati","state":"Andhra Pradesh","latitude":13.6288,"longitude":79.4192,"temp":30.2,"humidity":55,"rain":0.0,"pressure":990.0,"uv_index":8.55,"wind_gusts":34.6,"aqi":84,"pm10":25.3,"pm2_5":17.9,"no2":12.1,"co":131.0,"o3":55.0,"so2":2.3,"mosquito_risk":0,"arthritis_risk":5,"migraine_risk":7,"frizz_risk":1,"updated_at":"2026-07-15T08:10:14.128396+05:30"},{"city":"Warangal","state":"Telangana","latitude":17.9689,"longitude":79.5941,"temp":28.9,"humidity":57,"rain":0.0,"pressure":977.3,"uv_index":9.0,"wind_gusts":43.6,"aqi":88,"pm10":34.2,"pm2_5":27.5,"no2":7.3,"co":188.0,"o3":69.0,"so2":7.2,"mosquito_risk":4,"arthritis_risk":5,"migraine_risk":7,"frizz_risk":1,"updated_at":"2026-07-15T08:10:14.128403+05:30"},{"city":"Nizamabad","state":"Telangana","latitude":18.6725,"longitude":78.0941,"temp":26.7,"humidity":68,"rain":0.0,"pressure":964.2,"uv_index":8.85,"wind_gusts":40.3,"aqi":81,"pm10":34.1,"pm2_5":22.4,"no2":5.4,"co":170.0,"o3":69.0,"so2":9.1,"mosquito_risk":7,"arthritis_risk":5,"migraine_risk":7,"frizz_risk":1,"updated_at":"2026-07-15T08:10:14.128410+05:30"},{"city":"Mysore","state":"Karnataka","latitude":12.2958,"longitude":76.6396,"temp":22.9,"humidity":81,"rain":0.0,"pressure":929.9,"uv_index":9.0,"wind_gusts":43.6,"aqi":59,"pm10":22.4,"pm2_5":13.8,"no2":5.9,"co":144.0,"o3":45.0,"so2":2.7,"mosquito_risk":3,"arthritis_risk":5,"migraine_risk":7,"frizz_risk":1,"updated_at":"2026-07-15T08:10:14.128417+05:30"},{"city":"Mangalore","state":"Karnataka","latitude":12.9141,"longitude":74.856,"temp":26.3,"humidity":88,"rain":0.0,"pressure":1009.0,"uv_index":8.75,"wind_gusts":36.7,"aqi":66,"pm10":34.2,"pm2_5":22.6,"no2":8.1,"co":147.0,"o3":36.0,"so2":3.9,"mosquito_risk":7,"arthritis_risk":0,"migraine_risk":4,"frizz_risk":1,"updated_at":"2026-07-15T08:10:14.128424+05:30"},{"city":"Hubli-Dharwad","state":"Karnataka","latitude":15.3647,"longitude":75.124,"temp":23.2,"humidity":83,"rain":0.0,"pressure":941.8,"uv_index":7.3,"wind_gusts":49.3,"aqi":55,"pm10":18.2,"pm2_5":9.1,"no2":3.0,"co":124.0,"o3":45.0,"so2":1.7,"mosquito_risk":3,"arthritis_risk":5,"migraine_risk":7,"frizz_risk":1,"updated_at":"2026-07-15T08:10:14.128432+05:30"},{"city":"Belgaum","state":"Karnataka","latitude":15.8497,"longitude":74.4977,"temp":22.4,"humidity":85,"rain":0.0,"pressure":926.3,"uv_index":6.6,"wind_gusts":50.8,"aqi":55,"pm10":17.8,"pm2_5":7.7,"no2":3.2,"co":117.0,"o3":45.0,"so2":2.2,"mosquito_risk":3,"arthritis_risk":5,"migraine_risk":7,"frizz_risk":1,"updated_at":"2026-07-15T08:10:17.389165+05:30"},{"city":"Coimbatore","state":"Tamil Nadu","latitude":11.0168,"longitude":76.9558,"temp":25.9,"humidity":79,"rain":0.0,"pressure":962.5,"uv_index":8.2,"wind_gusts":51.8,"aqi":59,"pm10":21.5,"pm2_5":13.1,"no2":4.8,"co":190.0,"o3":49.0,"so2":3.6,"mosquito_risk":7,"arthritis_risk":5,"migraine_risk":7,"frizz_risk":1,"updated_at":"2026-07-15T08:10:17.389202+05:30"},{"city":"Madurai","state":"Tamil Nadu","latitude":9.9252,"longitude":78.1198,"temp":29.9,"humidity":54,"rain":0.0,"pressure":993.1,"uv_index":8.65,"wind_gusts":33.8,"aqi":80,"pm10":32.9,"pm2_5":26.5,"no2":24.6,"co":143.0,"o3":33.0,"so2":8.1,"mosquito_risk":4,"arthritis_risk":5,"migraine_risk":7,"frizz_risk":1,"updated_at":"2026-07-15T08:10:17.389214+05:30"},{"city":"Trichy","state":"Tamil Nadu","latitude":10.7905,"longitude":78.7047,"temp":29.9,"humidity":59,"rain":0.0,"pressure":999.7,"uv_index":8.7,"wind_gusts":47.5,"aqi":70,"pm10":20.4,"pm2_5":13.2,"no2":6.9,"co":122.0,"o3":42.0,"so2":4.5,"mosquito_risk":4,"arthritis_risk":5,"migraine_risk":7,"frizz_risk":1,"updated_at":"2026-07-15T08:10:17.389223+05:30"},{"city":"Salem","state":"Tamil Nadu","latitude":11.6643,"longitude":78.146,"temp":26.8,"humidity":79,"rain":0.0,"pressure":978.1,"uv_index":8.2,"wind_gusts":22.0,"aqi":75,"pm10":30.0,"pm2_5":23.5,"no2":15.8,"co":190.0,"o3":42.0,"so2":10.2,"mosquito_risk":7,"arthritis_risk":5,"migraine_risk":7,"frizz_risk":1,"updated_at":"2026-07-15T08:10:17.389231+05:30"},{"city":"Tirunelveli","state":"Tamil Nadu","latitude":8.7139,"longitude":77.7567,"temp":30.7,"humidity":55,"rain":0.0,"pressure":1003.3,"uv_index":8.05,"wind_gusts":45.4,"aqi":55,"pm10":16.4,"pm2_5":10.5,"no2":4.2,"co":140.0,"o3":46.0,"so2":2.3,"mosquito_risk":0,"arthritis_risk":5,"migraine_risk":4,"frizz_risk":1,"updated_at":"2026-07-15T08:10:17.389239+05:30"},{"city":"Vellore","state":"Tamil Nadu","latitude":12.9165,"longitude":79.1325,"temp":29.2,"humidity":54,"rain":0.0,"pressure":983.9,"uv_index":8.95,"wind_gusts":42.1,"aqi":91,"pm10":29.0,"pm2_5":24.2,"no2":19.2,"co":182.0,"o3":46.0,"so2":7.0,"mosquito_risk":4,"arthritis_risk":5,"migraine_risk":7,"frizz_risk":1,"updated_at":"2026-07-15T08:10:17.389246+05:30"},{"city":"Erode","state":"Tamil Nadu","latitude":11.341,"longitude":77.7172,"temp":28.8,"humidity":62,"rain":0.0,"pressure":989.8,"uv_index":8.35,"wind_gusts":42.8,"aqi":65,"pm10":20.3,"pm2_5":13.7,"no2":7.4,"co":195.0,"o3":44.0,"so2":3.8,"mosquito_risk":7,"arthritis_risk":5,"migraine_risk":7,"frizz_risk":1,"updated_at":"2026-07-15T08:10:17.389254+05:30"},{"city":"Kochi","state":"Kerala","latitude":9.9312,"longitude":76.2673,"temp":27.7,"humidity":87,"rain":0.0,"pressure":1010.8,"uv_index":8.6,"wind_gusts":39.6,"aqi":62,"pm10":24.7,"pm2_5":15.8,"no2":7.4,"co":213.0,"o3":42.0,"so2":4.4,"mosquito_risk":7,"arthritis_risk":0,"migraine_risk":4,"frizz_risk":1,"updated_at":"2026-07-15T08:10:17.389262+05:30"},{"city":"Thiruvananthapuram","state":"Kerala","latitude":8.5241,"longitude":76.9366,"temp":26.0,"humidity":91,"rain":0.0,"pressure":1010.3,"uv_index":8.4,"wind_gusts":47.9,"aqi":58,"pm10":20.3,"pm2_5":11.6,"no2":4.4,"co":122.0,"o3":47.0,"so2":1.7,"mosquito_risk":7,"arthritis_risk":0,"migraine_risk":4,"frizz_risk":1,"updated_at":"2026-07-15T08:10:17.389270+05:30"},{"city":"Kozhikode","state":"Kerala","latitude":11.2588,"longitude":75.7804,"temp":26.2,"humidity":95,"rain":0.0,"pressure":1010.0,"uv_index":7.05,"wind_gusts":40.0,"aqi":59,"pm10":27.9,"pm2_5":14.6,"no2":2.5,"co":178.0,"o3":50.0,"so2":2.3,"mosquito_risk":7,"arthritis_risk":0,"migraine_risk":4,"frizz_risk":1,"updated_at":"2026-07-15T08:10:17.389277+05:30"},{"city":"Thrissur","state":"Kerala","latitude":10.5276,"longitude":76.2144,"temp":26.6,"humidity":90,"rain":0.0,"pressure":1009.3,"uv_index":8.05,"wind_gusts":36.7,"aqi":60,"pm10":25.1,"pm2_5":16.5,"no2":7.0,"co":152.0,"o3":41.0,"so2":3.5,"mosquito_risk":7,"arthritis_risk":0,"migraine_risk":4,"frizz_risk":1,"updated_at":"2026-07-15T08:10:17.389285+05:30"},{"city":"Kannur","state":"Kerala","latitude":11.8745,"longitude":75.3704,"temp":26.9,"humidity":88,"rain":0.0,"pressure":1009.2,"uv_index":6.75,"wind_gusts":37.4,"aqi":62,"pm10":27.5,"pm2_5":18.8,"no2":6.6,"co":231.0,"o3":39.0,"so2":3.3,"mosquito_risk":7,"arthritis_risk":0,"migraine_risk":4,"frizz_risk":1,"updated_at":"2026-07-15T08:10:17.389292+05:30"},{"city":"Patna","state":"Bihar","latitude":25.5941,"longitude":85.1376,"temp":29.3,"humidity":84,"rain":0.0,"pressure":995.7,"uv_index":8.05,"wind_gusts":31.7,"aqi":160,"pm10":85.2,"pm2_5":60.1,"no2":17.3,"co":451.0,"o3":89.0,"so2":13.9,"mosquito_risk":7,"arthritis_risk":5,"migraine_risk":7,"frizz_risk":1,"updated_at":"2026-07-15T08:10:17.389299+05:30"},{"city":"Gaya","state":"Bihar","latitude":24.7914,"longitude":85.0002,"temp":29.7,"humidity":79,"rain":0.0,"pressure":989.1,"uv_index":8.1,"wind_gusts":33.1,"aqi":162,"pm10":92.9,"pm2_5":55.2,"no2":15.6,"co":359.0,"o3":80.0,"so2":8.3,"mosquito_risk":7,"arthritis_risk":5,"migraine_risk":7,"frizz_risk":1,"updated_at":"2026-07-15T08:10:17.389306+05:30"},{"city":"Muzaffarpur","state":"Bihar","latitude":26.1209,"longitude":85.3647,"temp":29.0,"humidity":86,"rain":0.0,"pressure":995.7,"uv_index":8.4,"wind_gusts":24.1,"aqi":156,"pm10":74.7,"pm2_5":54.6,"no2":17.2,"co":493.0,"o3":89.0,"so2":12.6,"mosquito_risk":7,"arthritis_risk":5,"migraine_risk":7,"frizz_risk":1,"updated_at":"2026-07-15T08:10:17.389313+05:30"},{"city":"Bhagalpur","state":"Bihar","latitude":25.2425,"longitude":87.0117,"temp":29.6,"humidity":83,"rain":0.0,"pressure":996.5,"uv_index":8.15,"wind_gusts":24.8,"aqi":92,"pm10":31.1,"pm2_5":28.0,"no2":11.7,"co":271.0,"o3":91.0,"so2":17.6,"mosquito_risk":7,"arthritis_risk":5,"migraine_risk":7,"frizz_risk":1,"updated_at":"2026-07-15T08:10:17.389320+05:30"},{"city":"Ranchi","state":"Jharkhand","latitude":23.3441,"longitude":85.3096,"temp":27.9,"humidity":73,"rain":0.0,"pressure":933.9,"uv_index":7.05,"wind_gusts":32.0,"aqi":156,"pm10":118.0,"pm2_5":58.7,"no2":16.6,"co":262.0,"o3":76.0,"so2":11.3,"mosquito_risk":7,"arthritis_risk":5,"migraine_risk":7,"frizz_risk":1,"updated_at":"2026-07-15T08:10:17.389327+05:30"},{"city":"Jamshedpur","state":"Jharkhand","latitude":22.8046,"longitude":86.2029,"temp":27.3,"humidity":90,"rain":0.0,"pressure":986.1,"uv_index":7.95,"wind_gusts":35.3,"aqi":171,"pm10":67.8,"pm2_5":57.2,"no2":28.3,"co":320.0,"o3":73.0,"so2":33.8,"mosquito_risk":7,"arthritis_risk":5,"migraine_risk":7,"frizz_risk":1,"updated_at":"2026-07-15T08:10:17.389334+05:30"},{"city":"Dhanbad","state":"Jharkhand","latitude":23.7957,"longitude":86.4304,"temp":28.0,"humidity":83,"rain":0.1,"pressure":975.4,"uv_index":7.85,"wind_gusts":25.2,"aqi":191,"pm10":107.6,"pm2_5":89.9,"no2":54.9,"co":283.0,"o3":39.0,"so2":118.6,"mosquito_risk":10,"arthritis_risk":5,"migraine_risk":7,"frizz_risk":1,"updated_at":"2026-07-15T08:10:17.389341+05:30"},{"city":"Bokaro","state":"Jharkhand","latitude":23.6693,"longitude":86.1511,"temp":29.2,"humidity":77,"rain":0.0,"pressure":979.2,"uv_index":7.35,"wind_gusts":29.2,"aqi":191,"pm10":123.9,"pm2_5":81.0,"no2":41.9,"co":277.0,"o3":57.0,"so2":99.0,"mosquito_risk":7,"arthritis_risk":5,"migraine_risk":7,"frizz_risk":1,"updated_at":"2026-07-15T08:10:17.389348+05:30"},{"city":"Bhubaneswar","state":"Odisha","latitude":20.2961,"longitude":85.8245,"temp":27.5,"humidity":88,"rain":0.1,"pressure":997.1,"uv_index":7.4,"wind_gusts":33.1,"aqi":133,"pm10":87.3,"pm2_5":44.8,"no2":12.3,"co":374.0,"o3":71.0,"so2":10.1,"mosquito_risk":10,"arthritis_risk":5,"migraine_risk":7,"frizz_risk":1,"updated_at":"2026-07-15T08:10:17.389355+05:30"},{"city":"Cuttack","state":"Odisha","latitude":20.4625,"longitude":85.8828,"temp":27.5,"humidity":90,"rain":0.2,"pressure":998.9,"uv_index":7.8,"wind_gusts":38.9,"aqi":133,"pm10":87.3,"pm2_5":44.8,"no2":12.3,"co":272.0,"o3":71.0,"so2":10.1,"mosquito_risk":10,"arthritis_risk":5,"migraine_risk":7,"frizz_risk":1,"updated_at":"2026-07-15T08:10:17.389362+05:30"},{"city":"Rourkela","state":"Odisha","latitude":22.2604,"longitude":84.8536,"temp":28.9,"humidity":80,"rain":0.0,"pressure":980.2,"uv_index":7.4,"wind_gusts":46.4,"aqi":153,"pm10":135.5,"pm2_5":67.8,"no2":10.0,"co":722.0,"o3":86.0,"so2":9.4,"mosquito_risk":7,"arthritis_risk":5,"migraine_risk":7,"frizz_risk":1,"updated_at":"2026-07-15T08:10:17.389369+05:30"},{"city":"Raipur","state":"Chhattisgarh","latitude":21.2514,"longitude":81.6296,"temp":27.3,"humidity":79,"rain":0.0,"pressure":971.4,"uv_index":8.4,"wind_gusts":37.4,"aqi":142,"pm10":61.0,"pm2_5":47.3,"no2":32.3,"co":209.0,"o3":36.0,"so2":69.2,"mosquito_risk":7,"arthritis_risk":5,"migraine_risk":7,"frizz_risk":1,"updated_at":"2026-07-15T08:10:17.389376+05:30"},{"city":"Bhilai","state":"Chhattisgarh","latitude":21.1938,"longitude":81.3509,"temp":28.0,"humidity":72,"rain":0.0,"pressure":971.9,"uv_index":8.3,"wind_gusts":37.8,"aqi":123,"pm10":54.8,"pm2_5":40.7,"no2":24.3,"co":646.0,"o3":44.0,"so2":53.2,"mosquito_risk":7,"arthritis_risk":5,"migraine_risk":7,"frizz_risk":1,"updated_at":"2026-07-15T08:10:17.389383+05:30"},{"city":"Guwahati","state":"Assam","latitude":26.1158,"longitude":91.7086,"temp":26.3,"humidity":98,"rain":0.1,"pressure":998.1,"uv_index":6.6,"wind_gusts":29.2,"aqi":51,"pm10":6.1,"pm2_5":5.7,"no2":3.9,"co":262.0,"o3":71.0,"so2":1.1,"mosquito_risk":10,"arthritis_risk":5,"migraine_risk":7,"frizz_risk":1,"updated_at":"2026-07-15T08:10:17.389390+05:30"},{"city":"Agartala","state":"Tripura","latitude":23.8315,"longitude":91.2868,"temp":30.4,"humidity":74,"rain":0.0,"pressure":1001.3,"uv_index":7.9,"wind_gusts":43.6,"aqi":77,"pm10":14.5,"pm2_5":13.3,"no2":7.4,"co":204.0,"o3":84.0,"so2":2.3,"mosquito_risk":3,"arthritis_risk":5,"migraine_risk":4,"frizz_risk":1,"updated_at":"2026-07-15T08:10:17.389397+05:30"},{"city":"Shillong","state":"Meghalaya","latitude":25.5788,"longitude":91.8933,"temp":23.7,"humidity":80,"rain":0.0,"pressure":856.5,"uv_index":6.55,"wind_gusts":24.1,"aqi":43,"pm10":5.2,"pm2_5":4.7,"no2":3.0,"co":206.0,"o3":84.0,"so2":2.1,"mosquito_risk":3,"arthritis_risk":5,"migraine_risk":7,"frizz_risk":1,"updated_at":"2026-07-15T08:10:17.389404+05:30"},{"city":"Imphal","state":"Manipur","latitude":24.817,"longitude":93.9368,"temp":26.5,"humidity":77,"rain":0.1,"pressure":921.2,"uv_index":9.2,"wind_gusts":24.8,"aqi":57,"pm10":6.9,"pm2_5":6.0,"no2":3.6,"co":215.0,"o3":64.0,"so2":1.7,"mosquito_risk":10,"arthritis_risk":5,"migraine_risk":7,"frizz_risk":1,"updated_at":"2026-07-15T08:10:17.389411+05:30"},{"city":"Aizawl","state":"Mizoram","latitude":23.7271,"longitude":92.7176,"temp":23.1,"humidity":87,"rain":0.0,"pressure":889.4,"uv_index":8.7,"wind_gusts":32.4,"aqi":41,"pm10":10.0,"pm2_5":8.3,"no2":2.6,"co":156.0,"o3":68.0,"so2":0.9,"mosquito_risk":3,"arthritis_risk":5,"migraine_risk":7,"frizz_risk":1,"updated_at":"2026-07-15T08:10:17.389418+05:30"},{"city":"Kohima","state":"Nagaland","latitude":25.6701,"longitude":94.1077,"temp":25.0,"humidity":75,"rain":0.0,"pressure":854.8,"uv_index":6.25,"wind_gusts":29.2,"aqi":52,"pm10":8.5,"pm2_5":7.2,"no2":2.6,"co":174.0,"o3":72.0,"so2":1.2,"mosquito_risk":7,"arthritis_risk":5,"migraine_risk":7,"frizz_risk":1,"updated_at":"2026-07-15T08:10:17.389425+05:30"},{"city":"Gangtok","state":"Sikkim","latitude":27.3314,"longitude":88.6138,"temp":22.5,"humidity":83,"rain":0.0,"pressure":837.7,"uv_index":8.05,"wind_gusts":31.7,"aqi":43,"pm10":13.4,"pm2_5":12.5,"no2":4.3,"co":301.0,"o3":83.0,"so2":1.8,"mosquito_risk":3,"arthritis_risk":5,"migraine_risk":7,"frizz_risk":1,"updated_at":"2026-07-15T08:10:17.389432+05:30"},{"city":"Siliguri","state":"West Bengal","latitude":26.7271,"longitude":88.3953,"temp":29.6,"humidity":82,"rain":0.0,"pressure":988.9,"uv_index":6.7,"wind_gusts":16.9,"aqi":72,"pm10":21.1,"pm2_5":19.6,"no2":8.6,"co":481.0,"o3":91.0,"so2":4.4,"mosquito_risk":7,"arthritis_risk":5,"migraine_risk":7,"frizz_risk":1,"updated_at":"2026-07-15T08:10:20.631512+05:30"},{"city":"Durgapur","state":"West Bengal","latitude":23.5204,"longitude":87.3119,"temp":29.8,"humidity":83,"rain":0.0,"pressure":989.9,"uv_index":8.7,"wind_gusts":28.1,"aqi":160,"pm10":49.4,"pm2_5":45.8,"no2":27.0,"co":335.0,"o3":79.0,"so2":46.7,"mosquito_risk":7,"arthritis_risk":5,"migraine_risk":7,"frizz_risk":1,"updated_at":"2026-07-15T08:10:20.631548+05:30"},{"city":"Asansol","state":"West Bengal","latitude":23.6739,"longitude":86.9524,"temp":28.2,"humidity":87,"rain":0.1,"pressure":988.9,"uv_index":8.3,"wind_gusts":22.0,"aqi":159,"pm10":59.1,"pm2_5":54.9,"no2":38.8,"co":380.0,"o3":61.0,"so2":61.7,"mosquito_risk":10,"arthritis_risk":5,"migraine_risk":7,"frizz_risk":1,"updated_at":"2026-07-15T08:10:20.631560+05:30"},{"city":"Pondicherry","state":"Puducherry","latitude":11.9139,"longitude":79.8145,"temp":29.9,"humidity":69,"rain":0.0,"pressure":1007.5,"uv_index":6.45,"wind_gusts":49.3,"aqi":78,"pm10":17.3,"pm2_5":13.2,"no2":10.4,"co":219.0,"o3":51.0,"so2":8.5,"mosquito_risk":7,"arthritis_risk":5,"migraine_risk":4,"frizz_risk":1,"updated_at":"2026-07-15T08:10:20.631569+05:30"},{"city":"Port Blair","state":"Andaman and Nicobar Islands","latitude":11.6234,"longitude":92.7265,"temp":27.6,"humidity":87,"rain":0.0,"pressure":1006.9,"uv_index":8.45,"wind_gusts":57.6,"aqi":45,"pm10":13.9,"pm2_5":6.3,"no2":0.4,"co":91.0,"o3":41.0,"so2":0.4,"mosquito_risk":7,"arthritis_risk":5,"migraine_risk":4,"frizz_risk":1,"updated_at":"2026-07-15T08:10:20.631577+05:30"},{"city":"Haridwar","state":"Uttarakhand","latitude":29.9457,"longitude":78.1642,"temp":28.6,"humidity":83,"rain":0.0,"pressure":969.0,"uv_index":7.5,"wind_gusts":23.8,"aqi":176,"pm10":196.5,"pm2_5":92.4,"no2":11.8,"co":360.0,"o3":98.0,"so2":13.0,"mosquito_risk":7,"arthritis_risk":5,"migraine_risk":7,"frizz_risk":1,"updated_at":"2026-07-15T08:10:20.631584+05:30"},{"city":"Rishikesh","state":"Uttarakhand","latitude":30.0869,"longitude":78.2676,"temp":28.2,"humidity":77,"rain":0.0,"pressure":961.9,"uv_index":7.6,"wind_gusts":24.5,"aqi":166,"pm10":167.2,"pm2_5":75.0,"no2":4.8,"co":330.0,"o3":126.0,"so2":9.7,"mosquito_risk":7,"arthritis_risk":5,"migraine_risk":7,"frizz_risk":1,"updated_at":"2026-07-15T08:10:20.631592+05:30"},{"city":"Nainital","state":"Uttarakhand","latitude":29.3919,"longitude":79.4542,"temp":20.2,"humidity":80,"rain":0.0,"pressure":804.7,"uv_index":7.9,"wind_gusts":28.4,"aqi":169,"pm10":226.3,"pm2_5":90.8,"no2":12.5,"co":307.0,"o3":103.0,"so2":9.8,"mosquito_risk":3,"arthritis_risk":5,"migraine_risk":7,"frizz_risk":1,"updated_at":"2026-07-15T08:10:20.631600+05:30"},{"city":"Mussoorie","state":"Uttarakhand","latitude":30.4599,"longitude":78.0664,"temp":20.2,"humidity":79,"rain":0.0,"pressure":802.0,"uv_index":7.4,"wind_gusts":34.9,"aqi":159,"pm10":119.0,"pm2_5":59.3,"no2":10.4,"co":294.0,"o3":128.0,"so2":9.8,"mosquito_risk":3,"arthritis_risk":5,"migraine_risk":7,"frizz_risk":1,"updated_at":"2026-07-15T08:10:20.631608+05:30"},{"city":"Dharamshala","state":"Himachal Pradesh","latitude":32.219,"longitude":76.3234,"temp":23.7,"humidity":84,"rain":0.0,"pressure":866.6,"uv_index":8.4,"wind_gusts":33.1,"aqi":69,"pm10":5.8,"pm2_5":3.7,"no2":4.0,"co":274.0,"o3":95.0,"so2":0.6,"mosquito_risk":3,"arthritis_risk":5,"migraine_risk":7,"frizz_risk":1,"updated_at":"2026-07-15T08:10:20.631615+05:30"},{"city":"Dalhousie","state":"Himachal Pradesh","latitude":32.5387,"longitude":75.971,"temp":20.4,"humidity":75,"rain":0.0,"pressure":803.2,"uv_index":8.55,"wind_gusts":31.7,"aqi":155,"pm10":63.6,"pm2_5":37.8,"no2":15.6,"co":254.0,"o3":111.0,"so2":2.9,"mosquito_risk":3,"arthritis_risk":5,"migraine_risk":7,"frizz_risk":0,"updated_at":"2026-07-15T08:10:20.631623+05:30"},{"city":"Patiala","state":"Punjab","latitude":30.3398,"longitude":76.3869,"temp":30.1,"humidity":77,"rain":0.0,"pressure":972.7,"uv_index":7.6,"wind_gusts":27.0,"aqi":198,"pm10":333.4,"pm2_5":158.8,"no2":35.4,"co":893.0,"o3":73.0,"so2":11.5,"mosquito_risk":3,"arthritis_risk":5,"migraine_risk":7,"frizz_risk":1,"updated_at":"2026-07-15T08:10:20.631631+05:30"},{"city":"Bhatinda","state":"Punjab","latitude":30.211,"longitude":74.9455,"temp":32.2,"humidity":60,"rain":0.0,"pressure":978.2,"uv_index":8.2,"wind_gusts":34.9,"aqi":174,"pm10":177.0,"pm2_5":90.6,"no2":13.9,"co":404.0,"o3":78.0,"so2":8.0,"mosquito_risk":0,"arthritis_risk":5,"migraine_risk":7,"frizz_risk":1,"updated_at":"2026-07-15T08:10:20.631638+05:30"},{"city":"Rohtak","state":"Haryana","latitude":28.8955,"longitude":76.6066,"temp":30.9,"humidity":66,"rain":0.0,"pressure":976.7,"uv_index":7.65,"wind_gusts":27.4,"aqi":268,"pm10":155.5,"pm2_5":66.1,"no2":18.1,"co":243.0,"o3":44.0,"so2":5.3,"mosquito_risk":3,"arthritis_risk":5,"migraine_risk":7,"frizz_risk":1,"updated_at":"2026-07-15T08:10:20.631645+05:30"},{"city":"Panipat","state":"Haryana","latitude":29.3909,"longitude":76.9635,"temp":30.3,"humidity":77,"rain":0.0,"pressure":975.0,"uv_index":7.5,"wind_gusts":24.8,"aqi":592,"pm10":137.8,"pm2_5":64.7,"no2":19.0,"co":462.0,"o3":39.0,"so2":5.1,"mosquito_risk":3,"arthritis_risk":5,"migraine_risk":7,"frizz_risk":1,"updated_at":"2026-07-15T08:10:20.631652+05:30"},{"city":"Mathura","state":"Uttar Pradesh","latitude":27.4924,"longitude":77.6737,"temp":30.1,"humidity":76,"rain":0.0,"pressure":981.6,"uv_index":7.8,"wind_gusts":28.8,"aqi":174,"pm10":137.8,"pm2_5":48.7,"no2":14.3,"co":207.0,"o3":41.0,"so2":3.9,"mosquito_risk":3,"arthritis_risk":5,"migraine_risk":7,"frizz_risk":1,"updated_at":"2026-07-15T08:10:20.631660+05:30"},{"city":"Vrindavan","state":"Uttar Pradesh","latitude":27.5823,"longitude":77.7027,"temp":30.3,"humidity":73,"rain":0.0,"pressure":982.1,"uv_index":7.75,"wind_gusts":28.4,"aqi":174,"pm10":137.8,"pm2_5":48.7,"no2":14.3,"co":186.0,"o3":41.0,"so2":3.9,"mosquito_risk":3,"arthritis_risk":5,"migraine_risk":7,"frizz_risk":1,"updated_at":"2026-07-15T08:10:20.631666+05:30"},{"city":"Ayodhya","state":"Uttar Pradesh","latitude":26.7922,"longitude":82.1998,"temp":29.8,"humidity":79,"rain":0.0,"pressure":990.5,"uv_index":7.55,"wind_gusts":21.2,"aqi":180,"pm10":135.5,"pm2_5":70.3,"no2":11.6,"co":696.0,"o3":93.0,"so2":7.5,"mosquito_risk":7,"arthritis_risk":5,"migraine_risk":7,"frizz_risk":1,"updated_at":"2026-07-15T08:10:20.631673+05:30"},{"city":"Ratlam","state":"Madhya Pradesh","latitude":23.3315,"longitude":75.0367,"temp":24.9,"humidity":88,"rain":0.1,"pressure":952.7,"uv_index":8.45,"wind_gusts":36.7,"aqi":69,"pm10":19.3,"pm2_5":10.6,"no2":5.5,"co":137.0,"o3":39.0,"so2":6.6,"mosquito_risk":6,"arthritis_risk":5,"migraine_risk":7,"frizz_risk":1,"updated_at":"2026-07-15T08:10:20.631680+05:30"},{"city":"Sagar","state":"Madhya Pradesh","latitude":23.8388,"longitude":78.7378,"temp":27.1,"humidity":71,"rain":0.0,"pressure":947.5,"uv_index":7.85,"wind_gusts":39.6,"aqi":96,"pm10":55.5,"pm2_5":32.1,"no2":5.0,"co":219.0,"o3":67.0,"so2":6.2,"mosquito_risk":7,"arthritis_risk":5,"migraine_risk":7,"frizz_risk":1,"updated_at":"2026-07-15T08:10:20.631687+05:30"},{"city":"Satna","state":"Madhya Pradesh","latitude":24.6005,"longitude":80.8322,"temp":29.4,"humidity":67,"rain":0.0,"pressure":967.5,"uv_index":8.7,"wind_gusts":34.6,"aqi":125,"pm10":44.2,"pm2_5":29.3,"no2":5.6,"co":164.0,"o3":68.0,"so2":6.1,"mosquito_risk":7,"arthritis_risk":5,"migraine_risk":7,"frizz_risk":1,"updated_at":"2026-07-15T08:10:20.631693+05:30"},{"city":"Akola","state":"Maharashtra","latitude":20.7002,"longitude":77.0082,"temp":27.4,"humidity":73,"rain":0.0,"pressure":974.3,"uv_index":8.05,"wind_gusts":40.0,"aqi":69,"pm10":21.9,"pm2_5":12.8,"no2":6.4,"co":119.0,"o3":38.0,"so2":7.6,"mosquito_risk":7,"arthritis_risk":5,"migraine_risk":7,"frizz_risk":1,"updated_at":"2026-07-15T08:10:20.631701+05:30"},{"city":"Amravati","state":"Maharashtra","latitude":20.9374,"longitude":77.7796,"temp":26.9,"humidity":75,"rain":0.0,"pressure":966.1,"uv_index":7.7,"wind_gusts":41.4,"aqi":71,"pm10":24.2,"pm2_5":14.3,"no2":6.9,"co":122.0,"o3":37.0,"so2":8.7,"mosquito_risk":7,"arthritis_risk":5,"migraine_risk":7,"frizz_risk":1,"updated_at":"2026-07-15T08:10:20.631708+05:30"},{"city":"Latur","state":"Maharashtra","latitude":18.4088,"longitude":76.5604,"temp":24.8,"humidity":74,"rain":0.0,"pressure":939.4,"uv_index":8.95,"wind_gusts":41.4,"aqi":64,"pm10":22.2,"pm2_5":11.8,"no2":4.6,"co":121.0,"o3":42.0,"so2":3.8,"mosquito_risk":3,"arthritis_risk":5,"migraine_risk":7,"frizz_risk":1,"updated_at":"2026-07-15T08:10:20.631716+05:30"},{"city":"Nanded","state":"Maharashtra","latitude":19.1383,"longitude":77.3091,"temp":27.0,"humidity":71,"rain":0.0,"pressure":968.1,"uv_index":8.6,"wind_gusts":45.0,"aqi":75,"pm10":33.1,"pm2_5":20.1,"no2":5.6,"co":158.0,"o3":56.0,"so2":8.0,"mosquito_risk":7,"arthritis_risk":5,"migraine_risk":7,"frizz_risk":1,"updated_at":"2026-07-15T08:10:20.631722+05:30"},{"city":"Gulbarga","state":"Karnataka","latitude":17.3297,"longitude":76.8343,"temp":25.9,"humidity":69,"rain":0.0,"pressure":958.7,"uv_index":8.85,"wind_gusts":55.8,"aqi":62,"pm10":19.9,"pm2_5":12.2,"no2":5.2,"co":133.0,"o3":42.0,"so2":3.5,"mosquito_risk":7,"arthritis_risk":5,"migraine_risk":7,"frizz_risk":1,"updated_at":"2026-07-15T08:10:20.631728+05:30"},{"city":"Bidar","state":"Karnataka","latitude":17.9104,"longitude":77.5199,"temp":24.9,"humidity":74,"rain":0.0,"pressure":935.0,"uv_index":8.95,"wind_gusts":41.4,"aqi":73,"pm10":30.4,"pm2_5":17.9,"no2":5.6,"co":158.0,"o3":48.0,"so2":4.2,"mosquito_risk":3,"arthritis_risk":5,"migraine_risk":7,"frizz_risk":1,"updated_at":"2026-07-15T08:10:20.631735+05:30"},{"city":"Hospet","state":"Karnataka","latitude":15.2689,"longitude":76.3909,"temp":24.1,"humidity":78,"rain":0.0,"pressure":956.8,"uv_index":8.9,"wind_gusts":44.3,"aqi":56,"pm10":16.4,"pm2_5":9.5,"no2":3.6,"co":119.0,"o3":42.0,"so2":2.1,"mosquito_risk":3,"arthritis_risk":5,"migraine_risk":7,"frizz_risk":1,"updated_at":"2026-07-15T08:10:20.631740+05:30"},{"city":"Tirupur","state":"Tamil Nadu","latitude":11.1085,"longitude":77.3411,"temp":27.1,"humidity":72,"rain":0.0,"pressure":976.2,"uv_index":8.4,"wind_gusts":58.3,"aqi":66,"pm10":23.1,"pm2_5":15.5,"no2":7.8,"co":169.0,"o3":47.0,"so2":4.4,"mosquito_risk":7,"arthritis_risk":5,"migraine_risk":7,"frizz_risk":1,"updated_at":"2026-07-15T08:10:20.631747+05:30"},{"city":"Alappuzha","state":"Kerala","latitude":9.4981,"longitude":76.3388,"temp":27.5,"humidity":84,"rain":0.0,"pressure":1011.0,"uv_index":8.1,"wind_gusts":41.0,"aqi":61,"pm10":25.0,"pm2_5":14.4,"no2":6.1,"co":92.0,"o3":46.0,"so2":3.5,"mosquito_risk":7,"arthritis_risk":0,"migraine_risk":4,"frizz_risk":1,"updated_at":"2026-07-15T08:10:20.631753+05:30"},{"city":"Munnar","state":"Kerala","latitude":10.0889,"longitude":77.0595,"temp":17.5,"humidity":82,"rain":0.0,"pressure":858.0,"uv_index":8.85,"wind_gusts":37.1,"aqi":53,"pm10":8.0,"pm2_5":5.6,"no2":4.1,"co":109.0,"o3":40.0,"so2":2.5,"mosquito_risk":3,"arthritis_risk":10,"migraine_risk":7,"frizz_risk":0,"updated_at":"2026-07-15T08:10:20.631761+05:30"},{"city":"Silchar","state":"Assam","latitude":24.8333,"longitude":92.7789,"temp":30.1,"humidity":79,"rain":0.0,"pressure":1000.3,"uv_index":8.3,"wind_gusts":23.0,"aqi":62,"pm10":12.0,"pm2_5":11.1,"no2":4.0,"co":215.0,"o3":88.0,"so2":4.0,"mosquito_risk":3,"arthritis_risk":5,"migraine_risk":4,"frizz_risk":1,"updated_at":"2026-07-15T08:10:20.631767+05:30"},{"city":"Dibrugarh","state":"Assam","latitude":27.4728,"longitude":94.912,"temp":27.1,"humidity":93,"rain":0.1,"pressure":992.8,"uv_index":6.7,"wind_gusts":27.7,"aqi":63,"pm10":6.8,"pm2_5":6.7,"no2":4.3,"co":166.0,"o3":63.0,"so2":0.7,"mosquito_risk":10,"arthritis_risk":5,"migraine_risk":7,"frizz_risk":1,"updated_at":"2026-07-15T08:10:20.631774+05:30"}]