[{"city":"Delhi","state":"Delhi","latitude":28.6139,"longitude":77.209,"temp":26.9,"humidity":58,"rain":0.0,"pressure":981.3,"uv_index":7.4,"wind_gusts":45.0,"aqi":514,"pm10":341.8,"pm2_5":76.1,"no2":19.8,"co":393.0,"o3":80.0,"so2":18.7,"mosquito_risk":4,"arthritis_risk":5,"migraine_risk":7,"frizz_risk":1,"updated_at":"2026-05-30T04:46:07.914959+05:30"},{"city":"Mumbai","state":"Maharashtra","latitude":19.076,"longitude":72.8777,"temp":30.0,"humidity":74,"rain":0.0,"pressure":1007.2,"uv_index":7.8,"wind_gusts":43.9,"aqi":67,"pm10":26.8,"pm2_5":16.3,"no2":3.2,"co":120.0,"o3":51.0,"so2":3.1,"mosquito_risk":7,"arthritis_risk":5,"migraine_risk":4,"frizz_risk":1,"updated_at":"2026-05-30T04:46:07.915006+05:30"},{"city":"Bangalore","state":"Karnataka","latitude":12.9716,"longitude":77.5946,"temp":21.2,"humidity":98,"rain":0.0,"pressure":910.9,"uv_index":8.55,"wind_gusts":32.0,"aqi":58,"pm10":14.0,"pm2_5":13.0,"no2":14.5,"co":248.0,"o3":39.0,"so2":5.2,"mosquito_risk":3,"arthritis_risk":5,"migraine_risk":7,"frizz_risk":1,"updated_at":"2026-05-30T04:46:07.915022+05:30"},{"city":"Hyderabad","state":"Telangana","latitude":17.385,"longitude":78.4867,"temp":28.8,"humidity":56,"rain":0.0,"pressure":951.6,"uv_index":8.85,"wind_gusts":41.4,"aqi":55,"pm10":15.7,"pm2_5":13.4,"no2":10.2,"co":199.0,"o3":56.0,"so2":6.7,"mosquito_risk":4,"arthritis_risk":5,"migraine_risk":7,"frizz_risk":1,"updated_at":"2026-05-30T04:46:07.915032+05:30"},{"city":"Chennai","state":"Tamil Nadu","latitude":13.0827,"longitude":80.2707,"temp":29.3,"humidity":62,"rain":0.0,"pressure":1004.2,"uv_index":9.0,"wind_gusts":40.3,"aqi":76,"pm10":27.8,"pm2_5":22.4,"no2":16.4,"co":320.0,"o3":57.0,"so2":11.3,"mosquito_risk":7,"arthritis_risk":5,"migraine_risk":4,"frizz_risk":1,"updated_at":"2026-05-30T04:46:07.915040+05:30"},{"city":"Kolkata","state":"West Bengal","latitude":22.5726,"longitude":88.3639,"temp":23.9,"humidity":89,"rain":0.0,"pressure":1005.5,"uv_index":8.9,"wind_gusts":29.9,"aqi":144,"pm10":89.2,"pm2_5":80.8,"no2":41.3,"co":753.0,"o3":29.0,"so2":15.2,"mosquito_risk":3,"arthritis_risk":5,"migraine_risk":4,"frizz_risk":1,"updated_at":"2026-05-30T04:46:07.915048+05:30"},{"city":"Pune","state":"Maharashtra","latitude":18.5204,"longitude":73.8567,"temp":25.1,"humidity":83,"rain":0.0,"pressure":947.2,"uv_index":8.35,"wind_gusts":47.2,"aqi":44,"pm10":11.8,"pm2_5":8.4,"no2":6.7,"co":133.0,"o3":40.0,"so2":5.1,"mosquito_risk":7,"arthritis_risk":5,"migraine_risk":7,"frizz_risk":1,"updated_at":"2026-05-30T04:46:07.915055+05:30"},{"city":"Ahmedabad","state":"Gujarat","latitude":23.0225,"longitude":72.5714,"temp":29.7,"humidity":66,"rain":0.0,"pressure":999.5,"uv_index":8.1,"wind_gusts":48.2,"aqi":73,"pm10":41.7,"pm2_5":22.5,"no2":4.4,"co":117.0,"o3":43.0,"so2":4.3,"mosquito_risk":7,"arthritis_risk":5,"migraine_risk":7,"frizz_risk":1,"updated_at":"2026-05-30T04:46:07.915061+05:30"},{"city":"Jaipur","state":"Rajasthan","latitude":26.9124,"longitude":75.7873,"temp":25.5,"humidity":66,"rain":0.0,"pressure":956.8,"uv_index":8.15,"wind_gusts":58.7,"aqi":111,"pm10":240.3,"pm2_5":53.8,"no2":4.9,"co":280.0,"o3":86.0,"so2":5.6,"mosquito_risk":7,"arthritis_risk":5,"migraine_risk":7,"frizz_risk":1,"updated_at":"2026-05-30T04:46:07.915078+05:30"},{"city":"Lucknow","state":"Uttar Pradesh","latitude":26.8467,"longitude":80.9462,"temp":25.1,"humidity":74,"rain":0.0,"pressure":992.8,"uv_index":8.1,"wind_gusts":36.7,"aqi":91,"pm10":22.6,"pm2_5":19.8,"no2":10.0,"co":371.0,"o3":96.0,"so2":6.1,"mosquito_risk":7,"arthritis_risk":5,"migraine_risk":7,"frizz_risk":1,"updated_at":"2026-05-30T04:46:07.915090+05:30"},{"city":"Kanpur","state":"Uttar Pradesh","latitude":26.4499,"longitude":80.3319,"temp":26.5,"humidity":70,"rain":0.0,"pressure":991.0,"uv_index":8.1,"wind_gusts":42.5,"aqi":138,"pm10":38.5,"pm2_5":21.6,"no2":10.3,"co":343.0,"o3":94.0,"so2":6.1,"mosquito_risk":7,"arthritis_risk":5,"migraine_risk":7,"frizz_risk":1,"updated_at":"2026-05-30T04:46:07.915101+05:30"},{"city":"Chandigarh","state":"Chandigarh","latitude":30.7333,"longitude":76.7794,"temp":28.6,"humidity":39,"rain":0.0,"pressure":967.4,"uv_index":7.7,"wind_gusts":38.2,"aqi":97,"pm10":39.5,"pm2_5":28.7,"no2":12.1,"co":321.0,"o3":92.0,"so2":8.7,"mosquito_risk":4,"arthritis_risk":5,"migraine_risk":7,"frizz_risk":0,"updated_at":"2026-05-30T04:46:07.915112+05:30"},{"city":"Srinagar","state":"Jammu and Kashmir","latitude":34.0837,"longitude":74.7973,"temp":11.4,"humidity":97,"rain":0.0,"pressure":839.4,"uv_index":8.95,"wind_gusts":26.6,"aqi":80,"pm10":44.4,"pm2_5":38.9,"no2":24.7,"co":278.0,"o3":11.0,"so2":0.0,"mosquito_risk":3,"arthritis_risk":10,"migraine_risk":7,"frizz_risk":0,"updated_at":"2026-05-30T04:46:07.915124+05:30"},{"city":"Jammu","state":"Jammu and Kashmir","latitude":32.7266,"longitude":74.857,"temp":26.8,"humidity":39,"rain":0.0,"pressure":971.2,"uv_index":8.5,"wind_gusts":47.2,"aqi":150,"pm10":74.0,"pm2_5":54.9,"no2":27.5,"co":297.0,"o3":27.0,"so2":2.9,"mosquito_risk":4,"arthritis_risk":5,"migraine_risk":7,"frizz_risk":0,"updated_at":"2026-05-30T04:46:07.915136+05:30"},{"city":"Amritsar","state":"Punjab","latitude":31.634,"longitude":74.8723,"temp":27.6,"humidity":48,"rain":0.0,"pressure":978.5,"uv_index":8.35,"wind_gusts":74.9,"aqi":257,"pm10":337.1,"pm2_5":87.5,"no2":6.9,"co":344.0,"o3":113.0,"so2":13.1,"mosquito_risk":4,"arthritis_risk":5,"migraine_risk":7,"frizz_risk":0,"updated_at":"2026-05-30T04:46:07.915142+05:30"},{"city":"Ludhiana","state":"Punjab","latitude":30.901,"longitude":75.8573,"temp":28.1,"humidity":44,"rain":0.0,"pressure":976.8,"uv_index":7.95,"wind_gusts":63.0,"aqi":563,"pm10":784.2,"pm2_5":157.9,"no2":6.3,"co":311.0,"o3":119.0,"so2":13.5,"mosquito_risk":4,"arthritis_risk":5,"migraine_risk":7,"frizz_risk":0,"updated_at":"2026-05-30T04:46:07.915149+05:30"},{"city":"Jalandhar","state":"Punjab","latitude":31.326,"longitude":75.5762,"temp":27.8,"humidity":44,"rain":0.0,"pressure":977.7,"uv_index":8.15,"wind_gusts":58.3,"aqi":403,"pm10":556.9,"pm2_5":124.3,"no2":7.2,"co":310.0,"o3":112.0,"so2":13.2,"mosquito_risk":4,"arthritis_risk":5,"migraine_risk":7,"frizz_risk":0,"updated_at":"2026-05-30T04:46:07.915155+05:30"},{"city":"Dehradun","state":"Uttarakhand","latitude":30.6284,"longitude":78.0322,"temp":12.3,"humidity":96,"rain":0.0,"pressure":828.2,"uv_index":7.95,"wind_gusts":27.4,"aqi":86,"pm10":34.9,"pm2_5":27.8,"no2":28.1,"co":280.0,"o3":20.0,"so2":0.3,"mosquito_risk":3,"arthritis_risk":10,"migraine_risk":7,"frizz_risk":0,"updated_at":"2026-05-30T04:46:07.915186+05:30"},{"city":"Shimla","state":"Himachal Pradesh","latitude":31.1048,"longitude":77.1734,"temp":9.0,"humidity":85,"rain":0.1,"pressure":780.6,"uv_index":7.2,"wind_gusts":31.0,"aqi":89,"pm10":37.3,"pm2_5":33.2,"no2":17.4,"co":375.0,"o3":48.0,"so2":0.8,"mosquito_risk":6,"arthritis_risk":10,"migraine_risk":7,"frizz_risk":0,"updated_at":"2026-05-30T04:46:07.915201+05:30"},{"city":"Manali","state":"Himachal Pradesh","latitude":32.2396,"longitude":77.1887,"temp":10.1,"humidity":81,"rain":0.0,"pressure":815.2,"uv_index":7.55,"wind_gusts":32.4,"aqi":42,"pm10":5.7,"pm2_5":3.8,"no2":12.0,"co":256.0,"o3":132.0,"so2":0.0,"mosquito_risk":3,"arthritis_risk":10,"migraine_risk":7,"frizz_risk":0,"updated_at":"2026-05-30T04:46:07.915214+05:30"},{"city":"Gurgaon","state":"Haryana","latitude":28.4595,"longitude":77.0266,"temp":25.4,"humidity":70,"rain":0.0,"pressure":979.4,"uv_index":6.75,"wind_gusts":63.0,"aqi":1467,"pm10":1348.6,"pm2_5":201.2,"no2":16.4,"co":397.0,"o3":79.0,"so2":14.4,"mosquito_risk":7,"arthritis_risk":5,"migraine_risk":7,"frizz_risk":1,"updated_at":"2026-05-30T04:46:07.915223+05:30"},{"city":"Noida","state":"Uttar Pradesh","latitude":28.5355,"longitude":77.391,"temp":25.8,"humidity":65,"rain":0.0,"pressure":982.8,"uv_index":7.55,"wind_gusts":52.6,"aqi":1467,"pm10":1348.6,"pm2_5":201.2,"no2":16.4,"co":350.0,"o3":79.0,"so2":14.4,"mosquito_risk":7,"arthritis_risk":5,"migraine_risk":7,"frizz_risk":1,"updated_at":"2026-05-30T04:46:07.915232+05:30"},{"city":"Ghaziabad","state":"Uttar Pradesh","latitude":28.6692,"longitude":77.4538,"temp":26.6,"humidity":60,"rain":0.0,"pressure":981.1,"uv_index":7.65,"wind_gusts":65.9,"aqi":218,"pm10":186.3,"pm2_5":44.5,"no2":13.3,"co":320.0,"o3":84.0,"so2":9.6,"mosquito_risk":4,"arthritis_risk":5,"migraine_risk":7,"frizz_risk":1,"updated_at":"2026-05-30T04:46:07.915241+05:30"},{"city":"Faridabad","state":"Haryana","latitude":28.4089,"longitude":77.3178,"temp":26.4,"humidity":62,"rain":0.0,"pressure":982.0,"uv_index":7.2,"wind_gusts":49.0,"aqi":1467,"pm10":1348.6,"pm2_5":201.2,"no2":16.4,"co":376.0,"o3":79.0,"so2":14.4,"mosquito_risk":7,"arthritis_risk":5,"migraine_risk":7,"frizz_risk":1,"updated_at":"2026-05-30T04:46:07.915251+05:30"},{"city":"Meerut","state":"Uttar Pradesh","latitude":28.9845,"longitude":77.7064,"temp":26.0,"humidity":71,"rain":0.0,"pressure":980.2,"uv_index":7.55,"wind_gusts":49.7,"aqi":218,"pm10":186.3,"pm2_5":44.5,"no2":13.3,"co":309.0,"o3":84.0,"so2":9.6,"mosquito_risk":7,"arthritis_risk":5,"migraine_risk":7,"frizz_risk":1,"updated_at":"2026-05-30T04:46:07.915260+05:30"},{"city":"Agra","state":"Uttar Pradesh","latitude":27.1767,"longitude":78.0081,"temp":27.0,"humidity":65,"rain":0.0,"pressure":986.0,"uv_index":7.95,"wind_gusts":63.0,"aqi":451,"pm10":80.8,"pm2_5":31.7,"no2":9.5,"co":332.0,"o3":96.0,"so2":7.5,"mosquito_risk":7,"arthritis_risk":5,"migraine_risk":7,"frizz_risk":1,"updated_at":"2026-05-30T04:46:07.915270+05:30"},{"city":"Varanasi","state":"Uttar Pradesh","latitude":25.3176,"longitude":82.9739,"temp":24.1,"humidity":85,"rain":0.0,"pressure":996.4,"uv_index":8.7,"wind_gusts":27.4,"aqi":101,"pm10":30.3,"pm2_5":26.0,"no2":16.1,"co":401.0,"o3":74.0,"so2":11.5,"mosquito_risk":3,"arthritis_risk":5,"migraine_risk":7,"frizz_risk":1,"updated_at":"2026-05-30T04:46:07.915279+05:30"},{"city":"Prayagraj","state":"Uttar Pradesh","latitude":25.4358,"longitude":81.8463,"temp":25.6,"humidity":78,"rain":0.0,"pressure":994.8,"uv_index":8.4,"wind_gusts":28.8,"aqi":94,"pm10":23.9,"pm2_5":22.3,"no2":13.3,"co":405.0,"o3":84.0,"so2":7.9,"mosquito_risk":7,"arthritis_risk":5,"migraine_risk":7,"frizz_risk":1,"updated_at":"2026-05-30T04:46:07.915290+05:30"},{"city":"Gorakhpur","state":"Uttar Pradesh","latitude":26.7606,"longitude":83.3732,"temp":23.6,"humidity":92,"rain":0.0,"pressure":996.6,"uv_index":8.25,"wind_gusts":40.7,"aqi":83,"pm10":36.1,"pm2_5":29.0,"no2":10.9,"co":437.0,"o3":90.0,"so2":6.1,"mosquito_risk":3,"arthritis_risk":5,"migraine_risk":7,"frizz_risk":1,"updated_at":"2026-05-30T04:46:07.915303+05:30"},{"city":"Bareilly","state":"Uttar Pradesh","latitude":28.367,"longitude":79.4304,"temp":26.0,"humidity":76,"rain":0.0,"pressure":986.1,"uv_index":7.9,"wind_gusts":30.2,"aqi":87,"pm10":51.9,"pm2_5":32.5,"no2":16.8,"co":331.0,"o3":74.0,"so2":6.0,"mosquito_risk":7,"arthritis_risk":5,"migraine_risk":7,"frizz_risk":1,"updated_at":"2026-05-30T04:46:07.915312+05:30"},{"city":"Aligarh","state":"Uttar Pradesh","latitude":27.8974,"longitude":78.088,"temp":26.7,"humidity":69,"rain":0.0,"pressure":983.9,"uv_index":7.8,"wind_gusts":56.5,"aqi":467,"pm10":369.7,"pm2_5":63.8,"no2":14.0,"co":349.0,"o3":78.0,"so2":13.1,"mosquito_risk":7,"arthritis_risk":5,"migraine_risk":7,"frizz_risk":1,"updated_at":"2026-05-30T04:46:07.915322+05:30"},{"city":"Moradabad","state":"Uttar Pradesh","latitude":28.8386,"longitude":78.7733,"temp":27.0,"humidity":64,"rain":0.0,"pressure":982.9,"uv_index":7.75,"wind_gusts":42.1,"aqi":94,"pm10":42.3,"pm2_5":30.6,"no2":16.9,"co":331.0,"o3":78.0,"so2":5.5,"mosquito_risk":7,"arthritis_risk":5,"migraine_risk":7,"frizz_risk":1,"updated_at":"2026-05-30T04:46:07.915334+05:30"},{"city":"Saharanpur","state":"Uttar Pradesh","latitude":29.9637,"longitude":77.546,"temp":25.8,"humidity":59,"rain":0.0,"pressure":974.6,"uv_index":7.4,"wind_gusts":44.6,"aqi":87,"pm10":34.7,"pm2_5":30.6,"no2":17.7,"co":325.0,"o3":69.0,"so2":7.5,"mosquito_risk":4,"arthritis_risk":5,"migraine_risk":7,"frizz_risk":1,"updated_at":"2026-05-30T04:46:07.915344+05:30"},{"city":"Jhansi","state":"Uttar Pradesh","latitude":25.4484,"longitude":78.5685,"temp":28.5,"humidity":55,"rain":0.0,"pressure":976.0,"uv_index":8.35,"wind_gusts":67.3,"aqi":90,"pm10":68.5,"pm2_5":28.5,"no2":5.9,"co":304.0,"o3":107.0,"so2":8.0,"mosquito_risk":4,"arthritis_risk":5,"migraine_risk":7,"frizz_risk":1,"updated_at":"2026-05-30T04:46:11.198202+05:30"},{"city":"Surat","state":"Gujarat","latitude":21.1702,"longitude":72.8311,"temp":29.4,"humidity":76,"rain":0.0,"pressure":1005.0,"uv_index":7.7,"wind_gusts":60.8,"aqi":85,"pm10":53.7,"pm2_5":29.3,"no2":12.9,"co":255.0,"o3":41.0,"so2":22.8,"mosquito_risk":7,"arthritis_risk":5,"migraine_risk":4,"frizz_risk":1,"updated_at":"2026-05-30T04:46:11.198238+05:30"},{"city":"Vadodara","state":"Gujarat","latitude":22.3072,"longitude":73.1812,"temp":29.0,"humidity":73,"rain":0.0,"pressure":1002.2,"uv_index":8.05,"wind_gusts":56.9,"aqi":80,"pm10":44.7,"pm2_5":24.0,"no2":4.6,"co":117.0,"o3":43.0,"so2":4.1,"mosquito_risk":7,"arthritis_risk":5,"migraine_risk":4,"frizz_risk":1,"updated_at":"2026-05-30T04:46:11.198249+05:30"},{"city":"Rajkot","state":"Gujarat","latitude":22.3039,"longitude":70.8022,"temp":27.9,"humidity":79,"rain":0.0,"pressure":991.2,"uv_index":7.7,"wind_gusts":56.5,"aqi":69,"pm10":32.5,"pm2_5":16.4,"no2":2.6,"co":100.0,"o3":47.0,"so2":2.6,"mosquito_risk":7,"arthritis_risk":5,"migraine_risk":7,"frizz_risk":1,"updated_at":"2026-05-30T04:46:11.198257+05:30"},{"city":"Thane","state":"Maharashtra","latitude":19.2183,"longitude":72.9781,"temp":29.9,"humidity":73,"rain":0.0,"pressure":1006.6,"uv_index":7.8,"wind_gusts":41.4,"aqi":67,"pm10":26.8,"pm2_5":16.3,"no2":3.2,"co":133.0,"o3":51.0,"so2":3.1,"mosquito_risk":7,"arthritis_risk":5,"migraine_risk":4,"frizz_risk":1,"updated_at":"2026-05-30T04:46:11.198264+05:30"},{"city":"Nagpur","state":"Maharashtra","latitude":21.1458,"longitude":79.0882,"temp":31.9,"humidity":35,"rain":0.0,"pressure":970.0,"uv_index":8.9,"wind_gusts":50.0,"aqi":67,"pm10":25.3,"pm2_5":17.5,"no2":13.3,"co":228.0,"o3":52.0,"so2":8.5,"mosquito_risk":0,"arthritis_risk":5,"migraine_risk":7,"frizz_risk":0,"updated_at":"2026-05-30T04:46:11.198273+05:30"},{"city":"Nashik","state":"Maharashtra","latitude":19.9975,"longitude":73.7898,"temp":24.5,"humidity":87,"rain":0.0,"pressure":943.9,"uv_index":8.1,"wind_gusts":55.4,"aqi":61,"pm10":24.0,"pm2_5":15.6,"no2":7.6,"co":115.0,"o3":39.0,"so2":5.9,"mosquito_risk":3,"arthritis_risk":5,"migraine_risk":7,"frizz_risk":1,"updated_at":"2026-05-30T04:46:11.198281+05:30"},{"city":"Aurangabad","state":"Maharashtra","latitude":19.8762,"longitude":75.3433,"temp":25.2,"humidity":80,"rain":0.0,"pressure":942.9,"uv_index":8.95,"wind_gusts":52.9,"aqi":61,"pm10":33.1,"pm2_5":20.5,"no2":11.5,"co":178.0,"o3":40.0,"so2":12.6,"mosquito_risk":7,"arthritis_risk":5,"migraine_risk":7,"frizz_risk":1,"updated_at":"2026-05-30T04:46:11.198288+05:30"},{"city":"Solapur","state":"Maharashtra","latitude":17.6599,"longitude":75.9064,"temp":27.0,"humidity":68,"rain":0.0,"pressure":956.5,"uv_index":8.95,"wind_gusts":36.4,"aqi":44,"pm10":13.2,"pm2_5":9.6,"no2":6.7,"co":167.0,"o3":41.0,"so2":2.1,"mosquito_risk":7,"arthritis_risk":5,"migraine_risk":7,"frizz_risk":1,"updated_at":"2026-05-30T04:46:11.198296+05:30"},{"city":"Kolhapur","state":"Maharashtra","latitude":16.705,"longitude":74.2433,"temp":24.4,"humidity":91,"rain":0.0,"pressure":947.5,"uv_index":8.75,"wind_gusts":45.4,"aqi":36,"pm10":9.1,"pm2_5":7.0,"no2":4.8,"co":140.0,"o3":43.0,"so2":2.1,"mosquito_risk":3,"arthritis_risk":5,"migraine_risk":7,"frizz_risk":1,"updated_at":"2026-05-30T04:46:11.198303+05:30"},{"city":"Goa","state":"Goa","latitude":15.2993,"longitude":74.124,"temp":26.3,"humidity":99,"rain":0.1,"pressure":998.2,"uv_index":7.25,"wind_gusts":27.0,"aqi":55,"pm10":23.6,"pm2_5":17.3,"no2":4.8,"co":363.0,"o3":45.0,"so2":1.6,"mosquito_risk":10,"arthritis_risk":5,"migraine_risk":7,"frizz_risk":1,"updated_at":"2026-05-30T04:46:11.198310+05:30"},{"city":"Jodhpur","state":"Rajasthan","latitude":26.2389,"longitude":73.0243,"temp":31.0,"humidity":58,"rain":0.0,"pressure":978.2,"uv_index":8.35,"wind_gusts":48.6,"aqi":191,"pm10":355.8,"pm2_5":74.3,"no2":2.3,"co":142.0,"o3":60.0,"so2":2.4,"mosquito_risk":0,"arthritis_risk":5,"migraine_risk":7,"frizz_risk":1,"updated_at":"2026-05-30T04:46:11.198317+05:30"},{"city":"Udaipur","state":"Rajasthan","latitude":24.5854,"longitude":73.7125,"temp":27.4,"humidity":62,"rain":0.0,"pressure":943.4,"uv_index":8.75,"wind_gusts":44.3,"aqi":70,"pm10":41.7,"pm2_5":22.6,"no2":2.7,"co":142.0,"o3":56.0,"so2":2.8,"mosquito_risk":7,"arthritis_risk":5,"migraine_risk":7,"frizz_risk":1,"updated_at":"2026-05-30T04:46:11.198324+05:30"},{"city":"Kota","state":"Rajasthan","latitude":25.2138,"longitude":75.8648,"temp":29.1,"humidity":58,"rain":0.0,"pressure":974.8,"uv_index":8.3,"wind_gusts":68.8,"aqi":77,"pm10":28.7,"pm2_5":18.2,"no2":6.8,"co":152.0,"o3":63.0,"so2":6.5,"mosquito_risk":4,"arthritis_risk":5,"migraine_risk":7,"frizz_risk":1,"updated_at":"2026-05-30T04:46:11.198331+05:30"},{"city":"Bikaner","state":"Rajasthan","latitude":28.0229,"longitude":73.3119,"temp":31.0,"humidity":44,"rain":0.0,"pressure":976.3,"uv_index":8.35,"wind_gusts":41.4,"aqi":155,"pm10":68.5,"pm2_5":29.8,"no2":3.7,"co":150.0,"o3":73.0,"so2":3.2,"mosquito_risk":0,"arthritis_risk":5,"migraine_risk":7,"frizz_risk":1,"updated_at":"2026-05-30T04:46:11.198338+05:30"},{"city":"Ajmer","state":"Rajasthan","latitude":26.4499,"longitude":74.6399,"temp":26.5,"humidity":57,"rain":0.0,"pressure":950.9,"uv_index":8.3,"wind_gusts":61.2,"aqi":79,"pm10":19.6,"pm2_5":13.5,"no2":3.8,"co":169.0,"o3":76.0,"so2":3.9,"mosquito_risk":4,"arthritis_risk":5,"migraine_risk":7,"frizz_risk":1,"updated_at":"2026-05-30T04:46:11.198345+05:30"},{"city":"Gwalior","state":"Madhya Pradesh","latitude":26.2183,"longitude":78.1828,"temp":27.6,"humidity":61,"rain":0.0,"pressure":981.2,"uv_index":8.15,"wind_gusts":42.5,"aqi":123,"pm10":71.5,"pm2_5":30.7,"no2":5.6,"co":286.0,"o3":97.0,"so2":5.7,"mosquito_risk":7,"arthritis_risk":5,"migraine_risk":7,"frizz_risk":1,"updated_at":"2026-05-30T04:46:11.198351+05:30"},{"city":"Indore","state":"Madhya Pradesh","latitude":22.7196,"longitude":75.8577,"temp":27.0,"humidity":73,"rain":0.0,"pressure":945.7,"uv_index":8.6,"wind_gusts":45.7,"aqi":77,"pm10":44.8,"pm2_5":26.2,"no2":6.0,"co":136.0,"o3":48.0,"so2":9.0,"mosquito_risk":7,"arthritis_risk":5,"migraine_risk":7,"frizz_risk":1,"updated_at":"2026-05-30T04:46:11.198358+05:30"},{"city":"Bhopal","state":"Madhya Pradesh","latitude":23.2599,"longitude":77.4126,"temp":27.4,"humidity":59,"rain":0.0,"pressure":950.8,"uv_index":8.65,"wind_gusts":63.7,"aqi":72,"pm10":29.8,"pm2_5":17.3,"no2":4.6,"co":213.0,"o3":77.0,"so2":3.5,"mosquito_risk":4,"arthritis_risk":5,"migraine_risk":7,"frizz_risk":1,"updated_at":"2026-05-30T04:46:11.198364+05:30"},{"city":"Jabalpur","state":"Madhya Pradesh","latitude":23.1815,"longitude":79.9864,"temp":24.8,"humidity":79,"rain":0.0,"pressure":957.9,"uv_index":8.85,"wind_gusts":42.8,"aqi":68,"pm10":22.4,"pm2_5":15.8,"no2":11.7,"co":292.0,"o3":88.0,"so2":7.5,"mosquito_risk":3,"arthritis_risk":5,"migraine_risk":7,"frizz_risk":1,"updated_at":"2026-05-30T04:46:11.198371+05:30"},{"city":"Ujjain","state":"Madhya Pradesh","latitude":23.1765,"longitude":75.7885,"temp":27.0,"humidity":76,"rain":0.0,"pressure":951.2,"uv_index":8.55,"wind_gusts":52.6,"aqi":77,"pm10":43.8,"pm2_5":25.8,"no2":6.2,"co":150.0,"o3":43.0,"so2":9.5,"mosquito_risk":7,"arthritis_risk":5,"migraine_risk":7,"frizz_risk":1,"updated_at":"2026-05-30T04:46:11.198378+05:30"},{"city":"Visakhapatnam","state":"Andhra Pradesh","latitude":17.6868,"longitude":83.2185,"temp":29.1,"humidity":90,"rain":0.0,"pressure":999.8,"uv_index":9.0,"wind_gusts":41.8,"aqi":130,"pm10":59.8,"pm2_5":48.1,"no2":35.7,"co":847.0,"o3":81.0,"so2":39.5,"mosquito_risk":7,"arthritis_risk":5,"migraine_risk":7,"frizz_risk":1,"updated_at":"2026-05-30T04:46:11.198385+05:30"},{"city":"Vijayawada","state":"Andhra Pradesh","latitude":16.5062,"longitude":80.648,"temp":30.9,"humidity":61,"rain":0.0,"pressure":998.5,"uv_index":9.05,"wind_gusts":38.5,"aqi":77,"pm10":26.8,"pm2_5":23.9,"no2":13.9,"co":267.0,"o3":55.0,"so2":4.6,"mosquito_risk":3,"arthritis_risk":5,"migraine_risk":7,"frizz_risk":1,"updated_at":"2026-05-30T04:46:11.198392+05:30"},{"city":"Guntur","state":"Andhra Pradesh","latitude":16.3067,"longitude":80.4365,"temp":30.5,"humidity":61,"rain":0.0,"pressure":999.8,"uv_index":8.95,"wind_gusts":43.2,"aqi":69,"pm10":22.2,"pm2_5":19.4,"no2":11.2,"co":217.0,"o3":65.0,"so2":5.6,"mosquito_risk":3,"arthritis_risk":5,"migraine_risk":7,"frizz_risk":1,"updated_at":"2026-05-30T04:46:11.198399+05:30"},{"city":"Nellore","state":"Andhra Pradesh","latitude":14.4426,"longitude":79.9865,"temp":29.3,"humidity":69,"rain":0.0,"pressure":1002.5,"uv_index":7.35,"wind_gusts":51.8,"aqi":73,"pm10":28.7,"pm2_5":24.4,"no2":12.2,"co":192.0,"o3":69.0,"so2":7.4,"mosquito_risk":7,"arthritis_risk":5,"migraine_risk":4,"frizz_risk":1,"updated_at":"2026-05-30T04:46:11.198406+05:30"},{"city":"Kurnool","state":"Andhra Pradesh","latitude":15.8281,"longitude":78.0373,"temp":28.5,"humidity":73,"rain":0.0,"pressure":976.1,"uv_index":8.95,"wind_gusts":40.0,"aqi":54,"pm10":14.9,"pm2_5":12.5,"no2":7.9,"co":165.0,"o3":45.0,"so2":3.6,"mosquito_risk":7,"arthritis_risk":5,"migraine_risk":7,"frizz_risk":1,"updated_at":"2026-05-30T04:46:11.198414+05:30"},{"city":"Kakinada","state":"Andhra Pradesh","latitude":16.9891,"longitude":82.2475,"temp":29.9,"humidity":80,"rain":0.0,"pressure":1003.4,"uv_index":8.6,"wind_gusts":36.7,"aqi":106,"pm10":33.2,"pm2_5":26.1,"no2":4.0,"co":301.0,"o3":145.0,"so2":4.9,"mosquito_risk":7,"arthritis_risk":5,"migraine_risk":4,"frizz_risk":1,"updated_at":"2026-05-30T04:46:11.198421+05:30"},{"city":"Tirupati","state":"Andhra Pradesh","latitude":13.6288,"longitude":79.4192,"temp":28.1,"humidity":60,"rain":0.0,"pressure":988.2,"uv_index":7.85,"wind_gusts":36.7,"aqi":73,"pm10":29.6,"pm2_5":25.5,"no2":24.6,"co":187.0,"o3":26.0,"so2":3.5,"mosquito_risk":4,"arthritis_risk":5,"migraine_risk":7,"frizz_risk":1,"updated_at":"2026-05-30T04:46:11.198428+05:30"},{"city":"Warangal","state":"Telangana","latitude":17.9689,"longitude":79.5941,"temp":31.0,"humidity":50,"rain":0.0,"pressure":975.1,"uv_index":9.05,"wind_gusts":45.7,"aqi":73,"pm10":23.1,"pm2_5":19.1,"no2":14.3,"co":290.0,"o3":65.0,"so2":11.0,"mosquito_risk":0,"arthritis_risk":5,"migraine_risk":7,"frizz_risk":1,"updated_at":"2026-05-30T04:46:11.198434+05:30"},{"city":"Nizamabad","state":"Telangana","latitude":18.6725,"longitude":78.0941,"temp":30.0,"humidity":44,"rain":0.0,"pressure":962.7,"uv_index":9.0,"wind_gusts":39.6,"aqi":66,"pm10":26.4,"pm2_5":21.7,"no2":13.6,"co":227.0,"o3":64.0,"so2":7.1,"mosquito_risk":4,"arthritis_risk":5,"migraine_risk":7,"frizz_risk":1,"updated_at":"2026-05-30T04:46:11.198441+05:30"},{"city":"Mysore","state":"Karnataka","latitude":12.2958,"longitude":76.6396,"temp":22.4,"humidity":92,"rain":0.0,"pressure":928.2,"uv_index":8.55,"wind_gusts":40.7,"aqi":37,"pm10":7.1,"pm2_5":6.3,"no2":8.1,"co":140.0,"o3":41.0,"so2":2.1,"mosquito_risk":3,"arthritis_risk":5,"migraine_risk":7,"frizz_risk":1,"updated_at":"2026-05-30T04:46:11.198447+05:30"},{"city":"Mangalore","state":"Karnataka","latitude":12.9141,"longitude":74.856,"temp":23.9,"humidity":97,"rain":0.0,"pressure":1007.6,"uv_index":6.65,"wind_gusts":33.1,"aqi":42,"pm10":12.9,"pm2_5":9.6,"no2":8.6,"co":195.0,"o3":41.0,"so2":2.4,"mosquito_risk":3,"arthritis_risk":5,"migraine_risk":4,"frizz_risk":1,"updated_at":"2026-05-30T04:46:11.198454+05:30"},{"city":"Hubli-Dharwad","state":"Karnataka","latitude":15.3647,"longitude":75.124,"temp":24.0,"humidity":94,"rain":0.0,"pressure":940.6,"uv_index":8.5,"wind_gusts":40.3,"aqi":41,"pm10":7.9,"pm2_5":6.4,"no2":4.4,"co":136.0,"o3":42.0,"so2":1.3,"mosquito_risk":3,"arthritis_risk":5,"migraine_risk":7,"frizz_risk":1,"updated_at":"2026-05-30T04:46:11.198460+05:30"},{"city":"Belgaum","state":"Karnataka","latitude":15.8497,"longitude":74.4977,"temp":23.0,"humidity":97,"rain":0.0,"pressure":925.3,"uv_index":8.5,"wind_gusts":41.0,"aqi":34,"pm10":3.6,"pm2_5":3.0,"no2":2.8,"co":131.0,"o3":48.0,"so2":1.4,"mosquito_risk":3,"arthritis_risk":5,"migraine_risk":7,"frizz_risk":1,"updated_at":"2026-05-30T04:46:14.495772+05:30"},{"city":"Coimbatore","state":"Tamil Nadu","latitude":11.0168,"longitude":76.9558,"temp":24.4,"humidity":88,"rain":0.0,"pressure":961.5,"uv_index":8.45,"wind_gusts":50.4,"aqi":23,"pm10":3.6,"pm2_5":3.0,"no2":4.8,"co":143.0,"o3":42.0,"so2":2.5,"mosquito_risk":3,"arthritis_risk":5,"migraine_risk":7,"frizz_risk":1,"updated_at":"2026-05-30T04:46:14.495808+05:30"},{"city":"Madurai","state":"Tamil Nadu","latitude":9.9252,"longitude":78.1198,"temp":28.4,"humidity":67,"rain":0.0,"pressure":992.0,"uv_index":8.35,"wind_gusts":29.9,"aqi":66,"pm10":30.2,"pm2_5":28.9,"no2":38.9,"co":149.0,"o3":0.0,"so2":6.0,"mosquito_risk":7,"arthritis_risk":5,"migraine_risk":7,"frizz_risk":1,"updated_at":"2026-05-30T04:46:14.495820+05:30"},{"city":"Trichy","state":"Tamil Nadu","latitude":10.7905,"longitude":78.7047,"temp":28.4,"humidity":71,"rain":0.0,"pressure":998.4,"uv_index":7.95,"wind_gusts":45.4,"aqi":43,"pm10":3.9,"pm2_5":3.6,"no2":7.2,"co":131.0,"o3":36.0,"so2":3.2,"mosquito_risk":7,"arthritis_risk":5,"migraine_risk":7,"frizz_risk":1,"updated_at":"2026-05-30T04:46:14.495829+05:30"},{"city":"Salem","state":"Tamil Nadu","latitude":11.6643,"longitude":78.146,"temp":24.7,"humidity":88,"rain":0.0,"pressure":977.0,"uv_index":8.15,"wind_gusts":47.5,"aqi":59,"pm10":20.1,"pm2_5":15.9,"no2":16.8,"co":223.0,"o3":32.0,"so2":6.3,"mosquito_risk":3,"arthritis_risk":5,"migraine_risk":7,"frizz_risk":1,"updated_at":"2026-05-30T04:46:14.495838+05:30"},{"city":"Tirunelveli","state":"Tamil Nadu","latitude":8.7139,"longitude":77.7567,"temp":27.9,"humidity":70,"rain":0.0,"pressure":1002.7,"uv_index":8.2,"wind_gusts":41.0,"aqi":20,"pm10":5.7,"pm2_5":4.6,"no2":6.4,"co":137.0,"o3":25.0,"so2":2.0,"mosquito_risk":7,"arthritis_risk":5,"migraine_risk":4,"frizz_risk":1,"updated_at":"2026-05-30T04:46:14.495850+05:30"},{"city":"Vellore","state":"Tamil Nadu","latitude":12.9165,"longitude":79.1325,"temp":27.3,"humidity":71,"rain":0.0,"pressure":982.1,"uv_index":9.05,"wind_gusts":43.6,"aqi":67,"pm10":24.3,"pm2_5":21.5,"no2":16.3,"co":224.0,"o3":45.0,"so2":4.7,"mosquito_risk":7,"arthritis_risk":5,"migraine_risk":7,"frizz_risk":1,"updated_at":"2026-05-30T04:46:14.495859+05:30"},{"city":"Erode","state":"Tamil Nadu","latitude":11.341,"longitude":77.7172,"temp":25.8,"humidity":87,"rain":0.0,"pressure":988.5,"uv_index":8.9,"wind_gusts":45.4,"aqi":37,"pm10":7.0,"pm2_5":6.3,"no2":10.8,"co":172.0,"o3":31.0,"so2":3.3,"mosquito_risk":7,"arthritis_risk":5,"migraine_risk":7,"frizz_risk":1,"updated_at":"2026-05-30T04:46:14.495867+05:30"},{"city":"Kochi","state":"Kerala","latitude":9.9312,"longitude":76.2673,"temp":24.0,"humidity":98,"rain":0.2,"pressure":1009.9,"uv_index":7.55,"wind_gusts":32.0,"aqi":38,"pm10":10.3,"pm2_5":8.8,"no2":12.6,"co":157.0,"o3":22.0,"so2":3.7,"mosquito_risk":6,"arthritis_risk":0,"migraine_risk":4,"frizz_risk":1,"updated_at":"2026-05-30T04:46:14.495874+05:30"},{"city":"Thiruvananthapuram","state":"Kerala","latitude":8.5241,"longitude":76.9366,"temp":23.6,"humidity":99,"rain":0.0,"pressure":1009.3,"uv_index":7.6,"wind_gusts":41.0,"aqi":22,"pm10":12.2,"pm2_5":6.2,"no2":1.5,"co":129.0,"o3":48.0,"so2":0.6,"mosquito_risk":3,"arthritis_risk":0,"migraine_risk":4,"frizz_risk":1,"updated_at":"2026-05-30T04:46:14.495882+05:30"},{"city":"Kozhikode","state":"Kerala","latitude":11.2588,"longitude":75.7804,"temp":24.1,"humidity":99,"rain":0.1,"pressure":1009.2,"uv_index":8.1,"wind_gusts":37.1,"aqi":30,"pm10":6.4,"pm2_5":3.8,"no2":1.0,"co":150.0,"o3":62.0,"so2":0.5,"mosquito_risk":6,"arthritis_risk":0,"migraine_risk":4,"frizz_risk":1,"updated_at":"2026-05-30T04:46:14.495889+05:30"},{"city":"Thrissur","state":"Kerala","latitude":10.5276,"longitude":76.2144,"temp":23.7,"humidity":99,"rain":0.0,"pressure":1008.1,"uv_index":7.35,"wind_gusts":35.3,"aqi":39,"pm10":11.3,"pm2_5":10.2,"no2":11.7,"co":222.0,"o3":23.0,"so2":4.0,"mosquito_risk":3,"arthritis_risk":0,"migraine_risk":4,"frizz_risk":1,"updated_at":"2026-05-30T04:46:14.495897+05:30"},{"city":"Kannur","state":"Kerala","latitude":11.8745,"longitude":75.3704,"temp":24.5,"humidity":98,"rain":0.2,"pressure":1008.4,"uv_index":7.75,"wind_gusts":33.5,"aqi":29,"pm10":8.6,"pm2_5":6.5,"no2":4.2,"co":188.0,"o3":46.0,"so2":1.7,"mosquito_risk":6,"arthritis_risk":0,"migraine_risk":4,"frizz_risk":1,"updated_at":"2026-05-30T04:46:14.495904+05:30"},{"city":"Patna","state":"Bihar","latitude":25.5941,"longitude":85.1376,"temp":23.4,"humidity":92,"rain":0.0,"pressure":999.4,"uv_index":8.75,"wind_gusts":33.1,"aqi":99,"pm10":62.4,"pm2_5":53.9,"no2":14.9,"co":375.0,"o3":87.0,"so2":21.3,"mosquito_risk":3,"arthritis_risk":5,"migraine_risk":7,"frizz_risk":1,"updated_at":"2026-05-30T04:46:14.495912+05:30"},{"city":"Gaya","state":"Bihar","latitude":24.7914,"longitude":85.0002,"temp":23.9,"humidity":86,"rain":0.0,"pressure":992.2,"uv_index":8.8,"wind_gusts":24.8,"aqi":106,"pm10":67.1,"pm2_5":54.6,"no2":13.6,"co":422.0,"o3":84.0,"so2":30.2,"mosquito_risk":3,"arthritis_risk":5,"migraine_risk":7,"frizz_risk":1,"updated_at":"2026-05-30T04:46:14.495919+05:30"},{"city":"Muzaffarpur","state":"Bihar","latitude":26.1209,"longitude":85.3647,"temp":23.7,"humidity":92,"rain":0.0,"pressure":999.7,"uv_index":8.75,"wind_gusts":34.9,"aqi":97,"pm10":58.2,"pm2_5":50.8,"no2":15.7,"co":442.0,"o3":80.0,"so2":15.8,"mosquito_risk":3,"arthritis_risk":5,"migraine_risk":7,"frizz_risk":1,"updated_at":"2026-05-30T04:46:14.495926+05:30"},{"city":"Bhagalpur","state":"Bihar","latitude":25.2425,"longitude":87.0117,"temp":24.1,"humidity":90,"rain":0.0,"pressure":1000.5,"uv_index":8.75,"wind_gusts":25.2,"aqi":124,"pm10":88.9,"pm2_5":65.2,"no2":19.8,"co":391.0,"o3":64.0,"so2":19.3,"mosquito_risk":3,"arthritis_risk":5,"migraine_risk":4,"frizz_risk":1,"updated_at":"2026-05-30T04:46:14.495933+05:30"},{"city":"Ranchi","state":"Jharkhand","latitude":23.3441,"longitude":85.3096,"temp":21.1,"humidity":99,"rain":0.0,"pressure":935.7,"uv_index":9.25,"wind_gusts":31.7,"aqi":127,"pm10":75.4,"pm2_5":61.5,"no2":10.6,"co":386.0,"o3":82.0,"so2":19.6,"mosquito_risk":3,"arthritis_risk":5,"migraine_risk":7,"frizz_risk":1,"updated_at":"2026-05-30T04:46:14.495940+05:30"},{"city":"Jamshedpur","state":"Jharkhand","latitude":22.8046,"longitude":86.2029,"temp":24.7,"humidity":92,"rain":0.0,"pressure":989.7,"uv_index":9.05,"wind_gusts":28.4,"aqi":118,"pm10":47.3,"pm2_5":37.8,"no2":17.2,"co":479.0,"o3":73.0,"so2":19.6,"mosquito_risk":3,"arthritis_risk":5,"migraine_risk":7,"frizz_risk":1,"updated_at":"2026-05-30T04:46:14.495947+05:30"},{"city":"Dhanbad","state":"Jharkhand","latitude":23.7957,"longitude":86.4304,"temp":22.8,"humidity":90,"rain":0.0,"pressure":978.9,"uv_index":9.0,"wind_gusts":28.8,"aqi":154,"pm10":82.2,"pm2_5":66.4,"no2":31.7,"co":785.0,"o3":80.0,"so2":70.4,"mosquito_risk":3,"arthritis_risk":5,"migraine_risk":7,"frizz_risk":1,"updated_at":"2026-05-30T04:46:14.495955+05:30"},{"city":"Bokaro","state":"Jharkhand","latitude":23.6693,"longitude":86.1511,"temp":23.0,"humidity":92,"rain":0.0,"pressure":982.8,"uv_index":9.05,"wind_gusts":25.9,"aqi":155,"pm10":87.3,"pm2_5":71.2,"no2":37.1,"co":1426.0,"o3":69.0,"so2":85.6,"mosquito_risk":3,"arthritis_risk":5,"migraine_risk":7,"frizz_risk":1,"updated_at":"2026-05-30T04:46:14.495962+05:30"},{"city":"Bhubaneswar","state":"Odisha","latitude":20.2961,"longitude":85.8245,"temp":28.2,"humidity":92,"rain":0.0,"pressure":1000.2,"uv_index":9.0,"wind_gusts":38.2,"aqi":111,"pm10":54.0,"pm2_5":45.9,"no2":15.2,"co":371.0,"o3":49.0,"so2":5.0,"mosquito_risk":7,"arthritis_risk":5,"migraine_risk":4,"frizz_risk":1,"updated_at":"2026-05-30T04:46:14.495969+05:30"},{"city":"Cuttack","state":"Odisha","latitude":20.4625,"longitude":85.8828,"temp":28.0,"humidity":90,"rain":0.0,"pressure":1002.0,"uv_index":9.05,"wind_gusts":37.1,"aqi":111,"pm10":54.0,"pm2_5":45.9,"no2":15.2,"co":391.0,"o3":49.0,"so2":5.0,"mosquito_risk":7,"arthritis_risk":5,"migraine_risk":4,"frizz_risk":1,"updated_at":"2026-05-30T04:46:14.495975+05:30"},{"city":"Rourkela","state":"Odisha","latitude":22.2604,"longitude":84.8536,"temp":26.6,"humidity":82,"rain":0.0,"pressure":983.0,"uv_index":8.95,"wind_gusts":48.2,"aqi":144,"pm10":80.6,"pm2_5":68.2,"no2":24.5,"co":622.0,"o3":56.0,"so2":34.0,"mosquito_risk":7,"arthritis_risk":5,"migraine_risk":7,"frizz_risk":1,"updated_at":"2026-05-30T04:46:14.495982+05:30"},{"city":"Raipur","state":"Chhattisgarh","latitude":21.2514,"longitude":81.6296,"temp":29.2,"humidity":60,"rain":0.0,"pressure":970.9,"uv_index":8.95,"wind_gusts":47.2,"aqi":118,"pm10":76.8,"pm2_5":62.9,"no2":40.3,"co":434.0,"o3":33.0,"so2":21.9,"mosquito_risk":4,"arthritis_risk":5,"migraine_risk":7,"frizz_risk":1,"updated_at":"2026-05-30T04:46:14.495988+05:30"},{"city":"Bhilai","state":"Chhattisgarh","latitude":21.1938,"longitude":81.3509,"temp":28.9,"humidity":60,"rain":0.0,"pressure":971.2,"uv_index":8.95,"wind_gusts":70.6,"aqi":105,"pm10":76.1,"pm2_5":61.0,"no2":49.1,"co":501.0,"o3":21.0,"so2":33.6,"mosquito_risk":4,"arthritis_risk":5,"migraine_risk":7,"frizz_risk":1,"updated_at":"2026-05-30T04:46:14.495996+05:30"},{"city":"Guwahati","state":"Assam","latitude":26.1158,"longitude":91.7086,"temp":23.8,"humidity":89,"rain":0.0,"pressure":1000.8,"uv_index":8.75,"wind_gusts":17.6,"aqi":100,"pm10":53.1,"pm2_5":38.8,"no2":13.7,"co":405.0,"o3":27.0,"so2":3.4,"mosquito_risk":3,"arthritis_risk":5,"migraine_risk":4,"frizz_risk":1,"updated_at":"2026-05-30T04:46:14.496003+05:30"},{"city":"Agartala","state":"Tripura","latitude":23.8315,"longitude":91.2868,"temp":23.5,"humidity":97,"rain":0.0,"pressure":1005.3,"uv_index":8.85,"wind_gusts":21.6,"aqi":147,"pm10":107.8,"pm2_5":100.1,"no2":41.0,"co":471.0,"o3":35.0,"so2":10.5,"mosquito_risk":3,"arthritis_risk":5,"migraine_risk":4,"frizz_risk":1,"updated_at":"2026-05-30T04:46:14.496012+05:30"},{"city":"Shillong","state":"Meghalaya","latitude":25.5788,"longitude":91.8933,"temp":16.8,"humidity":63,"rain":0.0,"pressure":855.5,"uv_index":8.65,"wind_gusts":23.0,"aqi":79,"pm10":48.9,"pm2_5":23.3,"no2":8.0,"co":247.0,"o3":45.0,"so2":2.6,"mosquito_risk":3,"arthritis_risk":5,"migraine_risk":7,"frizz_risk":0,"updated_at":"2026-05-30T04:46:14.496018+05:30"},{"city":"Imphal","state":"Manipur","latitude":24.817,"longitude":93.9368,"temp":22.0,"humidity":94,"rain":0.0,"pressure":922.9,"uv_index":9.25,"wind_gusts":22.3,"aqi":128,"pm10":91.5,"pm2_5":61.7,"no2":24.4,"co":433.0,"o3":17.0,"so2":3.5,"mosquito_risk":3,"arthritis_risk":5,"migraine_risk":7,"frizz_risk":1,"updated_at":"2026-05-30T04:46:14.496025+05:30"},{"city":"Aizawl","state":"Mizoram","latitude":23.7271,"longitude":92.7176,"temp":20.3,"humidity":90,"rain":0.0,"pressure":891.4,"uv_index":8.15,"wind_gusts":16.9,"aqi":76,"pm10":40.2,"pm2_5":26.7,"no2":19.6,"co":308.0,"o3":19.0,"so2":2.2,"mosquito_risk":3,"arthritis_risk":5,"migraine_risk":7,"frizz_risk":1,"updated_at":"2026-05-30T04:46:14.496032+05:30"},{"city":"Kohima","state":"Nagaland","latitude":25.6701,"longitude":94.1077,"temp":18.6,"humidity":81,"rain":0.0,"pressure":854.6,"uv_index":8.7,"wind_gusts":24.5,"aqi":94,"pm10":58.7,"pm2_5":38.5,"no2":15.0,"co":275.0,"o3":28.0,"so2":1.8,"mosquito_risk":3,"arthritis_risk":10,"migraine_risk":7,"frizz_risk":0,"updated_at":"2026-05-30T04:46:14.496039+05:30"},{"city":"Gangtok","state":"Sikkim","latitude":27.3314,"longitude":88.6138,"temp":14.8,"humidity":87,"rain":0.0,"pressure":837.5,"uv_index":9.0,"wind_gusts":32.4,"aqi":60,"pm10":39.1,"pm2_5":27.3,"no2":17.6,"co":613.0,"o3":39.0,"so2":1.3,"mosquito_risk":3,"arthritis_risk":10,"migraine_risk":7,"frizz_risk":0,"updated_at":"2026-05-30T04:46:14.496045+05:30"},{"city":"Siliguri","state":"West Bengal","latitude":26.7271,"longitude":88.3953,"temp":23.0,"humidity":91,"rain":0.0,"pressure":992.6,"uv_index":8.7,"wind_gusts":40.0,"aqi":108,"pm10":89.6,"pm2_5":67.1,"no2":35.3,"co":599.0,"o3":48.0,"so2":7.1,"mosquito_risk":3,"arthritis_risk":5,"migraine_risk":7,"frizz_risk":1,"updated_at":"2026-05-30T04:46:17.792786+05:30"},{"city":"Durgapur","state":"West Bengal","latitude":23.5204,"longitude":87.3119,"temp":22.1,"humidity":98,"rain":0.0,"pressure":994.3,"uv_index":8.95,"wind_gusts":17.3,"aqi":157,"pm10":107.1,"pm2_5":93.6,"no2":36.7,"co":616.0,"o3":39.0,"so2":32.5,"mosquito_risk":3,"arthritis_risk":5,"migraine_risk":7,"frizz_risk":1,"updated_at":"2026-05-30T04:46:17.792823+05:30"},{"city":"Asansol","state":"West Bengal","latitude":23.6739,"longitude":86.9524,"temp":23.1,"humidity":90,"rain":0.0,"pressure":992.9,"uv_index":8.95,"wind_gusts":26.3,"aqi":153,"pm10":91.0,"pm2_5":75.4,"no2":30.5,"co":721.0,"o3":69.0,"so2":36.3,"mosquito_risk":3,"arthritis_risk":5,"migraine_risk":7,"frizz_risk":1,"updated_at":"2026-05-30T04:46:17.792834+05:30"},{"city":"Pondicherry","state":"Puducherry","latitude":11.9139,"longitude":79.8145,"temp":28.0,"humidity":82,"rain":0.0,"pressure":1005.9,"uv_index":8.9,"wind_gusts":57.6,"aqi":65,"pm10":19.0,"pm2_5":16.2,"no2":18.7,"co":312.0,"o3":33.0,"so2":8.3,"mosquito_risk":7,"arthritis_risk":5,"migraine_risk":4,"frizz_risk":1,"updated_at":"2026-05-30T04:46:17.792844+05:30"},{"city":"Port Blair","state":"Andaman and Nicobar Islands","latitude":11.6234,"longitude":92.7265,"temp":26.6,"humidity":87,"rain":0.0,"pressure":1006.2,"uv_index":8.8,"wind_gusts":33.5,"aqi":29,"pm10":14.1,"pm2_5":8.3,"no2":0.3,"co":127.0,"o3":67.0,"so2":0.5,"mosquito_risk":7,"arthritis_risk":5,"migraine_risk":4,"frizz_risk":1,"updated_at":"2026-05-30T04:46:17.792852+05:30"},{"city":"Haridwar","state":"Uttarakhand","latitude":29.9457,"longitude":78.1642,"temp":23.1,"humidity":74,"rain":0.0,"pressure":973.0,"uv_index":7.5,"wind_gusts":25.2,"aqi":84,"pm10":36.7,"pm2_5":33.1,"no2":22.1,"co":386.0,"o3":52.0,"so2":4.5,"mosquito_risk":3,"arthritis_risk":5,"migraine_risk":7,"frizz_risk":1,"updated_at":"2026-05-30T04:46:17.792859+05:30"},{"city":"Rishikesh","state":"Uttarakhand","latitude":30.0869,"longitude":78.2676,"temp":21.5,"humidity":82,"rain":0.0,"pressure":965.7,"uv_index":7.6,"wind_gusts":36.0,"aqi":86,"pm10":40.7,"pm2_5":32.7,"no2":11.7,"co":559.0,"o3":93.0,"so2":3.1,"mosquito_risk":3,"arthritis_risk":5,"migraine_risk":7,"frizz_risk":1,"updated_at":"2026-05-30T04:46:17.792867+05:30"},{"city":"Nainital","state":"Uttarakhand","latitude":29.3919,"longitude":79.4542,"temp":11.2,"humidity":85,"rain":0.0,"pressure":802.8,"uv_index":7.85,"wind_gusts":27.0,"aqi":63,"pm10":20.0,"pm2_5":16.6,"no2":14.0,"co":323.0,"o3":74.0,"so2":1.9,"mosquito_risk":3,"arthritis_risk":10,"migraine_risk":7,"frizz_risk":0,"updated_at":"2026-05-30T04:46:17.792874+05:30"},{"city":"Mussoorie","state":"Uttarakhand","latitude":30.4599,"longitude":78.0664,"temp":11.7,"humidity":84,"rain":0.0,"pressure":800.7,"uv_index":7.75,"wind_gusts":26.6,"aqi":90,"pm10":49.0,"pm2_5":38.3,"no2":46.6,"co":285.0,"o3":16.0,"so2":5.2,"mosquito_risk":3,"arthritis_risk":10,"migraine_risk":7,"frizz_risk":0,"updated_at":"2026-05-30T04:46:17.792882+05:30"},{"city":"Dharamshala","state":"Himachal Pradesh","latitude":32.219,"longitude":76.3234,"temp":18.8,"humidity":53,"rain":0.0,"pressure":867.9,"uv_index":7.9,"wind_gusts":36.7,"aqi":64,"pm10":16.3,"pm2_5":8.7,"no2":12.2,"co":301.0,"o3":44.0,"so2":0.0,"mosquito_risk":0,"arthritis_risk":5,"migraine_risk":7,"frizz_risk":0,"updated_at":"2026-05-30T04:46:17.792889+05:30"},{"city":"Dalhousie","state":"Himachal Pradesh","latitude":32.5387,"longitude":75.971,"temp":11.6,"humidity":70,"rain":0.0,"pressure":801.9,"uv_index":8.4,"wind_gusts":34.6,"aqi":105,"pm10":37.5,"pm2_5":25.5,"no2":27.3,"co":295.0,"o3":17.0,"so2":0.2,"mosquito_risk":3,"arthritis_risk":5,"migraine_risk":7,"frizz_risk":0,"updated_at":"2026-05-30T04:46:17.792897+05:30"},{"city":"Patiala","state":"Punjab","latitude":30.3398,"longitude":76.3869,"temp":27.0,"humidity":51,"rain":0.0,"pressure":976.4,"uv_index":7.55,"wind_gusts":49.0,"aqi":1419,"pm10":1754.6,"pm2_5":243.1,"no2":5.7,"co":294.0,"o3":120.0,"so2":13.3,"mosquito_risk":4,"arthritis_risk":5,"migraine_risk":7,"frizz_risk":0,"updated_at":"2026-05-30T04:46:17.792905+05:30"},{"city":"Bhatinda","state":"Punjab","latitude":30.211,"longitude":74.9455,"temp":28.4,"humidity":59,"rain":0.0,"pressure":980.3,"uv_index":7.7,"wind_gusts":59.8,"aqi":808,"pm10":1613.1,"pm2_5":361.4,"no2":7.7,"co":309.0,"o3":102.0,"so2":14.7,"mosquito_risk":4,"arthritis_risk":5,"migraine_risk":7,"frizz_risk":1,"updated_at":"2026-05-30T04:46:17.792912+05:30"},{"city":"Rohtak","state":"Haryana","latitude":28.8955,"longitude":76.6066,"temp":26.5,"humidity":67,"rain":0.0,"pressure":979.6,"uv_index":6.95,"wind_gusts":66.6,"aqi":875,"pm10":931.3,"pm2_5":158.8,"no2":18.1,"co":416.0,"o3":81.0,"so2":18.1,"mosquito_risk":7,"arthritis_risk":5,"migraine_risk":7,"frizz_risk":1,"updated_at":"2026-05-30T04:46:17.792919+05:30"},{"city":"Panipat","state":"Haryana","latitude":29.3909,"longitude":76.9635,"temp":26.6,"humidity":57,"rain":0.0,"pressure":978.9,"uv_index":7.5,"wind_gusts":52.6,"aqi":1650,"pm10":1877.5,"pm2_5":252.4,"no2":14.2,"co":307.0,"o3":87.0,"so2":14.1,"mosquito_risk":4,"arthritis_risk":5,"migraine_risk":7,"frizz_risk":1,"updated_at":"2026-05-30T04:46:17.792926+05:30"},{"city":"Mathura","state":"Uttar Pradesh","latitude":27.4924,"longitude":77.6737,"temp":26.3,"humidity":69,"rain":0.0,"pressure":984.9,"uv_index":7.9,"wind_gusts":68.4,"aqi":354,"pm10":371.6,"pm2_5":59.1,"no2":11.1,"co":324.0,"o3":88.0,"so2":7.3,"mosquito_risk":7,"arthritis_risk":5,"migraine_risk":7,"frizz_risk":1,"updated_at":"2026-05-30T04:46:17.792933+05:30"},{"city":"Vrindavan","state":"Uttar Pradesh","latitude":27.5823,"longitude":77.7027,"temp":26.4,"humidity":68,"rain":0.0,"pressure":985.3,"uv_index":7.85,"wind_gusts":68.8,"aqi":354,"pm10":371.6,"pm2_5":59.1,"no2":11.1,"co":320.0,"o3":88.0,"so2":7.3,"mosquito_risk":7,"arthritis_risk":5,"migraine_risk":7,"frizz_risk":1,"updated_at":"2026-05-30T04:46:17.792940+05:30"},{"city":"Ayodhya","state":"Uttar Pradesh","latitude":26.7922,"longitude":82.1998,"temp":23.2,"humidity":85,"rain":0.0,"pressure":994.6,"uv_index":7.8,"wind_gusts":35.3,"aqi":86,"pm10":29.9,"pm2_5":25.4,"no2":10.8,"co":434.0,"o3":92.0,"so2":6.3,"mosquito_risk":3,"arthritis_risk":5,"migraine_risk":7,"frizz_risk":1,"updated_at":"2026-05-30T04:46:17.792947+05:30"},{"city":"Ratlam","state":"Madhya Pradesh","latitude":23.3315,"longitude":75.0367,"temp":26.5,"humidity":81,"rain":0.0,"pressure":952.3,"uv_index":8.45,"wind_gusts":43.9,"aqi":76,"pm10":38.2,"pm2_5":23.1,"no2":6.9,"co":138.0,"o3":39.0,"so2":10.2,"mosquito_risk":7,"arthritis_risk":5,"migraine_risk":7,"frizz_risk":1,"updated_at":"2026-05-30T04:46:17.792954+05:30"},{"city":"Sagar","state":"Madhya Pradesh","latitude":23.8388,"longitude":78.7378,"temp":25.1,"humidity":72,"rain":0.0,"pressure":947.4,"uv_index":8.65,"wind_gusts":41.8,"aqi":63,"pm10":23.2,"pm2_5":13.7,"no2":6.2,"co":283.0,"o3":98.0,"so2":4.6,"mosquito_risk":7,"arthritis_risk":5,"migraine_risk":7,"frizz_risk":1,"updated_at":"2026-05-30T04:46:17.792961+05:30"},{"city":"Satna","state":"Madhya Pradesh","latitude":24.6005,"longitude":80.8322,"temp":25.8,"humidity":71,"rain":0.0,"pressure":969.4,"uv_index":8.75,"wind_gusts":37.1,"aqi":96,"pm10":27.6,"pm2_5":21.7,"no2":9.5,"co":333.0,"o3":106.0,"so2":9.1,"mosquito_risk":7,"arthritis_risk":5,"migraine_risk":7,"frizz_risk":1,"updated_at":"2026-05-30T04:46:17.792968+05:30"},{"city":"Akola","state":"Maharashtra","latitude":20.7002,"longitude":77.0082,"temp":29.9,"humidity":54,"rain":0.0,"pressure":973.6,"uv_index":8.8,"wind_gusts":48.2,"aqi":64,"pm10":43.5,"pm2_5":23.9,"no2":7.2,"co":142.0,"o3":49.0,"so2":6.7,"mosquito_risk":4,"arthritis_risk":5,"migraine_risk":7,"frizz_risk":1,"updated_at":"2026-05-30T04:46:17.792976+05:30"},{"city":"Amravati","state":"Maharashtra","latitude":20.9374,"longitude":77.7796,"temp":31.1,"humidity":31,"rain":0.0,"pressure":965.5,"uv_index":8.8,"wind_gusts":49.3,"aqi":62,"pm10":44.9,"pm2_5":23.6,"no2":7.2,"co":149.0,"o3":52.0,"so2":7.0,"mosquito_risk":0,"arthritis_risk":5,"migraine_risk":7,"frizz_risk":0,"updated_at":"2026-05-30T04:46:17.792984+05:30"},{"city":"Latur","state":"Maharashtra","latitude":18.4088,"longitude":76.5604,"temp":26.5,"humidity":70,"rain":0.0,"pressure":938.4,"uv_index":8.95,"wind_gusts":39.2,"aqi":49,"pm10":20.5,"pm2_5":14.2,"no2":7.2,"co":166.0,"o3":48.0,"so2":4.5,"mosquito_risk":7,"arthritis_risk":5,"migraine_risk":7,"frizz_risk":1,"updated_at":"2026-05-30T04:46:17.792992+05:30"},{"city":"Nanded","state":"Maharashtra","latitude":19.1383,"longitude":77.3091,"temp":29.9,"humidity":52,"rain":0.0,"pressure":966.9,"uv_index":8.9,"wind_gusts":40.3,"aqi":64,"pm10":30.3,"pm2_5":21.4,"no2":7.8,"co":158.0,"o3":74.0,"so2":8.4,"mosquito_risk":4,"arthritis_risk":5,"migraine_risk":7,"frizz_risk":1,"updated_at":"2026-05-30T04:46:17.792999+05:30"},{"city":"Gulbarga","state":"Karnataka","latitude":17.3297,"longitude":76.8343,"temp":27.6,"humidity":66,"rain":0.0,"pressure":957.5,"uv_index":8.95,"wind_gusts":40.3,"aqi":46,"pm10":12.0,"pm2_5":8.8,"no2":6.5,"co":138.0,"o3":44.0,"so2":2.6,"mosquito_risk":7,"arthritis_risk":5,"migraine_risk":7,"frizz_risk":1,"updated_at":"2026-05-30T04:46:17.793006+05:30"},{"city":"Bidar","state":"Karnataka","latitude":17.9104,"longitude":77.5199,"temp":26.9,"humidity":65,"rain":0.0,"pressure":934.0,"uv_index":9.0,"wind_gusts":34.9,"aqi":56,"pm10":17.3,"pm2_5":13.3,"no2":8.1,"co":156.0,"o3":60.0,"so2":4.3,"mosquito_risk":7,"arthritis_risk":5,"migraine_risk":7,"frizz_risk":1,"updated_at":"2026-05-30T04:46:17.793013+05:30"},{"city":"Hospet","state":"Karnataka","latitude":15.2689,"longitude":76.3909,"temp":25.0,"humidity":89,"rain":0.0,"pressure":955.4,"uv_index":8.75,"wind_gusts":42.5,"aqi":47,"pm10":8.8,"pm2_5":7.2,"no2":4.9,"co":134.0,"o3":45.0,"so2":1.5,"mosquito_risk":7,"arthritis_risk":5,"migraine_risk":7,"frizz_risk":1,"updated_at":"2026-05-30T04:46:17.793019+05:30"},{"city":"Tirupur","state":"Tamil Nadu","latitude":11.1085,"longitude":77.3411,"temp":25.2,"humidity":85,"rain":0.0,"pressure":974.5,"uv_index":8.5,"wind_gusts":50.4,"aqi":38,"pm10":8.7,"pm2_5":7.9,"no2":12.8,"co":135.0,"o3":28.0,"so2":3.9,"mosquito_risk":7,"arthritis_risk":5,"migraine_risk":7,"frizz_risk":1,"updated_at":"2026-05-30T04:46:17.793026+05:30"},{"city":"Alappuzha","state":"Kerala","latitude":9.4981,"longitude":76.3388,"temp":24.0,"humidity":99,"rain":0.1,"pressure":1010.0,"uv_index":7.85,"wind_gusts":27.7,"aqi":28,"pm10":8.1,"pm2_5":5.6,"no2":6.0,"co":136.0,"o3":43.0,"so2":1.5,"mosquito_risk":6,"arthritis_risk":0,"migraine_risk":4,"frizz_risk":1,"updated_at":"2026-05-30T04:46:17.793033+05:30"},{"city":"Munnar","state":"Kerala","latitude":10.0889,"longitude":77.0595,"temp":17.9,"humidity":100,"rain":0.1,"pressure":857.1,"uv_index":8.7,"wind_gusts":28.1,"aqi":21,"pm10":2.5,"pm2_5":2.4,"no2":7.4,"co":103.0,"o3":19.0,"so2":1.5,"mosquito_risk":6,"arthritis_risk":10,"migraine_risk":7,"frizz_risk":1,"updated_at":"2026-05-30T04:46:17.793040+05:30"},{"city":"Silchar","state":"Assam","latitude":24.8333,"longitude":92.7789,"temp":24.9,"humidity":91,"rain":0.0,"pressure":1003.4,"uv_index":8.9,"wind_gusts":24.1,"aqi":134,"pm10":82.0,"pm2_5":60.8,"no2":26.8,"co":920.0,"o3":30.0,"so2":5.8,"mosquito_risk":3,"arthritis_risk":5,"migraine_risk":4,"frizz_risk":1,"updated_at":"2026-05-30T04:46:17.793046+05:30"},{"city":"Dibrugarh","state":"Assam","latitude":27.4728,"longitude":94.912,"temp":26.4,"humidity":89,"rain":0.0,"pressure":994.5,"uv_index":7.45,"wind_gusts":16.9,"aqi":126,"pm10":59.8,"pm2_5":49.8,"no2":33.2,"co":844.0,"o3":15.0,"so2":1.2,"mosquito_risk":7,"arthritis_risk":5,"migraine_risk":7,"frizz_risk":1,"updated_at":"2026-05-30T04:46:17.793053+05:30"}]