[{"city":"Delhi","state":"Delhi","latitude":28.6139,"longitude":77.209,"temp":31.0,"humidity":30,"rain":0.0,"pressure":977.9,"uv_index":7.45,"wind_gusts":47.2,"aqi":540,"pm10":687.3,"pm2_5":118.5,"mosquito_risk":0,"arthritis_risk":5,"migraine_risk":7,"frizz_risk":0,"updated_at":"2026-04-27T01:21:39.008709+05:30"},{"city":"Mumbai","state":"Maharashtra","latitude":19.076,"longitude":72.8777,"temp":28.2,"humidity":87,"rain":0.0,"pressure":1006.4,"uv_index":8.05,"wind_gusts":40.3,"aqi":93,"pm10":67.3,"pm2_5":24.1,"mosquito_risk":7,"arthritis_risk":5,"migraine_risk":4,"frizz_risk":1,"updated_at":"2026-04-27T01:21:39.008757+05:30"},{"city":"Bangalore","state":"Karnataka","latitude":12.9716,"longitude":77.5946,"temp":25.8,"humidity":48,"rain":0.0,"pressure":911.0,"uv_index":9.55,"wind_gusts":33.8,"aqi":87,"pm10":25.3,"pm2_5":23.6,"mosquito_risk":4,"arthritis_risk":5,"migraine_risk":7,"frizz_risk":0,"updated_at":"2026-04-27T01:21:39.008773+05:30"},{"city":"Hyderabad","state":"Telangana","latitude":17.385,"longitude":78.4867,"temp":29.2,"humidity":48,"rain":0.0,"pressure":951.1,"uv_index":9.2,"wind_gusts":29.9,"aqi":96,"pm10":44.7,"pm2_5":39.7,"mosquito_risk":4,"arthritis_risk":5,"migraine_risk":7,"frizz_risk":1,"updated_at":"2026-04-27T01:21:39.008784+05:30"},{"city":"Chennai","state":"Tamil Nadu","latitude":13.0827,"longitude":80.2707,"temp":28.1,"humidity":90,"rain":0.0,"pressure":1005.2,"uv_index":9.25,"wind_gusts":56.5,"aqi":46,"pm10":19.7,"pm2_5":13.2,"mosquito_risk":7,"arthritis_risk":5,"migraine_risk":4,"frizz_risk":1,"updated_at":"2026-04-27T01:21:39.008793+05:30"},{"city":"Kolkata","state":"West Bengal","latitude":22.5726,"longitude":88.3639,"temp":28.2,"humidity":84,"rain":0.0,"pressure":1001.6,"uv_index":8.8,"wind_gusts":46.8,"aqi":59,"pm10":19.2,"pm2_5":13.7,"mosquito_risk":7,"arthritis_risk":5,"migraine_risk":4,"frizz_risk":1,"updated_at":"2026-04-27T01:21:39.008806+05:30"},{"city":"Pune","state":"Maharashtra","latitude":18.5204,"longitude":73.8567,"temp":26.5,"humidity":69,"rain":0.0,"pressure":945.8,"uv_index":8.1,"wind_gusts":42.5,"aqi":130,"pm10":36.8,"pm2_5":25.3,"mosquito_risk":7,"arthritis_risk":5,"migraine_risk":7,"frizz_risk":1,"updated_at":"2026-04-27T01:21:39.008815+05:30"},{"city":"Ahmedabad","state":"Gujarat","latitude":23.0225,"longitude":72.5714,"temp":33.6,"humidity":21,"rain":0.0,"pressure":998.6,"uv_index":8.2,"wind_gusts":45.4,"aqi":61,"pm10":24.4,"pm2_5":11.7,"mosquito_risk":0,"arthritis_risk":5,"migraine_risk":7,"frizz_risk":0,"updated_at":"2026-04-27T01:21:39.008822+05:30"},{"city":"Jaipur","state":"Rajasthan","latitude":26.9124,"longitude":75.7873,"temp":32.2,"humidity":22,"rain":0.0,"pressure":955.7,"uv_index":8.05,"wind_gusts":39.6,"aqi":144,"pm10":169.5,"pm2_5":34.9,"mosquito_risk":0,"arthritis_risk":5,"migraine_risk":7,"frizz_risk":0,"updated_at":"2026-04-27T01:21:39.008830+05:30"},{"city":"Lucknow","state":"Uttar Pradesh","latitude":26.8467,"longitude":80.9462,"temp":29.5,"humidity":56,"rain":0.0,"pressure":988.4,"uv_index":7.9,"wind_gusts":42.5,"aqi":177,"pm10":356.7,"pm2_5":75.4,"mosquito_risk":4,"arthritis_risk":5,"migraine_risk":7,"frizz_risk":1,"updated_at":"2026-04-27T01:21:39.008838+05:30"},{"city":"Kanpur","state":"Uttar Pradesh","latitude":26.4499,"longitude":80.3319,"temp":32.8,"humidity":23,"rain":0.0,"pressure":985.8,"uv_index":7.95,"wind_gusts":49.3,"aqi":549,"pm10":421.0,"pm2_5":68.0,"mosquito_risk":0,"arthritis_risk":5,"migraine_risk":7,"frizz_risk":0,"updated_at":"2026-04-27T01:21:39.008846+05:30"},{"city":"Chandigarh","state":"Chandigarh","latitude":30.7333,"longitude":76.7794,"temp":27.5,"humidity":27,"rain":0.0,"pressure":963.1,"uv_index":7.3,"wind_gusts":45.4,"aqi":66,"pm10":22.2,"pm2_5":17.2,"mosquito_risk":4,"arthritis_risk":5,"migraine_risk":7,"frizz_risk":0,"updated_at":"2026-04-27T01:21:39.008854+05:30"},{"city":"Srinagar","state":"Jammu and Kashmir","latitude":34.0837,"longitude":74.7973,"temp":10.2,"humidity":90,"rain":0.0,"pressure":837.7,"uv_index":8.3,"wind_gusts":20.2,"aqi":77,"pm10":38.9,"pm2_5":32.1,"mosquito_risk":3,"arthritis_risk":10,"migraine_risk":7,"frizz_risk":0,"updated_at":"2026-04-27T01:21:39.008861+05:30"},{"city":"Jammu","state":"Jammu and Kashmir","latitude":32.7266,"longitude":74.857,"temp":24.0,"humidity":36,"rain":0.0,"pressure":966.8,"uv_index":8.25,"wind_gusts":30.2,"aqi":66,"pm10":34.0,"pm2_5":27.9,"mosquito_risk":0,"arthritis_risk":5,"migraine_risk":7,"frizz_risk":0,"updated_at":"2026-04-27T01:21:39.008869+05:30"},{"city":"Amritsar","state":"Punjab","latitude":31.634,"longitude":74.8723,"temp":28.1,"humidity":34,"rain":0.0,"pressure":975.4,"uv_index":8.15,"wind_gusts":35.6,"aqi":77,"pm10":38.5,"pm2_5":22.1,"mosquito_risk":4,"arthritis_risk":5,"migraine_risk":7,"frizz_risk":0,"updated_at":"2026-04-27T01:21:39.008878+05:30"},{"city":"Ludhiana","state":"Punjab","latitude":30.901,"longitude":75.8573,"temp":27.5,"humidity":34,"rain":0.0,"pressure":973.4,"uv_index":7.7,"wind_gusts":34.6,"aqi":76,"pm10":51.9,"pm2_5":27.6,"mosquito_risk":4,"arthritis_risk":5,"migraine_risk":7,"frizz_risk":0,"updated_at":"2026-04-27T01:21:39.008888+05:30"},{"city":"Jalandhar","state":"Punjab","latitude":31.326,"longitude":75.5762,"temp":26.4,"humidity":36,"rain":0.0,"pressure":974.4,"uv_index":7.9,"wind_gusts":28.1,"aqi":83,"pm10":39.9,"pm2_5":32.4,"mosquito_risk":4,"arthritis_risk":5,"migraine_risk":7,"frizz_risk":0,"updated_at":"2026-04-27T01:21:39.008895+05:30"},{"city":"Dehradun","state":"Uttarakhand","latitude":30.6284,"longitude":78.0322,"temp":13.7,"humidity":51,"rain":0.0,"pressure":824.6,"uv_index":7.9,"wind_gusts":43.9,"aqi":53,"pm10":27.0,"pm2_5":14.2,"mosquito_risk":0,"arthritis_risk":5,"migraine_risk":7,"frizz_risk":0,"updated_at":"2026-04-27T01:21:39.008901+05:30"},{"city":"Shimla","state":"Himachal Pradesh","latitude":31.1048,"longitude":77.1734,"temp":12.6,"humidity":43,"rain":0.0,"pressure":779.7,"uv_index":7.8,"wind_gusts":50.0,"aqi":64,"pm10":27.7,"pm2_5":13.3,"mosquito_risk":0,"arthritis_risk":5,"migraine_risk":7,"frizz_risk":0,"updated_at":"2026-04-27T01:21:39.008909+05:30"},{"city":"Manali","state":"Himachal Pradesh","latitude":32.2396,"longitude":77.1887,"temp":7.2,"humidity":46,"rain":0.0,"pressure":810.4,"uv_index":9.15,"wind_gusts":41.4,"aqi":79,"pm10":24.1,"pm2_5":10.4,"mosquito_risk":0,"arthritis_risk":5,"migraine_risk":7,"frizz_risk":1,"updated_at":"2026-04-27T01:21:39.008916+05:30"},{"city":"Gurgaon","state":"Haryana","latitude":28.4595,"longitude":77.0266,"temp":28.5,"humidity":31,"rain":0.0,"pressure":976.2,"uv_index":7.55,"wind_gusts":36.4,"aqi":1394,"pm10":845.6,"pm2_5":124.3,"mosquito_risk":4,"arthritis_risk":5,"migraine_risk":7,"frizz_risk":0,"updated_at":"2026-04-27T01:21:39.008923+05:30"},{"city":"Noida","state":"Uttar Pradesh","latitude":28.5355,"longitude":77.391,"temp":30.1,"humidity":27,"rain":0.0,"pressure":979.1,"uv_index":7.45,"wind_gusts":43.9,"aqi":1394,"pm10":845.6,"pm2_5":124.3,"mosquito_risk":0,"arthritis_risk":5,"migraine_risk":7,"frizz_risk":0,"updated_at":"2026-04-27T01:21:39.008930+05:30"},{"city":"Ghaziabad","state":"Uttar Pradesh","latitude":28.6692,"longitude":77.4538,"temp":29.1,"humidity":26,"rain":0.0,"pressure":977.4,"uv_index":7.4,"wind_gusts":41.4,"aqi":447,"pm10":683.6,"pm2_5":118.0,"mosquito_risk":4,"arthritis_risk":5,"migraine_risk":7,"frizz_risk":0,"updated_at":"2026-04-27T01:21:39.008937+05:30"},{"city":"Faridabad","state":"Haryana","latitude":28.4089,"longitude":77.3178,"temp":32.5,"humidity":21,"rain":0.0,"pressure":978.6,"uv_index":7.5,"wind_gusts":47.5,"aqi":1394,"pm10":845.6,"pm2_5":124.3,"mosquito_risk":0,"arthritis_risk":5,"migraine_risk":7,"frizz_risk":0,"updated_at":"2026-04-27T01:21:39.008944+05:30"},{"city":"Meerut","state":"Uttar Pradesh","latitude":28.9845,"longitude":77.7064,"temp":28.7,"humidity":27,"rain":0.0,"pressure":976.1,"uv_index":7.35,"wind_gusts":40.3,"aqi":447,"pm10":683.6,"pm2_5":118.0,"mosquito_risk":4,"arthritis_risk":5,"migraine_risk":7,"frizz_risk":0,"updated_at":"2026-04-27T01:21:39.008950+05:30"},{"city":"Agra","state":"Uttar Pradesh","latitude":27.1767,"longitude":78.0081,"temp":31.4,"humidity":27,"rain":0.0,"pressure":982.0,"uv_index":7.8,"wind_gusts":45.4,"aqi":882,"pm10":297.1,"pm2_5":50.4,"mosquito_risk":0,"arthritis_risk":5,"migraine_risk":7,"frizz_risk":0,"updated_at":"2026-04-27T01:21:39.008959+05:30"},{"city":"Varanasi","state":"Uttar Pradesh","latitude":25.3176,"longitude":82.9739,"temp":29.1,"humidity":65,"rain":0.0,"pressure":992.5,"uv_index":8.5,"wind_gusts":44.3,"aqi":142,"pm10":89.4,"pm2_5":66.8,"mosquito_risk":7,"arthritis_risk":5,"migraine_risk":7,"frizz_risk":1,"updated_at":"2026-04-27T01:21:39.008967+05:30"},{"city":"Prayagraj","state":"Uttar Pradesh","latitude":25.4358,"longitude":81.8463,"temp":29.5,"humidity":46,"rain":0.0,"pressure":990.4,"uv_index":8.4,"wind_gusts":43.6,"aqi":134,"pm10":104.3,"pm2_5":50.3,"mosquito_risk":4,"arthritis_risk":5,"migraine_risk":7,"frizz_risk":1,"updated_at":"2026-04-27T01:21:39.008975+05:30"},{"city":"Gorakhpur","state":"Uttar Pradesh","latitude":26.7606,"longitude":83.3732,"temp":25.4,"humidity":73,"rain":0.0,"pressure":993.8,"uv_index":8.35,"wind_gusts":37.1,"aqi":151,"pm10":70.5,"pm2_5":54.5,"mosquito_risk":7,"arthritis_risk":5,"migraine_risk":7,"frizz_risk":1,"updated_at":"2026-04-27T01:21:39.008983+05:30"},{"city":"Bareilly","state":"Uttar Pradesh","latitude":28.367,"longitude":79.4304,"temp":27.6,"humidity":33,"rain":0.0,"pressure":981.0,"uv_index":7.6,"wind_gusts":45.0,"aqi":120,"pm10":271.0,"pm2_5":64.7,"mosquito_risk":4,"arthritis_risk":5,"migraine_risk":7,"frizz_risk":0,"updated_at":"2026-04-27T01:21:39.008990+05:30"},{"city":"Aligarh","state":"Uttar Pradesh","latitude":27.8974,"longitude":78.088,"temp":29.5,"humidity":31,"rain":0.0,"pressure":980.1,"uv_index":7.6,"wind_gusts":46.8,"aqi":983,"pm10":786.0,"pm2_5":135.0,"mosquito_risk":4,"arthritis_risk":5,"migraine_risk":7,"frizz_risk":0,"updated_at":"2026-04-27T01:21:39.008996+05:30"},{"city":"Moradabad","state":"Uttar Pradesh","latitude":28.8386,"longitude":78.7733,"temp":28.2,"humidity":27,"rain":0.0,"pressure":978.0,"uv_index":7.55,"wind_gusts":48.2,"aqi":130,"pm10":325.0,"pm2_5":79.2,"mosquito_risk":4,"arthritis_risk":5,"migraine_risk":7,"frizz_risk":0,"updated_at":"2026-04-27T01:21:39.009003+05:30"},{"city":"Saharanpur","state":"Uttar Pradesh","latitude":29.9637,"longitude":77.546,"temp":28.1,"humidity":26,"rain":0.0,"pressure":969.9,"uv_index":7.05,"wind_gusts":46.8,"aqi":83,"pm10":123.4,"pm2_5":36.0,"mosquito_risk":4,"arthritis_risk":5,"migraine_risk":7,"frizz_risk":0,"updated_at":"2026-04-27T01:21:39.009009+05:30"},{"city":"Jhansi","state":"Uttar Pradesh","latitude":25.4484,"longitude":78.5685,"temp":31.1,"humidity":26,"rain":0.0,"pressure":972.8,"uv_index":8.3,"wind_gusts":43.6,"aqi":90,"pm10":57.7,"pm2_5":25.3,"mosquito_risk":0,"arthritis_risk":5,"migraine_risk":7,"frizz_risk":0,"updated_at":"2026-04-27T01:21:42.271840+05:30"},{"city":"Surat","state":"Gujarat","latitude":21.1702,"longitude":72.8311,"temp":29.6,"humidity":66,"rain":0.0,"pressure":1003.1,"uv_index":7.85,"wind_gusts":40.7,"aqi":117,"pm10":47.5,"pm2_5":27.2,"mosquito_risk":7,"arthritis_risk":5,"migraine_risk":4,"frizz_risk":1,"updated_at":"2026-04-27T01:21:42.271869+05:30"},{"city":"Vadodara","state":"Gujarat","latitude":22.3072,"longitude":73.1812,"temp":31.4,"humidity":36,"rain":0.0,"pressure":1000.7,"uv_index":8.15,"wind_gusts":41.4,"aqi":76,"pm10":43.2,"pm2_5":31.0,"mosquito_risk":0,"arthritis_risk":5,"migraine_risk":4,"frizz_risk":0,"updated_at":"2026-04-27T01:21:42.271880+05:30"},{"city":"Rajkot","state":"Gujarat","latitude":22.3039,"longitude":70.8022,"temp":28.0,"humidity":47,"rain":0.0,"pressure":991.8,"uv_index":7.9,"wind_gusts":49.0,"aqi":58,"pm10":32.8,"pm2_5":14.3,"mosquito_risk":4,"arthritis_risk":5,"migraine_risk":7,"frizz_risk":0,"updated_at":"2026-04-27T01:21:42.271887+05:30"},{"city":"Thane","state":"Maharashtra","latitude":19.2183,"longitude":72.9781,"temp":27.8,"humidity":90,"rain":0.0,"pressure":1005.8,"uv_index":8.05,"wind_gusts":37.1,"aqi":93,"pm10":67.3,"pm2_5":24.1,"mosquito_risk":7,"arthritis_risk":5,"migraine_risk":4,"frizz_risk":1,"updated_at":"2026-04-27T01:21:42.271895+05:30"},{"city":"Nagpur","state":"Maharashtra","latitude":21.1458,"longitude":79.0882,"temp":32.8,"humidity":25,"rain":0.0,"pressure":969.5,"uv_index":8.55,"wind_gusts":36.7,"aqi":105,"pm10":64.0,"pm2_5":34.0,"mosquito_risk":0,"arthritis_risk":5,"migraine_risk":7,"frizz_risk":0,"updated_at":"2026-04-27T01:21:42.271902+05:30"},{"city":"Nashik","state":"Maharashtra","latitude":19.9975,"longitude":73.7898,"temp":28.1,"humidity":33,"rain":0.0,"pressure":943.5,"uv_index":8.3,"wind_gusts":37.8,"aqi":94,"pm10":53.2,"pm2_5":34.5,"mosquito_risk":4,"arthritis_risk":5,"migraine_risk":7,"frizz_risk":0,"updated_at":"2026-04-27T01:21:42.271909+05:30"},{"city":"Aurangabad","state":"Maharashtra","latitude":19.8762,"longitude":75.3433,"temp":30.6,"humidity":23,"rain":0.0,"pressure":941.7,"uv_index":9.05,"wind_gusts":32.8,"aqi":75,"pm10":27.0,"pm2_5":22.1,"mosquito_risk":0,"arthritis_risk":5,"migraine_risk":7,"frizz_risk":0,"updated_at":"2026-04-27T01:21:42.271916+05:30"},{"city":"Solapur","state":"Maharashtra","latitude":17.6599,"longitude":75.9064,"temp":31.5,"humidity":30,"rain":0.0,"pressure":954.9,"uv_index":9.1,"wind_gusts":32.8,"aqi":107,"pm10":49.4,"pm2_5":44.0,"mosquito_risk":0,"arthritis_risk":5,"migraine_risk":7,"frizz_risk":0,"updated_at":"2026-04-27T01:21:42.271923+05:30"},{"city":"Kolhapur","state":"Maharashtra","latitude":16.705,"longitude":74.2433,"temp":24.6,"humidity":93,"rain":0.0,"pressure":946.5,"uv_index":9.0,"wind_gusts":49.7,"aqi":100,"pm10":26.7,"pm2_5":17.5,"mosquito_risk":3,"arthritis_risk":5,"migraine_risk":7,"frizz_risk":1,"updated_at":"2026-04-27T01:21:42.271930+05:30"},{"city":"Goa","state":"Goa","latitude":15.2993,"longitude":74.124,"temp":28.6,"humidity":86,"rain":0.0,"pressure":996.2,"uv_index":8.95,"wind_gusts":37.1,"aqi":88,"pm10":40.3,"pm2_5":29.7,"mosquito_risk":7,"arthritis_risk":5,"migraine_risk":7,"frizz_risk":1,"updated_at":"2026-04-27T01:21:42.271936+05:30"},{"city":"Jodhpur","state":"Rajasthan","latitude":26.2389,"longitude":73.0243,"temp":33.2,"humidity":19,"rain":0.0,"pressure":978.5,"uv_index":8.3,"wind_gusts":41.8,"aqi":81,"pm10":158.3,"pm2_5":26.5,"mosquito_risk":0,"arthritis_risk":5,"migraine_risk":7,"frizz_risk":0,"updated_at":"2026-04-27T01:21:42.271943+05:30"},{"city":"Udaipur","state":"Rajasthan","latitude":24.5854,"longitude":73.7125,"temp":30.9,"humidity":18,"rain":0.0,"pressure":943.8,"uv_index":8.75,"wind_gusts":44.3,"aqi":60,"pm10":39.8,"pm2_5":13.6,"mosquito_risk":0,"arthritis_risk":5,"migraine_risk":7,"frizz_risk":0,"updated_at":"2026-04-27T01:21:42.271950+05:30"},{"city":"Kota","state":"Rajasthan","latitude":25.2138,"longitude":75.8648,"temp":32.3,"humidity":23,"rain":0.0,"pressure":974.1,"uv_index":8.25,"wind_gusts":29.9,"aqi":88,"pm10":91.0,"pm2_5":47.6,"mosquito_risk":0,"arthritis_risk":5,"migraine_risk":7,"frizz_risk":0,"updated_at":"2026-04-27T01:21:42.271957+05:30"},{"city":"Bikaner","state":"Rajasthan","latitude":28.0229,"longitude":73.3119,"temp":32.6,"humidity":24,"rain":0.0,"pressure":976.7,"uv_index":8.1,"wind_gusts":52.2,"aqi":70,"pm10":66.6,"pm2_5":19.7,"mosquito_risk":0,"arthritis_risk":5,"migraine_risk":7,"frizz_risk":0,"updated_at":"2026-04-27T01:21:42.271963+05:30"},{"city":"Ajmer","state":"Rajasthan","latitude":26.4499,"longitude":74.6399,"temp":30.9,"humidity":26,"rain":0.0,"pressure":951.1,"uv_index":8.25,"wind_gusts":46.8,"aqi":67,"pm10":48.3,"pm2_5":17.4,"mosquito_risk":0,"arthritis_risk":5,"migraine_risk":7,"frizz_risk":0,"updated_at":"2026-04-27T01:21:42.271969+05:30"},{"city":"Gwalior","state":"Madhya Pradesh","latitude":26.2183,"longitude":78.1828,"temp":32.0,"humidity":24,"rain":0.0,"pressure":977.6,"uv_index":8.05,"wind_gusts":46.8,"aqi":117,"pm10":92.7,"pm2_5":25.0,"mosquito_risk":0,"arthritis_risk":5,"migraine_risk":7,"frizz_risk":0,"updated_at":"2026-04-27T01:21:42.271975+05:30"},{"city":"Indore","state":"Madhya Pradesh","latitude":22.7196,"longitude":75.8577,"temp":31.4,"humidity":19,"rain":0.0,"pressure":945.7,"uv_index":8.6,"wind_gusts":49.0,"aqi":69,"pm10":66.1,"pm2_5":38.8,"mosquito_risk":0,"arthritis_risk":5,"migraine_risk":7,"frizz_risk":0,"updated_at":"2026-04-27T01:21:42.271981+05:30"},{"city":"Bhopal","state":"Madhya Pradesh","latitude":23.2599,"longitude":77.4126,"temp":33.0,"humidity":22,"rain":0.0,"pressure":949.9,"uv_index":8.6,"wind_gusts":44.6,"aqi":82,"pm10":70.5,"pm2_5":36.0,"mosquito_risk":0,"arthritis_risk":5,"migraine_risk":7,"frizz_risk":0,"updated_at":"2026-04-27T01:21:42.271987+05:30"},{"city":"Jabalpur","state":"Madhya Pradesh","latitude":23.1815,"longitude":79.9864,"temp":29.5,"humidity":27,"rain":0.0,"pressure":957.0,"uv_index":8.25,"wind_gusts":40.0,"aqi":72,"pm10":71.0,"pm2_5":27.1,"mosquito_risk":4,"arthritis_risk":5,"migraine_risk":7,"frizz_risk":0,"updated_at":"2026-04-27T01:21:42.271993+05:30"},{"city":"Ujjain","state":"Madhya Pradesh","latitude":23.1765,"longitude":75.7885,"temp":30.1,"humidity":21,"rain":0.0,"pressure":950.9,"uv_index":8.55,"wind_gusts":46.1,"aqi":72,"pm10":56.2,"pm2_5":38.8,"mosquito_risk":0,"arthritis_risk":5,"migraine_risk":7,"frizz_risk":0,"updated_at":"2026-04-27T01:21:42.272000+05:30"},{"city":"Visakhapatnam","state":"Andhra Pradesh","latitude":17.6868,"longitude":83.2185,"temp":27.2,"humidity":91,"rain":0.0,"pressure":1001.0,"uv_index":9.15,"wind_gusts":54.4,"aqi":56,"pm10":20.1,"pm2_5":14.6,"mosquito_risk":7,"arthritis_risk":5,"migraine_risk":4,"frizz_risk":1,"updated_at":"2026-04-27T01:21:42.272006+05:30"},{"city":"Vijayawada","state":"Andhra Pradesh","latitude":16.5062,"longitude":80.648,"temp":27.0,"humidity":91,"rain":0.0,"pressure":1000.8,"uv_index":9.2,"wind_gusts":37.1,"aqi":58,"pm10":21.8,"pm2_5":15.9,"mosquito_risk":7,"arthritis_risk":5,"migraine_risk":4,"frizz_risk":1,"updated_at":"2026-04-27T01:21:42.272013+05:30"},{"city":"Guntur","state":"Andhra Pradesh","latitude":16.3067,"longitude":80.4365,"temp":27.3,"humidity":92,"rain":0.0,"pressure":1002.0,"uv_index":9.2,"wind_gusts":42.1,"aqi":59,"pm10":21.1,"pm2_5":15.1,"mosquito_risk":7,"arthritis_risk":5,"migraine_risk":4,"frizz_risk":1,"updated_at":"2026-04-27T01:21:42.272019+05:30"},{"city":"Nellore","state":"Andhra Pradesh","latitude":14.4426,"longitude":79.9865,"temp":27.1,"humidity":87,"rain":0.0,"pressure":1003.7,"uv_index":9.3,"wind_gusts":49.0,"aqi":54,"pm10":15.8,"pm2_5":12.2,"mosquito_risk":7,"arthritis_risk":5,"migraine_risk":4,"frizz_risk":1,"updated_at":"2026-04-27T01:21:42.272026+05:30"},{"city":"Kurnool","state":"Andhra Pradesh","latitude":15.8281,"longitude":78.0373,"temp":31.3,"humidity":47,"rain":0.0,"pressure":974.7,"uv_index":9.2,"wind_gusts":38.2,"aqi":86,"pm10":38.3,"pm2_5":33.5,"mosquito_risk":0,"arthritis_risk":5,"migraine_risk":7,"frizz_risk":1,"updated_at":"2026-04-27T01:21:42.272033+05:30"},{"city":"Kakinada","state":"Andhra Pradesh","latitude":16.9891,"longitude":82.2475,"temp":27.3,"humidity":91,"rain":0.0,"pressure":1005.5,"uv_index":9.2,"wind_gusts":42.5,"aqi":50,"pm10":22.2,"pm2_5":14.0,"mosquito_risk":7,"arthritis_risk":5,"migraine_risk":4,"frizz_risk":1,"updated_at":"2026-04-27T01:21:42.272040+05:30"},{"city":"Tirupati","state":"Andhra Pradesh","latitude":13.6288,"longitude":79.4192,"temp":27.6,"humidity":75,"rain":0.0,"pressure":989.8,"uv_index":9.3,"wind_gusts":46.4,"aqi":66,"pm10":18.3,"pm2_5":15.9,"mosquito_risk":7,"arthritis_risk":5,"migraine_risk":7,"frizz_risk":1,"updated_at":"2026-04-27T01:21:42.272046+05:30"},{"city":"Warangal","state":"Telangana","latitude":17.9689,"longitude":79.5941,"temp":28.2,"humidity":59,"rain":0.0,"pressure":976.4,"uv_index":8.85,"wind_gusts":40.0,"aqi":80,"pm10":25.7,"pm2_5":22.7,"mosquito_risk":4,"arthritis_risk":5,"migraine_risk":7,"frizz_risk":1,"updated_at":"2026-04-27T01:21:42.272052+05:30"},{"city":"Nizamabad","state":"Telangana","latitude":18.6725,"longitude":78.0941,"temp":30.9,"humidity":35,"rain":0.0,"pressure":961.3,"uv_index":9.1,"wind_gusts":29.9,"aqi":103,"pm10":42.5,"pm2_5":38.8,"mosquito_risk":0,"arthritis_risk":5,"migraine_risk":7,"frizz_risk":0,"updated_at":"2026-04-27T01:21:42.272058+05:30"},{"city":"Mysore","state":"Karnataka","latitude":12.2958,"longitude":76.6396,"temp":23.8,"humidity":89,"rain":0.0,"pressure":927.4,"uv_index":9.45,"wind_gusts":44.3,"aqi":89,"pm10":37.7,"pm2_5":34.3,"mosquito_risk":3,"arthritis_risk":5,"migraine_risk":7,"frizz_risk":1,"updated_at":"2026-04-27T01:21:42.272063+05:30"},{"city":"Mangalore","state":"Karnataka","latitude":12.9141,"longitude":74.856,"temp":29.2,"humidity":82,"rain":0.0,"pressure":1005.4,"uv_index":8.45,"wind_gusts":38.9,"aqi":83,"pm10":43.2,"pm2_5":35.5,"mosquito_risk":7,"arthritis_risk":5,"migraine_risk":4,"frizz_risk":1,"updated_at":"2026-04-27T01:21:42.272069+05:30"},{"city":"Hubli-Dharwad","state":"Karnataka","latitude":15.3647,"longitude":75.124,"temp":24.5,"humidity":93,"rain":0.0,"pressure":939.1,"uv_index":9.2,"wind_gusts":48.2,"aqi":94,"pm10":31.8,"pm2_5":27.9,"mosquito_risk":3,"arthritis_risk":5,"migraine_risk":7,"frizz_risk":1,"updated_at":"2026-04-27T01:21:42.272076+05:30"},{"city":"Belgaum","state":"Karnataka","latitude":15.8497,"longitude":74.4977,"temp":23.1,"humidity":98,"rain":0.0,"pressure":924.1,"uv_index":9.25,"wind_gusts":48.2,"aqi":104,"pm10":34.1,"pm2_5":28.7,"mosquito_risk":3,"arthritis_risk":5,"migraine_risk":7,"frizz_risk":1,"updated_at":"2026-04-27T01:21:45.547930+05:30"},{"city":"Coimbatore","state":"Tamil Nadu","latitude":11.0168,"longitude":76.9558,"temp":27.2,"humidity":75,"rain":0.0,"pressure":960.5,"uv_index":9.35,"wind_gusts":46.8,"aqi":82,"pm10":37.3,"pm2_5":34.9,"mosquito_risk":7,"arthritis_risk":5,"migraine_risk":7,"frizz_risk":1,"updated_at":"2026-04-27T01:21:45.547958+05:30"},{"city":"Madurai","state":"Tamil Nadu","latitude":9.9252,"longitude":78.1198,"temp":28.6,"humidity":74,"rain":0.0,"pressure":992.1,"uv_index":9.2,"wind_gusts":46.4,"aqi":48,"pm10":9.4,"pm2_5":9.2,"mosquito_risk":7,"arthritis_risk":5,"migraine_risk":7,"frizz_risk":1,"updated_at":"2026-04-27T01:21:45.547968+05:30"},{"city":"Trichy","state":"Tamil Nadu","latitude":10.7905,"longitude":78.7047,"temp":27.2,"humidity":88,"rain":0.0,"pressure":998.3,"uv_index":9.25,"wind_gusts":41.0,"aqi":49,"pm10":15.5,"pm2_5":13.8,"mosquito_risk":7,"arthritis_risk":5,"migraine_risk":7,"frizz_risk":1,"updated_at":"2026-04-27T01:21:45.547975+05:30"},{"city":"Salem","state":"Tamil Nadu","latitude":11.6643,"longitude":78.146,"temp":28.2,"humidity":68,"rain":0.0,"pressure":975.7,"uv_index":9.3,"wind_gusts":34.2,"aqi":65,"pm10":21.8,"pm2_5":20.7,"mosquito_risk":7,"arthritis_risk":5,"migraine_risk":7,"frizz_risk":1,"updated_at":"2026-04-27T01:21:45.547982+05:30"},{"city":"Tirunelveli","state":"Tamil Nadu","latitude":8.7139,"longitude":77.7567,"temp":28.0,"humidity":75,"rain":0.0,"pressure":1001.8,"uv_index":8.55,"wind_gusts":46.1,"aqi":51,"pm10":13.5,"pm2_5":13.1,"mosquito_risk":7,"arthritis_risk":5,"migraine_risk":4,"frizz_risk":1,"updated_at":"2026-04-27T01:21:45.547990+05:30"},{"city":"Vellore","state":"Tamil Nadu","latitude":12.9165,"longitude":79.1325,"temp":26.8,"humidity":77,"rain":0.0,"pressure":982.8,"uv_index":9.25,"wind_gusts":40.3,"aqi":83,"pm10":34.7,"pm2_5":32.4,"mosquito_risk":7,"arthritis_risk":5,"migraine_risk":7,"frizz_risk":1,"updated_at":"2026-04-27T01:21:45.547997+05:30"},{"city":"Erode","state":"Tamil Nadu","latitude":11.341,"longitude":77.7172,"temp":29.5,"humidity":55,"rain":0.0,"pressure":987.8,"uv_index":9.3,"wind_gusts":45.4,"aqi":54,"pm10":12.4,"pm2_5":12.0,"mosquito_risk":4,"arthritis_risk":5,"migraine_risk":7,"frizz_risk":1,"updated_at":"2026-04-27T01:21:45.548004+05:30"},{"city":"Kochi","state":"Kerala","latitude":9.9312,"longitude":76.2673,"temp":28.1,"humidity":89,"rain":0.0,"pressure":1007.4,"uv_index":9.0,"wind_gusts":35.3,"aqi":69,"pm10":26.9,"pm2_5":25.6,"mosquito_risk":7,"arthritis_risk":5,"migraine_risk":4,"frizz_risk":1,"updated_at":"2026-04-27T01:21:45.548011+05:30"},{"city":"Thiruvananthapuram","state":"Kerala","latitude":8.5241,"longitude":76.9366,"temp":25.8,"humidity":91,"rain":0.0,"pressure":1006.8,"uv_index":8.65,"wind_gusts":34.9,"aqi":46,"pm10":12.0,"pm2_5":9.9,"mosquito_risk":7,"arthritis_risk":5,"migraine_risk":4,"frizz_risk":1,"updated_at":"2026-04-27T01:21:45.548018+05:30"},{"city":"Kozhikode","state":"Kerala","latitude":11.2588,"longitude":75.7804,"temp":26.6,"humidity":89,"rain":0.0,"pressure":1006.7,"uv_index":8.8,"wind_gusts":38.9,"aqi":53,"pm10":22.3,"pm2_5":16.2,"mosquito_risk":7,"arthritis_risk":5,"migraine_risk":4,"frizz_risk":1,"updated_at":"2026-04-27T01:21:45.548024+05:30"},{"city":"Thrissur","state":"Kerala","latitude":10.5276,"longitude":76.2144,"temp":26.8,"humidity":95,"rain":0.0,"pressure":1005.9,"uv_index":9.0,"wind_gusts":33.8,"aqi":66,"pm10":26.5,"pm2_5":25.0,"mosquito_risk":7,"arthritis_risk":5,"migraine_risk":4,"frizz_risk":1,"updated_at":"2026-04-27T01:21:45.548031+05:30"},{"city":"Kannur","state":"Kerala","latitude":11.8745,"longitude":75.3704,"temp":26.3,"humidity":95,"rain":0.0,"pressure":1006.0,"uv_index":9.0,"wind_gusts":37.4,"aqi":69,"pm10":35.3,"pm2_5":30.3,"mosquito_risk":7,"arthritis_risk":5,"migraine_risk":4,"frizz_risk":1,"updated_at":"2026-04-27T01:21:45.548038+05:30"},{"city":"Patna","state":"Bihar","latitude":25.5941,"longitude":85.1376,"temp":24.8,"humidity":81,"rain":0.0,"pressure":996.4,"uv_index":8.6,"wind_gusts":34.9,"aqi":151,"pm10":51.8,"pm2_5":47.5,"mosquito_risk":3,"arthritis_risk":5,"migraine_risk":7,"frizz_risk":1,"updated_at":"2026-04-27T01:21:45.548044+05:30"},{"city":"Gaya","state":"Bihar","latitude":24.7914,"longitude":85.0002,"temp":27.0,"humidity":76,"rain":0.0,"pressure":988.7,"uv_index":8.7,"wind_gusts":31.0,"aqi":150,"pm10":60.5,"pm2_5":57.5,"mosquito_risk":7,"arthritis_risk":5,"migraine_risk":7,"frizz_risk":1,"updated_at":"2026-04-27T01:21:45.548050+05:30"},{"city":"Muzaffarpur","state":"Bihar","latitude":26.1209,"longitude":85.3647,"temp":23.8,"humidity":77,"rain":0.0,"pressure":997.3,"uv_index":8.6,"wind_gusts":36.7,"aqi":152,"pm10":55.5,"pm2_5":50.1,"mosquito_risk":3,"arthritis_risk":5,"migraine_risk":7,"frizz_risk":1,"updated_at":"2026-04-27T01:21:45.548057+05:30"},{"city":"Bhagalpur","state":"Bihar","latitude":25.2425,"longitude":87.0117,"temp":24.1,"humidity":84,"rain":0.0,"pressure":997.9,"uv_index":8.15,"wind_gusts":32.8,"aqi":130,"pm10":23.4,"pm2_5":19.6,"mosquito_risk":3,"arthritis_risk":5,"migraine_risk":7,"frizz_risk":1,"updated_at":"2026-04-27T01:21:45.548063+05:30"},{"city":"Ranchi","state":"Jharkhand","latitude":23.3441,"longitude":85.3096,"temp":25.7,"humidity":56,"rain":0.0,"pressure":933.3,"uv_index":8.55,"wind_gusts":45.4,"aqi":120,"pm10":107.1,"pm2_5":46.0,"mosquito_risk":4,"arthritis_risk":5,"migraine_risk":7,"frizz_risk":1,"updated_at":"2026-04-27T01:21:45.548070+05:30"},{"city":"Jamshedpur","state":"Jharkhand","latitude":22.8046,"longitude":86.2029,"temp":28.1,"humidity":77,"rain":0.0,"pressure":986.2,"uv_index":9.0,"wind_gusts":52.9,"aqi":130,"pm10":46.3,"pm2_5":38.6,"mosquito_risk":7,"arthritis_risk":5,"migraine_risk":7,"frizz_risk":1,"updated_at":"2026-04-27T01:21:45.548076+05:30"},{"city":"Dhanbad","state":"Jharkhand","latitude":23.7957,"longitude":86.4304,"temp":27.0,"humidity":90,"rain":0.0,"pressure":975.2,"uv_index":8.95,"wind_gusts":55.4,"aqi":153,"pm10":77.1,"pm2_5":61.2,"mosquito_risk":7,"arthritis_risk":5,"migraine_risk":7,"frizz_risk":1,"updated_at":"2026-04-27T01:21:45.548082+05:30"},{"city":"Bokaro","state":"Jharkhand","latitude":23.6693,"longitude":86.1511,"temp":26.8,"humidity":94,"rain":0.0,"pressure":978.9,"uv_index":8.95,"wind_gusts":51.1,"aqi":154,"pm10":89.6,"pm2_5":72.6,"mosquito_risk":7,"arthritis_risk":5,"migraine_risk":7,"frizz_risk":1,"updated_at":"2026-04-27T01:21:45.548088+05:30"},{"city":"Bhubaneswar","state":"Odisha","latitude":20.2961,"longitude":85.8245,"temp":27.2,"humidity":89,"rain":0.0,"pressure":998.6,"uv_index":8.9,"wind_gusts":53.3,"aqi":53,"pm10":15.0,"pm2_5":10.4,"mosquito_risk":7,"arthritis_risk":5,"migraine_risk":7,"frizz_risk":1,"updated_at":"2026-04-27T01:21:45.548095+05:30"},{"city":"Cuttack","state":"Odisha","latitude":20.4625,"longitude":85.8828,"temp":27.3,"humidity":89,"rain":0.0,"pressure":1000.3,"uv_index":8.9,"wind_gusts":47.2,"aqi":53,"pm10":15.0,"pm2_5":10.4,"mosquito_risk":7,"arthritis_risk":5,"migraine_risk":4,"frizz_risk":1,"updated_at":"2026-04-27T01:21:45.548101+05:30"},{"city":"Rourkela","state":"Odisha","latitude":22.2604,"longitude":84.8536,"temp":28.0,"humidity":76,"rain":0.0,"pressure":980.5,"uv_index":8.95,"wind_gusts":46.8,"aqi":146,"pm10":50.9,"pm2_5":37.5,"mosquito_risk":7,"arthritis_risk":5,"migraine_risk":7,"frizz_risk":1,"updated_at":"2026-04-27T01:21:45.548107+05:30"},{"city":"Raipur","state":"Chhattisgarh","latitude":21.2514,"longitude":81.6296,"temp":31.3,"humidity":25,"rain":0.0,"pressure":970.4,"uv_index":8.4,"wind_gusts":57.2,"aqi":117,"pm10":54.2,"pm2_5":49.2,"mosquito_risk":0,"arthritis_risk":5,"migraine_risk":7,"frizz_risk":0,"updated_at":"2026-04-27T01:21:45.548113+05:30"},{"city":"Bhilai","state":"Chhattisgarh","latitude":21.1938,"longitude":81.3509,"temp":30.8,"humidity":30,"rain":0.0,"pressure":970.7,"uv_index":7.6,"wind_gusts":47.2,"aqi":104,"pm10":50.2,"pm2_5":42.0,"mosquito_risk":0,"arthritis_risk":5,"migraine_risk":7,"frizz_risk":0,"updated_at":"2026-04-27T01:21:45.548119+05:30"},{"city":"Guwahati","state":"Assam","latitude":26.1158,"longitude":91.7086,"temp":21.1,"humidity":96,"rain":0.0,"pressure":1000.0,"uv_index":2.45,"wind_gusts":31.0,"aqi":129,"pm10":57.3,"pm2_5":38.6,"mosquito_risk":3,"arthritis_risk":5,"migraine_risk":0,"frizz_risk":1,"updated_at":"2026-04-27T01:21:45.548126+05:30"},{"city":"Agartala","state":"Tripura","latitude":23.8315,"longitude":91.2868,"temp":24.0,"humidity":96,"rain":0.0,"pressure":1004.1,"uv_index":7.8,"wind_gusts":57.6,"aqi":75,"pm10":14.6,"pm2_5":10.9,"mosquito_risk":3,"arthritis_risk":5,"migraine_risk":4,"frizz_risk":1,"updated_at":"2026-04-27T01:21:45.548132+05:30"},{"city":"Shillong","state":"Meghalaya","latitude":25.5788,"longitude":91.8933,"temp":14.2,"humidity":96,"rain":0.0,"pressure":852.6,"uv_index":1.75,"wind_gusts":43.2,"aqi":118,"pm10":19.0,"pm2_5":11.1,"mosquito_risk":3,"arthritis_risk":10,"migraine_risk":3,"frizz_risk":0,"updated_at":"2026-04-27T01:21:45.548139+05:30"},{"city":"Imphal","state":"Manipur","latitude":24.817,"longitude":93.9368,"temp":18.0,"humidity":96,"rain":0.0,"pressure":921.4,"uv_index":8.35,"wind_gusts":32.0,"aqi":152,"pm10":89.2,"pm2_5":60.1,"mosquito_risk":3,"arthritis_risk":10,"migraine_risk":7,"frizz_risk":1,"updated_at":"2026-04-27T01:21:45.548145+05:30"},{"city":"Aizawl","state":"Mizoram","latitude":23.7271,"longitude":92.7176,"temp":17.1,"humidity":99,"rain":0.0,"pressure":889.9,"uv_index":9.0,"wind_gusts":56.2,"aqi":99,"pm10":34.5,"pm2_5":22.1,"mosquito_risk":3,"arthritis_risk":10,"migraine_risk":7,"frizz_risk":1,"updated_at":"2026-04-27T01:21:45.548151+05:30"},{"city":"Kohima","state":"Nagaland","latitude":25.6701,"longitude":94.1077,"temp":14.4,"humidity":94,"rain":0.0,"pressure":851.4,"uv_index":1.2,"wind_gusts":28.8,"aqi":139,"pm10":59.6,"pm2_5":36.0,"mosquito_risk":3,"arthritis_risk":10,"migraine_risk":3,"frizz_risk":0,"updated_at":"2026-04-27T01:21:45.548157+05:30"},{"city":"Gangtok","state":"Sikkim","latitude":27.3314,"longitude":88.6138,"temp":12.7,"humidity":99,"rain":0.1,"pressure":832.9,"uv_index":8.5,"wind_gusts":41.4,"aqi":92,"pm10":39.5,"pm2_5":24.9,"mosquito_risk":6,"arthritis_risk":10,"migraine_risk":7,"frizz_risk":0,"updated_at":"2026-04-27T01:21:45.548163+05:30"},{"city":"Siliguri","state":"West Bengal","latitude":26.7271,"longitude":88.3953,"temp":20.6,"humidity":91,"rain":0.0,"pressure":991.2,"uv_index":8.4,"wind_gusts":32.4,"aqi":116,"pm10":54.4,"pm2_5":34.6,"mosquito_risk":3,"arthritis_risk":5,"migraine_risk":7,"frizz_risk":1,"updated_at":"2026-04-27T01:21:48.831307+05:30"},{"city":"Durgapur","state":"West Bengal","latitude":23.5204,"longitude":87.3119,"temp":27.6,"humidity":92,"rain":0.0,"pressure":990.2,"uv_index":8.8,"wind_gusts":37.4,"aqi":115,"pm10":37.1,"pm2_5":32.8,"mosquito_risk":7,"arthritis_risk":5,"migraine_risk":7,"frizz_risk":1,"updated_at":"2026-04-27T01:21:48.831335+05:30"},{"city":"Asansol","state":"West Bengal","latitude":23.6739,"longitude":86.9524,"temp":27.2,"humidity":92,"rain":0.0,"pressure":988.8,"uv_index":8.75,"wind_gusts":41.0,"aqi":127,"pm10":35.7,"pm2_5":32.9,"mosquito_risk":7,"arthritis_risk":5,"migraine_risk":7,"frizz_risk":1,"updated_at":"2026-04-27T01:21:48.831344+05:30"},{"city":"Pondicherry","state":"Puducherry","latitude":11.9139,"longitude":79.8145,"temp":28.5,"humidity":87,"rain":0.0,"pressure":1006.5,"uv_index":9.2,"wind_gusts":48.6,"aqi":40,"pm10":17.8,"pm2_5":11.8,"mosquito_risk":7,"arthritis_risk":5,"migraine_risk":4,"frizz_risk":1,"updated_at":"2026-04-27T01:21:48.831351+05:30"},{"city":"Port Blair","state":"Andaman and Nicobar Islands","latitude":11.6234,"longitude":92.7265,"temp":27.3,"humidity":86,"rain":0.0,"pressure":1005.3,"uv_index":9.1,"wind_gusts":34.2,"aqi":56,"pm10":17.8,"pm2_5":13.2,"mosquito_risk":7,"arthritis_risk":5,"migraine_risk":4,"frizz_risk":1,"updated_at":"2026-04-27T01:21:48.831358+05:30"},{"city":"Haridwar","state":"Uttarakhand","latitude":29.9457,"longitude":78.1642,"temp":20.0,"humidity":56,"rain":0.0,"pressure":967.4,"uv_index":7.25,"wind_gusts":27.4,"aqi":68,"pm10":26.1,"pm2_5":19.5,"mosquito_risk":0,"arthritis_risk":5,"migraine_risk":7,"frizz_risk":0,"updated_at":"2026-04-27T01:21:48.831365+05:30"},{"city":"Rishikesh","state":"Uttarakhand","latitude":30.0869,"longitude":78.2676,"temp":18.6,"humidity":59,"rain":0.0,"pressure":960.2,"uv_index":7.35,"wind_gusts":26.6,"aqi":82,"pm10":28.6,"pm2_5":18.8,"mosquito_risk":0,"arthritis_risk":5,"migraine_risk":7,"frizz_risk":0,"updated_at":"2026-04-27T01:21:48.831372+05:30"},{"city":"Nainital","state":"Uttarakhand","latitude":29.3919,"longitude":79.4542,"temp":14.6,"humidity":41,"rain":0.0,"pressure":801.5,"uv_index":8.2,"wind_gusts":38.9,"aqi":73,"pm10":67.5,"pm2_5":21.1,"mosquito_risk":0,"arthritis_risk":5,"migraine_risk":7,"frizz_risk":0,"updated_at":"2026-04-27T01:21:48.831379+05:30"},{"city":"Mussoorie","state":"Uttarakhand","latitude":30.4599,"longitude":78.0664,"temp":14.7,"humidity":41,"rain":0.0,"pressure":798.5,"uv_index":7.75,"wind_gusts":54.0,"aqi":76,"pm10":28.0,"pm2_5":21.4,"mosquito_risk":0,"arthritis_risk":5,"migraine_risk":7,"frizz_risk":0,"updated_at":"2026-04-27T01:21:48.831386+05:30"},{"city":"Dharamshala","state":"Himachal Pradesh","latitude":32.219,"longitude":76.3234,"temp":22.8,"humidity":32,"rain":0.0,"pressure":866.3,"uv_index":8.0,"wind_gusts":47.9,"aqi":51,"pm10":22.1,"pm2_5":11.1,"mosquito_risk":0,"arthritis_risk":5,"migraine_risk":7,"frizz_risk":0,"updated_at":"2026-04-27T01:21:48.831392+05:30"},{"city":"Dalhousie","state":"Himachal Pradesh","latitude":32.5387,"longitude":75.971,"temp":10.5,"humidity":74,"rain":0.0,"pressure":797.5,"uv_index":8.25,"wind_gusts":43.9,"aqi":60,"pm10":29.2,"pm2_5":21.0,"mosquito_risk":3,"arthritis_risk":5,"migraine_risk":7,"frizz_risk":0,"updated_at":"2026-04-27T01:21:48.831400+05:30"},{"city":"Patiala","state":"Punjab","latitude":30.3398,"longitude":76.3869,"temp":27.9,"humidity":31,"rain":0.0,"pressure":972.8,"uv_index":7.25,"wind_gusts":40.0,"aqi":389,"pm10":529.0,"pm2_5":76.4,"mosquito_risk":4,"arthritis_risk":5,"migraine_risk":7,"frizz_risk":0,"updated_at":"2026-04-27T01:21:48.831407+05:30"},{"city":"Bhatinda","state":"Punjab","latitude":30.211,"longitude":74.9455,"temp":29.1,"humidity":28,"rain":0.0,"pressure":978.4,"uv_index":7.8,"wind_gusts":64.1,"aqi":87,"pm10":69.6,"pm2_5":30.6,"mosquito_risk":4,"arthritis_risk":5,"migraine_risk":7,"frizz_risk":0,"updated_at":"2026-04-27T01:21:48.831414+05:30"},{"city":"Rohtak","state":"Haryana","latitude":28.8955,"longitude":76.6066,"temp":28.8,"humidity":25,"rain":0.0,"pressure":976.4,"uv_index":7.5,"wind_gusts":40.7,"aqi":682,"pm10":787.9,"pm2_5":119.7,"mosquito_risk":4,"arthritis_risk":5,"migraine_risk":7,"frizz_risk":0,"updated_at":"2026-04-27T01:21:48.831420+05:30"},{"city":"Panipat","state":"Haryana","latitude":29.3909,"longitude":76.9635,"temp":29.2,"humidity":25,"rain":0.0,"pressure":975.0,"uv_index":7.3,"wind_gusts":43.2,"aqi":1422,"pm10":1464.0,"pm2_5":185.8,"mosquito_risk":4,"arthritis_risk":5,"migraine_risk":7,"frizz_risk":0,"updated_at":"2026-04-27T01:21:48.831427+05:30"},{"city":"Mathura","state":"Uttar Pradesh","latitude":27.4924,"longitude":77.6737,"temp":29.0,"humidity":35,"rain":0.0,"pressure":981.2,"uv_index":7.75,"wind_gusts":38.2,"aqi":821,"pm10":179.3,"pm2_5":53.0,"mosquito_risk":4,"arthritis_risk":5,"migraine_risk":7,"frizz_risk":0,"updated_at":"2026-04-27T01:21:48.831434+05:30"},{"city":"Vrindavan","state":"Uttar Pradesh","latitude":27.5823,"longitude":77.7027,"temp":28.5,"humidity":36,"rain":0.0,"pressure":981.6,"uv_index":7.7,"wind_gusts":37.8,"aqi":821,"pm10":179.3,"pm2_5":53.0,"mosquito_risk":4,"arthritis_risk":5,"migraine_risk":7,"frizz_risk":0,"updated_at":"2026-04-27T01:21:48.831440+05:30"},{"city":"Ayodhya","state":"Uttar Pradesh","latitude":26.7922,"longitude":82.1998,"temp":25.6,"humidity":72,"rain":0.0,"pressure":991.2,"uv_index":8.1,"wind_gusts":33.5,"aqi":150,"pm10":68.9,"pm2_5":60.1,"mosquito_risk":7,"arthritis_risk":5,"migraine_risk":7,"frizz_risk":1,"updated_at":"2026-04-27T01:21:48.831446+05:30"},{"city":"Ratlam","state":"Madhya Pradesh","latitude":23.3315,"longitude":75.0367,"temp":30.0,"humidity":21,"rain":0.0,"pressure":951.8,"uv_index":8.45,"wind_gusts":44.6,"aqi":63,"pm10":30.3,"pm2_5":22.2,"mosquito_risk":4,"arthritis_risk":5,"migraine_risk":7,"frizz_risk":0,"updated_at":"2026-04-27T01:21:48.831453+05:30"},{"city":"Sagar","state":"Madhya Pradesh","latitude":23.8388,"longitude":78.7378,"temp":28.1,"humidity":31,"rain":0.0,"pressure":946.5,"uv_index":8.65,"wind_gusts":38.5,"aqi":76,"pm10":64.7,"pm2_5":27.9,"mosquito_risk":4,"arthritis_risk":5,"migraine_risk":7,"frizz_risk":0,"updated_at":"2026-04-27T01:21:48.831459+05:30"},{"city":"Satna","state":"Madhya Pradesh","latitude":24.6005,"longitude":80.8322,"temp":30.6,"humidity":26,"rain":0.0,"pressure":966.2,"uv_index":8.65,"wind_gusts":52.2,"aqi":95,"pm10":59.5,"pm2_5":22.5,"mosquito_risk":0,"arthritis_risk":5,"migraine_risk":7,"frizz_risk":0,"updated_at":"2026-04-27T01:21:48.831465+05:30"},{"city":"Akola","state":"Maharashtra","latitude":20.7002,"longitude":77.0082,"temp":33.1,"humidity":20,"rain":0.0,"pressure":971.0,"uv_index":8.9,"wind_gusts":33.8,"aqi":59,"pm10":35.5,"pm2_5":24.9,"mosquito_risk":0,"arthritis_risk":5,"migraine_risk":7,"frizz_risk":0,"updated_at":"2026-04-27T01:21:48.831472+05:30"},{"city":"Amravati","state":"Maharashtra","latitude":20.9374,"longitude":77.7796,"temp":32.2,"humidity":22,"rain":0.0,"pressure":963.3,"uv_index":8.9,"wind_gusts":36.7,"aqi":72,"pm10":51.6,"pm2_5":36.1,"mosquito_risk":0,"arthritis_risk":5,"migraine_risk":7,"frizz_risk":0,"updated_at":"2026-04-27T01:21:48.831478+05:30"},{"city":"Latur","state":"Maharashtra","latitude":18.4088,"longitude":76.5604,"temp":30.0,"humidity":28,"rain":0.0,"pressure":937.0,"uv_index":9.1,"wind_gusts":38.9,"aqi":97,"pm10":47.4,"pm2_5":39.7,"mosquito_risk":4,"arthritis_risk":5,"migraine_risk":7,"frizz_risk":0,"updated_at":"2026-04-27T01:21:48.831484+05:30"},{"city":"Nanded","state":"Maharashtra","latitude":19.1383,"longitude":77.3091,"temp":31.9,"humidity":27,"rain":0.0,"pressure":964.9,"uv_index":9.0,"wind_gusts":36.0,"aqi":91,"pm10":32.6,"pm2_5":27.2,"mosquito_risk":0,"arthritis_risk":5,"migraine_risk":7,"frizz_risk":0,"updated_at":"2026-04-27T01:21:48.831490+05:30"},{"city":"Gulbarga","state":"Karnataka","latitude":17.3297,"longitude":76.8343,"temp":30.3,"humidity":39,"rain":0.0,"pressure":955.9,"uv_index":9.1,"wind_gusts":31.3,"aqi":123,"pm10":38.8,"pm2_5":34.9,"mosquito_risk":0,"arthritis_risk":5,"migraine_risk":7,"frizz_risk":0,"updated_at":"2026-04-27T01:21:48.831497+05:30"},{"city":"Bidar","state":"Karnataka","latitude":17.9104,"longitude":77.5199,"temp":29.4,"humidity":35,"rain":0.0,"pressure":932.5,"uv_index":9.1,"wind_gusts":30.6,"aqi":105,"pm10":43.2,"pm2_5":39.3,"mosquito_risk":4,"arthritis_risk":5,"migraine_risk":7,"frizz_risk":0,"updated_at":"2026-04-27T01:21:48.831503+05:30"},{"city":"Hospet","state":"Karnataka","latitude":15.2689,"longitude":76.3909,"temp":27.6,"humidity":76,"rain":0.0,"pressure":954.2,"uv_index":9.25,"wind_gusts":35.6,"aqi":119,"pm10":39.1,"pm2_5":36.8,"mosquito_risk":7,"arthritis_risk":5,"migraine_risk":7,"frizz_risk":1,"updated_at":"2026-04-27T01:21:48.831509+05:30"},{"city":"Tirupur","state":"Tamil Nadu","latitude":11.1085,"longitude":77.3411,"temp":28.0,"humidity":74,"rain":0.0,"pressure":973.7,"uv_index":9.35,"wind_gusts":31.0,"aqi":65,"pm10":24.4,"pm2_5":23.2,"mosquito_risk":7,"arthritis_risk":5,"migraine_risk":7,"frizz_risk":1,"updated_at":"2026-04-27T01:21:48.831515+05:30"},{"city":"Alappuzha","state":"Kerala","latitude":9.4981,"longitude":76.3388,"temp":26.4,"humidity":96,"rain":0.0,"pressure":1007.5,"uv_index":8.1,"wind_gusts":34.6,"aqi":62,"pm10":24.6,"pm2_5":21.0,"mosquito_risk":7,"arthritis_risk":5,"migraine_risk":4,"frizz_risk":1,"updated_at":"2026-04-27T01:21:48.831521+05:30"},{"city":"Munnar","state":"Kerala","latitude":10.0889,"longitude":77.0595,"temp":17.5,"humidity":72,"rain":0.0,"pressure":855.4,"uv_index":9.6,"wind_gusts":27.0,"aqi":67,"pm10":30.3,"pm2_5":29.2,"mosquito_risk":3,"arthritis_risk":5,"migraine_risk":7,"frizz_risk":0,"updated_at":"2026-04-27T01:21:48.831528+05:30"},{"city":"Silchar","state":"Assam","latitude":24.8333,"longitude":92.7789,"temp":22.0,"humidity":92,"rain":0.1,"pressure":1004.3,"uv_index":8.75,"wind_gusts":26.3,"aqi":159,"pm10":76.4,"pm2_5":48.8,"mosquito_risk":6,"arthritis_risk":5,"migraine_risk":4,"frizz_risk":1,"updated_at":"2026-04-27T01:21:48.831535+05:30"},{"city":"Dibrugarh","state":"Assam","latitude":27.4728,"longitude":94.912,"temp":20.8,"humidity":98,"rain":0.0,"pressure":994.8,"uv_index":4.3,"wind_gusts":25.6,"aqi":91,"pm10":64.0,"pm2_5":40.3,"mosquito_risk":3,"arthritis_risk":5,"migraine_risk":3,"frizz_risk":1,"updated_at":"2026-04-27T01:21:48.831541+05:30"}]