[{"city":"Delhi","state":"Delhi","latitude":28.6139,"longitude":77.209,"temp":25.5,"humidity":62,"rain":0.0,"pressure":983.2,"uv_index":7.6,"wind_gusts":26.6,"aqi":151,"pm10":273.8,"pm2_5":72.6,"no2":21.1,"co":455.0,"o3":74.0,"so2":20.0,"mosquito_risk":7,"arthritis_risk":5,"migraine_risk":7,"frizz_risk":1,"updated_at":"2026-05-10T05:23:09.591442+05:30"},{"city":"Mumbai","state":"Maharashtra","latitude":19.076,"longitude":72.8777,"temp":27.0,"humidity":92,"rain":0.0,"pressure":1006.3,"uv_index":7.9,"wind_gusts":52.2,"aqi":81,"pm10":57.5,"pm2_5":27.6,"no2":22.2,"co":568.0,"o3":58.0,"so2":28.2,"mosquito_risk":7,"arthritis_risk":5,"migraine_risk":4,"frizz_risk":1,"updated_at":"2026-05-10T05:23:09.591491+05:30"},{"city":"Bangalore","state":"Karnataka","latitude":12.9716,"longitude":77.5946,"temp":20.8,"humidity":98,"rain":0.0,"pressure":909.8,"uv_index":9.45,"wind_gusts":37.8,"aqi":55,"pm10":26.7,"pm2_5":26.3,"no2":28.1,"co":240.0,"o3":17.0,"so2":9.6,"mosquito_risk":3,"arthritis_risk":5,"migraine_risk":7,"frizz_risk":1,"updated_at":"2026-05-10T05:23:09.591507+05:30"},{"city":"Hyderabad","state":"Telangana","latitude":17.385,"longitude":78.4867,"temp":24.9,"humidity":82,"rain":0.0,"pressure":952.4,"uv_index":9.25,"wind_gusts":37.8,"aqi":58,"pm10":11.8,"pm2_5":10.3,"no2":11.6,"co":181.0,"o3":36.0,"so2":3.9,"mosquito_risk":3,"arthritis_risk":5,"migraine_risk":7,"frizz_risk":1,"updated_at":"2026-05-10T05:23:09.591519+05:30"},{"city":"Chennai","state":"Tamil Nadu","latitude":13.0827,"longitude":80.2707,"temp":26.0,"humidity":92,"rain":0.1,"pressure":1005.8,"uv_index":8.0,"wind_gusts":35.6,"aqi":21,"pm10":7.5,"pm2_5":5.8,"no2":8.0,"co":213.0,"o3":43.0,"so2":1.6,"mosquito_risk":10,"arthritis_risk":5,"migraine_risk":4,"frizz_risk":1,"updated_at":"2026-05-10T05:23:09.591529+05:30"},{"city":"Kolkata","state":"West Bengal","latitude":22.5726,"longitude":88.3639,"temp":25.0,"humidity":87,"rain":0.0,"pressure":1007.7,"uv_index":8.85,"wind_gusts":33.8,"aqi":155,"pm10":133.2,"pm2_5":126.2,"no2":66.0,"co":724.0,"o3":1.0,"so2":24.7,"mosquito_risk":7,"arthritis_risk":5,"migraine_risk":4,"frizz_risk":1,"updated_at":"2026-05-10T05:23:09.591544+05:30"},{"city":"Pune","state":"Maharashtra","latitude":18.5204,"longitude":73.8567,"temp":26.4,"humidity":44,"rain":0.0,"pressure":946.6,"uv_index":8.5,"wind_gusts":37.1,"aqi":97,"pm10":52.0,"pm2_5":33.1,"no2":20.4,"co":270.0,"o3":81.0,"so2":25.9,"mosquito_risk":4,"arthritis_risk":5,"migraine_risk":7,"frizz_risk":0,"updated_at":"2026-05-10T05:23:09.591553+05:30"},{"city":"Ahmedabad","state":"Gujarat","latitude":23.0225,"longitude":72.5714,"temp":30.0,"humidity":51,"rain":0.0,"pressure":999.5,"uv_index":8.1,"wind_gusts":33.8,"aqi":56,"pm10":20.1,"pm2_5":10.2,"no2":3.9,"co":181.0,"o3":58.0,"so2":3.9,"mosquito_risk":4,"arthritis_risk":5,"migraine_risk":7,"frizz_risk":1,"updated_at":"2026-05-10T05:23:09.591565+05:30"},{"city":"Jaipur","state":"Rajasthan","latitude":26.9124,"longitude":75.7873,"temp":24.8,"humidity":58,"rain":0.0,"pressure":959.4,"uv_index":8.15,"wind_gusts":26.6,"aqi":152,"pm10":431.2,"pm2_5":79.9,"no2":5.1,"co":345.0,"o3":102.0,"so2":8.4,"mosquito_risk":0,"arthritis_risk":5,"migraine_risk":7,"frizz_risk":0,"updated_at":"2026-05-10T05:23:09.591573+05:30"},{"city":"Lucknow","state":"Uttar Pradesh","latitude":26.8467,"longitude":80.9462,"temp":23.1,"humidity":69,"rain":0.0,"pressure":994.4,"uv_index":7.95,"wind_gusts":33.5,"aqi":118,"pm10":47.8,"pm2_5":39.3,"no2":12.2,"co":451.0,"o3":90.0,"so2":10.5,"mosquito_risk":3,"arthritis_risk":5,"migraine_risk":7,"frizz_risk":1,"updated_at":"2026-05-10T05:23:09.591582+05:30"},{"city":"Kanpur","state":"Uttar Pradesh","latitude":26.4499,"longitude":80.3319,"temp":23.9,"humidity":70,"rain":0.0,"pressure":991.8,"uv_index":8.1,"wind_gusts":31.7,"aqi":174,"pm10":217.5,"pm2_5":51.8,"no2":9.6,"co":406.0,"o3":94.0,"so2":10.7,"mosquito_risk":3,"arthritis_risk":5,"migraine_risk":7,"frizz_risk":1,"updated_at":"2026-05-10T05:23:09.591590+05:30"},{"city":"Chandigarh","state":"Chandigarh","latitude":30.7333,"longitude":76.7794,"temp":21.9,"humidity":75,"rain":0.0,"pressure":968.8,"uv_index":7.7,"wind_gusts":38.5,"aqi":109,"pm10":88.9,"pm2_5":47.6,"no2":20.3,"co":325.0,"o3":59.0,"so2":8.9,"mosquito_risk":3,"arthritis_risk":5,"migraine_risk":7,"frizz_risk":1,"updated_at":"2026-05-10T05:23:09.591598+05:30"},{"city":"Srinagar","state":"Jammu and Kashmir","latitude":34.0837,"longitude":74.7973,"temp":7.8,"humidity":78,"rain":0.0,"pressure":838.5,"uv_index":8.35,"wind_gusts":16.2,"aqi":88,"pm10":88.5,"pm2_5":46.4,"no2":18.4,"co":194.0,"o3":54.0,"so2":4.1,"mosquito_risk":3,"arthritis_risk":5,"migraine_risk":7,"frizz_risk":0,"updated_at":"2026-05-10T05:23:09.591608+05:30"},{"city":"Jammu","state":"Jammu and Kashmir","latitude":32.7266,"longitude":74.857,"temp":22.5,"humidity":70,"rain":0.0,"pressure":971.9,"uv_index":7.95,"wind_gusts":34.2,"aqi":152,"pm10":91.3,"pm2_5":62.6,"no2":28.8,"co":354.0,"o3":10.0,"so2":3.0,"mosquito_risk":3,"arthritis_risk":5,"migraine_risk":7,"frizz_risk":1,"updated_at":"2026-05-10T05:23:09.591616+05:30"},{"city":"Amritsar","state":"Punjab","latitude":31.634,"longitude":74.8723,"temp":24.5,"humidity":67,"rain":0.0,"pressure":980.1,"uv_index":8.35,"wind_gusts":32.4,"aqi":154,"pm10":197.4,"pm2_5":67.1,"no2":7.1,"co":550.0,"o3":87.0,"so2":9.2,"mosquito_risk":3,"arthritis_risk":5,"migraine_risk":7,"frizz_risk":1,"updated_at":"2026-05-10T05:23:09.591624+05:30"},{"city":"Ludhiana","state":"Punjab","latitude":30.901,"longitude":75.8573,"temp":23.6,"humidity":71,"rain":0.0,"pressure":978.3,"uv_index":7.95,"wind_gusts":34.2,"aqi":153,"pm10":224.4,"pm2_5":70.3,"no2":10.8,"co":465.0,"o3":75.0,"so2":8.6,"mosquito_risk":3,"arthritis_risk":5,"migraine_risk":7,"frizz_risk":1,"updated_at":"2026-05-10T05:23:09.591631+05:30"},{"city":"Jalandhar","state":"Punjab","latitude":31.326,"longitude":75.5762,"temp":22.5,"humidity":77,"rain":0.0,"pressure":979.2,"uv_index":8.15,"wind_gusts":33.1,"aqi":152,"pm10":248.7,"pm2_5":76.1,"no2":10.6,"co":554.0,"o3":76.0,"so2":13.4,"mosquito_risk":3,"arthritis_risk":5,"migraine_risk":7,"frizz_risk":1,"updated_at":"2026-05-10T05:23:09.591638+05:30"},{"city":"Dehradun","state":"Uttarakhand","latitude":30.6284,"longitude":78.0322,"temp":10.6,"humidity":100,"rain":0.0,"pressure":828.4,"uv_index":8.1,"wind_gusts":35.6,"aqi":68,"pm10":32.9,"pm2_5":18.3,"no2":20.5,"co":286.0,"o3":15.0,"so2":0.0,"mosquito_risk":3,"arthritis_risk":10,"migraine_risk":7,"frizz_risk":0,"updated_at":"2026-05-10T05:23:09.591648+05:30"},{"city":"Shimla","state":"Himachal Pradesh","latitude":31.1048,"longitude":77.1734,"temp":9.4,"humidity":89,"rain":0.0,"pressure":781.5,"uv_index":8.2,"wind_gusts":42.1,"aqi":91,"pm10":101.0,"pm2_5":38.0,"no2":25.1,"co":303.0,"o3":43.0,"so2":4.5,"mosquito_risk":3,"arthritis_risk":10,"migraine_risk":7,"frizz_risk":0,"updated_at":"2026-05-10T05:23:09.591657+05:30"},{"city":"Manali","state":"Himachal Pradesh","latitude":32.2396,"longitude":77.1887,"temp":6.5,"humidity":38,"rain":0.0,"pressure":811.2,"uv_index":9.2,"wind_gusts":42.8,"aqi":45,"pm10":36.9,"pm2_5":10.7,"no2":23.0,"co":167.0,"o3":100.0,"so2":0.5,"mosquito_risk":0,"arthritis_risk":5,"migraine_risk":7,"frizz_risk":1,"updated_at":"2026-05-10T05:23:09.591664+05:30"},{"city":"Gurgaon","state":"Haryana","latitude":28.4595,"longitude":77.0266,"temp":24.0,"humidity":69,"rain":0.0,"pressure":981.5,"uv_index":7.75,"wind_gusts":30.2,"aqi":779,"pm10":480.6,"pm2_5":93.6,"no2":14.9,"co":429.0,"o3":73.0,"so2":14.6,"mosquito_risk":3,"arthritis_risk":5,"migraine_risk":7,"frizz_risk":1,"updated_at":"2026-05-10T05:23:09.591672+05:30"},{"city":"Noida","state":"Uttar Pradesh","latitude":28.5355,"longitude":77.391,"temp":22.4,"humidity":78,"rain":0.0,"pressure":984.6,"uv_index":7.65,"wind_gusts":23.0,"aqi":779,"pm10":480.6,"pm2_5":93.6,"no2":14.9,"co":465.0,"o3":73.0,"so2":14.6,"mosquito_risk":3,"arthritis_risk":5,"migraine_risk":7,"frizz_risk":1,"updated_at":"2026-05-10T05:23:09.591680+05:30"},{"city":"Ghaziabad","state":"Uttar Pradesh","latitude":28.6692,"longitude":77.4538,"temp":22.9,"humidity":77,"rain":0.0,"pressure":982.8,"uv_index":7.6,"wind_gusts":26.6,"aqi":124,"pm10":152.7,"pm2_5":56.6,"no2":13.1,"co":418.0,"o3":68.0,"so2":12.7,"mosquito_risk":3,"arthritis_risk":5,"migraine_risk":7,"frizz_risk":1,"updated_at":"2026-05-10T05:23:09.591687+05:30"},{"city":"Faridabad","state":"Haryana","latitude":28.4089,"longitude":77.3178,"temp":24.1,"humidity":71,"rain":0.0,"pressure":984.0,"uv_index":7.7,"wind_gusts":23.8,"aqi":779,"pm10":480.6,"pm2_5":93.6,"no2":14.9,"co":439.0,"o3":73.0,"so2":14.6,"mosquito_risk":3,"arthritis_risk":5,"migraine_risk":7,"frizz_risk":1,"updated_at":"2026-05-10T05:23:09.591694+05:30"},{"city":"Meerut","state":"Uttar Pradesh","latitude":28.9845,"longitude":77.7064,"temp":23.0,"humidity":77,"rain":0.0,"pressure":981.9,"uv_index":7.55,"wind_gusts":26.6,"aqi":124,"pm10":152.7,"pm2_5":56.6,"no2":13.1,"co":459.0,"o3":68.0,"so2":12.7,"mosquito_risk":3,"arthritis_risk":5,"migraine_risk":7,"frizz_risk":1,"updated_at":"2026-05-10T05:23:09.591701+05:30"},{"city":"Agra","state":"Uttar Pradesh","latitude":27.1767,"longitude":78.0081,"temp":23.7,"humidity":75,"rain":0.0,"pressure":987.4,"uv_index":7.95,"wind_gusts":24.8,"aqi":866,"pm10":311.1,"pm2_5":66.6,"no2":8.0,"co":364.0,"o3":86.0,"so2":10.8,"mosquito_risk":3,"arthritis_risk":5,"migraine_risk":7,"frizz_risk":1,"updated_at":"2026-05-10T05:23:09.591708+05:30"},{"city":"Varanasi","state":"Uttar Pradesh","latitude":25.3176,"longitude":82.9739,"temp":23.2,"humidity":77,"rain":0.0,"pressure":998.1,"uv_index":8.55,"wind_gusts":33.8,"aqi":130,"pm10":59.5,"pm2_5":52.7,"no2":16.7,"co":492.0,"o3":88.0,"so2":20.5,"mosquito_risk":3,"arthritis_risk":5,"migraine_risk":7,"frizz_risk":1,"updated_at":"2026-05-10T05:23:09.591716+05:30"},{"city":"Prayagraj","state":"Uttar Pradesh","latitude":25.4358,"longitude":81.8463,"temp":24.1,"humidity":69,"rain":0.0,"pressure":996.0,"uv_index":8.45,"wind_gusts":32.4,"aqi":131,"pm10":59.5,"pm2_5":52.9,"no2":14.2,"co":497.0,"o3":96.0,"so2":18.4,"mosquito_risk":3,"arthritis_risk":5,"migraine_risk":7,"frizz_risk":1,"updated_at":"2026-05-10T05:23:09.591725+05:30"},{"city":"Gorakhpur","state":"Uttar Pradesh","latitude":26.7606,"longitude":83.3732,"temp":23.2,"humidity":75,"rain":0.0,"pressure":999.5,"uv_index":8.4,"wind_gusts":32.4,"aqi":109,"pm10":41.4,"pm2_5":34.7,"no2":14.1,"co":564.0,"o3":81.0,"so2":8.1,"mosquito_risk":3,"arthritis_risk":5,"migraine_risk":7,"frizz_risk":1,"updated_at":"2026-05-10T05:23:09.591733+05:30"},{"city":"Bareilly","state":"Uttar Pradesh","latitude":28.367,"longitude":79.4304,"temp":22.4,"humidity":74,"rain":0.0,"pressure":987.7,"uv_index":7.9,"wind_gusts":24.5,"aqi":107,"pm10":44.4,"pm2_5":31.1,"no2":13.5,"co":391.0,"o3":76.0,"so2":4.2,"mosquito_risk":3,"arthritis_risk":5,"migraine_risk":7,"frizz_risk":1,"updated_at":"2026-05-10T05:23:09.591741+05:30"},{"city":"Aligarh","state":"Uttar Pradesh","latitude":27.8974,"longitude":78.088,"temp":23.1,"humidity":75,"rain":0.0,"pressure":985.7,"uv_index":7.75,"wind_gusts":24.1,"aqi":420,"pm10":188.6,"pm2_5":56.7,"no2":9.7,"co":404.0,"o3":79.0,"so2":13.4,"mosquito_risk":3,"arthritis_risk":5,"migraine_risk":7,"frizz_risk":1,"updated_at":"2026-05-10T05:23:09.591748+05:30"},{"city":"Moradabad","state":"Uttar Pradesh","latitude":28.8386,"longitude":78.7733,"temp":22.4,"humidity":77,"rain":0.0,"pressure":984.6,"uv_index":7.75,"wind_gusts":27.7,"aqi":107,"pm10":66.6,"pm2_5":50.2,"no2":21.2,"co":445.0,"o3":60.0,"so2":7.6,"mosquito_risk":3,"arthritis_risk":5,"migraine_risk":7,"frizz_risk":1,"updated_at":"2026-05-10T05:23:09.591754+05:30"},{"city":"Saharanpur","state":"Uttar Pradesh","latitude":29.9637,"longitude":77.546,"temp":22.5,"humidity":80,"rain":0.0,"pressure":976.3,"uv_index":7.4,"wind_gusts":30.6,"aqi":120,"pm10":83.4,"pm2_5":64.0,"no2":34.0,"co":447.0,"o3":21.0,"so2":8.2,"mosquito_risk":3,"arthritis_risk":5,"migraine_risk":7,"frizz_risk":1,"updated_at":"2026-05-10T05:23:09.591761+05:30"},{"city":"Jhansi","state":"Uttar Pradesh","latitude":25.4484,"longitude":78.5685,"temp":23.2,"humidity":75,"rain":0.0,"pressure":976.9,"uv_index":8.4,"wind_gusts":26.6,"aqi":87,"pm10":61.9,"pm2_5":40.2,"no2":5.1,"co":363.0,"o3":91.0,"so2":9.4,"mosquito_risk":3,"arthritis_risk":5,"migraine_risk":7,"frizz_risk":1,"updated_at":"2026-05-10T05:23:12.938179+05:30"},{"city":"Surat","state":"Gujarat","latitude":21.1702,"longitude":72.8311,"temp":28.9,"humidity":52,"rain":0.0,"pressure":1004.3,"uv_index":7.75,"wind_gusts":32.0,"aqi":103,"pm10":35.0,"pm2_5":23.5,"no2":26.2,"co":248.0,"o3":43.0,"so2":35.9,"mosquito_risk":4,"arthritis_risk":5,"migraine_risk":4,"frizz_risk":1,"updated_at":"2026-05-10T05:23:12.938211+05:30"},{"city":"Vadodara","state":"Gujarat","latitude":22.3072,"longitude":73.1812,"temp":29.9,"humidity":33,"rain":0.0,"pressure":1001.8,"uv_index":8.1,"wind_gusts":30.2,"aqi":74,"pm10":35.6,"pm2_5":26.4,"no2":20.6,"co":258.0,"o3":38.0,"so2":10.4,"mosquito_risk":4,"arthritis_risk":5,"migraine_risk":4,"frizz_risk":0,"updated_at":"2026-05-10T05:23:12.938221+05:30"},{"city":"Rajkot","state":"Gujarat","latitude":22.3039,"longitude":70.8022,"temp":24.6,"humidity":100,"rain":0.0,"pressure":992.9,"uv_index":7.7,"wind_gusts":40.0,"aqi":54,"pm10":36.1,"pm2_5":11.9,"no2":6.9,"co":158.0,"o3":51.0,"so2":4.9,"mosquito_risk":3,"arthritis_risk":5,"migraine_risk":7,"frizz_risk":1,"updated_at":"2026-05-10T05:23:12.938229+05:30"},{"city":"Thane","state":"Maharashtra","latitude":19.2183,"longitude":72.9781,"temp":26.0,"humidity":93,"rain":0.0,"pressure":1005.7,"uv_index":7.9,"wind_gusts":48.6,"aqi":81,"pm10":57.5,"pm2_5":27.6,"no2":22.2,"co":484.0,"o3":58.0,"so2":28.2,"mosquito_risk":7,"arthritis_risk":5,"migraine_risk":4,"frizz_risk":1,"updated_at":"2026-05-10T05:23:12.938237+05:30"},{"city":"Nagpur","state":"Maharashtra","latitude":21.1458,"longitude":79.0882,"temp":27.9,"humidity":51,"rain":0.0,"pressure":972.7,"uv_index":8.9,"wind_gusts":36.7,"aqi":97,"pm10":38.6,"pm2_5":28.9,"no2":7.4,"co":358.0,"o3":97.0,"so2":6.2,"mosquito_risk":4,"arthritis_risk":5,"migraine_risk":7,"frizz_risk":1,"updated_at":"2026-05-10T05:23:12.938244+05:30"},{"city":"Nashik","state":"Maharashtra","latitude":19.9975,"longitude":73.7898,"temp":25.8,"humidity":35,"rain":0.0,"pressure":943.6,"uv_index":8.2,"wind_gusts":40.3,"aqi":78,"pm10":45.9,"pm2_5":25.9,"no2":26.5,"co":294.0,"o3":46.0,"so2":7.4,"mosquito_risk":4,"arthritis_risk":5,"migraine_risk":7,"frizz_risk":0,"updated_at":"2026-05-10T05:23:12.938252+05:30"},{"city":"Aurangabad","state":"Maharashtra","latitude":19.8762,"longitude":75.3433,"temp":29.0,"humidity":28,"rain":0.0,"pressure":942.9,"uv_index":9.05,"wind_gusts":45.0,"aqi":85,"pm10":50.8,"pm2_5":31.9,"no2":26.3,"co":329.0,"o3":57.0,"so2":10.8,"mosquito_risk":4,"arthritis_risk":5,"migraine_risk":7,"frizz_risk":0,"updated_at":"2026-05-10T05:23:12.938260+05:30"},{"city":"Solapur","state":"Maharashtra","latitude":17.6599,"longitude":75.9064,"temp":27.4,"humidity":45,"rain":0.0,"pressure":956.3,"uv_index":9.1,"wind_gusts":33.8,"aqi":74,"pm10":30.5,"pm2_5":25.3,"no2":15.8,"co":370.0,"o3":59.0,"so2":6.6,"mosquito_risk":4,"arthritis_risk":5,"migraine_risk":7,"frizz_risk":0,"updated_at":"2026-05-10T05:23:12.938268+05:30"},{"city":"Kolhapur","state":"Maharashtra","latitude":16.705,"longitude":74.2433,"temp":25.4,"humidity":58,"rain":0.0,"pressure":945.8,"uv_index":8.9,"wind_gusts":44.6,"aqi":102,"pm10":72.4,"pm2_5":63.8,"no2":39.0,"co":325.0,"o3":20.0,"so2":9.0,"mosquito_risk":4,"arthritis_risk":5,"migraine_risk":7,"frizz_risk":1,"updated_at":"2026-05-10T05:23:12.938275+05:30"},{"city":"Goa","state":"Goa","latitude":15.2993,"longitude":74.124,"temp":26.1,"humidity":88,"rain":0.0,"pressure":995.2,"uv_index":6.25,"wind_gusts":48.6,"aqi":84,"pm10":44.6,"pm2_5":32.8,"no2":9.6,"co":283.0,"o3":82.0,"so2":2.8,"mosquito_risk":7,"arthritis_risk":5,"migraine_risk":7,"frizz_risk":1,"updated_at":"2026-05-10T05:23:12.938283+05:30"},{"city":"Jodhpur","state":"Rajasthan","latitude":26.2389,"longitude":73.0243,"temp":29.2,"humidity":24,"rain":0.0,"pressure":980.9,"uv_index":8.35,"wind_gusts":32.4,"aqi":84,"pm10":104.5,"pm2_5":28.2,"no2":14.8,"co":449.0,"o3":42.0,"so2":5.9,"mosquito_risk":4,"arthritis_risk":5,"migraine_risk":7,"frizz_risk":0,"updated_at":"2026-05-10T05:23:12.938289+05:30"},{"city":"Udaipur","state":"Rajasthan","latitude":24.5854,"longitude":73.7125,"temp":28.8,"humidity":27,"rain":0.0,"pressure":944.9,"uv_index":8.8,"wind_gusts":40.0,"aqi":40,"pm10":15.0,"pm2_5":7.0,"no2":3.3,"co":175.0,"o3":69.0,"so2":3.0,"mosquito_risk":4,"arthritis_risk":5,"migraine_risk":7,"frizz_risk":0,"updated_at":"2026-05-10T05:23:12.938297+05:30"},{"city":"Kota","state":"Rajasthan","latitude":25.2138,"longitude":75.8648,"temp":25.2,"humidity":56,"rain":0.0,"pressure":977.4,"uv_index":8.35,"wind_gusts":33.8,"aqi":68,"pm10":53.7,"pm2_5":24.0,"no2":5.6,"co":302.0,"o3":78.0,"so2":7.1,"mosquito_risk":4,"arthritis_risk":5,"migraine_risk":7,"frizz_risk":0,"updated_at":"2026-05-10T05:23:12.938304+05:30"},{"city":"Bikaner","state":"Rajasthan","latitude":28.0229,"longitude":73.3119,"temp":27.6,"humidity":46,"rain":0.0,"pressure":980.6,"uv_index":8.35,"wind_gusts":28.8,"aqi":116,"pm10":170.9,"pm2_5":51.0,"no2":2.4,"co":291.0,"o3":102.0,"so2":6.7,"mosquito_risk":4,"arthritis_risk":5,"migraine_risk":7,"frizz_risk":0,"updated_at":"2026-05-10T05:23:12.938311+05:30"},{"city":"Ajmer","state":"Rajasthan","latitude":26.4499,"longitude":74.6399,"temp":25.5,"humidity":52,"rain":0.0,"pressure":953.7,"uv_index":8.35,"wind_gusts":33.5,"aqi":85,"pm10":172.8,"pm2_5":44.7,"no2":4.7,"co":337.0,"o3":91.0,"so2":6.1,"mosquito_risk":4,"arthritis_risk":5,"migraine_risk":7,"frizz_risk":0,"updated_at":"2026-05-10T05:23:12.938318+05:30"},{"city":"Gwalior","state":"Madhya Pradesh","latitude":26.2183,"longitude":78.1828,"temp":23.7,"humidity":78,"rain":0.0,"pressure":982.4,"uv_index":8.2,"wind_gusts":24.1,"aqi":122,"pm10":119.2,"pm2_5":48.7,"no2":5.1,"co":316.0,"o3":92.0,"so2":8.7,"mosquito_risk":3,"arthritis_risk":5,"migraine_risk":7,"frizz_risk":1,"updated_at":"2026-05-10T05:23:12.938324+05:30"},{"city":"Indore","state":"Madhya Pradesh","latitude":22.7196,"longitude":75.8577,"temp":28.0,"humidity":27,"rain":0.0,"pressure":946.5,"uv_index":8.65,"wind_gusts":41.4,"aqi":57,"pm10":19.7,"pm2_5":14.0,"no2":6.3,"co":343.0,"o3":65.0,"so2":4.5,"mosquito_risk":4,"arthritis_risk":5,"migraine_risk":7,"frizz_risk":0,"updated_at":"2026-05-10T05:23:12.938331+05:30"},{"city":"Bhopal","state":"Madhya Pradesh","latitude":23.2599,"longitude":77.4126,"temp":26.1,"humidity":42,"rain":0.0,"pressure":951.6,"uv_index":8.65,"wind_gusts":45.0,"aqi":59,"pm10":27.6,"pm2_5":15.4,"no2":4.5,"co":292.0,"o3":78.0,"so2":4.4,"mosquito_risk":4,"arthritis_risk":5,"migraine_risk":7,"frizz_risk":0,"updated_at":"2026-05-10T05:23:12.938338+05:30"},{"city":"Jabalpur","state":"Madhya Pradesh","latitude":23.1815,"longitude":79.9864,"temp":24.3,"humidity":59,"rain":0.0,"pressure":960.2,"uv_index":8.8,"wind_gusts":32.4,"aqi":66,"pm10":42.3,"pm2_5":29.2,"no2":18.7,"co":298.0,"o3":67.0,"so2":5.0,"mosquito_risk":0,"arthritis_risk":5,"migraine_risk":7,"frizz_risk":0,"updated_at":"2026-05-10T05:23:12.938345+05:30"},{"city":"Ujjain","state":"Madhya Pradesh","latitude":23.1765,"longitude":75.7885,"temp":26.5,"humidity":29,"rain":0.0,"pressure":951.7,"uv_index":8.6,"wind_gusts":43.2,"aqi":53,"pm10":21.0,"pm2_5":15.0,"no2":5.8,"co":352.0,"o3":60.0,"so2":3.8,"mosquito_risk":4,"arthritis_risk":5,"migraine_risk":7,"frizz_risk":0,"updated_at":"2026-05-10T05:23:12.938353+05:30"},{"city":"Visakhapatnam","state":"Andhra Pradesh","latitude":17.6868,"longitude":83.2185,"temp":25.6,"humidity":95,"rain":0.0,"pressure":1003.6,"uv_index":8.95,"wind_gusts":35.3,"aqi":75,"pm10":32.8,"pm2_5":29.7,"no2":21.6,"co":1768.0,"o3":26.0,"so2":4.0,"mosquito_risk":7,"arthritis_risk":5,"migraine_risk":4,"frizz_risk":1,"updated_at":"2026-05-10T05:23:12.938360+05:30"},{"city":"Vijayawada","state":"Andhra Pradesh","latitude":16.5062,"longitude":80.648,"temp":26.6,"humidity":89,"rain":0.0,"pressure":1002.0,"uv_index":9.05,"wind_gusts":38.9,"aqi":46,"pm10":22.0,"pm2_5":19.7,"no2":16.1,"co":203.0,"o3":18.0,"so2":4.7,"mosquito_risk":7,"arthritis_risk":5,"migraine_risk":4,"frizz_risk":1,"updated_at":"2026-05-10T05:23:12.938367+05:30"},{"city":"Guntur","state":"Andhra Pradesh","latitude":16.3067,"longitude":80.4365,"temp":26.9,"humidity":85,"rain":0.0,"pressure":1003.1,"uv_index":8.9,"wind_gusts":39.6,"aqi":45,"pm10":17.8,"pm2_5":15.9,"no2":15.9,"co":202.0,"o3":17.0,"so2":5.7,"mosquito_risk":7,"arthritis_risk":5,"migraine_risk":4,"frizz_risk":1,"updated_at":"2026-05-10T05:23:12.938374+05:30"},{"city":"Nellore","state":"Andhra Pradesh","latitude":14.4426,"longitude":79.9865,"temp":25.9,"humidity":92,"rain":0.0,"pressure":1005.0,"uv_index":9.2,"wind_gusts":37.1,"aqi":22,"pm10":10.7,"pm2_5":8.2,"no2":8.2,"co":193.0,"o3":32.0,"so2":3.0,"mosquito_risk":7,"arthritis_risk":5,"migraine_risk":4,"frizz_risk":1,"updated_at":"2026-05-10T05:23:12.938382+05:30"},{"city":"Kurnool","state":"Andhra Pradesh","latitude":15.8281,"longitude":78.0373,"temp":26.5,"humidity":74,"rain":0.0,"pressure":975.7,"uv_index":8.8,"wind_gusts":42.1,"aqi":34,"pm10":5.8,"pm2_5":5.0,"no2":6.7,"co":141.0,"o3":29.0,"so2":2.9,"mosquito_risk":7,"arthritis_risk":5,"migraine_risk":7,"frizz_risk":1,"updated_at":"2026-05-10T05:23:12.938389+05:30"},{"city":"Kakinada","state":"Andhra Pradesh","latitude":16.9891,"longitude":82.2475,"temp":25.6,"humidity":92,"rain":0.0,"pressure":1007.0,"uv_index":9.15,"wind_gusts":36.7,"aqi":27,"pm10":12.5,"pm2_5":8.6,"no2":1.5,"co":230.0,"o3":51.0,"so2":0.4,"mosquito_risk":7,"arthritis_risk":5,"migraine_risk":4,"frizz_risk":1,"updated_at":"2026-05-10T05:23:12.938396+05:30"},{"city":"Tirupati","state":"Andhra Pradesh","latitude":13.6288,"longitude":79.4192,"temp":25.4,"humidity":91,"rain":0.0,"pressure":990.3,"uv_index":9.25,"wind_gusts":40.7,"aqi":51,"pm10":30.7,"pm2_5":29.2,"no2":36.1,"co":282.0,"o3":0.0,"so2":6.8,"mosquito_risk":7,"arthritis_risk":5,"migraine_risk":7,"frizz_risk":1,"updated_at":"2026-05-10T05:23:12.938403+05:30"},{"city":"Warangal","state":"Telangana","latitude":17.9689,"longitude":79.5941,"temp":25.4,"humidity":85,"rain":0.0,"pressure":978.2,"uv_index":9.15,"wind_gusts":44.6,"aqi":65,"pm10":9.7,"pm2_5":8.8,"no2":10.6,"co":190.0,"o3":30.0,"so2":9.7,"mosquito_risk":7,"arthritis_risk":5,"migraine_risk":7,"frizz_risk":1,"updated_at":"2026-05-10T05:23:12.938433+05:30"},{"city":"Nizamabad","state":"Telangana","latitude":18.6725,"longitude":78.0941,"temp":26.4,"humidity":60,"rain":0.0,"pressure":964.0,"uv_index":9.1,"wind_gusts":31.7,"aqi":84,"pm10":30.9,"pm2_5":26.3,"no2":13.3,"co":238.0,"o3":66.0,"so2":5.9,"mosquito_risk":4,"arthritis_risk":5,"migraine_risk":7,"frizz_risk":1,"updated_at":"2026-05-10T05:23:12.938442+05:30"},{"city":"Mysore","state":"Karnataka","latitude":12.2958,"longitude":76.6396,"temp":21.5,"humidity":97,"rain":0.0,"pressure":926.0,"uv_index":9.1,"wind_gusts":36.4,"aqi":55,"pm10":15.5,"pm2_5":15.1,"no2":17.9,"co":213.0,"o3":40.0,"so2":7.9,"mosquito_risk":3,"arthritis_risk":5,"migraine_risk":7,"frizz_risk":1,"updated_at":"2026-05-10T05:23:12.938449+05:30"},{"city":"Mangalore","state":"Karnataka","latitude":12.9141,"longitude":74.856,"temp":25.0,"humidity":93,"rain":0.0,"pressure":1003.8,"uv_index":8.95,"wind_gusts":41.4,"aqi":65,"pm10":26.2,"pm2_5":22.5,"no2":12.2,"co":258.0,"o3":42.0,"so2":4.0,"mosquito_risk":7,"arthritis_risk":5,"migraine_risk":4,"frizz_risk":1,"updated_at":"2026-05-10T05:23:12.938457+05:30"},{"city":"Hubli-Dharwad","state":"Karnataka","latitude":15.3647,"longitude":75.124,"temp":22.6,"humidity":96,"rain":0.0,"pressure":938.5,"uv_index":7.2,"wind_gusts":47.9,"aqi":56,"pm10":29.9,"pm2_5":24.3,"no2":6.9,"co":323.0,"o3":59.0,"so2":0.4,"mosquito_risk":3,"arthritis_risk":5,"migraine_risk":7,"frizz_risk":1,"updated_at":"2026-05-10T05:23:12.938464+05:30"},{"city":"Belgaum","state":"Karnataka","latitude":15.8497,"longitude":74.4977,"temp":23.2,"humidity":69,"rain":0.0,"pressure":923.0,"uv_index":8.3,"wind_gusts":40.0,"aqi":86,"pm10":65.2,"pm2_5":56.0,"no2":48.3,"co":272.0,"o3":18.0,"so2":10.0,"mosquito_risk":3,"arthritis_risk":5,"migraine_risk":7,"frizz_risk":1,"updated_at":"2026-05-10T05:23:16.292102+05:30"},{"city":"Coimbatore","state":"Tamil Nadu","latitude":11.0168,"longitude":76.9558,"temp":23.1,"humidity":97,"rain":0.0,"pressure":959.0,"uv_index":9.15,"wind_gusts":34.6,"aqi":61,"pm10":14.6,"pm2_5":14.1,"no2":18.4,"co":280.0,"o3":28.0,"so2":4.6,"mosquito_risk":3,"arthritis_risk":5,"migraine_risk":7,"frizz_risk":1,"updated_at":"2026-05-10T05:23:16.292135+05:30"},{"city":"Madurai","state":"Tamil Nadu","latitude":9.9252,"longitude":78.1198,"temp":25.1,"humidity":91,"rain":0.0,"pressure":990.1,"uv_index":3.4,"wind_gusts":39.2,"aqi":61,"pm10":18.5,"pm2_5":18.3,"no2":25.3,"co":300.0,"o3":14.0,"so2":9.3,"mosquito_risk":7,"arthritis_risk":5,"migraine_risk":3,"frizz_risk":1,"updated_at":"2026-05-10T05:23:16.292146+05:30"},{"city":"Trichy","state":"Tamil Nadu","latitude":10.7905,"longitude":78.7047,"temp":25.8,"humidity":92,"rain":0.1,"pressure":997.4,"uv_index":4.85,"wind_gusts":40.0,"aqi":41,"pm10":13.0,"pm2_5":12.1,"no2":21.7,"co":252.0,"o3":18.0,"so2":8.5,"mosquito_risk":10,"arthritis_risk":5,"migraine_risk":3,"frizz_risk":1,"updated_at":"2026-05-10T05:23:16.292155+05:30"},{"city":"Salem","state":"Tamil Nadu","latitude":11.6643,"longitude":78.146,"temp":24.3,"humidity":92,"rain":0.0,"pressure":975.3,"uv_index":8.5,"wind_gusts":50.8,"aqi":55,"pm10":21.5,"pm2_5":21.1,"no2":23.1,"co":328.0,"o3":25.0,"so2":10.7,"mosquito_risk":3,"arthritis_risk":5,"migraine_risk":7,"frizz_risk":1,"updated_at":"2026-05-10T05:23:16.292163+05:30"},{"city":"Tirunelveli","state":"Tamil Nadu","latitude":8.7139,"longitude":77.7567,"temp":25.5,"humidity":95,"rain":0.1,"pressure":1000.8,"uv_index":3.85,"wind_gusts":34.9,"aqi":60,"pm10":17.9,"pm2_5":17.5,"no2":12.7,"co":228.0,"o3":37.0,"so2":4.3,"mosquito_risk":10,"arthritis_risk":5,"migraine_risk":0,"frizz_risk":1,"updated_at":"2026-05-10T05:23:16.292172+05:30"},{"city":"Vellore","state":"Tamil Nadu","latitude":12.9165,"longitude":79.1325,"temp":24.9,"humidity":92,"rain":0.0,"pressure":983.3,"uv_index":9.25,"wind_gusts":34.9,"aqi":62,"pm10":40.2,"pm2_5":39.1,"no2":27.9,"co":287.0,"o3":10.0,"so2":10.7,"mosquito_risk":3,"arthritis_risk":5,"migraine_risk":7,"frizz_risk":1,"updated_at":"2026-05-10T05:23:16.292180+05:30"},{"city":"Erode","state":"Tamil Nadu","latitude":11.341,"longitude":77.7172,"temp":25.2,"humidity":91,"rain":0.0,"pressure":987.0,"uv_index":6.2,"wind_gusts":33.5,"aqi":64,"pm10":26.4,"pm2_5":25.6,"no2":25.1,"co":318.0,"o3":27.0,"so2":6.0,"mosquito_risk":7,"arthritis_risk":5,"migraine_risk":7,"frizz_risk":1,"updated_at":"2026-05-10T05:23:16.292188+05:30"},{"city":"Kochi","state":"Kerala","latitude":9.9312,"longitude":76.2673,"temp":26.3,"humidity":92,"rain":0.0,"pressure":1005.2,"uv_index":8.65,"wind_gusts":24.1,"aqi":72,"pm10":26.6,"pm2_5":26.2,"no2":17.9,"co":272.0,"o3":19.0,"so2":3.7,"mosquito_risk":7,"arthritis_risk":5,"migraine_risk":4,"frizz_risk":1,"updated_at":"2026-05-10T05:23:16.292196+05:30"},{"city":"Thiruvananthapuram","state":"Kerala","latitude":8.5241,"longitude":76.9366,"temp":24.4,"humidity":96,"rain":0.0,"pressure":1004.6,"uv_index":2.8,"wind_gusts":25.2,"aqi":40,"pm10":11.7,"pm2_5":10.9,"no2":6.3,"co":368.0,"o3":81.0,"so2":4.6,"mosquito_risk":3,"arthritis_risk":5,"migraine_risk":0,"frizz_risk":1,"updated_at":"2026-05-10T05:23:16.292203+05:30"},{"city":"Kozhikode","state":"Kerala","latitude":11.2588,"longitude":75.7804,"temp":25.0,"humidity":92,"rain":0.0,"pressure":1004.3,"uv_index":8.85,"wind_gusts":38.2,"aqi":47,"pm10":13.4,"pm2_5":12.1,"no2":5.2,"co":360.0,"o3":88.0,"so2":3.2,"mosquito_risk":7,"arthritis_risk":5,"migraine_risk":4,"frizz_risk":1,"updated_at":"2026-05-10T05:23:16.292211+05:30"},{"city":"Thrissur","state":"Kerala","latitude":10.5276,"longitude":76.2144,"temp":24.4,"humidity":96,"rain":0.0,"pressure":1003.5,"uv_index":8.95,"wind_gusts":32.4,"aqi":74,"pm10":28.9,"pm2_5":28.2,"no2":13.1,"co":292.0,"o3":43.0,"so2":3.9,"mosquito_risk":3,"arthritis_risk":5,"migraine_risk":4,"frizz_risk":1,"updated_at":"2026-05-10T05:23:16.292219+05:30"},{"city":"Kannur","state":"Kerala","latitude":11.8745,"longitude":75.3704,"temp":25.6,"humidity":90,"rain":0.0,"pressure":1003.7,"uv_index":8.75,"wind_gusts":45.4,"aqi":57,"pm10":19.3,"pm2_5":17.3,"no2":13.1,"co":273.0,"o3":40.0,"so2":1.9,"mosquito_risk":7,"arthritis_risk":5,"migraine_risk":4,"frizz_risk":1,"updated_at":"2026-05-10T05:23:16.292226+05:30"},{"city":"Patna","state":"Bihar","latitude":25.5941,"longitude":85.1376,"temp":23.0,"humidity":89,"rain":0.0,"pressure":1002.5,"uv_index":8.65,"wind_gusts":34.2,"aqi":130,"pm10":49.5,"pm2_5":43.0,"no2":12.8,"co":382.0,"o3":104.0,"so2":15.5,"mosquito_risk":3,"arthritis_risk":5,"migraine_risk":4,"frizz_risk":1,"updated_at":"2026-05-10T05:23:16.292233+05:30"},{"city":"Gaya","state":"Bihar","latitude":24.7914,"longitude":85.0002,"temp":21.3,"humidity":72,"rain":0.0,"pressure":995.0,"uv_index":8.7,"wind_gusts":33.5,"aqi":113,"pm10":47.4,"pm2_5":41.2,"no2":17.5,"co":434.0,"o3":77.0,"so2":23.8,"mosquito_risk":3,"arthritis_risk":5,"migraine_risk":7,"frizz_risk":0,"updated_at":"2026-05-10T05:23:16.292241+05:30"},{"city":"Muzaffarpur","state":"Bihar","latitude":26.1209,"longitude":85.3647,"temp":22.9,"humidity":81,"rain":0.0,"pressure":1002.7,"uv_index":8.65,"wind_gusts":31.0,"aqi":136,"pm10":53.7,"pm2_5":46.6,"no2":15.6,"co":401.0,"o3":81.0,"so2":13.5,"mosquito_risk":3,"arthritis_risk":5,"migraine_risk":4,"frizz_risk":1,"updated_at":"2026-05-10T05:23:16.292248+05:30"},{"city":"Bhagalpur","state":"Bihar","latitude":25.2425,"longitude":87.0117,"temp":22.9,"humidity":81,"rain":0.0,"pressure":1003.6,"uv_index":8.6,"wind_gusts":25.2,"aqi":139,"pm10":61.7,"pm2_5":52.3,"no2":16.2,"co":404.0,"o3":94.0,"so2":19.7,"mosquito_risk":3,"arthritis_risk":5,"migraine_risk":4,"frizz_risk":1,"updated_at":"2026-05-10T05:23:16.292255+05:30"},{"city":"Ranchi","state":"Jharkhand","latitude":23.3441,"longitude":85.3096,"temp":20.8,"humidity":83,"rain":0.0,"pressure":938.3,"uv_index":9.15,"wind_gusts":46.1,"aqi":92,"pm10":56.0,"pm2_5":41.3,"no2":14.0,"co":313.0,"o3":108.0,"so2":30.6,"mosquito_risk":3,"arthritis_risk":5,"migraine_risk":7,"frizz_risk":1,"updated_at":"2026-05-10T05:23:16.292262+05:30"},{"city":"Jamshedpur","state":"Jharkhand","latitude":22.8046,"longitude":86.2029,"temp":23.7,"humidity":85,"rain":0.0,"pressure":992.4,"uv_index":8.95,"wind_gusts":32.4,"aqi":106,"pm10":69.8,"pm2_5":57.3,"no2":45.7,"co":342.0,"o3":16.0,"so2":20.7,"mosquito_risk":3,"arthritis_risk":5,"migraine_risk":7,"frizz_risk":1,"updated_at":"2026-05-10T05:23:16.292269+05:30"},{"city":"Dhanbad","state":"Jharkhand","latitude":23.7957,"longitude":86.4304,"temp":22.1,"humidity":84,"rain":0.0,"pressure":981.6,"uv_index":8.9,"wind_gusts":29.9,"aqi":154,"pm10":84.1,"pm2_5":76.1,"no2":57.9,"co":317.0,"o3":23.0,"so2":69.4,"mosquito_risk":3,"arthritis_risk":5,"migraine_risk":7,"frizz_risk":1,"updated_at":"2026-05-10T05:23:16.292277+05:30"},{"city":"Bokaro","state":"Jharkhand","latitude":23.6693,"longitude":86.1511,"temp":21.2,"humidity":92,"rain":0.0,"pressure":985.5,"uv_index":8.9,"wind_gusts":27.0,"aqi":154,"pm10":90.8,"pm2_5":81.3,"no2":67.6,"co":1175.0,"o3":9.0,"so2":71.1,"mosquito_risk":3,"arthritis_risk":5,"migraine_risk":7,"frizz_risk":1,"updated_at":"2026-05-10T05:23:16.292284+05:30"},{"city":"Bhubaneswar","state":"Odisha","latitude":20.2961,"longitude":85.8245,"temp":25.1,"humidity":93,"rain":0.0,"pressure":1003.3,"uv_index":9.05,"wind_gusts":32.4,"aqi":53,"pm10":15.2,"pm2_5":13.0,"no2":10.7,"co":268.0,"o3":45.0,"so2":3.6,"mosquito_risk":7,"arthritis_risk":5,"migraine_risk":4,"frizz_risk":1,"updated_at":"2026-05-10T05:23:16.292292+05:30"},{"city":"Cuttack","state":"Odisha","latitude":20.4625,"longitude":85.8828,"temp":25.3,"humidity":94,"rain":0.0,"pressure":1005.2,"uv_index":9.1,"wind_gusts":28.1,"aqi":53,"pm10":15.2,"pm2_5":13.0,"no2":10.7,"co":312.0,"o3":45.0,"so2":3.6,"mosquito_risk":7,"arthritis_risk":5,"migraine_risk":4,"frizz_risk":1,"updated_at":"2026-05-10T05:23:16.292299+05:30"},{"city":"Rourkela","state":"Odisha","latitude":22.2604,"longitude":84.8536,"temp":23.1,"humidity":86,"rain":0.0,"pressure":985.8,"uv_index":8.85,"wind_gusts":38.2,"aqi":118,"pm10":72.4,"pm2_5":58.2,"no2":31.2,"co":512.0,"o3":60.0,"so2":57.0,"mosquito_risk":3,"arthritis_risk":5,"migraine_risk":7,"frizz_risk":1,"updated_at":"2026-05-10T05:23:16.292306+05:30"},{"city":"Raipur","state":"Chhattisgarh","latitude":21.2514,"longitude":81.6296,"temp":25.5,"humidity":63,"rain":0.0,"pressure":973.9,"uv_index":8.9,"wind_gusts":35.6,"aqi":91,"pm10":50.6,"pm2_5":34.1,"no2":25.3,"co":520.0,"o3":85.0,"so2":4.8,"mosquito_risk":7,"arthritis_risk":5,"migraine_risk":7,"frizz_risk":1,"updated_at":"2026-05-10T05:23:16.292313+05:30"},{"city":"Bhilai","state":"Chhattisgarh","latitude":21.1938,"longitude":81.3509,"temp":25.6,"humidity":66,"rain":0.0,"pressure":974.3,"uv_index":8.95,"wind_gusts":33.1,"aqi":92,"pm10":48.0,"pm2_5":33.8,"no2":30.9,"co":495.0,"o3":86.0,"so2":5.2,"mosquito_risk":7,"arthritis_risk":5,"migraine_risk":7,"frizz_risk":1,"updated_at":"2026-05-10T05:23:16.292319+05:30"},{"city":"Guwahati","state":"Assam","latitude":26.1158,"longitude":91.7086,"temp":21.6,"humidity":93,"rain":0.0,"pressure":1004.0,"uv_index":8.6,"wind_gusts":24.1,"aqi":93,"pm10":41.1,"pm2_5":33.8,"no2":12.5,"co":391.0,"o3":33.0,"so2":1.4,"mosquito_risk":3,"arthritis_risk":5,"migraine_risk":4,"frizz_risk":1,"updated_at":"2026-05-10T05:23:16.292326+05:30"},{"city":"Agartala","state":"Tripura","latitude":23.8315,"longitude":91.2868,"temp":22.7,"humidity":95,"rain":0.0,"pressure":1008.1,"uv_index":7.65,"wind_gusts":32.0,"aqi":154,"pm10":67.8,"pm2_5":64.0,"no2":39.2,"co":514.0,"o3":38.0,"so2":10.8,"mosquito_risk":3,"arthritis_risk":0,"migraine_risk":4,"frizz_risk":1,"updated_at":"2026-05-10T05:23:16.292334+05:30"},{"city":"Shillong","state":"Meghalaya","latitude":25.5788,"longitude":91.8933,"temp":16.7,"humidity":84,"rain":0.0,"pressure":858.6,"uv_index":9.05,"wind_gusts":24.8,"aqi":82,"pm10":43.0,"pm2_5":32.8,"no2":12.0,"co":313.0,"o3":39.0,"so2":2.3,"mosquito_risk":3,"arthritis_risk":10,"migraine_risk":7,"frizz_risk":0,"updated_at":"2026-05-10T05:23:16.292341+05:30"},{"city":"Imphal","state":"Manipur","latitude":24.817,"longitude":93.9368,"temp":18.0,"humidity":87,"rain":0.0,"pressure":924.4,"uv_index":7.0,"wind_gusts":22.0,"aqi":98,"pm10":59.1,"pm2_5":51.9,"no2":27.5,"co":582.0,"o3":43.0,"so2":5.3,"mosquito_risk":3,"arthritis_risk":10,"migraine_risk":7,"frizz_risk":0,"updated_at":"2026-05-10T05:23:16.292348+05:30"},{"city":"Aizawl","state":"Mizoram","latitude":23.7271,"longitude":92.7176,"temp":15.5,"humidity":84,"rain":0.0,"pressure":892.1,"uv_index":8.55,"wind_gusts":14.0,"aqi":88,"pm10":57.9,"pm2_5":39.0,"no2":12.3,"co":387.0,"o3":33.0,"so2":2.8,"mosquito_risk":3,"arthritis_risk":10,"migraine_risk":7,"frizz_risk":0,"updated_at":"2026-05-10T05:23:16.292355+05:30"},{"city":"Kohima","state":"Nagaland","latitude":25.6701,"longitude":94.1077,"temp":15.1,"humidity":89,"rain":0.0,"pressure":855.7,"uv_index":7.95,"wind_gusts":24.1,"aqi":75,"pm10":35.5,"pm2_5":26.5,"no2":11.6,"co":289.0,"o3":43.0,"so2":1.6,"mosquito_risk":3,"arthritis_risk":10,"migraine_risk":7,"frizz_risk":0,"updated_at":"2026-05-10T05:23:16.292363+05:30"},{"city":"Gangtok","state":"Sikkim","latitude":27.3314,"longitude":88.6138,"temp":12.7,"humidity":84,"rain":0.0,"pressure":838.3,"uv_index":7.1,"wind_gusts":34.9,"aqi":57,"pm10":17.3,"pm2_5":11.7,"no2":10.6,"co":300.0,"o3":65.0,"so2":0.7,"mosquito_risk":3,"arthritis_risk":10,"migraine_risk":7,"frizz_risk":0,"updated_at":"2026-05-10T05:23:16.292370+05:30"},{"city":"Siliguri","state":"West Bengal","latitude":26.7271,"longitude":88.3953,"temp":20.6,"humidity":91,"rain":0.3,"pressure":996.5,"uv_index":8.1,"wind_gusts":20.9,"aqi":97,"pm10":38.4,"pm2_5":32.4,"no2":22.0,"co":416.0,"o3":46.0,"so2":3.0,"mosquito_risk":6,"arthritis_risk":5,"migraine_risk":7,"frizz_risk":1,"updated_at":"2026-05-10T05:23:19.641193+05:30"},{"city":"Durgapur","state":"West Bengal","latitude":23.5204,"longitude":87.3119,"temp":23.0,"humidity":87,"rain":0.0,"pressure":996.5,"uv_index":8.85,"wind_gusts":32.8,"aqi":150,"pm10":92.0,"pm2_5":85.7,"no2":42.3,"co":553.0,"o3":39.0,"so2":44.4,"mosquito_risk":3,"arthritis_risk":5,"migraine_risk":7,"frizz_risk":1,"updated_at":"2026-05-10T05:23:19.641226+05:30"},{"city":"Asansol","state":"West Bengal","latitude":23.6739,"longitude":86.9524,"temp":22.5,"humidity":89,"rain":0.0,"pressure":995.2,"uv_index":8.85,"wind_gusts":26.3,"aqi":144,"pm10":80.6,"pm2_5":74.0,"no2":45.0,"co":900.0,"o3":30.0,"so2":55.5,"mosquito_risk":3,"arthritis_risk":5,"migraine_risk":7,"frizz_risk":1,"updated_at":"2026-05-10T05:23:19.641237+05:30"},{"city":"Pondicherry","state":"Puducherry","latitude":11.9139,"longitude":79.8145,"temp":25.6,"humidity":93,"rain":0.1,"pressure":1006.4,"uv_index":8.0,"wind_gusts":39.6,"aqi":21,"pm10":5.3,"pm2_5":4.3,"no2":5.6,"co":239.0,"o3":44.0,"so2":1.5,"mosquito_risk":10,"arthritis_risk":5,"migraine_risk":4,"frizz_risk":1,"updated_at":"2026-05-10T05:23:19.641246+05:30"},{"city":"Port Blair","state":"Andaman and Nicobar Islands","latitude":11.6234,"longitude":92.7265,"temp":24.8,"humidity":96,"rain":0.0,"pressure":1006.9,"uv_index":9.0,"wind_gusts":29.9,"aqi":27,"pm10":1.1,"pm2_5":0.8,"no2":0.3,"co":179.0,"o3":59.0,"so2":0.1,"mosquito_risk":3,"arthritis_risk":5,"migraine_risk":4,"frizz_risk":1,"updated_at":"2026-05-10T05:23:19.641254+05:30"},{"city":"Haridwar","state":"Uttarakhand","latitude":29.9457,"longitude":78.1642,"temp":20.3,"humidity":86,"rain":0.0,"pressure":974.7,"uv_index":7.45,"wind_gusts":28.8,"aqi":107,"pm10":66.1,"pm2_5":50.3,"no2":32.2,"co":325.0,"o3":17.0,"so2":4.4,"mosquito_risk":3,"arthritis_risk":5,"migraine_risk":7,"frizz_risk":1,"updated_at":"2026-05-10T05:23:19.641271+05:30"},{"city":"Rishikesh","state":"Uttarakhand","latitude":30.0869,"longitude":78.2676,"temp":18.0,"humidity":92,"rain":0.0,"pressure":967.2,"uv_index":7.55,"wind_gusts":23.8,"aqi":94,"pm10":80.6,"pm2_5":45.9,"no2":17.4,"co":365.0,"o3":57.0,"so2":3.8,"mosquito_risk":3,"arthritis_risk":10,"migraine_risk":7,"frizz_risk":1,"updated_at":"2026-05-10T05:23:19.641287+05:30"},{"city":"Nainital","state":"Uttarakhand","latitude":29.3919,"longitude":79.4542,"temp":11.0,"humidity":88,"rain":0.0,"pressure":804.8,"uv_index":8.1,"wind_gusts":32.8,"aqi":83,"pm10":50.6,"pm2_5":36.6,"no2":17.8,"co":273.0,"o3":66.0,"so2":3.8,"mosquito_risk":3,"arthritis_risk":10,"migraine_risk":7,"frizz_risk":0,"updated_at":"2026-05-10T05:23:19.641302+05:30"},{"city":"Mussoorie","state":"Uttarakhand","latitude":30.4599,"longitude":78.0664,"temp":12.2,"humidity":89,"rain":0.0,"pressure":802.1,"uv_index":7.95,"wind_gusts":39.2,"aqi":94,"pm10":62.9,"pm2_5":41.7,"no2":32.0,"co":295.0,"o3":17.0,"so2":5.9,"mosquito_risk":3,"arthritis_risk":10,"migraine_risk":7,"frizz_risk":0,"updated_at":"2026-05-10T05:23:19.641318+05:30"},{"city":"Dharamshala","state":"Himachal Pradesh","latitude":32.219,"longitude":76.3234,"temp":19.3,"humidity":69,"rain":0.0,"pressure":869.0,"uv_index":7.7,"wind_gusts":35.6,"aqi":80,"pm10":36.6,"pm2_5":15.7,"no2":12.2,"co":295.0,"o3":56.0,"so2":0.4,"mosquito_risk":3,"arthritis_risk":5,"migraine_risk":7,"frizz_risk":0,"updated_at":"2026-05-10T05:23:19.641339+05:30"},{"city":"Dalhousie","state":"Himachal Pradesh","latitude":32.5387,"longitude":75.971,"temp":8.7,"humidity":95,"rain":0.0,"pressure":800.3,"uv_index":7.95,"wind_gusts":35.3,"aqi":130,"pm10":74.5,"pm2_5":43.1,"no2":19.4,"co":328.0,"o3":47.0,"so2":2.2,"mosquito_risk":3,"arthritis_risk":10,"migraine_risk":7,"frizz_risk":0,"updated_at":"2026-05-10T05:23:19.641358+05:30"},{"city":"Patiala","state":"Punjab","latitude":30.3398,"longitude":76.3869,"temp":23.0,"humidity":78,"rain":0.0,"pressure":978.1,"uv_index":7.6,"wind_gusts":34.9,"aqi":219,"pm10":329.7,"pm2_5":70.8,"no2":9.7,"co":485.0,"o3":80.0,"so2":6.8,"mosquito_risk":3,"arthritis_risk":5,"migraine_risk":7,"frizz_risk":1,"updated_at":"2026-05-10T05:23:19.641372+05:30"},{"city":"Bhatinda","state":"Punjab","latitude":30.211,"longitude":74.9455,"temp":25.7,"humidity":61,"rain":0.0,"pressure":982.9,"uv_index":8.25,"wind_gusts":29.2,"aqi":355,"pm10":523.4,"pm2_5":114.8,"no2":7.2,"co":441.0,"o3":94.0,"so2":12.2,"mosquito_risk":7,"arthritis_risk":5,"migraine_risk":7,"frizz_risk":1,"updated_at":"2026-05-10T05:23:19.641384+05:30"},{"city":"Rohtak","state":"Haryana","latitude":28.8955,"longitude":76.6066,"temp":23.8,"humidity":75,"rain":0.0,"pressure":981.8,"uv_index":7.7,"wind_gusts":29.9,"aqi":294,"pm10":464.7,"pm2_5":92.9,"no2":19.6,"co":446.0,"o3":73.0,"so2":22.3,"mosquito_risk":3,"arthritis_risk":5,"migraine_risk":7,"frizz_risk":1,"updated_at":"2026-05-10T05:23:19.641391+05:30"},{"city":"Panipat","state":"Haryana","latitude":29.3909,"longitude":76.9635,"temp":22.6,"humidity":80,"rain":0.0,"pressure":980.6,"uv_index":7.55,"wind_gusts":31.0,"aqi":604,"pm10":558.8,"pm2_5":91.7,"no2":16.9,"co":403.0,"o3":74.0,"so2":17.7,"mosquito_risk":3,"arthritis_risk":5,"migraine_risk":7,"frizz_risk":1,"updated_at":"2026-05-10T05:23:19.641398+05:30"},{"city":"Mathura","state":"Uttar Pradesh","latitude":27.4924,"longitude":77.6737,"temp":23.2,"humidity":73,"rain":0.0,"pressure":986.6,"uv_index":7.9,"wind_gusts":22.0,"aqi":688,"pm10":316.6,"pm2_5":73.8,"no2":7.8,"co":374.0,"o3":84.0,"so2":8.7,"mosquito_risk":3,"arthritis_risk":5,"migraine_risk":7,"frizz_risk":1,"updated_at":"2026-05-10T05:23:19.641405+05:30"},{"city":"Vrindavan","state":"Uttar Pradesh","latitude":27.5823,"longitude":77.7027,"temp":23.5,"humidity":72,"rain":0.0,"pressure":987.1,"uv_index":7.9,"wind_gusts":22.3,"aqi":688,"pm10":316.6,"pm2_5":73.8,"no2":7.8,"co":380.0,"o3":84.0,"so2":8.7,"mosquito_risk":3,"arthritis_risk":5,"migraine_risk":7,"frizz_risk":1,"updated_at":"2026-05-10T05:23:19.641442+05:30"},{"city":"Ayodhya","state":"Uttar Pradesh","latitude":26.7922,"longitude":82.1998,"temp":23.0,"humidity":75,"rain":0.0,"pressure":996.9,"uv_index":8.2,"wind_gusts":32.0,"aqi":104,"pm10":50.4,"pm2_5":43.9,"no2":18.1,"co":437.0,"o3":67.0,"so2":9.4,"mosquito_risk":3,"arthritis_risk":5,"migraine_risk":7,"frizz_risk":1,"updated_at":"2026-05-10T05:23:19.641451+05:30"},{"city":"Ratlam","state":"Madhya Pradesh","latitude":23.3315,"longitude":75.0367,"temp":25.5,"humidity":34,"rain":0.0,"pressure":952.4,"uv_index":8.5,"wind_gusts":43.6,"aqi":49,"pm10":15.8,"pm2_5":10.1,"no2":3.8,"co":232.0,"o3":74.0,"so2":3.4,"mosquito_risk":4,"arthritis_risk":5,"migraine_risk":7,"frizz_risk":0,"updated_at":"2026-05-10T05:23:19.641458+05:30"},{"city":"Sagar","state":"Madhya Pradesh","latitude":23.8388,"longitude":78.7378,"temp":23.1,"humidity":54,"rain":0.0,"pressure":947.8,"uv_index":8.65,"wind_gusts":35.3,"aqi":59,"pm10":34.2,"pm2_5":22.0,"no2":10.4,"co":298.0,"o3":77.0,"so2":6.0,"mosquito_risk":0,"arthritis_risk":5,"migraine_risk":7,"frizz_risk":0,"updated_at":"2026-05-10T05:23:19.641464+05:30"},{"city":"Satna","state":"Madhya Pradesh","latitude":24.6005,"longitude":80.8322,"temp":22.5,"humidity":71,"rain":0.0,"pressure":970.1,"uv_index":8.65,"wind_gusts":28.4,"aqi":113,"pm10":48.5,"pm2_5":44.0,"no2":10.7,"co":414.0,"o3":107.0,"so2":15.5,"mosquito_risk":3,"arthritis_risk":5,"migraine_risk":7,"frizz_risk":1,"updated_at":"2026-05-10T05:23:19.641475+05:30"},{"city":"Akola","state":"Maharashtra","latitude":20.7002,"longitude":77.0082,"temp":27.5,"humidity":42,"rain":0.0,"pressure":973.6,"uv_index":8.9,"wind_gusts":39.6,"aqi":86,"pm10":61.7,"pm2_5":33.3,"no2":24.1,"co":286.0,"o3":42.0,"so2":8.9,"mosquito_risk":4,"arthritis_risk":5,"migraine_risk":7,"frizz_risk":0,"updated_at":"2026-05-10T05:23:19.641485+05:30"},{"city":"Amravati","state":"Maharashtra","latitude":20.9374,"longitude":77.7796,"temp":27.8,"humidity":49,"rain":0.0,"pressure":966.5,"uv_index":8.85,"wind_gusts":38.2,"aqi":84,"pm10":63.8,"pm2_5":34.0,"no2":25.1,"co":317.0,"o3":39.0,"so2":6.3,"mosquito_risk":4,"arthritis_risk":5,"migraine_risk":7,"frizz_risk":0,"updated_at":"2026-05-10T05:23:19.641493+05:30"},{"city":"Latur","state":"Maharashtra","latitude":18.4088,"longitude":76.5604,"temp":26.2,"humidity":51,"rain":0.0,"pressure":938.7,"uv_index":9.1,"wind_gusts":37.4,"aqi":84,"pm10":36.3,"pm2_5":28.0,"no2":13.8,"co":306.0,"o3":68.0,"so2":3.8,"mosquito_risk":4,"arthritis_risk":5,"migraine_risk":7,"frizz_risk":0,"updated_at":"2026-05-10T05:23:19.641500+05:30"},{"city":"Nanded","state":"Maharashtra","latitude":19.1383,"longitude":77.3091,"temp":26.2,"humidity":58,"rain":0.0,"pressure":967.3,"uv_index":9.0,"wind_gusts":31.0,"aqi":84,"pm10":50.1,"pm2_5":35.3,"no2":23.8,"co":326.0,"o3":45.0,"so2":4.6,"mosquito_risk":4,"arthritis_risk":5,"migraine_risk":7,"frizz_risk":1,"updated_at":"2026-05-10T05:23:19.641507+05:30"},{"city":"Gulbarga","state":"Karnataka","latitude":17.3297,"longitude":76.8343,"temp":26.2,"humidity":57,"rain":0.0,"pressure":957.9,"uv_index":9.1,"wind_gusts":35.3,"aqi":62,"pm10":21.5,"pm2_5":18.7,"no2":13.2,"co":214.0,"o3":53.0,"so2":5.9,"mosquito_risk":4,"arthritis_risk":5,"migraine_risk":7,"frizz_risk":1,"updated_at":"2026-05-10T05:23:19.641513+05:30"},{"city":"Bidar","state":"Karnataka","latitude":17.9104,"longitude":77.5199,"temp":24.9,"humidity":61,"rain":0.0,"pressure":934.4,"uv_index":9.15,"wind_gusts":34.9,"aqi":73,"pm10":27.4,"pm2_5":23.5,"no2":13.6,"co":231.0,"o3":65.0,"so2":6.5,"mosquito_risk":3,"arthritis_risk":5,"migraine_risk":7,"frizz_risk":1,"updated_at":"2026-05-10T05:23:19.641519+05:30"},{"city":"Hospet","state":"Karnataka","latitude":15.2689,"longitude":76.3909,"temp":24.4,"humidity":77,"rain":0.0,"pressure":954.3,"uv_index":9.2,"wind_gusts":39.2,"aqi":51,"pm10":13.2,"pm2_5":12.2,"no2":14.3,"co":185.0,"o3":34.0,"so2":4.7,"mosquito_risk":3,"arthritis_risk":5,"migraine_risk":7,"frizz_risk":1,"updated_at":"2026-05-10T05:23:19.641526+05:30"},{"city":"Tirupur","state":"Tamil Nadu","latitude":11.1085,"longitude":77.3411,"temp":24.1,"humidity":96,"rain":0.0,"pressure":972.8,"uv_index":7.0,"wind_gusts":28.1,"aqi":72,"pm10":26.1,"pm2_5":25.3,"no2":29.6,"co":266.0,"o3":16.0,"so2":6.4,"mosquito_risk":3,"arthritis_risk":5,"migraine_risk":7,"frizz_risk":1,"updated_at":"2026-05-10T05:23:19.641532+05:30"},{"city":"Alappuzha","state":"Kerala","latitude":9.4981,"longitude":76.3388,"temp":26.1,"humidity":90,"rain":0.0,"pressure":1005.3,"uv_index":7.55,"wind_gusts":30.2,"aqi":59,"pm10":18.7,"pm2_5":17.9,"no2":13.1,"co":274.0,"o3":59.0,"so2":4.5,"mosquito_risk":7,"arthritis_risk":5,"migraine_risk":4,"frizz_risk":1,"updated_at":"2026-05-10T05:23:19.641539+05:30"},{"city":"Munnar","state":"Kerala","latitude":10.0889,"longitude":77.0595,"temp":15.9,"humidity":99,"rain":0.0,"pressure":852.2,"uv_index":5.4,"wind_gusts":22.7,"aqi":43,"pm10":7.5,"pm2_5":7.4,"no2":10.9,"co":157.0,"o3":25.0,"so2":1.7,"mosquito_risk":3,"arthritis_risk":10,"migraine_risk":3,"frizz_risk":0,"updated_at":"2026-05-10T05:23:19.641546+05:30"},{"city":"Silchar","state":"Assam","latitude":24.8333,"longitude":92.7789,"temp":22.6,"humidity":94,"rain":0.0,"pressure":1006.6,"uv_index":8.1,"wind_gusts":15.8,"aqi":128,"pm10":76.1,"pm2_5":60.5,"no2":26.9,"co":635.0,"o3":28.0,"so2":4.6,"mosquito_risk":3,"arthritis_risk":5,"migraine_risk":4,"frizz_risk":1,"updated_at":"2026-05-10T05:23:19.641552+05:30"},{"city":"Dibrugarh","state":"Assam","latitude":27.4728,"longitude":94.912,"temp":23.2,"humidity":92,"rain":0.0,"pressure":997.4,"uv_index":8.75,"wind_gusts":45.4,"aqi":100,"pm10":55.9,"pm2_5":47.1,"no2":32.9,"co":658.0,"o3":30.0,"so2":1.5,"mosquito_risk":3,"arthritis_risk":5,"migraine_risk":7,"frizz_risk":1,"updated_at":"2026-05-10T05:23:19.641558+05:30"}]