[{"city":"Delhi","state":"Delhi","latitude":28.6139,"longitude":77.209,"temp":33.1,"humidity":35,"rain":0.0,"pressure":987.7,"uv_index":6.0,"wind_gusts":24.8,"aqi":166,"pm10":163.0,"pm2_5":52.6,"mosquito_risk":0,"arthritis_risk":5,"migraine_risk":3,"frizz_risk":0,"updated_at":"2026-03-08T13:02:54.453197+05:30"},{"city":"Mumbai","state":"Maharashtra","latitude":19.076,"longitude":72.8777,"temp":27.7,"humidity":78,"rain":0.0,"pressure":1009.8,"uv_index":7.5,"wind_gusts":25.9,"aqi":105,"pm10":60.3,"pm2_5":58.7,"mosquito_risk":7,"arthritis_risk":0,"migraine_risk":4,"frizz_risk":1,"updated_at":"2026-03-08T13:02:54.453232+05:30"},{"city":"Bangalore","state":"Karnataka","latitude":12.9716,"longitude":77.5946,"temp":32.0,"humidity":28,"rain":0.0,"pressure":913.7,"uv_index":9.25,"wind_gusts":27.4,"aqi":108,"pm10":42.3,"pm2_5":32.9,"mosquito_risk":0,"arthritis_risk":5,"migraine_risk":7,"frizz_risk":0,"updated_at":"2026-03-08T13:02:54.453247+05:30"},{"city":"Hyderabad","state":"Telangana","latitude":17.385,"longitude":78.4867,"temp":35.5,"humidity":22,"rain":0.0,"pressure":955.4,"uv_index":8.55,"wind_gusts":25.6,"aqi":103,"pm10":39.8,"pm2_5":27.5,"mosquito_risk":0,"arthritis_risk":5,"migraine_risk":10,"frizz_risk":0,"updated_at":"2026-03-08T13:02:54.453256+05:30"},{"city":"Chennai","state":"Tamil Nadu","latitude":13.0827,"longitude":80.2707,"temp":32.3,"humidity":51,"rain":0.0,"pressure":1009.5,"uv_index":8.95,"wind_gusts":32.4,"aqi":79,"pm10":40.9,"pm2_5":27.2,"mosquito_risk":0,"arthritis_risk":0,"migraine_risk":4,"frizz_risk":1,"updated_at":"2026-03-08T13:02:54.453264+05:30"},{"city":"Kolkata","state":"West Bengal","latitude":22.5726,"longitude":88.3639,"temp":30.0,"humidity":59,"rain":0.0,"pressure":1009.9,"uv_index":7.25,"wind_gusts":15.8,"aqi":152,"pm10":61.9,"pm2_5":51.2,"mosquito_risk":4,"arthritis_risk":0,"migraine_risk":4,"frizz_risk":1,"updated_at":"2026-03-08T13:02:54.453272+05:30"},{"city":"Pune","state":"Maharashtra","latitude":18.5204,"longitude":73.8567,"temp":37.6,"humidity":18,"rain":0.0,"pressure":950.9,"uv_index":8.05,"wind_gusts":29.5,"aqi":109,"pm10":14.8,"pm2_5":13.4,"mosquito_risk":0,"arthritis_risk":5,"migraine_risk":10,"frizz_risk":0,"updated_at":"2026-03-08T13:02:54.453283+05:30"},{"city":"Ahmedabad","state":"Gujarat","latitude":23.0225,"longitude":72.5714,"temp":36.0,"humidity":27,"rain":0.0,"pressure":1006.1,"uv_index":7.35,"wind_gusts":16.6,"aqi":102,"pm10":19.8,"pm2_5":15.5,"mosquito_risk":0,"arthritis_risk":5,"migraine_risk":7,"frizz_risk":0,"updated_at":"2026-03-08T13:02:54.453292+05:30"},{"city":"Jaipur","state":"Rajasthan","latitude":26.9124,"longitude":75.7873,"temp":36.8,"humidity":13,"rain":0.0,"pressure":964.9,"uv_index":6.8,"wind_gusts":23.0,"aqi":84,"pm10":82.4,"pm2_5":16.2,"mosquito_risk":0,"arthritis_risk":5,"migraine_risk":10,"frizz_risk":0,"updated_at":"2026-03-08T13:02:54.453299+05:30"},{"city":"Lucknow","state":"Uttar Pradesh","latitude":26.8467,"longitude":80.9462,"temp":32.3,"humidity":43,"rain":0.0,"pressure":997.8,"uv_index":6.5,"wind_gusts":21.6,"aqi":181,"pm10":114.8,"pm2_5":75.2,"mosquito_risk":0,"arthritis_risk":5,"migraine_risk":7,"frizz_risk":1,"updated_at":"2026-03-08T13:02:54.453307+05:30"},{"city":"Kanpur","state":"Uttar Pradesh","latitude":26.4499,"longitude":80.3319,"temp":32.0,"humidity":48,"rain":0.0,"pressure":996.3,"uv_index":6.5,"wind_gusts":16.9,"aqi":175,"pm10":132.7,"pm2_5":70.3,"mosquito_risk":0,"arthritis_risk":5,"migraine_risk":7,"frizz_risk":1,"updated_at":"2026-03-08T13:02:54.453313+05:30"},{"city":"Chandigarh","state":"Chandigarh","latitude":30.7333,"longitude":76.7794,"temp":32.0,"humidity":41,"rain":0.0,"pressure":973.2,"uv_index":5.9,"wind_gusts":30.2,"aqi":155,"pm10":60.3,"pm2_5":39.7,"mosquito_risk":0,"arthritis_risk":5,"migraine_risk":3,"frizz_risk":1,"updated_at":"2026-03-08T13:02:54.453321+05:30"},{"city":"Srinagar","state":"Jammu and Kashmir","latitude":34.0837,"longitude":74.7973,"temp":20.2,"humidity":38,"rain":0.0,"pressure":849.7,"uv_index":6.8,"wind_gusts":16.2,"aqi":135,"pm10":46.8,"pm2_5":26.7,"mosquito_risk":0,"arthritis_risk":5,"migraine_risk":7,"frizz_risk":0,"updated_at":"2026-03-08T13:02:54.453327+05:30"},{"city":"Jammu","state":"Jammu and Kashmir","latitude":32.7266,"longitude":74.857,"temp":31.3,"humidity":41,"rain":0.0,"pressure":977.7,"uv_index":6.4,"wind_gusts":29.5,"aqi":132,"pm10":42.3,"pm2_5":23.8,"mosquito_risk":0,"arthritis_risk":5,"migraine_risk":7,"frizz_risk":1,"updated_at":"2026-03-08T13:02:54.453334+05:30"},{"city":"Amritsar","state":"Punjab","latitude":31.634,"longitude":74.8723,"temp":31.2,"humidity":50,"rain":0.0,"pressure":986.1,"uv_index":6.4,"wind_gusts":23.4,"aqi":165,"pm10":69.2,"pm2_5":45.1,"mosquito_risk":0,"arthritis_risk":5,"migraine_risk":7,"frizz_risk":1,"updated_at":"2026-03-08T13:02:54.453342+05:30"},{"city":"Ludhiana","state":"Punjab","latitude":30.901,"longitude":75.8573,"temp":32.4,"humidity":42,"rain":0.0,"pressure":983.6,"uv_index":6.15,"wind_gusts":27.7,"aqi":173,"pm10":81.5,"pm2_5":60.5,"mosquito_risk":0,"arthritis_risk":5,"migraine_risk":7,"frizz_risk":1,"updated_at":"2026-03-08T13:02:54.453349+05:30"},{"city":"Jalandhar","state":"Punjab","latitude":31.326,"longitude":75.5762,"temp":31.8,"humidity":44,"rain":0.0,"pressure":984.8,"uv_index":6.3,"wind_gusts":26.3,"aqi":171,"pm10":81.3,"pm2_5":59.1,"mosquito_risk":0,"arthritis_risk":5,"migraine_risk":7,"frizz_risk":1,"updated_at":"2026-03-08T13:02:54.453357+05:30"},{"city":"Dehradun","state":"Uttarakhand","latitude":30.6284,"longitude":78.0322,"temp":23.8,"humidity":42,"rain":0.0,"pressure":836.2,"uv_index":6.3,"wind_gusts":37.8,"aqi":104,"pm10":32.1,"pm2_5":16.3,"mosquito_risk":0,"arthritis_risk":5,"migraine_risk":7,"frizz_risk":0,"updated_at":"2026-03-08T13:02:54.453363+05:30"},{"city":"Shimla","state":"Himachal Pradesh","latitude":31.1048,"longitude":77.1734,"temp":22.6,"humidity":33,"rain":0.0,"pressure":792.1,"uv_index":6.35,"wind_gusts":51.8,"aqi":123,"pm10":31.5,"pm2_5":13.4,"mosquito_risk":0,"arthritis_risk":5,"migraine_risk":7,"frizz_risk":0,"updated_at":"2026-03-08T13:02:54.453370+05:30"},{"city":"Manali","state":"Himachal Pradesh","latitude":32.2396,"longitude":77.1887,"temp":25.1,"humidity":21,"rain":0.0,"pressure":827.5,"uv_index":8.05,"wind_gusts":30.6,"aqi":60,"pm10":20.8,"pm2_5":9.2,"mosquito_risk":4,"arthritis_risk":5,"migraine_risk":7,"frizz_risk":0,"updated_at":"2026-03-08T13:02:54.453377+05:30"},{"city":"Gurgaon","state":"Haryana","latitude":28.4595,"longitude":77.0266,"temp":33.3,"humidity":35,"rain":0.0,"pressure":986.3,"uv_index":6.1,"wind_gusts":19.8,"aqi":177,"pm10":469.4,"pm2_5":74.7,"mosquito_risk":0,"arthritis_risk":5,"migraine_risk":7,"frizz_risk":0,"updated_at":"2026-03-08T13:02:54.453383+05:30"},{"city":"Noida","state":"Uttar Pradesh","latitude":28.5355,"longitude":77.391,"temp":33.7,"humidity":34,"rain":0.0,"pressure":989.2,"uv_index":6.0,"wind_gusts":24.8,"aqi":177,"pm10":469.4,"pm2_5":74.7,"mosquito_risk":0,"arthritis_risk":5,"migraine_risk":3,"frizz_risk":0,"updated_at":"2026-03-08T13:02:54.453389+05:30"},{"city":"Ghaziabad","state":"Uttar Pradesh","latitude":28.6692,"longitude":77.4538,"temp":32.5,"humidity":40,"rain":0.0,"pressure":987.2,"uv_index":6.0,"wind_gusts":24.5,"aqi":168,"pm10":125.3,"pm2_5":57.7,"mosquito_risk":0,"arthritis_risk":5,"migraine_risk":3,"frizz_risk":1,"updated_at":"2026-03-08T13:02:54.453395+05:30"},{"city":"Faridabad","state":"Haryana","latitude":28.4089,"longitude":77.3178,"temp":33.0,"humidity":37,"rain":0.0,"pressure":988.5,"uv_index":6.05,"wind_gusts":21.6,"aqi":177,"pm10":469.4,"pm2_5":74.7,"mosquito_risk":0,"arthritis_risk":5,"migraine_risk":7,"frizz_risk":1,"updated_at":"2026-03-08T13:02:54.453402+05:30"},{"city":"Meerut","state":"Uttar Pradesh","latitude":28.9845,"longitude":77.7064,"temp":32.4,"humidity":43,"rain":0.0,"pressure":985.9,"uv_index":5.85,"wind_gusts":29.2,"aqi":168,"pm10":125.3,"pm2_5":57.7,"mosquito_risk":0,"arthritis_risk":5,"migraine_risk":3,"frizz_risk":1,"updated_at":"2026-03-08T13:02:54.453407+05:30"},{"city":"Agra","state":"Uttar Pradesh","latitude":27.1767,"longitude":78.0081,"temp":35.1,"humidity":33,"rain":0.0,"pressure":992.3,"uv_index":6.4,"wind_gusts":20.5,"aqi":158,"pm10":250.5,"pm2_5":53.0,"mosquito_risk":0,"arthritis_risk":5,"migraine_risk":10,"frizz_risk":1,"updated_at":"2026-03-08T13:02:54.453413+05:30"},{"city":"Varanasi","state":"Uttar Pradesh","latitude":25.3176,"longitude":82.9739,"temp":31.9,"humidity":49,"rain":0.0,"pressure":1001.7,"uv_index":7.2,"wind_gusts":11.5,"aqi":173,"pm10":84.8,"pm2_5":70.8,"mosquito_risk":0,"arthritis_risk":5,"migraine_risk":4,"frizz_risk":1,"updated_at":"2026-03-08T13:02:54.453422+05:30"},{"city":"Prayagraj","state":"Uttar Pradesh","latitude":25.4358,"longitude":81.8463,"temp":31.0,"humidity":53,"rain":0.0,"pressure":1000.3,"uv_index":7.05,"wind_gusts":14.8,"aqi":179,"pm10":90.1,"pm2_5":74.5,"mosquito_risk":0,"arthritis_risk":5,"migraine_risk":4,"frizz_risk":1,"updated_at":"2026-03-08T13:02:54.453428+05:30"},{"city":"Gorakhpur","state":"Uttar Pradesh","latitude":26.7606,"longitude":83.3732,"temp":31.3,"humidity":49,"rain":0.0,"pressure":1001.5,"uv_index":6.9,"wind_gusts":16.2,"aqi":174,"pm10":83.8,"pm2_5":75.0,"mosquito_risk":0,"arthritis_risk":5,"migraine_risk":4,"frizz_risk":1,"updated_at":"2026-03-08T13:02:54.453437+05:30"},{"city":"Bareilly","state":"Uttar Pradesh","latitude":28.367,"longitude":79.4304,"temp":31.2,"humidity":53,"rain":0.0,"pressure":991.3,"uv_index":6.2,"wind_gusts":19.8,"aqi":173,"pm10":145.8,"pm2_5":65.7,"mosquito_risk":0,"arthritis_risk":5,"migraine_risk":7,"frizz_risk":1,"updated_at":"2026-03-08T13:02:54.453443+05:30"},{"city":"Aligarh","state":"Uttar Pradesh","latitude":27.8974,"longitude":78.088,"temp":33.5,"humidity":38,"rain":0.0,"pressure":990.2,"uv_index":6.1,"wind_gusts":23.4,"aqi":171,"pm10":235.6,"pm2_5":71.0,"mosquito_risk":0,"arthritis_risk":5,"migraine_risk":7,"frizz_risk":1,"updated_at":"2026-03-08T13:02:54.453450+05:30"},{"city":"Moradabad","state":"Uttar Pradesh","latitude":28.8386,"longitude":78.7733,"temp":31.2,"humidity":51,"rain":0.0,"pressure":988.1,"uv_index":6.05,"wind_gusts":23.8,"aqi":183,"pm10":133.2,"pm2_5":75.9,"mosquito_risk":0,"arthritis_risk":5,"migraine_risk":7,"frizz_risk":1,"updated_at":"2026-03-08T13:02:54.453456+05:30"},{"city":"Saharanpur","state":"Uttar Pradesh","latitude":29.9637,"longitude":77.546,"temp":31.3,"humidity":53,"rain":0.0,"pressure":979.8,"uv_index":5.65,"wind_gusts":36.7,"aqi":173,"pm10":103.4,"pm2_5":71.9,"mosquito_risk":0,"arthritis_risk":5,"migraine_risk":3,"frizz_risk":1,"updated_at":"2026-03-08T13:02:54.453462+05:30"},{"city":"Jhansi","state":"Uttar Pradesh","latitude":25.4484,"longitude":78.5685,"temp":35.0,"humidity":29,"rain":0.0,"pressure":982.4,"uv_index":7.0,"wind_gusts":26.3,"aqi":107,"pm10":70.5,"pm2_5":31.0,"mosquito_risk":0,"arthritis_risk":5,"migraine_risk":7,"frizz_risk":0,"updated_at":"2026-03-08T13:02:57.802263+05:30"},{"city":"Surat","state":"Gujarat","latitude":21.1702,"longitude":72.8311,"temp":35.3,"humidity":33,"rain":0.0,"pressure":1009.2,"uv_index":7.25,"wind_gusts":24.5,"aqi":152,"pm10":46.2,"pm2_5":44.1,"mosquito_risk":0,"arthritis_risk":0,"migraine_risk":7,"frizz_risk":1,"updated_at":"2026-03-08T13:02:57.802286+05:30"},{"city":"Vadodara","state":"Gujarat","latitude":22.3072,"longitude":73.1812,"temp":37.8,"humidity":25,"rain":0.0,"pressure":1007.6,"uv_index":7.35,"wind_gusts":16.6,"aqi":109,"pm10":14.6,"pm2_5":12.7,"mosquito_risk":0,"arthritis_risk":5,"migraine_risk":7,"frizz_risk":0,"updated_at":"2026-03-08T13:02:57.802296+05:30"},{"city":"Rajkot","state":"Gujarat","latitude":22.3039,"longitude":70.8022,"temp":33.7,"humidity":37,"rain":0.0,"pressure":998.4,"uv_index":7.15,"wind_gusts":20.9,"aqi":74,"pm10":33.6,"pm2_5":16.2,"mosquito_risk":0,"arthritis_risk":5,"migraine_risk":7,"frizz_risk":1,"updated_at":"2026-03-08T13:02:57.802303+05:30"},{"city":"Thane","state":"Maharashtra","latitude":19.2183,"longitude":72.9781,"temp":34.2,"humidity":46,"rain":0.0,"pressure":1009.3,"uv_index":7.5,"wind_gusts":33.1,"aqi":105,"pm10":60.3,"pm2_5":58.7,"mosquito_risk":0,"arthritis_risk":0,"migraine_risk":4,"frizz_risk":1,"updated_at":"2026-03-08T13:02:57.802310+05:30"},{"city":"Nagpur","state":"Maharashtra","latitude":21.1458,"longitude":79.0882,"temp":35.8,"humidity":23,"rain":0.0,"pressure":976.2,"uv_index":7.9,"wind_gusts":27.0,"aqi":77,"pm10":42.0,"pm2_5":27.1,"mosquito_risk":0,"arthritis_risk":5,"migraine_risk":10,"frizz_risk":0,"updated_at":"2026-03-08T13:02:57.802316+05:30"},{"city":"Nashik","state":"Maharashtra","latitude":19.9975,"longitude":73.7898,"temp":36.1,"humidity":20,"rain":0.0,"pressure":948.7,"uv_index":7.7,"wind_gusts":28.4,"aqi":86,"pm10":13.0,"pm2_5":12.2,"mosquito_risk":0,"arthritis_risk":5,"migraine_risk":10,"frizz_risk":0,"updated_at":"2026-03-08T13:02:57.802322+05:30"},{"city":"Aurangabad","state":"Maharashtra","latitude":19.8762,"longitude":75.3433,"temp":36.4,"humidity":18,"rain":0.0,"pressure":947.1,"uv_index":8.2,"wind_gusts":32.0,"aqi":77,"pm10":17.8,"pm2_5":11.6,"mosquito_risk":0,"arthritis_risk":5,"migraine_risk":10,"frizz_risk":0,"updated_at":"2026-03-08T13:02:57.802328+05:30"},{"city":"Solapur","state":"Maharashtra","latitude":17.6599,"longitude":75.9064,"temp":35.6,"humidity":25,"rain":0.0,"pressure":959.3,"uv_index":8.45,"wind_gusts":19.4,"aqi":66,"pm10":23.7,"pm2_5":17.0,"mosquito_risk":0,"arthritis_risk":5,"migraine_risk":10,"frizz_risk":0,"updated_at":"2026-03-08T13:02:57.802334+05:30"},{"city":"Kolhapur","state":"Maharashtra","latitude":16.705,"longitude":74.2433,"temp":35.5,"humidity":21,"rain":0.0,"pressure":949.7,"uv_index":8.6,"wind_gusts":34.6,"aqi":127,"pm10":31.7,"pm2_5":25.6,"mosquito_risk":0,"arthritis_risk":5,"migraine_risk":10,"frizz_risk":0,"updated_at":"2026-03-08T13:02:57.802340+05:30"},{"city":"Goa","state":"Goa","latitude":15.2993,"longitude":74.124,"temp":31.2,"humidity":63,"rain":0.0,"pressure":998.7,"uv_index":8.65,"wind_gusts":36.0,"aqi":135,"pm10":40.0,"pm2_5":37.4,"mosquito_risk":3,"arthritis_risk":5,"migraine_risk":7,"frizz_risk":1,"updated_at":"2026-03-08T13:02:57.802346+05:30"},{"city":"Jodhpur","state":"Rajasthan","latitude":26.2389,"longitude":73.0243,"temp":36.0,"humidity":24,"rain":0.0,"pressure":988.0,"uv_index":7.05,"wind_gusts":17.6,"aqi":64,"pm10":43.1,"pm2_5":12.2,"mosquito_risk":0,"arthritis_risk":5,"migraine_risk":10,"frizz_risk":0,"updated_at":"2026-03-08T13:02:57.802352+05:30"},{"city":"Udaipur","state":"Rajasthan","latitude":24.5854,"longitude":73.7125,"temp":35.2,"humidity":21,"rain":0.0,"pressure":951.8,"uv_index":7.7,"wind_gusts":17.6,"aqi":38,"pm10":5.4,"pm2_5":4.6,"mosquito_risk":0,"arthritis_risk":5,"migraine_risk":10,"frizz_risk":0,"updated_at":"2026-03-08T13:02:57.802358+05:30"},{"city":"Kota","state":"Rajasthan","latitude":25.2138,"longitude":75.8648,"temp":36.1,"humidity":22,"rain":0.0,"pressure":983.6,"uv_index":7.1,"wind_gusts":9.4,"aqi":90,"pm10":24.2,"pm2_5":20.0,"mosquito_risk":0,"arthritis_risk":5,"migraine_risk":10,"frizz_risk":0,"updated_at":"2026-03-08T13:02:57.802365+05:30"},{"city":"Bikaner","state":"Rajasthan","latitude":28.0229,"longitude":73.3119,"temp":34.9,"humidity":28,"rain":0.0,"pressure":986.8,"uv_index":6.75,"wind_gusts":18.0,"aqi":57,"pm10":109.9,"pm2_5":21.5,"mosquito_risk":0,"arthritis_risk":5,"migraine_risk":7,"frizz_risk":0,"updated_at":"2026-03-08T13:02:57.802371+05:30"},{"city":"Ajmer","state":"Rajasthan","latitude":26.4499,"longitude":74.6399,"temp":35.3,"humidity":18,"rain":0.0,"pressure":960.1,"uv_index":7.05,"wind_gusts":20.5,"aqi":69,"pm10":34.8,"pm2_5":10.1,"mosquito_risk":0,"arthritis_risk":5,"migraine_risk":10,"frizz_risk":0,"updated_at":"2026-03-08T13:02:57.802376+05:30"},{"city":"Gwalior","state":"Madhya Pradesh","latitude":26.2183,"longitude":78.1828,"temp":34.3,"humidity":32,"rain":0.0,"pressure":987.8,"uv_index":6.7,"wind_gusts":23.8,"aqi":101,"pm10":58.9,"pm2_5":22.2,"mosquito_risk":0,"arthritis_risk":5,"migraine_risk":7,"frizz_risk":0,"updated_at":"2026-03-08T13:02:57.802382+05:30"},{"city":"Indore","state":"Madhya Pradesh","latitude":22.7196,"longitude":75.8577,"temp":35.1,"humidity":20,"rain":0.0,"pressure":952.7,"uv_index":7.65,"wind_gusts":20.2,"aqi":77,"pm10":16.8,"pm2_5":14.7,"mosquito_risk":0,"arthritis_risk":5,"migraine_risk":10,"frizz_risk":0,"updated_at":"2026-03-08T13:02:57.802388+05:30"},{"city":"Bhopal","state":"Madhya Pradesh","latitude":23.2599,"longitude":77.4126,"temp":35.0,"humidity":21,"rain":0.0,"pressure":958.3,"uv_index":7.5,"wind_gusts":21.2,"aqi":68,"pm10":40.4,"pm2_5":18.2,"mosquito_risk":0,"arthritis_risk":5,"migraine_risk":7,"frizz_risk":0,"updated_at":"2026-03-08T13:02:57.802394+05:30"},{"city":"Jabalpur","state":"Madhya Pradesh","latitude":23.1815,"longitude":79.9864,"temp":32.9,"humidity":31,"rain":0.0,"pressure":965.6,"uv_index":7.6,"wind_gusts":25.2,"aqi":117,"pm10":73.6,"pm2_5":41.2,"mosquito_risk":0,"arthritis_risk":5,"migraine_risk":7,"frizz_risk":0,"updated_at":"2026-03-08T13:02:57.802400+05:30"},{"city":"Ujjain","state":"Madhya Pradesh","latitude":23.1765,"longitude":75.7885,"temp":34.5,"humidity":21,"rain":0.0,"pressure":958.4,"uv_index":7.55,"wind_gusts":15.8,"aqi":99,"pm10":16.2,"pm2_5":15.3,"mosquito_risk":0,"arthritis_risk":5,"migraine_risk":7,"frizz_risk":0,"updated_at":"2026-03-08T13:02:57.802407+05:30"},{"city":"Visakhapatnam","state":"Andhra Pradesh","latitude":17.6868,"longitude":83.2185,"temp":30.8,"humidity":58,"rain":0.0,"pressure":1006.2,"uv_index":8.2,"wind_gusts":37.4,"aqi":99,"pm10":38.5,"pm2_5":30.5,"mosquito_risk":0,"arthritis_risk":5,"migraine_risk":4,"frizz_risk":1,"updated_at":"2026-03-08T13:02:57.802413+05:30"},{"city":"Vijayawada","state":"Andhra Pradesh","latitude":16.5062,"longitude":80.648,"temp":33.3,"humidity":50,"rain":0.0,"pressure":1004.5,"uv_index":8.6,"wind_gusts":29.5,"aqi":101,"pm10":39.1,"pm2_5":29.9,"mosquito_risk":0,"arthritis_risk":5,"migraine_risk":4,"frizz_risk":1,"updated_at":"2026-03-08T13:02:57.802419+05:30"},{"city":"Guntur","state":"Andhra Pradesh","latitude":16.3067,"longitude":80.4365,"temp":33.0,"humidity":51,"rain":0.0,"pressure":1005.7,"uv_index":8.6,"wind_gusts":28.8,"aqi":99,"pm10":38.4,"pm2_5":29.3,"mosquito_risk":0,"arthritis_risk":5,"migraine_risk":4,"frizz_risk":1,"updated_at":"2026-03-08T13:02:57.802425+05:30"},{"city":"Nellore","state":"Andhra Pradesh","latitude":14.4426,"longitude":79.9865,"temp":34.0,"humidity":45,"rain":0.0,"pressure":1007.4,"uv_index":8.8,"wind_gusts":32.8,"aqi":90,"pm10":44.0,"pm2_5":33.9,"mosquito_risk":0,"arthritis_risk":5,"migraine_risk":4,"frizz_risk":1,"updated_at":"2026-03-08T13:02:57.802431+05:30"},{"city":"Kurnool","state":"Andhra Pradesh","latitude":15.8281,"longitude":78.0373,"temp":37.4,"humidity":23,"rain":0.0,"pressure":978.2,"uv_index":8.6,"wind_gusts":25.6,"aqi":95,"pm10":46.6,"pm2_5":35.6,"mosquito_risk":0,"arthritis_risk":5,"migraine_risk":10,"frizz_risk":0,"updated_at":"2026-03-08T13:02:57.802437+05:30"},{"city":"Kakinada","state":"Andhra Pradesh","latitude":16.9891,"longitude":82.2475,"temp":32.8,"humidity":48,"rain":0.0,"pressure":1009.6,"uv_index":8.55,"wind_gusts":34.6,"aqi":83,"pm10":34.8,"pm2_5":24.1,"mosquito_risk":0,"arthritis_risk":0,"migraine_risk":4,"frizz_risk":1,"updated_at":"2026-03-08T13:02:57.802443+05:30"},{"city":"Tirupati","state":"Andhra Pradesh","latitude":13.6288,"longitude":79.4192,"temp":34.7,"humidity":31,"rain":0.0,"pressure":993.1,"uv_index":8.95,"wind_gusts":33.1,"aqi":119,"pm10":43.5,"pm2_5":33.2,"mosquito_risk":0,"arthritis_risk":5,"migraine_risk":7,"frizz_risk":0,"updated_at":"2026-03-08T13:02:57.802449+05:30"},{"city":"Warangal","state":"Telangana","latitude":17.9689,"longitude":79.5941,"temp":32.8,"humidity":51,"rain":0.0,"pressure":981.0,"uv_index":8.35,"wind_gusts":27.7,"aqi":114,"pm10":53.3,"pm2_5":45.1,"mosquito_risk":0,"arthritis_risk":5,"migraine_risk":7,"frizz_risk":1,"updated_at":"2026-03-08T13:02:57.802455+05:30"},{"city":"Nizamabad","state":"Telangana","latitude":18.6725,"longitude":78.0941,"temp":35.4,"humidity":24,"rain":0.0,"pressure":967.3,"uv_index":8.25,"wind_gusts":33.8,"aqi":89,"pm10":39.5,"pm2_5":22.8,"mosquito_risk":0,"arthritis_risk":5,"migraine_risk":10,"frizz_risk":0,"updated_at":"2026-03-08T13:02:57.802460+05:30"},{"city":"Mysore","state":"Karnataka","latitude":12.2958,"longitude":76.6396,"temp":32.8,"humidity":32,"rain":0.0,"pressure":930.2,"uv_index":9.25,"wind_gusts":33.5,"aqi":131,"pm10":39.7,"pm2_5":32.5,"mosquito_risk":0,"arthritis_risk":5,"migraine_risk":7,"frizz_risk":0,"updated_at":"2026-03-08T13:02:57.802466+05:30"},{"city":"Mangalore","state":"Karnataka","latitude":12.9141,"longitude":74.856,"temp":28.7,"humidity":78,"rain":0.0,"pressure":1007.2,"uv_index":8.85,"wind_gusts":24.8,"aqi":113,"pm10":42.6,"pm2_5":39.6,"mosquito_risk":7,"arthritis_risk":5,"migraine_risk":4,"frizz_risk":1,"updated_at":"2026-03-08T13:02:57.802472+05:30"},{"city":"Hubli-Dharwad","state":"Karnataka","latitude":15.3647,"longitude":75.124,"temp":36.1,"humidity":19,"rain":0.0,"pressure":942.4,"uv_index":8.8,"wind_gusts":25.6,"aqi":96,"pm10":35.9,"pm2_5":28.3,"mosquito_risk":0,"arthritis_risk":5,"migraine_risk":10,"frizz_risk":0,"updated_at":"2026-03-08T13:02:57.802478+05:30"},{"city":"Belgaum","state":"Karnataka","latitude":15.8497,"longitude":74.4977,"temp":35.3,"humidity":18,"rain":0.0,"pressure":927.8,"uv_index":8.85,"wind_gusts":33.8,"aqi":109,"pm10":27.0,"pm2_5":21.8,"mosquito_risk":0,"arthritis_risk":5,"migraine_risk":10,"frizz_risk":0,"updated_at":"2026-03-08T13:03:01.148123+05:30"},{"city":"Coimbatore","state":"Tamil Nadu","latitude":11.0168,"longitude":76.9558,"temp":33.6,"humidity":36,"rain":0.0,"pressure":963.3,"uv_index":9.2,"wind_gusts":38.5,"aqi":131,"pm10":38.9,"pm2_5":31.8,"mosquito_risk":0,"arthritis_risk":5,"migraine_risk":7,"frizz_risk":1,"updated_at":"2026-03-08T13:03:01.148153+05:30"},{"city":"Madurai","state":"Tamil Nadu","latitude":9.9252,"longitude":78.1198,"temp":34.2,"humidity":40,"rain":0.0,"pressure":994.5,"uv_index":9.15,"wind_gusts":32.0,"aqi":100,"pm10":45.5,"pm2_5":36.3,"mosquito_risk":0,"arthritis_risk":5,"migraine_risk":7,"frizz_risk":1,"updated_at":"2026-03-08T13:03:01.148165+05:30"},{"city":"Trichy","state":"Tamil Nadu","latitude":10.7905,"longitude":78.7047,"temp":34.1,"humidity":43,"rain":0.0,"pressure":1001.3,"uv_index":9.05,"wind_gusts":27.4,"aqi":97,"pm10":43.3,"pm2_5":32.4,"mosquito_risk":0,"arthritis_risk":5,"migraine_risk":4,"frizz_risk":1,"updated_at":"2026-03-08T13:03:01.148174+05:30"},{"city":"Salem","state":"Tamil Nadu","latitude":11.6643,"longitude":78.146,"temp":34.2,"humidity":39,"rain":0.0,"pressure":978.6,"uv_index":9.1,"wind_gusts":21.2,"aqi":106,"pm10":49.1,"pm2_5":39.9,"mosquito_risk":0,"arthritis_risk":5,"migraine_risk":7,"frizz_risk":1,"updated_at":"2026-03-08T13:03:01.148183+05:30"},{"city":"Tirunelveli","state":"Tamil Nadu","latitude":8.7139,"longitude":77.7567,"temp":36.0,"humidity":33,"rain":0.0,"pressure":1004.2,"uv_index":9.15,"wind_gusts":36.0,"aqi":105,"pm10":44.5,"pm2_5":35.4,"mosquito_risk":0,"arthritis_risk":5,"migraine_risk":7,"frizz_risk":1,"updated_at":"2026-03-08T13:03:01.148191+05:30"},{"city":"Vellore","state":"Tamil Nadu","latitude":12.9165,"longitude":79.1325,"temp":34.8,"humidity":29,"rain":0.0,"pressure":986.1,"uv_index":9.0,"wind_gusts":37.8,"aqi":139,"pm10":49.7,"pm2_5":38.2,"mosquito_risk":0,"arthritis_risk":5,"migraine_risk":7,"frizz_risk":0,"updated_at":"2026-03-08T13:03:01.148199+05:30"},{"city":"Erode","state":"Tamil Nadu","latitude":11.341,"longitude":77.7172,"temp":35.2,"humidity":37,"rain":0.0,"pressure":990.2,"uv_index":9.1,"wind_gusts":20.9,"aqi":90,"pm10":43.0,"pm2_5":34.5,"mosquito_risk":0,"arthritis_risk":5,"migraine_risk":10,"frizz_risk":1,"updated_at":"2026-03-08T13:03:01.148206+05:30"},{"city":"Kochi","state":"Kerala","latitude":9.9312,"longitude":76.2673,"temp":28.5,"humidity":80,"rain":0.0,"pressure":1009.3,"uv_index":8.9,"wind_gusts":35.6,"aqi":139,"pm10":47.1,"pm2_5":43.5,"mosquito_risk":7,"arthritis_risk":0,"migraine_risk":4,"frizz_risk":1,"updated_at":"2026-03-08T13:03:01.148214+05:30"},{"city":"Thiruvananthapuram","state":"Kerala","latitude":8.5241,"longitude":76.9366,"temp":28.4,"humidity":79,"rain":0.0,"pressure":1008.8,"uv_index":9.05,"wind_gusts":27.7,"aqi":84,"pm10":32.8,"pm2_5":31.0,"mosquito_risk":7,"arthritis_risk":0,"migraine_risk":4,"frizz_risk":1,"updated_at":"2026-03-08T13:03:01.148222+05:30"},{"city":"Kozhikode","state":"Kerala","latitude":11.2588,"longitude":75.7804,"temp":30.1,"humidity":72,"rain":0.0,"pressure":1008.4,"uv_index":8.95,"wind_gusts":28.1,"aqi":95,"pm10":27.5,"pm2_5":26.1,"mosquito_risk":3,"arthritis_risk":0,"migraine_risk":4,"frizz_risk":1,"updated_at":"2026-03-08T13:03:01.148229+05:30"},{"city":"Thrissur","state":"Kerala","latitude":10.5276,"longitude":76.2144,"temp":33.4,"humidity":57,"rain":0.0,"pressure":1007.5,"uv_index":9.0,"wind_gusts":37.8,"aqi":131,"pm10":41.7,"pm2_5":37.6,"mosquito_risk":0,"arthritis_risk":5,"migraine_risk":4,"frizz_risk":1,"updated_at":"2026-03-08T13:03:01.148238+05:30"},{"city":"Kannur","state":"Kerala","latitude":11.8745,"longitude":75.3704,"temp":31.2,"humidity":66,"rain":0.0,"pressure":1007.9,"uv_index":8.9,"wind_gusts":28.8,"aqi":115,"pm10":33.8,"pm2_5":31.4,"mosquito_risk":3,"arthritis_risk":5,"migraine_risk":4,"frizz_risk":1,"updated_at":"2026-03-08T13:03:01.148246+05:30"},{"city":"Patna","state":"Bihar","latitude":25.5941,"longitude":85.1376,"temp":31.8,"humidity":47,"rain":0.0,"pressure":1004.7,"uv_index":7.35,"wind_gusts":18.0,"aqi":171,"pm10":101.7,"pm2_5":86.1,"mosquito_risk":0,"arthritis_risk":5,"migraine_risk":4,"frizz_risk":1,"updated_at":"2026-03-08T13:03:01.148253+05:30"},{"city":"Gaya","state":"Bihar","latitude":24.7914,"longitude":85.0002,"temp":31.6,"humidity":55,"rain":0.0,"pressure":997.6,"uv_index":7.45,"wind_gusts":18.7,"aqi":159,"pm10":90.8,"pm2_5":76.4,"mosquito_risk":0,"arthritis_risk":5,"migraine_risk":7,"frizz_risk":1,"updated_at":"2026-03-08T13:03:01.148260+05:30"},{"city":"Muzaffarpur","state":"Bihar","latitude":26.1209,"longitude":85.3647,"temp":31.1,"humidity":48,"rain":0.0,"pressure":1005.0,"uv_index":7.3,"wind_gusts":19.1,"aqi":174,"pm10":102.7,"pm2_5":87.5,"mosquito_risk":0,"arthritis_risk":5,"migraine_risk":4,"frizz_risk":1,"updated_at":"2026-03-08T13:03:01.148267+05:30"},{"city":"Bhagalpur","state":"Bihar","latitude":25.2425,"longitude":87.0117,"temp":30.7,"humidity":49,"rain":0.0,"pressure":1005.7,"uv_index":7.35,"wind_gusts":15.8,"aqi":162,"pm10":100.4,"pm2_5":77.3,"mosquito_risk":0,"arthritis_risk":5,"migraine_risk":4,"frizz_risk":1,"updated_at":"2026-03-08T13:03:01.148275+05:30"},{"city":"Ranchi","state":"Jharkhand","latitude":23.3441,"longitude":85.3096,"temp":30.8,"humidity":35,"rain":0.0,"pressure":941.3,"uv_index":8.1,"wind_gusts":23.0,"aqi":160,"pm10":96.4,"pm2_5":68.9,"mosquito_risk":0,"arthritis_risk":5,"migraine_risk":7,"frizz_risk":0,"updated_at":"2026-03-08T13:03:01.148282+05:30"},{"city":"Jamshedpur","state":"Jharkhand","latitude":22.8046,"longitude":86.2029,"temp":31.6,"humidity":51,"rain":0.0,"pressure":994.3,"uv_index":8.0,"wind_gusts":23.8,"aqi":155,"pm10":97.8,"pm2_5":77.5,"mosquito_risk":0,"arthritis_risk":5,"migraine_risk":7,"frizz_risk":1,"updated_at":"2026-03-08T13:03:01.148289+05:30"},{"city":"Dhanbad","state":"Jharkhand","latitude":23.7957,"longitude":86.4304,"temp":32.2,"humidity":39,"rain":0.0,"pressure":983.6,"uv_index":7.85,"wind_gusts":22.7,"aqi":166,"pm10":103.8,"pm2_5":85.0,"mosquito_risk":0,"arthritis_risk":5,"migraine_risk":7,"frizz_risk":1,"updated_at":"2026-03-08T13:03:01.148297+05:30"},{"city":"Bokaro","state":"Jharkhand","latitude":23.6693,"longitude":86.1511,"temp":31.6,"humidity":45,"rain":0.0,"pressure":987.5,"uv_index":7.85,"wind_gusts":20.5,"aqi":169,"pm10":101.0,"pm2_5":81.0,"mosquito_risk":0,"arthritis_risk":5,"migraine_risk":7,"frizz_risk":1,"updated_at":"2026-03-08T13:03:01.148304+05:30"},{"city":"Bhubaneswar","state":"Odisha","latitude":20.2961,"longitude":85.8245,"temp":32.1,"humidity":51,"rain":0.0,"pressure":1005.6,"uv_index":8.2,"wind_gusts":33.1,"aqi":130,"pm10":51.0,"pm2_5":37.5,"mosquito_risk":0,"arthritis_risk":5,"migraine_risk":4,"frizz_risk":1,"updated_at":"2026-03-08T13:03:01.148312+05:30"},{"city":"Cuttack","state":"Odisha","latitude":20.4625,"longitude":85.8828,"temp":33.0,"humidity":48,"rain":0.0,"pressure":1007.3,"uv_index":8.3,"wind_gusts":28.4,"aqi":130,"pm10":51.0,"pm2_5":37.5,"mosquito_risk":0,"arthritis_risk":5,"migraine_risk":4,"frizz_risk":1,"updated_at":"2026-03-08T13:03:01.148319+05:30"},{"city":"Rourkela","state":"Odisha","latitude":22.2604,"longitude":84.8536,"temp":34.6,"humidity":39,"rain":0.0,"pressure":987.8,"uv_index":7.9,"wind_gusts":28.4,"aqi":164,"pm10":113.2,"pm2_5":81.5,"mosquito_risk":0,"arthritis_risk":5,"migraine_risk":7,"frizz_risk":1,"updated_at":"2026-03-08T13:03:01.148326+05:30"},{"city":"Raipur","state":"Chhattisgarh","latitude":21.2514,"longitude":81.6296,"temp":35.2,"humidity":28,"rain":0.0,"pressure":977.3,"uv_index":8.0,"wind_gusts":23.4,"aqi":154,"pm10":95.0,"pm2_5":74.3,"mosquito_risk":0,"arthritis_risk":5,"migraine_risk":10,"frizz_risk":0,"updated_at":"2026-03-08T13:03:01.148334+05:30"},{"city":"Bhilai","state":"Chhattisgarh","latitude":21.1938,"longitude":81.3509,"temp":35.6,"humidity":27,"rain":0.0,"pressure":977.7,"uv_index":8.0,"wind_gusts":23.4,"aqi":151,"pm10":86.4,"pm2_5":65.7,"mosquito_risk":0,"arthritis_risk":5,"migraine_risk":10,"frizz_risk":0,"updated_at":"2026-03-08T13:03:01.148341+05:30"},{"city":"Guwahati","state":"Assam","latitude":26.1158,"longitude":91.7086,"temp":31.4,"humidity":44,"rain":0.0,"pressure":1005.0,"uv_index":7.3,"wind_gusts":22.3,"aqi":153,"pm10":71.0,"pm2_5":52.3,"mosquito_risk":0,"arthritis_risk":5,"migraine_risk":4,"frizz_risk":1,"updated_at":"2026-03-08T13:03:01.148348+05:30"},{"city":"Agartala","state":"Tripura","latitude":23.8315,"longitude":91.2868,"temp":30.1,"humidity":53,"rain":0.0,"pressure":1010.2,"uv_index":7.6,"wind_gusts":18.7,"aqi":153,"pm10":61.7,"pm2_5":47.7,"mosquito_risk":0,"arthritis_risk":0,"migraine_risk":4,"frizz_risk":1,"updated_at":"2026-03-08T13:03:01.148356+05:30"},{"city":"Shillong","state":"Meghalaya","latitude":25.5788,"longitude":91.8933,"temp":19.9,"humidity":40,"rain":0.0,"pressure":860.3,"uv_index":7.35,"wind_gusts":26.6,"aqi":126,"pm10":50.2,"pm2_5":38.2,"mosquito_risk":0,"arthritis_risk":5,"migraine_risk":7,"frizz_risk":0,"updated_at":"2026-03-08T13:03:01.148363+05:30"},{"city":"Imphal","state":"Manipur","latitude":24.817,"longitude":93.9368,"temp":25.3,"humidity":46,"rain":0.0,"pressure":926.5,"uv_index":7.9,"wind_gusts":35.6,"aqi":161,"pm10":57.3,"pm2_5":49.9,"mosquito_risk":4,"arthritis_risk":5,"migraine_risk":7,"frizz_risk":0,"updated_at":"2026-03-08T13:03:01.148371+05:30"},{"city":"Aizawl","state":"Mizoram","latitude":23.7271,"longitude":92.7176,"temp":25.5,"humidity":47,"rain":0.0,"pressure":896.7,"uv_index":7.85,"wind_gusts":31.3,"aqi":155,"pm10":61.9,"pm2_5":52.0,"mosquito_risk":4,"arthritis_risk":5,"migraine_risk":7,"frizz_risk":0,"updated_at":"2026-03-08T13:03:01.148378+05:30"},{"city":"Kohima","state":"Nagaland","latitude":25.6701,"longitude":94.1077,"temp":19.8,"humidity":61,"rain":0.0,"pressure":858.8,"uv_index":7.0,"wind_gusts":49.3,"aqi":161,"pm10":78.0,"pm2_5":68.9,"mosquito_risk":3,"arthritis_risk":5,"migraine_risk":7,"frizz_risk":0,"updated_at":"2026-03-08T13:03:01.148385+05:30"},{"city":"Gangtok","state":"Sikkim","latitude":27.3314,"longitude":88.6138,"temp":18.1,"humidity":68,"rain":0.0,"pressure":842.1,"uv_index":5.1,"wind_gusts":15.1,"aqi":157,"pm10":51.3,"pm2_5":41.1,"mosquito_risk":3,"arthritis_risk":5,"migraine_risk":3,"frizz_risk":0,"updated_at":"2026-03-08T13:03:01.148393+05:30"},{"city":"Siliguri","state":"West Bengal","latitude":26.7271,"longitude":88.3953,"temp":24.5,"humidity":60,"rain":0.0,"pressure":999.1,"uv_index":7.3,"wind_gusts":16.6,"aqi":158,"pm10":70.5,"pm2_5":51.5,"mosquito_risk":0,"arthritis_risk":5,"migraine_risk":7,"frizz_risk":1,"updated_at":"2026-03-08T13:03:04.497734+05:30"},{"city":"Durgapur","state":"West Bengal","latitude":23.5204,"longitude":87.3119,"temp":32.2,"humidity":40,"rain":0.0,"pressure":999.0,"uv_index":7.85,"wind_gusts":20.9,"aqi":160,"pm10":94.3,"pm2_5":79.9,"mosquito_risk":0,"arthritis_risk":5,"migraine_risk":7,"frizz_risk":1,"updated_at":"2026-03-08T13:03:04.497798+05:30"},{"city":"Asansol","state":"West Bengal","latitude":23.6739,"longitude":86.9524,"temp":32.4,"humidity":39,"rain":0.0,"pressure":997.4,"uv_index":7.85,"wind_gusts":19.8,"aqi":159,"pm10":94.8,"pm2_5":78.9,"mosquito_risk":0,"arthritis_risk":5,"migraine_risk":7,"frizz_risk":1,"updated_at":"2026-03-08T13:03:04.497813+05:30"},{"city":"Pondicherry","state":"Puducherry","latitude":11.9139,"longitude":79.8145,"temp":33.7,"humidity":49,"rain":0.0,"pressure":1010.1,"uv_index":8.95,"wind_gusts":32.0,"aqi":77,"pm10":36.0,"pm2_5":23.3,"mosquito_risk":0,"arthritis_risk":0,"migraine_risk":4,"frizz_risk":1,"updated_at":"2026-03-08T13:03:04.497822+05:30"},{"city":"Port Blair","state":"Andaman and Nicobar Islands","latitude":11.6234,"longitude":92.7265,"temp":27.1,"humidity":78,"rain":0.0,"pressure":1008.6,"uv_index":8.9,"wind_gusts":27.0,"aqi":90,"pm10":36.9,"pm2_5":27.3,"mosquito_risk":7,"arthritis_risk":0,"migraine_risk":4,"frizz_risk":1,"updated_at":"2026-03-08T13:03:04.497831+05:30"},{"city":"Haridwar","state":"Uttarakhand","latitude":29.9457,"longitude":78.1642,"temp":30.6,"humidity":56,"rain":0.0,"pressure":978.5,"uv_index":5.8,"wind_gusts":28.4,"aqi":161,"pm10":92.2,"pm2_5":64.0,"mosquito_risk":0,"arthritis_risk":5,"migraine_risk":3,"frizz_risk":1,"updated_at":"2026-03-08T13:03:04.497839+05:30"},{"city":"Rishikesh","state":"Uttarakhand","latitude":30.0869,"longitude":78.2676,"temp":30.6,"humidity":52,"rain":0.0,"pressure":971.3,"uv_index":5.85,"wind_gusts":24.8,"aqi":159,"pm10":80.6,"pm2_5":55.3,"mosquito_risk":0,"arthritis_risk":5,"migraine_risk":3,"frizz_risk":1,"updated_at":"2026-03-08T13:03:04.497847+05:30"},{"city":"Nainital","state":"Uttarakhand","latitude":29.3919,"longitude":79.4542,"temp":22.4,"humidity":67,"rain":0.0,"pressure":811.5,"uv_index":6.65,"wind_gusts":67.3,"aqi":157,"pm10":86.1,"pm2_5":57.6,"mosquito_risk":3,"arthritis_risk":5,"migraine_risk":7,"frizz_risk":0,"updated_at":"2026-03-08T13:03:04.497855+05:30"},{"city":"Mussoorie","state":"Uttarakhand","latitude":30.4599,"longitude":78.0664,"temp":23.0,"humidity":58,"rain":0.0,"pressure":808.9,"uv_index":6.2,"wind_gusts":47.5,"aqi":157,"pm10":73.6,"pm2_5":50.8,"mosquito_risk":0,"arthritis_risk":5,"migraine_risk":7,"frizz_risk":0,"updated_at":"2026-03-08T13:03:04.497864+05:30"},{"city":"Dharamshala","state":"Himachal Pradesh","latitude":32.219,"longitude":76.3234,"temp":27.3,"humidity":30,"rain":0.0,"pressure":875.4,"uv_index":6.4,"wind_gusts":27.4,"aqi":60,"pm10":33.9,"pm2_5":12.2,"mosquito_risk":4,"arthritis_risk":5,"migraine_risk":7,"frizz_risk":0,"updated_at":"2026-03-08T13:03:04.497875+05:30"},{"city":"Dalhousie","state":"Himachal Pradesh","latitude":32.5387,"longitude":75.971,"temp":26.9,"humidity":23,"rain":0.0,"pressure":811.6,"uv_index":6.65,"wind_gusts":26.3,"aqi":107,"pm10":47.6,"pm2_5":25.3,"mosquito_risk":4,"arthritis_risk":5,"migraine_risk":7,"frizz_risk":0,"updated_at":"2026-03-08T13:03:04.497882+05:30"},{"city":"Patiala","state":"Punjab","latitude":30.3398,"longitude":76.3869,"temp":32.7,"humidity":42,"rain":0.0,"pressure":982.9,"uv_index":5.65,"wind_gusts":29.2,"aqi":166,"pm10":80.6,"pm2_5":58.9,"mosquito_risk":0,"arthritis_risk":5,"migraine_risk":3,"frizz_risk":1,"updated_at":"2026-03-08T13:03:04.497887+05:30"},{"city":"Bhatinda","state":"Punjab","latitude":30.211,"longitude":74.9455,"temp":33.2,"humidity":40,"rain":0.0,"pressure":988.8,"uv_index":6.5,"wind_gusts":17.3,"aqi":151,"pm10":74.5,"pm2_5":38.3,"mosquito_risk":0,"arthritis_risk":5,"migraine_risk":7,"frizz_risk":1,"updated_at":"2026-03-08T13:03:04.497893+05:30"},{"city":"Rohtak","state":"Haryana","latitude":28.8955,"longitude":76.6066,"temp":33.1,"humidity":36,"rain":0.0,"pressure":986.5,"uv_index":6.05,"wind_gusts":20.9,"aqi":169,"pm10":190.9,"pm2_5":45.3,"mosquito_risk":0,"arthritis_risk":5,"migraine_risk":7,"frizz_risk":1,"updated_at":"2026-03-08T13:03:04.497899+05:30"},{"city":"Panipat","state":"Haryana","latitude":29.3909,"longitude":76.9635,"temp":32.8,"humidity":42,"rain":0.0,"pressure":985.0,"uv_index":5.8,"wind_gusts":28.1,"aqi":169,"pm10":202.6,"pm2_5":52.4,"mosquito_risk":0,"arthritis_risk":5,"migraine_risk":3,"frizz_risk":1,"updated_at":"2026-03-08T13:03:04.497905+05:30"},{"city":"Mathura","state":"Uttar Pradesh","latitude":27.4924,"longitude":77.6737,"temp":34.9,"humidity":32,"rain":0.0,"pressure":991.3,"uv_index":6.3,"wind_gusts":22.3,"aqi":157,"pm10":228.2,"pm2_5":53.0,"mosquito_risk":0,"arthritis_risk":5,"migraine_risk":7,"frizz_risk":0,"updated_at":"2026-03-08T13:03:04.497910+05:30"},{"city":"Vrindavan","state":"Uttar Pradesh","latitude":27.5823,"longitude":77.7027,"temp":34.2,"humidity":34,"rain":0.0,"pressure":991.8,"uv_index":6.25,"wind_gusts":23.0,"aqi":157,"pm10":228.2,"pm2_5":53.0,"mosquito_risk":0,"arthritis_risk":5,"migraine_risk":7,"frizz_risk":1,"updated_at":"2026-03-08T13:03:04.497916+05:30"},{"city":"Ayodhya","state":"Uttar Pradesh","latitude":26.7922,"longitude":82.1998,"temp":31.5,"humidity":46,"rain":0.0,"pressure":999.7,"uv_index":6.65,"wind_gusts":10.4,"aqi":183,"pm10":96.6,"pm2_5":77.1,"mosquito_risk":0,"arthritis_risk":5,"migraine_risk":7,"frizz_risk":1,"updated_at":"2026-03-08T13:03:04.497922+05:30"},{"city":"Ratlam","state":"Madhya Pradesh","latitude":23.3315,"longitude":75.0367,"temp":34.7,"humidity":25,"rain":0.0,"pressure":959.2,"uv_index":7.5,"wind_gusts":19.1,"aqi":92,"pm10":13.5,"pm2_5":13.0,"mosquito_risk":0,"arthritis_risk":5,"migraine_risk":7,"frizz_risk":0,"updated_at":"2026-03-08T13:03:04.497928+05:30"},{"city":"Sagar","state":"Madhya Pradesh","latitude":23.8388,"longitude":78.7378,"temp":34.1,"humidity":26,"rain":0.0,"pressure":954.7,"uv_index":7.45,"wind_gusts":21.6,"aqi":80,"pm10":45.4,"pm2_5":21.1,"mosquito_risk":0,"arthritis_risk":5,"migraine_risk":7,"frizz_risk":0,"updated_at":"2026-03-08T13:03:04.497934+05:30"},{"city":"Satna","state":"Madhya Pradesh","latitude":24.6005,"longitude":80.8322,"temp":33.8,"humidity":31,"rain":0.0,"pressure":975.4,"uv_index":7.4,"wind_gusts":27.4,"aqi":160,"pm10":84.3,"pm2_5":56.8,"mosquito_risk":0,"arthritis_risk":5,"migraine_risk":7,"frizz_risk":0,"updated_at":"2026-03-08T13:03:04.497940+05:30"},{"city":"Akola","state":"Maharashtra","latitude":20.7002,"longitude":77.0082,"temp":37.4,"humidity":19,"rain":0.0,"pressure":978.1,"uv_index":7.95,"wind_gusts":15.5,"aqi":78,"pm10":31.4,"pm2_5":16.8,"mosquito_risk":0,"arthritis_risk":5,"migraine_risk":10,"frizz_risk":0,"updated_at":"2026-03-08T13:03:04.497946+05:30"},{"city":"Amravati","state":"Maharashtra","latitude":20.9374,"longitude":77.7796,"temp":37.3,"humidity":19,"rain":0.0,"pressure":970.4,"uv_index":7.9,"wind_gusts":21.6,"aqi":80,"pm10":29.9,"pm2_5":15.9,"mosquito_risk":0,"arthritis_risk":5,"migraine_risk":10,"frizz_risk":0,"updated_at":"2026-03-08T13:03:04.497952+05:30"},{"city":"Latur","state":"Maharashtra","latitude":18.4088,"longitude":76.5604,"temp":35.5,"humidity":21,"rain":0.0,"pressure":942.5,"uv_index":8.4,"wind_gusts":23.8,"aqi":82,"pm10":23.6,"pm2_5":19.0,"mosquito_risk":0,"arthritis_risk":5,"migraine_risk":10,"frizz_risk":0,"updated_at":"2026-03-08T13:03:04.497958+05:30"},{"city":"Nanded","state":"Maharashtra","latitude":19.1383,"longitude":77.3091,"temp":37.9,"humidity":21,"rain":0.0,"pressure":970.9,"uv_index":8.15,"wind_gusts":25.2,"aqi":89,"pm10":32.2,"pm2_5":19.4,"mosquito_risk":0,"arthritis_risk":5,"migraine_risk":10,"frizz_risk":0,"updated_at":"2026-03-08T13:03:04.497964+05:30"},{"city":"Gulbarga","state":"Karnataka","latitude":17.3297,"longitude":76.8343,"temp":37.3,"humidity":18,"rain":0.0,"pressure":960.6,"uv_index":8.5,"wind_gusts":28.8,"aqi":76,"pm10":34.2,"pm2_5":23.9,"mosquito_risk":0,"arthritis_risk":5,"migraine_risk":10,"frizz_risk":0,"updated_at":"2026-03-08T13:03:04.497970+05:30"},{"city":"Bidar","state":"Karnataka","latitude":17.9104,"longitude":77.5199,"temp":35.6,"humidity":21,"rain":0.0,"pressure":938.0,"uv_index":8.4,"wind_gusts":29.2,"aqi":88,"pm10":31.5,"pm2_5":20.6,"mosquito_risk":0,"arthritis_risk":5,"migraine_risk":10,"frizz_risk":0,"updated_at":"2026-03-08T13:03:04.497975+05:30"},{"city":"Hospet","state":"Karnataka","latitude":15.2689,"longitude":76.3909,"temp":34.7,"humidity":29,"rain":0.0,"pressure":957.4,"uv_index":8.75,"wind_gusts":24.5,"aqi":89,"pm10":37.5,"pm2_5":28.7,"mosquito_risk":0,"arthritis_risk":5,"migraine_risk":7,"frizz_risk":0,"updated_at":"2026-03-08T13:03:04.497981+05:30"},{"city":"Tirupur","state":"Tamil Nadu","latitude":11.1085,"longitude":77.3411,"temp":35.1,"humidity":34,"rain":0.0,"pressure":976.6,"uv_index":9.2,"wind_gusts":30.2,"aqi":117,"pm10":42.1,"pm2_5":34.1,"mosquito_risk":0,"arthritis_risk":5,"migraine_risk":10,"frizz_risk":1,"updated_at":"2026-03-08T13:03:04.497987+05:30"},{"city":"Alappuzha","state":"Kerala","latitude":9.4981,"longitude":76.3388,"temp":28.4,"humidity":82,"rain":0.0,"pressure":1009.4,"uv_index":8.95,"wind_gusts":29.2,"aqi":123,"pm10":48.4,"pm2_5":45.3,"mosquito_risk":7,"arthritis_risk":0,"migraine_risk":4,"frizz_risk":1,"updated_at":"2026-03-08T13:03:04.497993+05:30"},{"city":"Munnar","state":"Kerala","latitude":10.0889,"longitude":77.0595,"temp":29.6,"humidity":36,"rain":0.0,"pressure":860.0,"uv_index":9.5,"wind_gusts":24.5,"aqi":104,"pm10":40.0,"pm2_5":30.0,"mosquito_risk":4,"arthritis_risk":5,"migraine_risk":7,"frizz_risk":0,"updated_at":"2026-03-08T13:03:04.497999+05:30"},{"city":"Silchar","state":"Assam","latitude":24.8333,"longitude":92.7789,"temp":31.5,"humidity":51,"rain":0.0,"pressure":1008.1,"uv_index":7.6,"wind_gusts":20.9,"aqi":163,"pm10":71.9,"pm2_5":59.1,"mosquito_risk":0,"arthritis_risk":0,"migraine_risk":4,"frizz_risk":1,"updated_at":"2026-03-08T13:03:04.498005+05:30"},{"city":"Dibrugarh","state":"Assam","latitude":27.4728,"longitude":94.912,"temp":28.4,"humidity":58,"rain":0.0,"pressure":999.1,"uv_index":6.3,"wind_gusts":20.5,"aqi":163,"pm10":97.8,"pm2_5":78.7,"mosquito_risk":4,"arthritis_risk":5,"migraine_risk":7,"frizz_risk":1,"updated_at":"2026-03-08T13:03:04.498010+05:30"}]