[{"city":"Delhi","state":"Delhi","latitude":28.6139,"longitude":77.209,"temp":30.1,"humidity":37,"rain":0.0,"pressure":976.8,"uv_index":7.25,"wind_gusts":42.5,"aqi":421,"pm10":823.3,"pm2_5":144.4,"mosquito_risk":0,"arthritis_risk":5,"migraine_risk":7,"frizz_risk":0,"updated_at":"2026-04-28T03:25:16.007754+05:30"},{"city":"Mumbai","state":"Maharashtra","latitude":19.076,"longitude":72.8777,"temp":27.0,"humidity":91,"rain":0.0,"pressure":1005.3,"uv_index":8.05,"wind_gusts":38.9,"aqi":84,"pm10":51.8,"pm2_5":25.6,"mosquito_risk":7,"arthritis_risk":5,"migraine_risk":4,"frizz_risk":1,"updated_at":"2026-04-28T03:25:16.007799+05:30"},{"city":"Bangalore","state":"Karnataka","latitude":12.9716,"longitude":77.5946,"temp":24.2,"humidity":70,"rain":0.0,"pressure":909.6,"uv_index":9.05,"wind_gusts":40.3,"aqi":88,"pm10":33.4,"pm2_5":30.4,"mosquito_risk":3,"arthritis_risk":5,"migraine_risk":7,"frizz_risk":1,"updated_at":"2026-04-28T03:25:16.007814+05:30"},{"city":"Hyderabad","state":"Telangana","latitude":17.385,"longitude":78.4867,"temp":29.1,"humidity":56,"rain":0.0,"pressure":949.7,"uv_index":7.2,"wind_gusts":49.3,"aqi":99,"pm10":45.8,"pm2_5":39.3,"mosquito_risk":4,"arthritis_risk":5,"migraine_risk":7,"frizz_risk":1,"updated_at":"2026-04-28T03:25:16.007824+05:30"},{"city":"Chennai","state":"Tamil Nadu","latitude":13.0827,"longitude":80.2707,"temp":28.5,"humidity":84,"rain":0.0,"pressure":1004.8,"uv_index":7.55,"wind_gusts":56.5,"aqi":55,"pm10":13.4,"pm2_5":9.1,"mosquito_risk":7,"arthritis_risk":5,"migraine_risk":4,"frizz_risk":1,"updated_at":"2026-04-28T03:25:16.007833+05:30"},{"city":"Kolkata","state":"West Bengal","latitude":22.5726,"longitude":88.3639,"temp":27.8,"humidity":87,"rain":0.0,"pressure":999.9,"uv_index":8.85,"wind_gusts":63.4,"aqi":55,"pm10":18.6,"pm2_5":15.0,"mosquito_risk":7,"arthritis_risk":5,"migraine_risk":7,"frizz_risk":1,"updated_at":"2026-04-28T03:25:16.007842+05:30"},{"city":"Pune","state":"Maharashtra","latitude":18.5204,"longitude":73.8567,"temp":25.5,"humidity":66,"rain":0.0,"pressure":944.8,"uv_index":8.6,"wind_gusts":41.0,"aqi":68,"pm10":32.8,"pm2_5":18.2,"mosquito_risk":7,"arthritis_risk":5,"migraine_risk":7,"frizz_risk":1,"updated_at":"2026-04-28T03:25:16.007854+05:30"},{"city":"Ahmedabad","state":"Gujarat","latitude":23.0225,"longitude":72.5714,"temp":30.2,"humidity":29,"rain":0.0,"pressure":998.0,"uv_index":8.2,"wind_gusts":47.9,"aqi":44,"pm10":28.9,"pm2_5":11.5,"mosquito_risk":0,"arthritis_risk":5,"migraine_risk":7,"frizz_risk":0,"updated_at":"2026-04-28T03:25:16.007862+05:30"},{"city":"Jaipur","state":"Rajasthan","latitude":26.9124,"longitude":75.7873,"temp":28.5,"humidity":34,"rain":0.0,"pressure":954.2,"uv_index":8.05,"wind_gusts":39.6,"aqi":126,"pm10":172.8,"pm2_5":34.0,"mosquito_risk":4,"arthritis_risk":5,"migraine_risk":7,"frizz_risk":0,"updated_at":"2026-04-28T03:25:16.007870+05:30"},{"city":"Lucknow","state":"Uttar Pradesh","latitude":26.8467,"longitude":80.9462,"temp":28.1,"humidity":55,"rain":0.0,"pressure":987.7,"uv_index":7.9,"wind_gusts":40.0,"aqi":145,"pm10":334.3,"pm2_5":67.8,"mosquito_risk":4,"arthritis_risk":5,"migraine_risk":7,"frizz_risk":1,"updated_at":"2026-04-28T03:25:16.007879+05:30"},{"city":"Kanpur","state":"Uttar Pradesh","latitude":26.4499,"longitude":80.3319,"temp":29.8,"humidity":25,"rain":0.0,"pressure":986.1,"uv_index":7.95,"wind_gusts":43.9,"aqi":277,"pm10":466.6,"pm2_5":74.5,"mosquito_risk":4,"arthritis_risk":5,"migraine_risk":7,"frizz_risk":0,"updated_at":"2026-04-28T03:25:16.007887+05:30"},{"city":"Chandigarh","state":"Chandigarh","latitude":30.7333,"longitude":76.7794,"temp":26.6,"humidity":31,"rain":0.0,"pressure":962.7,"uv_index":6.6,"wind_gusts":53.3,"aqi":49,"pm10":15.7,"pm2_5":15.1,"mosquito_risk":4,"arthritis_risk":5,"migraine_risk":7,"frizz_risk":0,"updated_at":"2026-04-28T03:25:16.007895+05:30"},{"city":"Srinagar","state":"Jammu and Kashmir","latitude":34.0837,"longitude":74.7973,"temp":9.7,"humidity":93,"rain":0.0,"pressure":835.9,"uv_index":6.25,"wind_gusts":31.7,"aqi":71,"pm10":44.0,"pm2_5":37.1,"mosquito_risk":3,"arthritis_risk":10,"migraine_risk":7,"frizz_risk":0,"updated_at":"2026-04-28T03:25:16.007903+05:30"},{"city":"Jammu","state":"Jammu and Kashmir","latitude":32.7266,"longitude":74.857,"temp":24.6,"humidity":35,"rain":0.0,"pressure":965.4,"uv_index":7.2,"wind_gusts":44.3,"aqi":56,"pm10":16.8,"pm2_5":15.4,"mosquito_risk":0,"arthritis_risk":5,"migraine_risk":7,"frizz_risk":0,"updated_at":"2026-04-28T03:25:16.007910+05:30"},{"city":"Amritsar","state":"Punjab","latitude":31.634,"longitude":74.8723,"temp":27.3,"humidity":43,"rain":0.0,"pressure":974.2,"uv_index":5.65,"wind_gusts":48.6,"aqi":66,"pm10":47.8,"pm2_5":25.4,"mosquito_risk":4,"arthritis_risk":5,"migraine_risk":3,"frizz_risk":0,"updated_at":"2026-04-28T03:25:16.007916+05:30"},{"city":"Ludhiana","state":"Punjab","latitude":30.901,"longitude":75.8573,"temp":27.2,"humidity":39,"rain":0.0,"pressure":972.2,"uv_index":6.45,"wind_gusts":32.4,"aqi":66,"pm10":60.1,"pm2_5":29.4,"mosquito_risk":4,"arthritis_risk":5,"migraine_risk":7,"frizz_risk":0,"updated_at":"2026-04-28T03:25:16.007923+05:30"},{"city":"Jalandhar","state":"Punjab","latitude":31.326,"longitude":75.5762,"temp":26.2,"humidity":41,"rain":0.0,"pressure":972.9,"uv_index":5.6,"wind_gusts":36.0,"aqi":77,"pm10":68.0,"pm2_5":33.4,"mosquito_risk":4,"arthritis_risk":5,"migraine_risk":3,"frizz_risk":0,"updated_at":"2026-04-28T03:25:16.007932+05:30"},{"city":"Dehradun","state":"Uttarakhand","latitude":30.6284,"longitude":78.0322,"temp":12.5,"humidity":55,"rain":0.0,"pressure":822.9,"uv_index":5.75,"wind_gusts":53.3,"aqi":46,"pm10":14.9,"pm2_5":11.6,"mosquito_risk":0,"arthritis_risk":5,"migraine_risk":3,"frizz_risk":0,"updated_at":"2026-04-28T03:25:16.007940+05:30"},{"city":"Shimla","state":"Himachal Pradesh","latitude":31.1048,"longitude":77.1734,"temp":13.4,"humidity":39,"rain":0.0,"pressure":779.4,"uv_index":7.45,"wind_gusts":47.9,"aqi":59,"pm10":15.5,"pm2_5":10.6,"mosquito_risk":0,"arthritis_risk":5,"migraine_risk":7,"frizz_risk":1,"updated_at":"2026-04-28T03:25:16.007946+05:30"},{"city":"Manali","state":"Himachal Pradesh","latitude":32.2396,"longitude":77.1887,"temp":9.3,"humidity":69,"rain":0.0,"pressure":812.1,"uv_index":8.7,"wind_gusts":40.0,"aqi":48,"pm10":26.1,"pm2_5":19.8,"mosquito_risk":3,"arthritis_risk":5,"migraine_risk":7,"frizz_risk":0,"updated_at":"2026-04-28T03:25:16.007953+05:30"},{"city":"Gurgaon","state":"Haryana","latitude":28.4595,"longitude":77.0266,"temp":27.5,"humidity":48,"rain":0.0,"pressure":975.1,"uv_index":7.25,"wind_gusts":48.6,"aqi":882,"pm10":1922.2,"pm2_5":237.0,"mosquito_risk":4,"arthritis_risk":5,"migraine_risk":7,"frizz_risk":0,"updated_at":"2026-04-28T03:25:16.007960+05:30"},{"city":"Noida","state":"Uttar Pradesh","latitude":28.5355,"longitude":77.391,"temp":29.9,"humidity":34,"rain":0.0,"pressure":978.0,"uv_index":7.4,"wind_gusts":42.1,"aqi":882,"pm10":1922.2,"pm2_5":237.0,"mosquito_risk":4,"arthritis_risk":5,"migraine_risk":7,"frizz_risk":0,"updated_at":"2026-04-28T03:25:16.007968+05:30"},{"city":"Ghaziabad","state":"Uttar Pradesh","latitude":28.6692,"longitude":77.4538,"temp":29.4,"humidity":35,"rain":0.0,"pressure":976.4,"uv_index":7.35,"wind_gusts":59.8,"aqi":315,"pm10":683.6,"pm2_5":127.1,"mosquito_risk":4,"arthritis_risk":5,"migraine_risk":7,"frizz_risk":0,"updated_at":"2026-04-28T03:25:16.007974+05:30"},{"city":"Faridabad","state":"Haryana","latitude":28.4089,"longitude":77.3178,"temp":31.8,"humidity":30,"rain":0.0,"pressure":977.4,"uv_index":7.4,"wind_gusts":47.5,"aqi":882,"pm10":1922.2,"pm2_5":237.0,"mosquito_risk":0,"arthritis_risk":5,"migraine_risk":7,"frizz_risk":0,"updated_at":"2026-04-28T03:25:16.007981+05:30"},{"city":"Meerut","state":"Uttar Pradesh","latitude":28.9845,"longitude":77.7064,"temp":28.8,"humidity":36,"rain":0.0,"pressure":975.3,"uv_index":7.15,"wind_gusts":52.6,"aqi":315,"pm10":683.6,"pm2_5":127.1,"mosquito_risk":4,"arthritis_risk":5,"migraine_risk":7,"frizz_risk":0,"updated_at":"2026-04-28T03:25:16.007988+05:30"},{"city":"Agra","state":"Uttar Pradesh","latitude":27.1767,"longitude":78.0081,"temp":33.0,"humidity":26,"rain":0.0,"pressure":980.6,"uv_index":7.8,"wind_gusts":41.0,"aqi":511,"pm10":620.3,"pm2_5":77.5,"mosquito_risk":0,"arthritis_risk":5,"migraine_risk":7,"frizz_risk":0,"updated_at":"2026-04-28T03:25:16.007994+05:30"},{"city":"Varanasi","state":"Uttar Pradesh","latitude":25.3176,"longitude":82.9739,"temp":27.4,"humidity":70,"rain":0.0,"pressure":991.6,"uv_index":8.5,"wind_gusts":40.7,"aqi":136,"pm10":79.9,"pm2_5":58.1,"mosquito_risk":7,"arthritis_risk":5,"migraine_risk":7,"frizz_risk":1,"updated_at":"2026-04-28T03:25:16.008003+05:30"},{"city":"Prayagraj","state":"Uttar Pradesh","latitude":25.4358,"longitude":81.8463,"temp":28.5,"humidity":61,"rain":0.0,"pressure":989.3,"uv_index":8.4,"wind_gusts":37.4,"aqi":126,"pm10":94.5,"pm2_5":58.8,"mosquito_risk":7,"arthritis_risk":5,"migraine_risk":7,"frizz_risk":1,"updated_at":"2026-04-28T03:25:16.008012+05:30"},{"city":"Gorakhpur","state":"Uttar Pradesh","latitude":26.7606,"longitude":83.3732,"temp":24.2,"humidity":78,"rain":0.0,"pressure":993.0,"uv_index":8.3,"wind_gusts":35.3,"aqi":138,"pm10":71.0,"pm2_5":54.8,"mosquito_risk":3,"arthritis_risk":5,"migraine_risk":7,"frizz_risk":1,"updated_at":"2026-04-28T03:25:16.008020+05:30"},{"city":"Bareilly","state":"Uttar Pradesh","latitude":28.367,"longitude":79.4304,"temp":26.8,"humidity":41,"rain":0.0,"pressure":981.2,"uv_index":7.65,"wind_gusts":50.4,"aqi":100,"pm10":154.6,"pm2_5":46.3,"mosquito_risk":4,"arthritis_risk":5,"migraine_risk":7,"frizz_risk":0,"updated_at":"2026-04-28T03:25:16.008033+05:30"},{"city":"Aligarh","state":"Uttar Pradesh","latitude":27.8974,"longitude":78.088,"temp":32.6,"humidity":25,"rain":0.0,"pressure":978.5,"uv_index":7.5,"wind_gusts":59.0,"aqi":613,"pm10":827.0,"pm2_5":122.9,"mosquito_risk":0,"arthritis_risk":5,"migraine_risk":7,"frizz_risk":0,"updated_at":"2026-04-28T03:25:16.008039+05:30"},{"city":"Moradabad","state":"Uttar Pradesh","latitude":28.8386,"longitude":78.7733,"temp":28.7,"humidity":34,"rain":0.0,"pressure":977.8,"uv_index":7.3,"wind_gusts":48.2,"aqi":122,"pm10":275.7,"pm2_5":67.3,"mosquito_risk":4,"arthritis_risk":5,"migraine_risk":7,"frizz_risk":0,"updated_at":"2026-04-28T03:25:16.008045+05:30"},{"city":"Saharanpur","state":"Uttar Pradesh","latitude":29.9637,"longitude":77.546,"temp":28.5,"humidity":32,"rain":0.0,"pressure":969.5,"uv_index":6.55,"wind_gusts":42.1,"aqi":81,"pm10":113.4,"pm2_5":34.7,"mosquito_risk":4,"arthritis_risk":5,"migraine_risk":7,"frizz_risk":0,"updated_at":"2026-04-28T03:25:16.008051+05:30"},{"city":"Jhansi","state":"Uttar Pradesh","latitude":25.4484,"longitude":78.5685,"temp":30.6,"humidity":26,"rain":0.0,"pressure":971.9,"uv_index":8.3,"wind_gusts":42.8,"aqi":60,"pm10":36.9,"pm2_5":18.8,"mosquito_risk":0,"arthritis_risk":5,"migraine_risk":7,"frizz_risk":0,"updated_at":"2026-04-28T03:25:19.250828+05:30"},{"city":"Surat","state":"Gujarat","latitude":21.1702,"longitude":72.8311,"temp":27.6,"humidity":79,"rain":0.0,"pressure":1002.8,"uv_index":7.9,"wind_gusts":44.3,"aqi":84,"pm10":37.6,"pm2_5":22.8,"mosquito_risk":7,"arthritis_risk":5,"migraine_risk":4,"frizz_risk":1,"updated_at":"2026-04-28T03:25:19.250861+05:30"},{"city":"Vadodara","state":"Gujarat","latitude":22.3072,"longitude":73.1812,"temp":28.4,"humidity":63,"rain":0.0,"pressure":1000.3,"uv_index":8.15,"wind_gusts":48.6,"aqi":66,"pm10":29.3,"pm2_5":19.7,"mosquito_risk":7,"arthritis_risk":5,"migraine_risk":4,"frizz_risk":1,"updated_at":"2026-04-28T03:25:19.250873+05:30"},{"city":"Rajkot","state":"Gujarat","latitude":22.3039,"longitude":70.8022,"temp":26.4,"humidity":51,"rain":0.0,"pressure":990.6,"uv_index":7.9,"wind_gusts":53.3,"aqi":51,"pm10":20.8,"pm2_5":10.4,"mosquito_risk":4,"arthritis_risk":5,"migraine_risk":7,"frizz_risk":0,"updated_at":"2026-04-28T03:25:19.250883+05:30"},{"city":"Thane","state":"Maharashtra","latitude":19.2183,"longitude":72.9781,"temp":26.5,"humidity":96,"rain":0.0,"pressure":1004.7,"uv_index":8.05,"wind_gusts":36.4,"aqi":84,"pm10":51.8,"pm2_5":25.6,"mosquito_risk":7,"arthritis_risk":5,"migraine_risk":4,"frizz_risk":1,"updated_at":"2026-04-28T03:25:19.250891+05:30"},{"city":"Nagpur","state":"Maharashtra","latitude":21.1458,"longitude":79.0882,"temp":34.4,"humidity":19,"rain":0.0,"pressure":968.4,"uv_index":8.85,"wind_gusts":50.8,"aqi":89,"pm10":24.5,"pm2_5":21.0,"mosquito_risk":0,"arthritis_risk":5,"migraine_risk":7,"frizz_risk":0,"updated_at":"2026-04-28T03:25:19.250900+05:30"},{"city":"Nashik","state":"Maharashtra","latitude":19.9975,"longitude":73.7898,"temp":25.9,"humidity":47,"rain":0.0,"pressure":942.4,"uv_index":8.3,"wind_gusts":43.6,"aqi":75,"pm10":38.4,"pm2_5":23.5,"mosquito_risk":4,"arthritis_risk":5,"migraine_risk":7,"frizz_risk":0,"updated_at":"2026-04-28T03:25:19.250908+05:30"},{"city":"Aurangabad","state":"Maharashtra","latitude":19.8762,"longitude":75.3433,"temp":29.8,"humidity":32,"rain":0.0,"pressure":940.4,"uv_index":9.0,"wind_gusts":43.6,"aqi":69,"pm10":29.0,"pm2_5":23.3,"mosquito_risk":4,"arthritis_risk":5,"migraine_risk":7,"frizz_risk":0,"updated_at":"2026-04-28T03:25:19.250916+05:30"},{"city":"Solapur","state":"Maharashtra","latitude":17.6599,"longitude":75.9064,"temp":29.4,"humidity":56,"rain":0.0,"pressure":953.6,"uv_index":9.1,"wind_gusts":40.7,"aqi":74,"pm10":25.4,"pm2_5":20.3,"mosquito_risk":4,"arthritis_risk":5,"migraine_risk":7,"frizz_risk":1,"updated_at":"2026-04-28T03:25:19.250924+05:30"},{"city":"Kolhapur","state":"Maharashtra","latitude":16.705,"longitude":74.2433,"temp":23.3,"humidity":92,"rain":0.0,"pressure":945.2,"uv_index":9.0,"wind_gusts":50.8,"aqi":72,"pm10":41.6,"pm2_5":19.4,"mosquito_risk":3,"arthritis_risk":5,"migraine_risk":7,"frizz_risk":1,"updated_at":"2026-04-28T03:25:19.250932+05:30"},{"city":"Goa","state":"Goa","latitude":15.2993,"longitude":74.124,"temp":27.4,"humidity":88,"rain":0.0,"pressure":995.0,"uv_index":9.0,"wind_gusts":35.3,"aqi":69,"pm10":58.3,"pm2_5":22.2,"mosquito_risk":7,"arthritis_risk":5,"migraine_risk":7,"frizz_risk":1,"updated_at":"2026-04-28T03:25:19.250940+05:30"},{"city":"Jodhpur","state":"Rajasthan","latitude":26.2389,"longitude":73.0243,"temp":29.9,"humidity":26,"rain":0.0,"pressure":977.5,"uv_index":8.3,"wind_gusts":46.8,"aqi":130,"pm10":211.9,"pm2_5":34.2,"mosquito_risk":4,"arthritis_risk":5,"migraine_risk":7,"frizz_risk":0,"updated_at":"2026-04-28T03:25:19.250948+05:30"},{"city":"Udaipur","state":"Rajasthan","latitude":24.5854,"longitude":73.7125,"temp":27.3,"humidity":30,"rain":0.0,"pressure":942.3,"uv_index":8.75,"wind_gusts":49.3,"aqi":47,"pm10":21.9,"pm2_5":10.1,"mosquito_risk":4,"arthritis_risk":5,"migraine_risk":7,"frizz_risk":0,"updated_at":"2026-04-28T03:25:19.250956+05:30"},{"city":"Kota","state":"Rajasthan","latitude":25.2138,"longitude":75.8648,"temp":28.4,"humidity":29,"rain":0.0,"pressure":973.3,"uv_index":8.3,"wind_gusts":38.5,"aqi":54,"pm10":12.5,"pm2_5":8.8,"mosquito_risk":4,"arthritis_risk":5,"migraine_risk":7,"frizz_risk":0,"updated_at":"2026-04-28T03:25:19.250964+05:30"},{"city":"Bikaner","state":"Rajasthan","latitude":28.0229,"longitude":73.3119,"temp":29.0,"humidity":37,"rain":0.0,"pressure":975.4,"uv_index":8.15,"wind_gusts":59.0,"aqi":63,"pm10":50.5,"pm2_5":18.1,"mosquito_risk":4,"arthritis_risk":5,"migraine_risk":7,"frizz_risk":0,"updated_at":"2026-04-28T03:25:19.250972+05:30"},{"city":"Ajmer","state":"Rajasthan","latitude":26.4499,"longitude":74.6399,"temp":27.0,"humidity":40,"rain":0.0,"pressure":949.3,"uv_index":8.25,"wind_gusts":43.6,"aqi":59,"pm10":11.9,"pm2_5":8.0,"mosquito_risk":4,"arthritis_risk":5,"migraine_risk":7,"frizz_risk":0,"updated_at":"2026-04-28T03:25:19.250979+05:30"},{"city":"Gwalior","state":"Madhya Pradesh","latitude":26.2183,"longitude":78.1828,"temp":30.6,"humidity":29,"rain":0.0,"pressure":977.2,"uv_index":8.05,"wind_gusts":43.9,"aqi":79,"pm10":66.8,"pm2_5":20.4,"mosquito_risk":0,"arthritis_risk":5,"migraine_risk":7,"frizz_risk":0,"updated_at":"2026-04-28T03:25:19.250987+05:30"},{"city":"Indore","state":"Madhya Pradesh","latitude":22.7196,"longitude":75.8577,"temp":29.6,"humidity":23,"rain":0.0,"pressure":944.7,"uv_index":8.6,"wind_gusts":54.7,"aqi":61,"pm10":23.2,"pm2_5":17.6,"mosquito_risk":4,"arthritis_risk":5,"migraine_risk":7,"frizz_risk":0,"updated_at":"2026-04-28T03:25:19.250995+05:30"},{"city":"Bhopal","state":"Madhya Pradesh","latitude":23.2599,"longitude":77.4126,"temp":31.1,"humidity":18,"rain":0.0,"pressure":949.5,"uv_index":8.6,"wind_gusts":46.4,"aqi":51,"pm10":14.5,"pm2_5":11.1,"mosquito_risk":0,"arthritis_risk":5,"migraine_risk":7,"frizz_risk":0,"updated_at":"2026-04-28T03:25:19.251002+05:30"},{"city":"Jabalpur","state":"Madhya Pradesh","latitude":23.1815,"longitude":79.9864,"temp":27.4,"humidity":45,"rain":0.0,"pressure":956.1,"uv_index":8.75,"wind_gusts":42.5,"aqi":66,"pm10":29.7,"pm2_5":18.4,"mosquito_risk":4,"arthritis_risk":5,"migraine_risk":7,"frizz_risk":0,"updated_at":"2026-04-28T03:25:19.251010+05:30"},{"city":"Ujjain","state":"Madhya Pradesh","latitude":23.1765,"longitude":75.7885,"temp":29.5,"humidity":25,"rain":0.0,"pressure":950.3,"uv_index":8.55,"wind_gusts":56.9,"aqi":60,"pm10":22.8,"pm2_5":17.6,"mosquito_risk":4,"arthritis_risk":5,"migraine_risk":7,"frizz_risk":0,"updated_at":"2026-04-28T03:25:19.251017+05:30"},{"city":"Visakhapatnam","state":"Andhra Pradesh","latitude":17.6868,"longitude":83.2185,"temp":27.5,"humidity":91,"rain":0.0,"pressure":1000.6,"uv_index":9.2,"wind_gusts":58.3,"aqi":60,"pm10":22.3,"pm2_5":16.9,"mosquito_risk":7,"arthritis_risk":5,"migraine_risk":4,"frizz_risk":1,"updated_at":"2026-04-28T03:25:19.251024+05:30"},{"city":"Vijayawada","state":"Andhra Pradesh","latitude":16.5062,"longitude":80.648,"temp":28.1,"humidity":88,"rain":0.0,"pressure":999.5,"uv_index":8.75,"wind_gusts":41.4,"aqi":61,"pm10":19.0,"pm2_5":14.4,"mosquito_risk":7,"arthritis_risk":5,"migraine_risk":7,"frizz_risk":1,"updated_at":"2026-04-28T03:25:19.251030+05:30"},{"city":"Guntur","state":"Andhra Pradesh","latitude":16.3067,"longitude":80.4365,"temp":28.1,"humidity":89,"rain":0.0,"pressure":1000.7,"uv_index":9.25,"wind_gusts":45.4,"aqi":62,"pm10":18.4,"pm2_5":14.2,"mosquito_risk":7,"arthritis_risk":5,"migraine_risk":4,"frizz_risk":1,"updated_at":"2026-04-28T03:25:19.251037+05:30"},{"city":"Nellore","state":"Andhra Pradesh","latitude":14.4426,"longitude":79.9865,"temp":27.2,"humidity":84,"rain":0.0,"pressure":1002.4,"uv_index":9.25,"wind_gusts":48.2,"aqi":62,"pm10":14.3,"pm2_5":11.8,"mosquito_risk":7,"arthritis_risk":5,"migraine_risk":4,"frizz_risk":1,"updated_at":"2026-04-28T03:25:19.251044+05:30"},{"city":"Kurnool","state":"Andhra Pradesh","latitude":15.8281,"longitude":78.0373,"temp":32.2,"humidity":45,"rain":0.0,"pressure":972.5,"uv_index":9.2,"wind_gusts":40.7,"aqi":93,"pm10":31.8,"pm2_5":28.4,"mosquito_risk":0,"arthritis_risk":5,"migraine_risk":7,"frizz_risk":1,"updated_at":"2026-04-28T03:25:19.251051+05:30"},{"city":"Kakinada","state":"Andhra Pradesh","latitude":16.9891,"longitude":82.2475,"temp":27.6,"humidity":90,"rain":0.0,"pressure":1004.8,"uv_index":9.2,"wind_gusts":45.7,"aqi":56,"pm10":22.7,"pm2_5":14.6,"mosquito_risk":7,"arthritis_risk":5,"migraine_risk":4,"frizz_risk":1,"updated_at":"2026-04-28T03:25:19.251057+05:30"},{"city":"Tirupati","state":"Andhra Pradesh","latitude":13.6288,"longitude":79.4192,"temp":26.8,"humidity":81,"rain":0.0,"pressure":988.9,"uv_index":9.2,"wind_gusts":38.2,"aqi":71,"pm10":14.8,"pm2_5":12.4,"mosquito_risk":7,"arthritis_risk":5,"migraine_risk":7,"frizz_risk":1,"updated_at":"2026-04-28T03:25:19.251063+05:30"},{"city":"Warangal","state":"Telangana","latitude":17.9689,"longitude":79.5941,"temp":27.6,"humidity":74,"rain":0.0,"pressure":975.0,"uv_index":8.75,"wind_gusts":38.2,"aqi":78,"pm10":23.9,"pm2_5":21.9,"mosquito_risk":7,"arthritis_risk":5,"migraine_risk":7,"frizz_risk":1,"updated_at":"2026-04-28T03:25:19.251069+05:30"},{"city":"Nizamabad","state":"Telangana","latitude":18.6725,"longitude":78.0941,"temp":29.8,"humidity":40,"rain":0.0,"pressure":960.5,"uv_index":9.1,"wind_gusts":36.0,"aqi":92,"pm10":34.6,"pm2_5":28.5,"mosquito_risk":4,"arthritis_risk":5,"migraine_risk":7,"frizz_risk":0,"updated_at":"2026-04-28T03:25:19.251076+05:30"},{"city":"Mysore","state":"Karnataka","latitude":12.2958,"longitude":76.6396,"temp":23.1,"humidity":95,"rain":0.0,"pressure":926.0,"uv_index":8.8,"wind_gusts":40.7,"aqi":92,"pm10":28.6,"pm2_5":27.0,"mosquito_risk":3,"arthritis_risk":5,"migraine_risk":7,"frizz_risk":1,"updated_at":"2026-04-28T03:25:19.251083+05:30"},{"city":"Mangalore","state":"Karnataka","latitude":12.9141,"longitude":74.856,"temp":29.0,"humidity":80,"rain":0.0,"pressure":1003.9,"uv_index":8.0,"wind_gusts":37.4,"aqi":78,"pm10":38.2,"pm2_5":31.7,"mosquito_risk":7,"arthritis_risk":5,"migraine_risk":4,"frizz_risk":1,"updated_at":"2026-04-28T03:25:19.251089+05:30"},{"city":"Hubli-Dharwad","state":"Karnataka","latitude":15.3647,"longitude":75.124,"temp":24.0,"humidity":91,"rain":0.0,"pressure":938.0,"uv_index":9.2,"wind_gusts":40.3,"aqi":81,"pm10":17.8,"pm2_5":13.4,"mosquito_risk":3,"arthritis_risk":5,"migraine_risk":7,"frizz_risk":1,"updated_at":"2026-04-28T03:25:19.251095+05:30"},{"city":"Belgaum","state":"Karnataka","latitude":15.8497,"longitude":74.4977,"temp":22.3,"humidity":98,"rain":0.0,"pressure":922.9,"uv_index":9.2,"wind_gusts":47.9,"aqi":77,"pm10":36.7,"pm2_5":18.7,"mosquito_risk":3,"arthritis_risk":5,"migraine_risk":7,"frizz_risk":1,"updated_at":"2026-04-28T03:25:22.480405+05:30"},{"city":"Coimbatore","state":"Tamil Nadu","latitude":11.0168,"longitude":76.9558,"temp":25.9,"humidity":87,"rain":0.0,"pressure":959.2,"uv_index":8.2,"wind_gusts":49.0,"aqi":66,"pm10":24.4,"pm2_5":21.4,"mosquito_risk":7,"arthritis_risk":5,"migraine_risk":7,"frizz_risk":1,"updated_at":"2026-04-28T03:25:22.480434+05:30"},{"city":"Madurai","state":"Tamil Nadu","latitude":9.9252,"longitude":78.1198,"temp":28.0,"humidity":71,"rain":0.0,"pressure":990.9,"uv_index":8.7,"wind_gusts":50.8,"aqi":49,"pm10":15.3,"pm2_5":15.0,"mosquito_risk":7,"arthritis_risk":5,"migraine_risk":7,"frizz_risk":1,"updated_at":"2026-04-28T03:25:22.480445+05:30"},{"city":"Trichy","state":"Tamil Nadu","latitude":10.7905,"longitude":78.7047,"temp":27.7,"humidity":81,"rain":0.0,"pressure":997.8,"uv_index":8.75,"wind_gusts":45.7,"aqi":52,"pm10":8.4,"pm2_5":7.7,"mosquito_risk":7,"arthritis_risk":5,"migraine_risk":7,"frizz_risk":1,"updated_at":"2026-04-28T03:25:22.480453+05:30"},{"city":"Salem","state":"Tamil Nadu","latitude":11.6643,"longitude":78.146,"temp":27.5,"humidity":67,"rain":0.0,"pressure":975.2,"uv_index":7.35,"wind_gusts":31.7,"aqi":64,"pm10":9.8,"pm2_5":9.5,"mosquito_risk":7,"arthritis_risk":5,"migraine_risk":7,"frizz_risk":1,"updated_at":"2026-04-28T03:25:22.480461+05:30"},{"city":"Tirunelveli","state":"Tamil Nadu","latitude":8.7139,"longitude":77.7567,"temp":26.9,"humidity":80,"rain":0.0,"pressure":1001.0,"uv_index":9.15,"wind_gusts":45.0,"aqi":60,"pm10":21.6,"pm2_5":20.3,"mosquito_risk":7,"arthritis_risk":5,"migraine_risk":4,"frizz_risk":1,"updated_at":"2026-04-28T03:25:22.480469+05:30"},{"city":"Vellore","state":"Tamil Nadu","latitude":12.9165,"longitude":79.1325,"temp":26.1,"humidity":82,"rain":0.0,"pressure":982.4,"uv_index":8.8,"wind_gusts":38.9,"aqi":85,"pm10":22.4,"pm2_5":20.7,"mosquito_risk":7,"arthritis_risk":5,"migraine_risk":7,"frizz_risk":1,"updated_at":"2026-04-28T03:25:22.480476+05:30"},{"city":"Erode","state":"Tamil Nadu","latitude":11.341,"longitude":77.7172,"temp":28.9,"humidity":66,"rain":0.0,"pressure":986.6,"uv_index":8.4,"wind_gusts":50.0,"aqi":66,"pm10":21.8,"pm2_5":20.6,"mosquito_risk":7,"arthritis_risk":5,"migraine_risk":7,"frizz_risk":1,"updated_at":"2026-04-28T03:25:22.480484+05:30"},{"city":"Kochi","state":"Kerala","latitude":9.9312,"longitude":76.2673,"temp":26.4,"humidity":88,"rain":0.0,"pressure":1006.8,"uv_index":7.1,"wind_gusts":36.4,"aqi":75,"pm10":24.9,"pm2_5":21.8,"mosquito_risk":7,"arthritis_risk":5,"migraine_risk":4,"frizz_risk":1,"updated_at":"2026-04-28T03:25:22.480491+05:30"},{"city":"Thiruvananthapuram","state":"Kerala","latitude":8.5241,"longitude":76.9366,"temp":24.8,"humidity":96,"rain":0.0,"pressure":1006.3,"uv_index":8.15,"wind_gusts":36.4,"aqi":57,"pm10":17.8,"pm2_5":14.6,"mosquito_risk":3,"arthritis_risk":5,"migraine_risk":4,"frizz_risk":1,"updated_at":"2026-04-28T03:25:22.480498+05:30"},{"city":"Kozhikode","state":"Kerala","latitude":11.2588,"longitude":75.7804,"temp":25.7,"humidity":95,"rain":0.0,"pressure":1005.6,"uv_index":7.5,"wind_gusts":36.0,"aqi":62,"pm10":28.4,"pm2_5":21.5,"mosquito_risk":7,"arthritis_risk":5,"migraine_risk":4,"frizz_risk":1,"updated_at":"2026-04-28T03:25:22.480504+05:30"},{"city":"Thrissur","state":"Kerala","latitude":10.5276,"longitude":76.2144,"temp":25.1,"humidity":96,"rain":0.1,"pressure":1005.2,"uv_index":7.9,"wind_gusts":36.7,"aqi":69,"pm10":22.7,"pm2_5":20.5,"mosquito_risk":10,"arthritis_risk":5,"migraine_risk":4,"frizz_risk":1,"updated_at":"2026-04-28T03:25:22.480512+05:30"},{"city":"Kannur","state":"Kerala","latitude":11.8745,"longitude":75.3704,"temp":27.6,"humidity":88,"rain":0.0,"pressure":1004.4,"uv_index":7.7,"wind_gusts":37.8,"aqi":76,"pm10":35.9,"pm2_5":32.0,"mosquito_risk":7,"arthritis_risk":5,"migraine_risk":4,"frizz_risk":1,"updated_at":"2026-04-28T03:25:22.480519+05:30"},{"city":"Patna","state":"Bihar","latitude":25.5941,"longitude":85.1376,"temp":22.4,"humidity":89,"rain":0.0,"pressure":996.1,"uv_index":8.6,"wind_gusts":33.8,"aqi":127,"pm10":41.0,"pm2_5":33.1,"mosquito_risk":3,"arthritis_risk":5,"migraine_risk":7,"frizz_risk":1,"updated_at":"2026-04-28T03:25:22.480526+05:30"},{"city":"Gaya","state":"Bihar","latitude":24.7914,"longitude":85.0002,"temp":24.4,"humidity":83,"rain":0.0,"pressure":989.0,"uv_index":8.7,"wind_gusts":35.3,"aqi":127,"pm10":48.4,"pm2_5":42.1,"mosquito_risk":3,"arthritis_risk":5,"migraine_risk":7,"frizz_risk":1,"updated_at":"2026-04-28T03:25:22.480533+05:30"},{"city":"Muzaffarpur","state":"Bihar","latitude":26.1209,"longitude":85.3647,"temp":22.2,"humidity":86,"rain":0.0,"pressure":996.3,"uv_index":8.1,"wind_gusts":36.7,"aqi":131,"pm10":34.1,"pm2_5":29.0,"mosquito_risk":3,"arthritis_risk":5,"migraine_risk":7,"frizz_risk":1,"updated_at":"2026-04-28T03:25:22.480540+05:30"},{"city":"Bhagalpur","state":"Bihar","latitude":25.2425,"longitude":87.0117,"temp":22.1,"humidity":91,"rain":0.0,"pressure":997.1,"uv_index":8.6,"wind_gusts":31.7,"aqi":100,"pm10":28.9,"pm2_5":25.9,"mosquito_risk":3,"arthritis_risk":5,"migraine_risk":7,"frizz_risk":1,"updated_at":"2026-04-28T03:25:22.480546+05:30"},{"city":"Ranchi","state":"Jharkhand","latitude":23.3441,"longitude":85.3096,"temp":24.0,"humidity":66,"rain":0.0,"pressure":931.8,"uv_index":8.95,"wind_gusts":47.2,"aqi":85,"pm10":42.7,"pm2_5":25.0,"mosquito_risk":3,"arthritis_risk":5,"migraine_risk":7,"frizz_risk":1,"updated_at":"2026-04-28T03:25:22.480554+05:30"},{"city":"Jamshedpur","state":"Jharkhand","latitude":22.8046,"longitude":86.2029,"temp":27.4,"humidity":71,"rain":0.0,"pressure":984.5,"uv_index":8.85,"wind_gusts":55.4,"aqi":98,"pm10":56.2,"pm2_5":43.8,"mosquito_risk":7,"arthritis_risk":5,"migraine_risk":7,"frizz_risk":1,"updated_at":"2026-04-28T03:25:22.480560+05:30"},{"city":"Dhanbad","state":"Jharkhand","latitude":23.7957,"longitude":86.4304,"temp":24.4,"humidity":85,"rain":0.0,"pressure":974.7,"uv_index":8.95,"wind_gusts":37.8,"aqi":144,"pm10":86.4,"pm2_5":77.8,"mosquito_risk":3,"arthritis_risk":5,"migraine_risk":7,"frizz_risk":1,"updated_at":"2026-04-28T03:25:22.480567+05:30"},{"city":"Bokaro","state":"Jharkhand","latitude":23.6693,"longitude":86.1511,"temp":25.0,"humidity":86,"rain":0.0,"pressure":978.6,"uv_index":8.95,"wind_gusts":36.4,"aqi":141,"pm10":87.3,"pm2_5":77.3,"mosquito_risk":7,"arthritis_risk":5,"migraine_risk":7,"frizz_risk":1,"updated_at":"2026-04-28T03:25:22.480573+05:30"},{"city":"Bhubaneswar","state":"Odisha","latitude":20.2961,"longitude":85.8245,"temp":27.4,"humidity":85,"rain":0.0,"pressure":996.8,"uv_index":9.1,"wind_gusts":48.6,"aqi":53,"pm10":16.8,"pm2_5":13.6,"mosquito_risk":7,"arthritis_risk":5,"migraine_risk":7,"frizz_risk":1,"updated_at":"2026-04-28T03:25:22.480579+05:30"},{"city":"Cuttack","state":"Odisha","latitude":20.4625,"longitude":85.8828,"temp":27.2,"humidity":86,"rain":0.0,"pressure":998.7,"uv_index":9.15,"wind_gusts":42.8,"aqi":53,"pm10":16.8,"pm2_5":13.6,"mosquito_risk":7,"arthritis_risk":5,"migraine_risk":7,"frizz_risk":1,"updated_at":"2026-04-28T03:25:22.480585+05:30"},{"city":"Rourkela","state":"Odisha","latitude":22.2604,"longitude":84.8536,"temp":27.3,"humidity":78,"rain":0.0,"pressure":979.0,"uv_index":8.9,"wind_gusts":64.1,"aqi":97,"pm10":57.6,"pm2_5":35.2,"mosquito_risk":7,"arthritis_risk":5,"migraine_risk":7,"frizz_risk":1,"updated_at":"2026-04-28T03:25:22.480592+05:30"},{"city":"Raipur","state":"Chhattisgarh","latitude":21.2514,"longitude":81.6296,"temp":30.0,"humidity":36,"rain":0.0,"pressure":969.4,"uv_index":8.9,"wind_gusts":46.8,"aqi":103,"pm10":57.3,"pm2_5":42.5,"mosquito_risk":4,"arthritis_risk":5,"migraine_risk":7,"frizz_risk":0,"updated_at":"2026-04-28T03:25:22.480599+05:30"},{"city":"Bhilai","state":"Chhattisgarh","latitude":21.1938,"longitude":81.3509,"temp":30.0,"humidity":40,"rain":0.0,"pressure":970.0,"uv_index":8.95,"wind_gusts":46.1,"aqi":92,"pm10":50.6,"pm2_5":33.9,"mosquito_risk":4,"arthritis_risk":5,"migraine_risk":7,"frizz_risk":0,"updated_at":"2026-04-28T03:25:22.480606+05:30"},{"city":"Guwahati","state":"Assam","latitude":26.1158,"longitude":91.7086,"temp":20.5,"humidity":91,"rain":0.0,"pressure":998.7,"uv_index":7.9,"wind_gusts":32.8,"aqi":98,"pm10":39.8,"pm2_5":31.8,"mosquito_risk":3,"arthritis_risk":5,"migraine_risk":7,"frizz_risk":1,"updated_at":"2026-04-28T03:25:22.480612+05:30"},{"city":"Agartala","state":"Tripura","latitude":23.8315,"longitude":91.2868,"temp":26.2,"humidity":88,"rain":0.0,"pressure":1001.3,"uv_index":7.1,"wind_gusts":44.6,"aqi":68,"pm10":17.6,"pm2_5":14.9,"mosquito_risk":7,"arthritis_risk":5,"migraine_risk":4,"frizz_risk":1,"updated_at":"2026-04-28T03:25:22.480618+05:30"},{"city":"Shillong","state":"Meghalaya","latitude":25.5788,"longitude":91.8933,"temp":15.6,"humidity":98,"rain":0.0,"pressure":852.3,"uv_index":8.7,"wind_gusts":28.4,"aqi":66,"pm10":12.3,"pm2_5":4.9,"mosquito_risk":3,"arthritis_risk":10,"migraine_risk":7,"frizz_risk":0,"updated_at":"2026-04-28T03:25:22.480626+05:30"},{"city":"Imphal","state":"Manipur","latitude":24.817,"longitude":93.9368,"temp":18.0,"humidity":98,"rain":0.0,"pressure":919.3,"uv_index":8.9,"wind_gusts":20.9,"aqi":116,"pm10":24.6,"pm2_5":17.6,"mosquito_risk":3,"arthritis_risk":10,"migraine_risk":7,"frizz_risk":1,"updated_at":"2026-04-28T03:25:22.480633+05:30"},{"city":"Aizawl","state":"Mizoram","latitude":23.7271,"longitude":92.7176,"temp":18.9,"humidity":79,"rain":0.0,"pressure":888.1,"uv_index":7.75,"wind_gusts":74.5,"aqi":71,"pm10":27.8,"pm2_5":16.2,"mosquito_risk":3,"arthritis_risk":5,"migraine_risk":7,"frizz_risk":0,"updated_at":"2026-04-28T03:25:22.480639+05:30"},{"city":"Kohima","state":"Nagaland","latitude":25.6701,"longitude":94.1077,"temp":15.6,"humidity":98,"rain":0.1,"pressure":851.1,"uv_index":6.65,"wind_gusts":29.9,"aqi":100,"pm10":5.8,"pm2_5":3.5,"mosquito_risk":6,"arthritis_risk":10,"migraine_risk":7,"frizz_risk":0,"updated_at":"2026-04-28T03:25:22.480646+05:30"},{"city":"Gangtok","state":"Sikkim","latitude":27.3314,"longitude":88.6138,"temp":12.0,"humidity":91,"rain":0.0,"pressure":831.2,"uv_index":8.2,"wind_gusts":42.5,"aqi":73,"pm10":39.9,"pm2_5":31.2,"mosquito_risk":3,"arthritis_risk":10,"migraine_risk":7,"frizz_risk":0,"updated_at":"2026-04-28T03:25:22.480653+05:30"},{"city":"Siliguri","state":"West Bengal","latitude":26.7271,"longitude":88.3953,"temp":20.9,"humidity":86,"rain":0.0,"pressure":989.6,"uv_index":7.6,"wind_gusts":28.4,"aqi":92,"pm10":25.7,"pm2_5":22.4,"mosquito_risk":3,"arthritis_risk":5,"migraine_risk":7,"frizz_risk":1,"updated_at":"2026-04-28T03:25:25.716214+05:30"},{"city":"Durgapur","state":"West Bengal","latitude":23.5204,"longitude":87.3119,"temp":25.5,"humidity":89,"rain":0.0,"pressure":989.3,"uv_index":8.85,"wind_gusts":37.1,"aqi":121,"pm10":51.0,"pm2_5":48.1,"mosquito_risk":7,"arthritis_risk":5,"migraine_risk":7,"frizz_risk":1,"updated_at":"2026-04-28T03:25:25.716255+05:30"},{"city":"Asansol","state":"West Bengal","latitude":23.6739,"longitude":86.9524,"temp":24.6,"humidity":88,"rain":0.0,"pressure":988.2,"uv_index":8.9,"wind_gusts":32.8,"aqi":117,"pm10":55.4,"pm2_5":52.3,"mosquito_risk":3,"arthritis_risk":5,"migraine_risk":7,"frizz_risk":1,"updated_at":"2026-04-28T03:25:25.716267+05:30"},{"city":"Pondicherry","state":"Puducherry","latitude":11.9139,"longitude":79.8145,"temp":28.6,"humidity":83,"rain":0.0,"pressure":1006.2,"uv_index":8.8,"wind_gusts":46.8,"aqi":50,"pm10":12.0,"pm2_5":8.2,"mosquito_risk":7,"arthritis_risk":5,"migraine_risk":4,"frizz_risk":1,"updated_at":"2026-04-28T03:25:25.716276+05:30"},{"city":"Port Blair","state":"Andaman and Nicobar Islands","latitude":11.6234,"longitude":92.7265,"temp":26.5,"humidity":85,"rain":0.0,"pressure":1005.4,"uv_index":9.05,"wind_gusts":27.0,"aqi":38,"pm10":9.5,"pm2_5":7.0,"mosquito_risk":7,"arthritis_risk":5,"migraine_risk":4,"frizz_risk":1,"updated_at":"2026-04-28T03:25:25.716286+05:30"},{"city":"Haridwar","state":"Uttarakhand","latitude":29.9457,"longitude":78.1642,"temp":22.2,"humidity":52,"rain":0.0,"pressure":967.5,"uv_index":6.6,"wind_gusts":28.1,"aqi":58,"pm10":21.4,"pm2_5":17.8,"mosquito_risk":0,"arthritis_risk":5,"migraine_risk":7,"frizz_risk":0,"updated_at":"2026-04-28T03:25:25.716295+05:30"},{"city":"Rishikesh","state":"Uttarakhand","latitude":30.0869,"longitude":78.2676,"temp":18.5,"humidity":63,"rain":0.0,"pressure":960.0,"uv_index":6.3,"wind_gusts":29.5,"aqi":67,"pm10":34.1,"pm2_5":19.5,"mosquito_risk":3,"arthritis_risk":5,"migraine_risk":7,"frizz_risk":0,"updated_at":"2026-04-28T03:25:25.716304+05:30"},{"city":"Nainital","state":"Uttarakhand","latitude":29.3919,"longitude":79.4542,"temp":14.3,"humidity":47,"rain":0.0,"pressure":800.9,"uv_index":7.45,"wind_gusts":54.4,"aqi":80,"pm10":43.8,"pm2_5":15.9,"mosquito_risk":0,"arthritis_risk":5,"migraine_risk":7,"frizz_risk":0,"updated_at":"2026-04-28T03:25:25.716312+05:30"},{"city":"Mussoorie","state":"Uttarakhand","latitude":30.4599,"longitude":78.0664,"temp":16.9,"humidity":34,"rain":0.0,"pressure":799.1,"uv_index":5.25,"wind_gusts":51.8,"aqi":49,"pm10":22.3,"pm2_5":19.7,"mosquito_risk":0,"arthritis_risk":5,"migraine_risk":3,"frizz_risk":0,"updated_at":"2026-04-28T03:25:25.716320+05:30"},{"city":"Dharamshala","state":"Himachal Pradesh","latitude":32.219,"longitude":76.3234,"temp":22.7,"humidity":28,"rain":0.0,"pressure":865.2,"uv_index":7.5,"wind_gusts":53.3,"aqi":48,"pm10":12.6,"pm2_5":10.0,"mosquito_risk":0,"arthritis_risk":5,"migraine_risk":7,"frizz_risk":0,"updated_at":"2026-04-28T03:25:25.716328+05:30"},{"city":"Dalhousie","state":"Himachal Pradesh","latitude":32.5387,"longitude":75.971,"temp":10.8,"humidity":63,"rain":0.0,"pressure":797.0,"uv_index":6.15,"wind_gusts":36.7,"aqi":40,"pm10":14.4,"pm2_5":13.5,"mosquito_risk":3,"arthritis_risk":5,"migraine_risk":7,"frizz_risk":0,"updated_at":"2026-04-28T03:25:25.716337+05:30"},{"city":"Patiala","state":"Punjab","latitude":30.3398,"longitude":76.3869,"temp":28.9,"humidity":34,"rain":0.0,"pressure":971.8,"uv_index":6.15,"wind_gusts":49.3,"aqi":362,"pm10":489.9,"pm2_5":75.7,"mosquito_risk":4,"arthritis_risk":5,"migraine_risk":7,"frizz_risk":0,"updated_at":"2026-04-28T03:25:25.716345+05:30"},{"city":"Bhatinda","state":"Punjab","latitude":30.211,"longitude":74.9455,"temp":29.2,"humidity":37,"rain":0.0,"pressure":976.8,"uv_index":7.45,"wind_gusts":44.6,"aqi":69,"pm10":74.7,"pm2_5":30.9,"mosquito_risk":4,"arthritis_risk":5,"migraine_risk":7,"frizz_risk":0,"updated_at":"2026-04-28T03:25:25.716354+05:30"},{"city":"Rohtak","state":"Haryana","latitude":28.8955,"longitude":76.6066,"temp":27.1,"humidity":45,"rain":0.0,"pressure":975.4,"uv_index":7.25,"wind_gusts":53.3,"aqi":584,"pm10":1076.6,"pm2_5":157.9,"mosquito_risk":4,"arthritis_risk":5,"migraine_risk":7,"frizz_risk":0,"updated_at":"2026-04-28T03:25:25.716362+05:30"},{"city":"Panipat","state":"Haryana","latitude":29.3909,"longitude":76.9635,"temp":28.6,"humidity":36,"rain":0.0,"pressure":974.1,"uv_index":6.95,"wind_gusts":56.2,"aqi":1154,"pm10":1952.1,"pm2_5":240.3,"mosquito_risk":4,"arthritis_risk":5,"migraine_risk":7,"frizz_risk":0,"updated_at":"2026-04-28T03:25:25.716369+05:30"},{"city":"Mathura","state":"Uttar Pradesh","latitude":27.4924,"longitude":77.6737,"temp":32.3,"humidity":25,"rain":0.0,"pressure":979.4,"uv_index":7.75,"wind_gusts":63.7,"aqi":638,"pm10":931.3,"pm2_5":119.2,"mosquito_risk":0,"arthritis_risk":5,"migraine_risk":7,"frizz_risk":0,"updated_at":"2026-04-28T03:25:25.716377+05:30"},{"city":"Vrindavan","state":"Uttar Pradesh","latitude":27.5823,"longitude":77.7027,"temp":31.8,"humidity":26,"rain":0.0,"pressure":979.8,"uv_index":7.75,"wind_gusts":67.3,"aqi":638,"pm10":931.3,"pm2_5":119.2,"mosquito_risk":0,"arthritis_risk":5,"migraine_risk":7,"frizz_risk":0,"updated_at":"2026-04-28T03:25:25.716385+05:30"},{"city":"Ayodhya","state":"Uttar Pradesh","latitude":26.7922,"longitude":82.1998,"temp":26.0,"humidity":69,"rain":0.0,"pressure":990.3,"uv_index":8.1,"wind_gusts":52.2,"aqi":139,"pm10":79.9,"pm2_5":60.8,"mosquito_risk":7,"arthritis_risk":5,"migraine_risk":7,"frizz_risk":1,"updated_at":"2026-04-28T03:25:25.716393+05:30"},{"city":"Ratlam","state":"Madhya Pradesh","latitude":23.3315,"longitude":75.0367,"temp":27.5,"humidity":32,"rain":0.0,"pressure":951.2,"uv_index":8.45,"wind_gusts":51.1,"aqi":63,"pm10":24.4,"pm2_5":18.3,"mosquito_risk":4,"arthritis_risk":5,"migraine_risk":7,"frizz_risk":0,"updated_at":"2026-04-28T03:25:25.716400+05:30"},{"city":"Sagar","state":"Madhya Pradesh","latitude":23.8388,"longitude":78.7378,"temp":28.6,"humidity":28,"rain":0.0,"pressure":945.3,"uv_index":8.6,"wind_gusts":45.4,"aqi":52,"pm10":13.3,"pm2_5":10.3,"mosquito_risk":4,"arthritis_risk":5,"migraine_risk":7,"frizz_risk":0,"updated_at":"2026-04-28T03:25:25.716408+05:30"},{"city":"Satna","state":"Madhya Pradesh","latitude":24.6005,"longitude":80.8322,"temp":30.5,"humidity":30,"rain":0.0,"pressure":964.7,"uv_index":8.2,"wind_gusts":46.8,"aqi":58,"pm10":19.7,"pm2_5":12.0,"mosquito_risk":0,"arthritis_risk":5,"migraine_risk":7,"frizz_risk":0,"updated_at":"2026-04-28T03:25:25.716416+05:30"},{"city":"Akola","state":"Maharashtra","latitude":20.7002,"longitude":77.0082,"temp":31.0,"humidity":22,"rain":0.0,"pressure":970.4,"uv_index":8.4,"wind_gusts":42.8,"aqi":74,"pm10":23.2,"pm2_5":19.7,"mosquito_risk":0,"arthritis_risk":5,"migraine_risk":7,"frizz_risk":0,"updated_at":"2026-04-28T03:25:25.716424+05:30"},{"city":"Amravati","state":"Maharashtra","latitude":20.9374,"longitude":77.7796,"temp":32.5,"humidity":18,"rain":0.0,"pressure":962.4,"uv_index":8.2,"wind_gusts":46.8,"aqi":70,"pm10":22.9,"pm2_5":19.5,"mosquito_risk":0,"arthritis_risk":5,"migraine_risk":7,"frizz_risk":0,"updated_at":"2026-04-28T03:25:25.716432+05:30"},{"city":"Latur","state":"Maharashtra","latitude":18.4088,"longitude":76.5604,"temp":29.0,"humidity":35,"rain":0.0,"pressure":936.2,"uv_index":9.1,"wind_gusts":36.4,"aqi":81,"pm10":30.0,"pm2_5":23.7,"mosquito_risk":4,"arthritis_risk":5,"migraine_risk":7,"frizz_risk":0,"updated_at":"2026-04-28T03:25:25.716440+05:30"},{"city":"Nanded","state":"Maharashtra","latitude":19.1383,"longitude":77.3091,"temp":29.5,"humidity":29,"rain":0.0,"pressure":964.4,"uv_index":8.95,"wind_gusts":31.0,"aqi":75,"pm10":28.6,"pm2_5":24.8,"mosquito_risk":4,"arthritis_risk":5,"migraine_risk":7,"frizz_risk":0,"updated_at":"2026-04-28T03:25:25.716448+05:30"},{"city":"Gulbarga","state":"Karnataka","latitude":17.3297,"longitude":76.8343,"temp":29.6,"humidity":46,"rain":0.0,"pressure":955.0,"uv_index":9.0,"wind_gusts":35.6,"aqi":87,"pm10":28.8,"pm2_5":24.8,"mosquito_risk":4,"arthritis_risk":5,"migraine_risk":7,"frizz_risk":1,"updated_at":"2026-04-28T03:25:25.716456+05:30"},{"city":"Bidar","state":"Karnataka","latitude":17.9104,"longitude":77.5199,"temp":28.5,"humidity":41,"rain":0.0,"pressure":931.6,"uv_index":8.1,"wind_gusts":34.6,"aqi":88,"pm10":43.8,"pm2_5":38.3,"mosquito_risk":4,"arthritis_risk":5,"migraine_risk":7,"frizz_risk":0,"updated_at":"2026-04-28T03:25:25.716463+05:30"},{"city":"Hospet","state":"Karnataka","latitude":15.2689,"longitude":76.3909,"temp":27.0,"humidity":79,"rain":0.0,"pressure":952.5,"uv_index":9.25,"wind_gusts":34.2,"aqi":91,"pm10":25.8,"pm2_5":23.8,"mosquito_risk":7,"arthritis_risk":5,"migraine_risk":7,"frizz_risk":1,"updated_at":"2026-04-28T03:25:25.716470+05:30"},{"city":"Tirupur","state":"Tamil Nadu","latitude":11.1085,"longitude":77.3411,"temp":26.5,"humidity":88,"rain":0.0,"pressure":972.7,"uv_index":8.3,"wind_gusts":33.8,"aqi":73,"pm10":25.4,"pm2_5":23.6,"mosquito_risk":7,"arthritis_risk":5,"migraine_risk":7,"frizz_risk":1,"updated_at":"2026-04-28T03:25:25.716478+05:30"},{"city":"Alappuzha","state":"Kerala","latitude":9.4981,"longitude":76.3388,"temp":26.0,"humidity":93,"rain":0.0,"pressure":1006.9,"uv_index":7.5,"wind_gusts":36.0,"aqi":72,"pm10":27.0,"pm2_5":22.9,"mosquito_risk":7,"arthritis_risk":5,"migraine_risk":4,"frizz_risk":1,"updated_at":"2026-04-28T03:25:25.716486+05:30"},{"city":"Munnar","state":"Kerala","latitude":10.0889,"longitude":77.0595,"temp":18.5,"humidity":78,"rain":0.0,"pressure":854.9,"uv_index":8.65,"wind_gusts":26.6,"aqi":72,"pm10":19.7,"pm2_5":18.9,"mosquito_risk":3,"arthritis_risk":5,"migraine_risk":7,"frizz_risk":0,"updated_at":"2026-04-28T03:25:25.716494+05:30"},{"city":"Silchar","state":"Assam","latitude":24.8333,"longitude":92.7789,"temp":21.9,"humidity":95,"rain":0.1,"pressure":1001.6,"uv_index":7.95,"wind_gusts":34.2,"aqi":134,"pm10":13.6,"pm2_5":9.2,"mosquito_risk":6,"arthritis_risk":5,"migraine_risk":4,"frizz_risk":1,"updated_at":"2026-04-28T03:25:25.716502+05:30"},{"city":"Dibrugarh","state":"Assam","latitude":27.4728,"longitude":94.912,"temp":20.8,"humidity":98,"rain":0.1,"pressure":993.7,"uv_index":8.25,"wind_gusts":18.0,"aqi":99,"pm10":35.9,"pm2_5":29.0,"mosquito_risk":6,"arthritis_risk":5,"migraine_risk":7,"frizz_risk":1,"updated_at":"2026-04-28T03:25:25.716510+05:30"}]