[{"city":"Delhi","state":"Delhi","latitude":28.6139,"longitude":77.209,"temp":39.6,"humidity":17,"rain":0.0,"pressure":977.8,"uv_index":7.7,"wind_gusts":41.4,"aqi":278,"pm10":436.8,"pm2_5":77.1,"no2":4.9,"co":294.0,"o3":151.0,"so2":10.3,"mosquito_risk":0,"arthritis_risk":5,"migraine_risk":10,"frizz_risk":0,"updated_at":"2026-05-16T15:48:34.569449+05:30"},{"city":"Mumbai","state":"Maharashtra","latitude":19.076,"longitude":72.8777,"temp":32.2,"humidity":65,"rain":0.0,"pressure":1002.9,"uv_index":7.85,"wind_gusts":49.0,"aqi":60,"pm10":36.0,"pm2_5":16.0,"no2":5.5,"co":186.0,"o3":83.0,"so2":4.4,"mosquito_risk":3,"arthritis_risk":5,"migraine_risk":4,"frizz_risk":1,"updated_at":"2026-05-16T15:48:34.569494+05:30"},{"city":"Bangalore","state":"Karnataka","latitude":12.9716,"longitude":77.5946,"temp":33.0,"humidity":27,"rain":0.0,"pressure":907.1,"uv_index":8.8,"wind_gusts":37.1,"aqi":143,"pm10":85.0,"pm2_5":47.7,"no2":5.9,"co":314.0,"o3":172.0,"so2":7.7,"mosquito_risk":0,"arthritis_risk":5,"migraine_risk":7,"frizz_risk":0,"updated_at":"2026-05-16T15:48:34.569509+05:30"},{"city":"Hyderabad","state":"Telangana","latitude":17.385,"longitude":78.4867,"temp":35.7,"humidity":33,"rain":0.0,"pressure":947.9,"uv_index":9.3,"wind_gusts":29.5,"aqi":150,"pm10":81.5,"pm2_5":47.6,"no2":3.6,"co":364.0,"o3":155.0,"so2":6.5,"mosquito_risk":0,"arthritis_risk":5,"migraine_risk":10,"frizz_risk":1,"updated_at":"2026-05-16T15:48:34.569522+05:30"},{"city":"Chennai","state":"Tamil Nadu","latitude":13.0827,"longitude":80.2707,"temp":30.5,"humidity":71,"rain":0.0,"pressure":1000.9,"uv_index":8.85,"wind_gusts":28.1,"aqi":40,"pm10":14.3,"pm2_5":10.5,"no2":7.4,"co":172.0,"o3":89.0,"so2":13.0,"mosquito_risk":3,"arthritis_risk":5,"migraine_risk":4,"frizz_risk":1,"updated_at":"2026-05-16T15:48:34.569532+05:30"},{"city":"Kolkata","state":"West Bengal","latitude":22.5726,"longitude":88.3639,"temp":33.2,"humidity":65,"rain":0.0,"pressure":999.4,"uv_index":9.0,"wind_gusts":37.4,"aqi":61,"pm10":34.9,"pm2_5":20.4,"no2":2.8,"co":246.0,"o3":90.0,"so2":5.4,"mosquito_risk":3,"arthritis_risk":5,"migraine_risk":7,"frizz_risk":1,"updated_at":"2026-05-16T15:48:34.569541+05:30"},{"city":"Pune","state":"Maharashtra","latitude":18.5204,"longitude":73.8567,"temp":37.9,"humidity":26,"rain":0.0,"pressure":943.6,"uv_index":8.5,"wind_gusts":38.2,"aqi":67,"pm10":31.9,"pm2_5":19.8,"no2":2.0,"co":190.0,"o3":146.0,"so2":5.9,"mosquito_risk":0,"arthritis_risk":5,"migraine_risk":10,"frizz_risk":0,"updated_at":"2026-05-16T15:48:34.569548+05:30"},{"city":"Ahmedabad","state":"Gujarat","latitude":23.0225,"longitude":72.5714,"temp":40.7,"humidity":18,"rain":0.0,"pressure":995.9,"uv_index":8.15,"wind_gusts":31.0,"aqi":54,"pm10":55.2,"pm2_5":16.1,"no2":1.2,"co":155.0,"o3":107.0,"so2":2.4,"mosquito_risk":0,"arthritis_risk":5,"migraine_risk":10,"frizz_risk":0,"updated_at":"2026-05-16T15:48:34.569555+05:30"},{"city":"Jaipur","state":"Rajasthan","latitude":26.9124,"longitude":75.7873,"temp":40.0,"humidity":15,"rain":0.0,"pressure":955.5,"uv_index":8.25,"wind_gusts":24.5,"aqi":158,"pm10":190.9,"pm2_5":39.2,"no2":0.6,"co":189.0,"o3":142.0,"so2":4.6,"mosquito_risk":0,"arthritis_risk":5,"migraine_risk":10,"frizz_risk":0,"updated_at":"2026-05-16T15:48:34.569566+05:30"},{"city":"Lucknow","state":"Uttar Pradesh","latitude":26.8467,"longitude":80.9462,"temp":39.3,"humidity":23,"rain":0.0,"pressure":987.0,"uv_index":8.2,"wind_gusts":32.0,"aqi":155,"pm10":232.4,"pm2_5":60.5,"no2":2.6,"co":264.0,"o3":163.0,"so2":12.4,"mosquito_risk":0,"arthritis_risk":5,"migraine_risk":10,"frizz_risk":0,"updated_at":"2026-05-16T15:48:34.569574+05:30"},{"city":"Kanpur","state":"Uttar Pradesh","latitude":26.4499,"longitude":80.3319,"temp":40.4,"humidity":20,"rain":0.0,"pressure":985.4,"uv_index":8.2,"wind_gusts":32.8,"aqi":153,"pm10":380.0,"pm2_5":68.5,"no2":1.9,"co":236.0,"o3":162.0,"so2":11.1,"mosquito_risk":0,"arthritis_risk":5,"migraine_risk":10,"frizz_risk":0,"updated_at":"2026-05-16T15:48:34.569580+05:30"},{"city":"Chandigarh","state":"Chandigarh","latitude":30.7333,"longitude":76.7794,"temp":35.5,"humidity":27,"rain":0.0,"pressure":964.5,"uv_index":7.7,"wind_gusts":38.5,"aqi":112,"pm10":46.9,"pm2_5":20.7,"no2":1.9,"co":254.0,"o3":155.0,"so2":7.4,"mosquito_risk":0,"arthritis_risk":5,"migraine_risk":10,"frizz_risk":0,"updated_at":"2026-05-16T15:48:34.569587+05:30"},{"city":"Srinagar","state":"Jammu and Kashmir","latitude":34.0837,"longitude":74.7973,"temp":21.0,"humidity":52,"rain":0.0,"pressure":841.8,"uv_index":8.9,"wind_gusts":37.4,"aqi":101,"pm10":19.6,"pm2_5":10.9,"no2":1.5,"co":280.0,"o3":138.0,"so2":1.7,"mosquito_risk":0,"arthritis_risk":5,"migraine_risk":7,"frizz_risk":0,"updated_at":"2026-05-16T15:48:34.569597+05:30"},{"city":"Jammu","state":"Jammu and Kashmir","latitude":32.7266,"longitude":74.857,"temp":34.9,"humidity":25,"rain":0.0,"pressure":968.8,"uv_index":8.45,"wind_gusts":25.9,"aqi":96,"pm10":34.0,"pm2_5":13.7,"no2":0.4,"co":208.0,"o3":144.0,"so2":2.0,"mosquito_risk":0,"arthritis_risk":5,"migraine_risk":7,"frizz_risk":0,"updated_at":"2026-05-16T15:48:34.569604+05:30"},{"city":"Amritsar","state":"Punjab","latitude":31.634,"longitude":74.8723,"temp":37.0,"humidity":23,"rain":0.0,"pressure":976.3,"uv_index":8.35,"wind_gusts":23.4,"aqi":126,"pm10":47.0,"pm2_5":18.7,"no2":1.2,"co":226.0,"o3":173.0,"so2":6.8,"mosquito_risk":0,"arthritis_risk":5,"migraine_risk":10,"frizz_risk":0,"updated_at":"2026-05-16T15:48:34.569610+05:30"},{"city":"Ludhiana","state":"Punjab","latitude":30.901,"longitude":75.8573,"temp":36.8,"humidity":24,"rain":0.0,"pressure":974.5,"uv_index":7.95,"wind_gusts":38.2,"aqi":113,"pm10":62.9,"pm2_5":22.5,"no2":1.1,"co":268.0,"o3":150.0,"so2":2.9,"mosquito_risk":0,"arthritis_risk":5,"migraine_risk":10,"frizz_risk":0,"updated_at":"2026-05-16T15:48:34.569616+05:30"},{"city":"Jalandhar","state":"Punjab","latitude":31.326,"longitude":75.5762,"temp":36.6,"humidity":23,"rain":0.0,"pressure":975.4,"uv_index":8.15,"wind_gusts":30.2,"aqi":131,"pm10":57.5,"pm2_5":22.4,"no2":1.5,"co":283.0,"o3":162.0,"so2":4.5,"mosquito_risk":0,"arthritis_risk":5,"migraine_risk":10,"frizz_risk":0,"updated_at":"2026-05-16T15:48:34.569623+05:30"},{"city":"Dehradun","state":"Uttarakhand","latitude":30.6284,"longitude":78.0322,"temp":22.5,"humidity":51,"rain":0.1,"pressure":830.2,"uv_index":8.1,"wind_gusts":41.4,"aqi":77,"pm10":39.6,"pm2_5":16.3,"no2":0.1,"co":197.0,"o3":144.0,"so2":3.4,"mosquito_risk":3,"arthritis_risk":5,"migraine_risk":7,"frizz_risk":0,"updated_at":"2026-05-16T15:48:34.569630+05:30"},{"city":"Shimla","state":"Himachal Pradesh","latitude":31.1048,"longitude":77.1734,"temp":20.8,"humidity":35,"rain":0.0,"pressure":785.4,"uv_index":8.2,"wind_gusts":45.7,"aqi":85,"pm10":54.2,"pm2_5":18.5,"no2":0.6,"co":163.0,"o3":136.0,"so2":3.4,"mosquito_risk":0,"arthritis_risk":5,"migraine_risk":7,"frizz_risk":0,"updated_at":"2026-05-16T15:48:34.569638+05:30"},{"city":"Manali","state":"Himachal Pradesh","latitude":32.2396,"longitude":77.1887,"temp":19.0,"humidity":54,"rain":0.0,"pressure":817.9,"uv_index":9.9,"wind_gusts":38.9,"aqi":99,"pm10":19.5,"pm2_5":9.9,"no2":0.0,"co":138.0,"o3":162.0,"so2":0.4,"mosquito_risk":0,"arthritis_risk":5,"migraine_risk":7,"frizz_risk":0,"updated_at":"2026-05-16T15:48:34.569645+05:30"},{"city":"Gurgaon","state":"Haryana","latitude":28.4595,"longitude":77.0266,"temp":39.1,"humidity":18,"rain":0.0,"pressure":976.6,"uv_index":7.8,"wind_gusts":37.1,"aqi":528,"pm10":1076.6,"pm2_5":140.2,"no2":4.3,"co":299.0,"o3":159.0,"so2":9.6,"mosquito_risk":0,"arthritis_risk":5,"migraine_risk":10,"frizz_risk":0,"updated_at":"2026-05-16T15:48:34.569651+05:30"},{"city":"Noida","state":"Uttar Pradesh","latitude":28.5355,"longitude":77.391,"temp":38.7,"humidity":21,"rain":0.0,"pressure":979.0,"uv_index":7.7,"wind_gusts":29.2,"aqi":528,"pm10":1076.6,"pm2_5":140.2,"no2":4.3,"co":326.0,"o3":159.0,"so2":9.6,"mosquito_risk":0,"arthritis_risk":5,"migraine_risk":10,"frizz_risk":0,"updated_at":"2026-05-16T15:48:34.569657+05:30"},{"city":"Ghaziabad","state":"Uttar Pradesh","latitude":28.6692,"longitude":77.4538,"temp":37.9,"humidity":22,"rain":0.0,"pressure":977.5,"uv_index":7.7,"wind_gusts":34.9,"aqi":166,"pm10":323.2,"pm2_5":68.2,"no2":3.2,"co":255.0,"o3":169.0,"so2":13.5,"mosquito_risk":0,"arthritis_risk":5,"migraine_risk":10,"frizz_risk":0,"updated_at":"2026-05-16T15:48:34.569663+05:30"},{"city":"Faridabad","state":"Haryana","latitude":28.4089,"longitude":77.3178,"temp":39.3,"humidity":17,"rain":0.0,"pressure":978.4,"uv_index":7.75,"wind_gusts":41.0,"aqi":528,"pm10":1076.6,"pm2_5":140.2,"no2":4.3,"co":256.0,"o3":159.0,"so2":9.6,"mosquito_risk":0,"arthritis_risk":5,"migraine_risk":10,"frizz_risk":0,"updated_at":"2026-05-16T15:48:34.569669+05:30"},{"city":"Meerut","state":"Uttar Pradesh","latitude":28.9845,"longitude":77.7064,"temp":37.9,"humidity":21,"rain":0.0,"pressure":976.5,"uv_index":7.6,"wind_gusts":39.6,"aqi":166,"pm10":323.2,"pm2_5":68.2,"no2":3.2,"co":241.0,"o3":169.0,"so2":13.5,"mosquito_risk":0,"arthritis_risk":5,"migraine_risk":10,"frizz_risk":0,"updated_at":"2026-05-16T15:48:34.569678+05:30"},{"city":"Agra","state":"Uttar Pradesh","latitude":27.1767,"longitude":78.0081,"temp":40.2,"humidity":18,"rain":0.0,"pressure":982.2,"uv_index":8.05,"wind_gusts":29.5,"aqi":351,"pm10":508.5,"pm2_5":73.3,"no2":3.6,"co":245.0,"o3":145.0,"so2":7.2,"mosquito_risk":0,"arthritis_risk":5,"migraine_risk":10,"frizz_risk":0,"updated_at":"2026-05-16T15:48:34.569685+05:30"},{"city":"Varanasi","state":"Uttar Pradesh","latitude":25.3176,"longitude":82.9739,"temp":40.2,"humidity":20,"rain":0.0,"pressure":990.5,"uv_index":8.7,"wind_gusts":36.0,"aqi":157,"pm10":153.2,"pm2_5":42.8,"no2":1.9,"co":262.0,"o3":148.0,"so2":7.2,"mosquito_risk":0,"arthritis_risk":5,"migraine_risk":10,"frizz_risk":0,"updated_at":"2026-05-16T15:48:34.569692+05:30"},{"city":"Prayagraj","state":"Uttar Pradesh","latitude":25.4358,"longitude":81.8463,"temp":40.2,"humidity":22,"rain":0.0,"pressure":989.3,"uv_index":8.6,"wind_gusts":33.8,"aqi":156,"pm10":180.7,"pm2_5":49.0,"no2":1.7,"co":234.0,"o3":162.0,"so2":10.7,"mosquito_risk":0,"arthritis_risk":5,"migraine_risk":10,"frizz_risk":0,"updated_at":"2026-05-16T15:48:34.569698+05:30"},{"city":"Gorakhpur","state":"Uttar Pradesh","latitude":26.7606,"longitude":83.3732,"temp":36.7,"humidity":37,"rain":0.0,"pressure":990.1,"uv_index":8.55,"wind_gusts":30.2,"aqi":157,"pm10":91.5,"pm2_5":41.6,"no2":2.0,"co":318.0,"o3":169.0,"so2":8.2,"mosquito_risk":0,"arthritis_risk":5,"migraine_risk":10,"frizz_risk":1,"updated_at":"2026-05-16T15:48:34.569706+05:30"},{"city":"Bareilly","state":"Uttar Pradesh","latitude":28.367,"longitude":79.4304,"temp":35.8,"humidity":34,"rain":0.0,"pressure":981.1,"uv_index":8.0,"wind_gusts":31.0,"aqi":151,"pm10":48.3,"pm2_5":31.3,"no2":2.0,"co":264.0,"o3":167.0,"so2":9.4,"mosquito_risk":0,"arthritis_risk":5,"migraine_risk":10,"frizz_risk":1,"updated_at":"2026-05-16T15:48:34.569713+05:30"},{"city":"Aligarh","state":"Uttar Pradesh","latitude":27.8974,"longitude":78.088,"temp":38.4,"humidity":22,"rain":0.0,"pressure":980.2,"uv_index":7.85,"wind_gusts":33.5,"aqi":204,"pm10":584.9,"pm2_5":91.0,"no2":2.5,"co":288.0,"o3":190.0,"so2":16.1,"mosquito_risk":0,"arthritis_risk":5,"migraine_risk":10,"frizz_risk":0,"updated_at":"2026-05-16T15:48:34.569719+05:30"},{"city":"Moradabad","state":"Uttar Pradesh","latitude":28.8386,"longitude":78.7733,"temp":36.8,"humidity":31,"rain":0.0,"pressure":978.3,"uv_index":7.85,"wind_gusts":37.8,"aqi":157,"pm10":54.9,"pm2_5":33.6,"no2":2.7,"co":267.0,"o3":167.0,"so2":9.3,"mosquito_risk":0,"arthritis_risk":5,"migraine_risk":10,"frizz_risk":1,"updated_at":"2026-05-16T15:48:34.569725+05:30"},{"city":"Saharanpur","state":"Uttar Pradesh","latitude":29.9637,"longitude":77.546,"temp":35.5,"humidity":27,"rain":0.0,"pressure":970.9,"uv_index":7.4,"wind_gusts":36.7,"aqi":131,"pm10":115.3,"pm2_5":39.9,"no2":4.0,"co":222.0,"o3":169.0,"so2":12.9,"mosquito_risk":0,"arthritis_risk":5,"migraine_risk":10,"frizz_risk":0,"updated_at":"2026-05-16T15:48:34.569731+05:30"},{"city":"Jhansi","state":"Uttar Pradesh","latitude":25.4484,"longitude":78.5685,"temp":40.2,"humidity":19,"rain":0.0,"pressure":972.6,"uv_index":8.5,"wind_gusts":25.6,"aqi":89,"pm10":64.0,"pm2_5":21.0,"no2":1.2,"co":185.0,"o3":129.0,"so2":5.5,"mosquito_risk":0,"arthritis_risk":5,"migraine_risk":10,"frizz_risk":0,"updated_at":"2026-05-16T15:48:37.944863+05:30"},{"city":"Surat","state":"Gujarat","latitude":21.1702,"longitude":72.8311,"temp":39.5,"humidity":18,"rain":0.0,"pressure":1000.7,"uv_index":7.75,"wind_gusts":36.7,"aqi":74,"pm10":73.6,"pm2_5":42.5,"no2":21.3,"co":177.0,"o3":113.0,"so2":61.4,"mosquito_risk":0,"arthritis_risk":5,"migraine_risk":7,"frizz_risk":0,"updated_at":"2026-05-16T15:48:37.944894+05:30"},{"city":"Vadodara","state":"Gujarat","latitude":22.3072,"longitude":73.1812,"temp":41.0,"humidity":20,"rain":0.0,"pressure":997.8,"uv_index":8.1,"wind_gusts":36.0,"aqi":59,"pm10":55.5,"pm2_5":22.6,"no2":1.3,"co":174.0,"o3":141.0,"so2":7.2,"mosquito_risk":0,"arthritis_risk":5,"migraine_risk":10,"frizz_risk":0,"updated_at":"2026-05-16T15:48:37.944905+05:30"},{"city":"Rajkot","state":"Gujarat","latitude":22.3039,"longitude":70.8022,"temp":39.7,"humidity":18,"rain":0.0,"pressure":989.2,"uv_index":7.75,"wind_gusts":42.1,"aqi":52,"pm10":59.4,"pm2_5":16.8,"no2":0.8,"co":126.0,"o3":105.0,"so2":3.8,"mosquito_risk":0,"arthritis_risk":5,"migraine_risk":10,"frizz_risk":0,"updated_at":"2026-05-16T15:48:37.944914+05:30"},{"city":"Thane","state":"Maharashtra","latitude":19.2183,"longitude":72.9781,"temp":35.0,"humidity":54,"rain":0.0,"pressure":1001.8,"uv_index":7.9,"wind_gusts":42.8,"aqi":60,"pm10":36.0,"pm2_5":16.0,"no2":5.5,"co":159.0,"o3":83.0,"so2":4.4,"mosquito_risk":0,"arthritis_risk":5,"migraine_risk":4,"frizz_risk":1,"updated_at":"2026-05-16T15:48:37.944922+05:30"},{"city":"Nagpur","state":"Maharashtra","latitude":21.1458,"longitude":79.0882,"temp":43.0,"humidity":16,"rain":0.0,"pressure":966.8,"uv_index":8.95,"wind_gusts":37.4,"aqi":117,"pm10":71.0,"pm2_5":36.8,"no2":4.9,"co":197.0,"o3":179.0,"so2":19.2,"mosquito_risk":0,"arthritis_risk":5,"migraine_risk":10,"frizz_risk":0,"updated_at":"2026-05-16T15:48:37.944929+05:30"},{"city":"Nashik","state":"Maharashtra","latitude":19.9975,"longitude":73.7898,"temp":37.3,"humidity":27,"rain":0.0,"pressure":941.4,"uv_index":8.2,"wind_gusts":36.7,"aqi":46,"pm10":31.0,"pm2_5":17.1,"no2":1.1,"co":150.0,"o3":120.0,"so2":3.8,"mosquito_risk":0,"arthritis_risk":5,"migraine_risk":10,"frizz_risk":0,"updated_at":"2026-05-16T15:48:37.944937+05:30"},{"city":"Aurangabad","state":"Maharashtra","latitude":19.8762,"longitude":75.3433,"temp":39.0,"humidity":20,"rain":0.0,"pressure":940.1,"uv_index":9.1,"wind_gusts":37.8,"aqi":53,"pm10":28.3,"pm2_5":15.9,"no2":1.0,"co":165.0,"o3":123.0,"so2":3.0,"mosquito_risk":0,"arthritis_risk":5,"migraine_risk":10,"frizz_risk":0,"updated_at":"2026-05-16T15:48:37.944945+05:30"},{"city":"Solapur","state":"Maharashtra","latitude":17.6599,"longitude":75.9064,"temp":40.5,"humidity":17,"rain":0.0,"pressure":951.4,"uv_index":8.65,"wind_gusts":29.2,"aqi":86,"pm10":25.0,"pm2_5":17.3,"no2":0.6,"co":157.0,"o3":156.0,"so2":6.3,"mosquito_risk":0,"arthritis_risk":5,"migraine_risk":10,"frizz_risk":0,"updated_at":"2026-05-16T15:48:37.944953+05:30"},{"city":"Kolhapur","state":"Maharashtra","latitude":16.705,"longitude":74.2433,"temp":33.6,"humidity":35,"rain":0.1,"pressure":942.7,"uv_index":8.75,"wind_gusts":46.1,"aqi":65,"pm10":36.1,"pm2_5":21.9,"no2":2.5,"co":186.0,"o3":147.0,"so2":5.3,"mosquito_risk":3,"arthritis_risk":5,"migraine_risk":7,"frizz_risk":0,"updated_at":"2026-05-16T15:48:37.944961+05:30"},{"city":"Goa","state":"Goa","latitude":15.2993,"longitude":74.124,"temp":33.0,"humidity":59,"rain":0.0,"pressure":992.3,"uv_index":8.9,"wind_gusts":36.0,"aqi":65,"pm10":24.5,"pm2_5":15.3,"no2":0.9,"co":113.0,"o3":68.0,"so2":0.9,"mosquito_risk":0,"arthritis_risk":5,"migraine_risk":7,"frizz_risk":1,"updated_at":"2026-05-16T15:48:37.944969+05:30"},{"city":"Jodhpur","state":"Rajasthan","latitude":26.2389,"longitude":73.0243,"temp":40.5,"humidity":19,"rain":0.0,"pressure":977.7,"uv_index":8.4,"wind_gusts":33.8,"aqi":114,"pm10":147.1,"pm2_5":29.7,"no2":0.3,"co":135.0,"o3":112.0,"so2":2.3,"mosquito_risk":0,"arthritis_risk":5,"migraine_risk":10,"frizz_risk":0,"updated_at":"2026-05-16T15:48:37.944977+05:30"},{"city":"Udaipur","state":"Rajasthan","latitude":24.5854,"longitude":73.7125,"temp":37.5,"humidity":21,"rain":0.0,"pressure":942.7,"uv_index":8.85,"wind_gusts":33.1,"aqi":50,"pm10":45.8,"pm2_5":15.4,"no2":0.4,"co":128.0,"o3":102.0,"so2":2.6,"mosquito_risk":0,"arthritis_risk":5,"migraine_risk":10,"frizz_risk":0,"updated_at":"2026-05-16T15:48:37.944984+05:30"},{"city":"Kota","state":"Rajasthan","latitude":25.2138,"longitude":75.8648,"temp":41.8,"humidity":15,"rain":0.0,"pressure":972.5,"uv_index":8.45,"wind_gusts":36.4,"aqi":62,"pm10":80.6,"pm2_5":21.1,"no2":0.3,"co":135.0,"o3":126.0,"so2":4.6,"mosquito_risk":0,"arthritis_risk":5,"migraine_risk":10,"frizz_risk":0,"updated_at":"2026-05-16T15:48:37.944991+05:30"},{"city":"Bikaner","state":"Rajasthan","latitude":28.0229,"longitude":73.3119,"temp":41.2,"humidity":14,"rain":0.0,"pressure":976.8,"uv_index":8.4,"wind_gusts":27.4,"aqi":97,"pm10":217.9,"pm2_5":41.8,"no2":0.1,"co":150.0,"o3":107.0,"so2":2.2,"mosquito_risk":0,"arthritis_risk":5,"migraine_risk":10,"frizz_risk":0,"updated_at":"2026-05-16T15:48:37.944998+05:30"},{"city":"Ajmer","state":"Rajasthan","latitude":26.4499,"longitude":74.6399,"temp":38.6,"humidity":18,"rain":0.0,"pressure":950.7,"uv_index":8.4,"wind_gusts":24.8,"aqi":73,"pm10":119.2,"pm2_5":30.2,"no2":0.1,"co":145.0,"o3":119.0,"so2":2.4,"mosquito_risk":0,"arthritis_risk":5,"migraine_risk":10,"frizz_risk":0,"updated_at":"2026-05-16T15:48:37.945005+05:30"},{"city":"Gwalior","state":"Madhya Pradesh","latitude":26.2183,"longitude":78.1828,"temp":40.3,"humidity":17,"rain":0.0,"pressure":977.7,"uv_index":8.25,"wind_gusts":34.6,"aqi":111,"pm10":115.9,"pm2_5":29.0,"no2":1.1,"co":173.0,"o3":126.0,"so2":3.5,"mosquito_risk":0,"arthritis_risk":5,"migraine_risk":10,"frizz_risk":0,"updated_at":"2026-05-16T15:48:37.945013+05:30"},{"city":"Indore","state":"Madhya Pradesh","latitude":22.7196,"longitude":75.8577,"temp":39.0,"humidity":17,"rain":0.0,"pressure":944.1,"uv_index":8.7,"wind_gusts":36.0,"aqi":48,"pm10":27.9,"pm2_5":13.8,"no2":1.0,"co":171.0,"o3":125.0,"so2":2.7,"mosquito_risk":0,"arthritis_risk":5,"migraine_risk":10,"frizz_risk":0,"updated_at":"2026-05-16T15:48:37.945020+05:30"},{"city":"Bhopal","state":"Madhya Pradesh","latitude":23.2599,"longitude":77.4126,"temp":40.8,"humidity":14,"rain":0.0,"pressure":948.7,"uv_index":8.7,"wind_gusts":40.7,"aqi":65,"pm10":38.9,"pm2_5":15.4,"no2":0.5,"co":176.0,"o3":130.0,"so2":4.0,"mosquito_risk":0,"arthritis_risk":5,"migraine_risk":10,"frizz_risk":0,"updated_at":"2026-05-16T15:48:37.945027+05:30"},{"city":"Jabalpur","state":"Madhya Pradesh","latitude":23.1815,"longitude":79.9864,"temp":40.8,"humidity":18,"rain":0.0,"pressure":956.0,"uv_index":8.85,"wind_gusts":33.5,"aqi":105,"pm10":49.5,"pm2_5":20.6,"no2":0.7,"co":166.0,"o3":138.0,"so2":5.0,"mosquito_risk":0,"arthritis_risk":5,"migraine_risk":10,"frizz_risk":0,"updated_at":"2026-05-16T15:48:37.945034+05:30"},{"city":"Ujjain","state":"Madhya Pradesh","latitude":23.1765,"longitude":75.7885,"temp":39.8,"humidity":14,"rain":0.0,"pressure":949.3,"uv_index":8.65,"wind_gusts":39.2,"aqi":47,"pm10":27.5,"pm2_5":12.9,"no2":0.6,"co":141.0,"o3":118.0,"so2":2.3,"mosquito_risk":0,"arthritis_risk":5,"migraine_risk":10,"frizz_risk":0,"updated_at":"2026-05-16T15:48:37.945042+05:30"},{"city":"Visakhapatnam","state":"Andhra Pradesh","latitude":17.6868,"longitude":83.2185,"temp":32.9,"humidity":65,"rain":0.0,"pressure":998.7,"uv_index":9.15,"wind_gusts":40.7,"aqi":62,"pm10":19.7,"pm2_5":14.3,"no2":8.7,"co":254.0,"o3":81.0,"so2":26.8,"mosquito_risk":3,"arthritis_risk":5,"migraine_risk":7,"frizz_risk":1,"updated_at":"2026-05-16T15:48:37.945049+05:30"},{"city":"Vijayawada","state":"Andhra Pradesh","latitude":16.5062,"longitude":80.648,"temp":36.0,"humidity":46,"rain":0.0,"pressure":996.2,"uv_index":8.85,"wind_gusts":36.0,"aqi":64,"pm10":30.6,"pm2_5":20.4,"no2":3.2,"co":183.0,"o3":106.0,"so2":5.9,"mosquito_risk":0,"arthritis_risk":5,"migraine_risk":10,"frizz_risk":1,"updated_at":"2026-05-16T15:48:37.945056+05:30"},{"city":"Guntur","state":"Andhra Pradesh","latitude":16.3067,"longitude":80.4365,"temp":37.4,"humidity":45,"rain":0.0,"pressure":997.4,"uv_index":8.9,"wind_gusts":34.9,"aqi":68,"pm10":50.2,"pm2_5":29.9,"no2":2.5,"co":284.0,"o3":109.0,"so2":3.7,"mosquito_risk":0,"arthritis_risk":5,"migraine_risk":10,"frizz_risk":1,"updated_at":"2026-05-16T15:48:37.945064+05:30"},{"city":"Nellore","state":"Andhra Pradesh","latitude":14.4426,"longitude":79.9865,"temp":34.5,"humidity":54,"rain":0.0,"pressure":999.6,"uv_index":7.65,"wind_gusts":36.4,"aqi":43,"pm10":18.9,"pm2_5":11.2,"no2":1.7,"co":130.0,"o3":102.0,"so2":2.6,"mosquito_risk":0,"arthritis_risk":5,"migraine_risk":7,"frizz_risk":1,"updated_at":"2026-05-16T15:48:37.945072+05:30"},{"city":"Kurnool","state":"Andhra Pradesh","latitude":15.8281,"longitude":78.0373,"temp":37.3,"humidity":35,"rain":0.1,"pressure":971.4,"uv_index":8.25,"wind_gusts":31.3,"aqi":122,"pm10":75.4,"pm2_5":41.2,"no2":1.5,"co":216.0,"o3":135.0,"so2":5.8,"mosquito_risk":3,"arthritis_risk":5,"migraine_risk":10,"frizz_risk":1,"updated_at":"2026-05-16T15:48:37.945079+05:30"},{"city":"Kakinada","state":"Andhra Pradesh","latitude":16.9891,"longitude":82.2475,"temp":34.2,"humidity":59,"rain":0.0,"pressure":1001.7,"uv_index":9.15,"wind_gusts":37.4,"aqi":37,"pm10":13.1,"pm2_5":8.3,"no2":1.0,"co":158.0,"o3":78.0,"so2":1.1,"mosquito_risk":0,"arthritis_risk":5,"migraine_risk":4,"frizz_risk":1,"updated_at":"2026-05-16T15:48:37.945087+05:30"},{"city":"Tirupati","state":"Andhra Pradesh","latitude":13.6288,"longitude":79.4192,"temp":36.0,"humidity":37,"rain":0.0,"pressure":984.5,"uv_index":9.25,"wind_gusts":32.8,"aqi":52,"pm10":21.9,"pm2_5":13.6,"no2":2.7,"co":153.0,"o3":137.0,"so2":8.8,"mosquito_risk":0,"arthritis_risk":5,"migraine_risk":10,"frizz_risk":1,"updated_at":"2026-05-16T15:48:37.945093+05:30"},{"city":"Warangal","state":"Telangana","latitude":17.9689,"longitude":79.5941,"temp":37.3,"humidity":40,"rain":0.0,"pressure":972.8,"uv_index":9.1,"wind_gusts":35.6,"aqi":123,"pm10":49.4,"pm2_5":31.3,"no2":2.8,"co":216.0,"o3":113.0,"so2":6.6,"mosquito_risk":0,"arthritis_risk":5,"migraine_risk":10,"frizz_risk":1,"updated_at":"2026-05-16T15:48:37.945100+05:30"},{"city":"Nizamabad","state":"Telangana","latitude":18.6725,"longitude":78.0941,"temp":39.6,"humidity":19,"rain":0.0,"pressure":959.2,"uv_index":9.0,"wind_gusts":30.2,"aqi":119,"pm10":19.5,"pm2_5":13.0,"no2":0.4,"co":166.0,"o3":149.0,"so2":5.0,"mosquito_risk":0,"arthritis_risk":5,"migraine_risk":10,"frizz_risk":0,"updated_at":"2026-05-16T15:48:37.945107+05:30"},{"city":"Mysore","state":"Karnataka","latitude":12.2958,"longitude":76.6396,"temp":29.8,"humidity":60,"rain":0.0,"pressure":924.7,"uv_index":8.0,"wind_gusts":37.1,"aqi":99,"pm10":65.7,"pm2_5":39.2,"no2":4.4,"co":285.0,"o3":163.0,"so2":5.6,"mosquito_risk":4,"arthritis_risk":5,"migraine_risk":7,"frizz_risk":1,"updated_at":"2026-05-16T15:48:37.945114+05:30"},{"city":"Mangalore","state":"Karnataka","latitude":12.9141,"longitude":74.856,"temp":29.3,"humidity":82,"rain":0.0,"pressure":1001.7,"uv_index":7.7,"wind_gusts":38.2,"aqi":62,"pm10":28.0,"pm2_5":17.8,"no2":2.4,"co":171.0,"o3":69.0,"so2":1.2,"mosquito_risk":7,"arthritis_risk":5,"migraine_risk":4,"frizz_risk":1,"updated_at":"2026-05-16T15:48:37.945121+05:30"},{"city":"Hubli-Dharwad","state":"Karnataka","latitude":15.3647,"longitude":75.124,"temp":34.9,"humidity":31,"rain":0.0,"pressure":935.5,"uv_index":8.2,"wind_gusts":43.9,"aqi":70,"pm10":30.3,"pm2_5":19.6,"no2":2.4,"co":219.0,"o3":146.0,"so2":3.3,"mosquito_risk":0,"arthritis_risk":5,"migraine_risk":7,"frizz_risk":0,"updated_at":"2026-05-16T15:48:37.945128+05:30"},{"city":"Belgaum","state":"Karnataka","latitude":15.8497,"longitude":74.4977,"temp":30.7,"humidity":51,"rain":0.1,"pressure":921.3,"uv_index":9.2,"wind_gusts":42.8,"aqi":66,"pm10":32.2,"pm2_5":19.2,"no2":2.1,"co":190.0,"o3":128.0,"so2":3.8,"mosquito_risk":3,"arthritis_risk":5,"migraine_risk":7,"frizz_risk":1,"updated_at":"2026-05-16T15:48:41.346191+05:30"},{"city":"Coimbatore","state":"Tamil Nadu","latitude":11.0168,"longitude":76.9558,"temp":31.1,"humidity":52,"rain":0.0,"pressure":956.1,"uv_index":9.05,"wind_gusts":34.6,"aqi":82,"pm10":59.3,"pm2_5":32.1,"no2":3.2,"co":254.0,"o3":131.0,"so2":5.2,"mosquito_risk":0,"arthritis_risk":5,"migraine_risk":7,"frizz_risk":1,"updated_at":"2026-05-16T15:48:41.346222+05:30"},{"city":"Madurai","state":"Tamil Nadu","latitude":9.9252,"longitude":78.1198,"temp":34.5,"humidity":45,"rain":0.0,"pressure":986.8,"uv_index":8.75,"wind_gusts":24.5,"aqi":91,"pm10":65.0,"pm2_5":32.0,"no2":6.7,"co":266.0,"o3":154.0,"so2":5.3,"mosquito_risk":0,"arthritis_risk":5,"migraine_risk":7,"frizz_risk":1,"updated_at":"2026-05-16T15:48:41.346233+05:30"},{"city":"Trichy","state":"Tamil Nadu","latitude":10.7905,"longitude":78.7047,"temp":34.1,"humidity":56,"rain":0.0,"pressure":993.2,"uv_index":2.7,"wind_gusts":34.9,"aqi":85,"pm10":50.5,"pm2_5":28.9,"no2":4.2,"co":287.0,"o3":155.0,"so2":6.7,"mosquito_risk":0,"arthritis_risk":5,"migraine_risk":3,"frizz_risk":1,"updated_at":"2026-05-16T15:48:41.346242+05:30"},{"city":"Salem","state":"Tamil Nadu","latitude":11.6643,"longitude":78.146,"temp":33.4,"humidity":47,"rain":0.0,"pressure":970.9,"uv_index":8.95,"wind_gusts":28.4,"aqi":130,"pm10":81.0,"pm2_5":42.1,"no2":5.4,"co":333.0,"o3":184.0,"so2":20.2,"mosquito_risk":0,"arthritis_risk":5,"migraine_risk":7,"frizz_risk":1,"updated_at":"2026-05-16T15:48:41.346250+05:30"},{"city":"Tirunelveli","state":"Tamil Nadu","latitude":8.7139,"longitude":77.7567,"temp":36.2,"humidity":32,"rain":0.0,"pressure":996.4,"uv_index":8.3,"wind_gusts":31.7,"aqi":53,"pm10":32.9,"pm2_5":16.2,"no2":2.4,"co":244.0,"o3":114.0,"so2":1.7,"mosquito_risk":0,"arthritis_risk":5,"migraine_risk":10,"frizz_risk":1,"updated_at":"2026-05-16T15:48:41.346258+05:30"},{"city":"Vellore","state":"Tamil Nadu","latitude":12.9165,"longitude":79.1325,"temp":33.7,"humidity":46,"rain":0.0,"pressure":978.1,"uv_index":9.25,"wind_gusts":24.5,"aqi":90,"pm10":30.5,"pm2_5":15.3,"no2":2.0,"co":229.0,"o3":120.0,"so2":5.0,"mosquito_risk":0,"arthritis_risk":5,"migraine_risk":7,"frizz_risk":1,"updated_at":"2026-05-16T15:48:41.346287+05:30"},{"city":"Erode","state":"Tamil Nadu","latitude":11.341,"longitude":77.7172,"temp":34.4,"humidity":43,"rain":0.0,"pressure":982.2,"uv_index":6.85,"wind_gusts":23.8,"aqi":91,"pm10":77.3,"pm2_5":39.0,"no2":5.2,"co":306.0,"o3":159.0,"so2":6.2,"mosquito_risk":0,"arthritis_risk":5,"migraine_risk":7,"frizz_risk":1,"updated_at":"2026-05-16T15:48:41.346296+05:30"},{"city":"Kochi","state":"Kerala","latitude":9.9312,"longitude":76.2673,"temp":29.2,"humidity":78,"rain":0.1,"pressure":1003.9,"uv_index":7.3,"wind_gusts":32.0,"aqi":66,"pm10":16.4,"pm2_5":11.4,"no2":4.5,"co":226.0,"o3":111.0,"so2":4.1,"mosquito_risk":10,"arthritis_risk":5,"migraine_risk":4,"frizz_risk":1,"updated_at":"2026-05-16T15:48:41.346304+05:30"},{"city":"Thiruvananthapuram","state":"Kerala","latitude":8.5241,"longitude":76.9366,"temp":27.1,"humidity":83,"rain":0.1,"pressure":1003.4,"uv_index":7.25,"wind_gusts":36.0,"aqi":53,"pm10":20.1,"pm2_5":11.7,"no2":1.4,"co":180.0,"o3":110.0,"so2":1.2,"mosquito_risk":10,"arthritis_risk":5,"migraine_risk":4,"frizz_risk":1,"updated_at":"2026-05-16T15:48:41.346311+05:30"},{"city":"Kozhikode","state":"Kerala","latitude":11.2588,"longitude":75.7804,"temp":30.2,"humidity":72,"rain":0.1,"pressure":1002.5,"uv_index":8.3,"wind_gusts":42.1,"aqi":62,"pm10":13.9,"pm2_5":8.2,"no2":0.8,"co":176.0,"o3":97.0,"so2":1.1,"mosquito_risk":6,"arthritis_risk":5,"migraine_risk":4,"frizz_risk":1,"updated_at":"2026-05-16T15:48:41.346318+05:30"},{"city":"Thrissur","state":"Kerala","latitude":10.5276,"longitude":76.2144,"temp":30.1,"humidity":72,"rain":0.0,"pressure":1001.8,"uv_index":8.7,"wind_gusts":33.8,"aqi":67,"pm10":14.1,"pm2_5":9.7,"no2":2.6,"co":226.0,"o3":104.0,"so2":2.3,"mosquito_risk":3,"arthritis_risk":5,"migraine_risk":4,"frizz_risk":1,"updated_at":"2026-05-16T15:48:41.346326+05:30"},{"city":"Kannur","state":"Kerala","latitude":11.8745,"longitude":75.3704,"temp":29.2,"humidity":85,"rain":0.3,"pressure":1002.6,"uv_index":8.7,"wind_gusts":39.6,"aqi":65,"pm10":23.8,"pm2_5":15.8,"no2":3.1,"co":179.0,"o3":86.0,"so2":1.6,"mosquito_risk":10,"arthritis_risk":5,"migraine_risk":4,"frizz_risk":1,"updated_at":"2026-05-16T15:48:41.346334+05:30"},{"city":"Patna","state":"Bihar","latitude":25.5941,"longitude":85.1376,"temp":36.5,"humidity":41,"rain":0.0,"pressure":993.3,"uv_index":8.8,"wind_gusts":24.8,"aqi":148,"pm10":96.2,"pm2_5":49.7,"no2":5.6,"co":365.0,"o3":175.0,"so2":11.0,"mosquito_risk":0,"arthritis_risk":5,"migraine_risk":10,"frizz_risk":1,"updated_at":"2026-05-16T15:48:41.346341+05:30"},{"city":"Gaya","state":"Bihar","latitude":24.7914,"longitude":85.0002,"temp":37.8,"humidity":28,"rain":0.0,"pressure":986.9,"uv_index":8.85,"wind_gusts":33.5,"aqi":152,"pm10":101.5,"pm2_5":37.4,"no2":2.0,"co":298.0,"o3":154.0,"so2":7.2,"mosquito_risk":0,"arthritis_risk":5,"migraine_risk":10,"frizz_risk":0,"updated_at":"2026-05-16T15:48:41.346348+05:30"},{"city":"Muzaffarpur","state":"Bihar","latitude":26.1209,"longitude":85.3647,"temp":34.5,"humidity":50,"rain":0.0,"pressure":993.6,"uv_index":8.8,"wind_gusts":30.6,"aqi":151,"pm10":90.1,"pm2_5":55.4,"no2":6.8,"co":392.0,"o3":181.0,"so2":13.3,"mosquito_risk":0,"arthritis_risk":5,"migraine_risk":7,"frizz_risk":1,"updated_at":"2026-05-16T15:48:41.346355+05:30"},{"city":"Bhagalpur","state":"Bihar","latitude":25.2425,"longitude":87.0117,"temp":34.2,"humidity":55,"rain":0.0,"pressure":994.4,"uv_index":8.8,"wind_gusts":29.9,"aqi":140,"pm10":80.8,"pm2_5":57.6,"no2":5.5,"co":349.0,"o3":205.0,"so2":23.1,"mosquito_risk":0,"arthritis_risk":5,"migraine_risk":7,"frizz_risk":1,"updated_at":"2026-05-16T15:48:41.346362+05:30"},{"city":"Ranchi","state":"Jharkhand","latitude":23.3441,"longitude":85.3096,"temp":34.8,"humidity":26,"rain":0.0,"pressure":933.2,"uv_index":9.3,"wind_gusts":38.5,"aqi":151,"pm10":70.5,"pm2_5":35.4,"no2":2.6,"co":265.0,"o3":142.0,"so2":8.1,"mosquito_risk":0,"arthritis_risk":5,"migraine_risk":7,"frizz_risk":0,"updated_at":"2026-05-16T15:48:41.346369+05:30"},{"city":"Jamshedpur","state":"Jharkhand","latitude":22.8046,"longitude":86.2029,"temp":36.2,"humidity":36,"rain":0.0,"pressure":983.9,"uv_index":9.15,"wind_gusts":35.3,"aqi":136,"pm10":87.1,"pm2_5":56.8,"no2":4.7,"co":275.0,"o3":181.0,"so2":19.5,"mosquito_risk":0,"arthritis_risk":5,"migraine_risk":10,"frizz_risk":1,"updated_at":"2026-05-16T15:48:41.346376+05:30"},{"city":"Dhanbad","state":"Jharkhand","latitude":23.7957,"longitude":86.4304,"temp":36.9,"humidity":34,"rain":0.0,"pressure":973.2,"uv_index":9.05,"wind_gusts":24.5,"aqi":163,"pm10":96.6,"pm2_5":45.2,"no2":12.6,"co":308.0,"o3":164.0,"so2":36.0,"mosquito_risk":0,"arthritis_risk":5,"migraine_risk":10,"frizz_risk":1,"updated_at":"2026-05-16T15:48:41.346383+05:30"},{"city":"Bokaro","state":"Jharkhand","latitude":23.6693,"longitude":86.1511,"temp":36.6,"humidity":38,"rain":0.0,"pressure":976.8,"uv_index":9.1,"wind_gusts":26.3,"aqi":158,"pm10":84.1,"pm2_5":35.4,"no2":10.0,"co":327.0,"o3":153.0,"so2":38.3,"mosquito_risk":0,"arthritis_risk":5,"migraine_risk":10,"frizz_risk":1,"updated_at":"2026-05-16T15:48:41.346390+05:30"},{"city":"Bhubaneswar","state":"Odisha","latitude":20.2961,"longitude":85.8245,"temp":34.7,"humidity":56,"rain":0.0,"pressure":996.6,"uv_index":9.2,"wind_gusts":44.6,"aqi":46,"pm10":22.8,"pm2_5":11.1,"no2":2.0,"co":171.0,"o3":70.0,"so2":2.5,"mosquito_risk":0,"arthritis_risk":5,"migraine_risk":7,"frizz_risk":1,"updated_at":"2026-05-16T15:48:41.346397+05:30"},{"city":"Cuttack","state":"Odisha","latitude":20.4625,"longitude":85.8828,"temp":35.5,"humidity":54,"rain":0.0,"pressure":998.0,"uv_index":9.25,"wind_gusts":43.6,"aqi":46,"pm10":22.8,"pm2_5":11.1,"no2":2.0,"co":185.0,"o3":70.0,"so2":2.5,"mosquito_risk":0,"arthritis_risk":5,"migraine_risk":10,"frizz_risk":1,"updated_at":"2026-05-16T15:48:41.346404+05:30"},{"city":"Rourkela","state":"Odisha","latitude":22.2604,"longitude":84.8536,"temp":35.9,"humidity":38,"rain":0.0,"pressure":979.0,"uv_index":8.55,"wind_gusts":30.6,"aqi":152,"pm10":71.9,"pm2_5":49.9,"no2":4.5,"co":289.0,"o3":166.0,"so2":11.4,"mosquito_risk":0,"arthritis_risk":5,"migraine_risk":10,"frizz_risk":1,"updated_at":"2026-05-16T15:48:41.346411+05:30"},{"city":"Raipur","state":"Chhattisgarh","latitude":21.2514,"longitude":81.6296,"temp":40.2,"humidity":27,"rain":0.0,"pressure":968.2,"uv_index":9.05,"wind_gusts":50.4,"aqi":157,"pm10":92.4,"pm2_5":58.9,"no2":7.5,"co":325.0,"o3":177.0,"so2":26.4,"mosquito_risk":0,"arthritis_risk":5,"migraine_risk":10,"frizz_risk":1,"updated_at":"2026-05-16T15:48:41.346418+05:30"},{"city":"Bhilai","state":"Chhattisgarh","latitude":21.1938,"longitude":81.3509,"temp":39.5,"humidity":29,"rain":0.0,"pressure":968.9,"uv_index":9.05,"wind_gusts":52.9,"aqi":156,"pm10":85.4,"pm2_5":54.0,"no2":8.3,"co":536.0,"o3":170.0,"so2":29.8,"mosquito_risk":0,"arthritis_risk":5,"migraine_risk":10,"frizz_risk":1,"updated_at":"2026-05-16T15:48:41.346425+05:30"},{"city":"Guwahati","state":"Assam","latitude":26.1158,"longitude":91.7086,"temp":28.9,"humidity":74,"rain":0.2,"pressure":995.3,"uv_index":6.9,"wind_gusts":31.7,"aqi":84,"pm10":19.5,"pm2_5":14.7,"no2":2.2,"co":287.0,"o3":121.0,"so2":2.5,"mosquito_risk":10,"arthritis_risk":5,"migraine_risk":7,"frizz_risk":1,"updated_at":"2026-05-16T15:48:41.346432+05:30"},{"city":"Agartala","state":"Tripura","latitude":23.8315,"longitude":91.2868,"temp":29.9,"humidity":80,"rain":0.0,"pressure":999.7,"uv_index":6.8,"wind_gusts":34.2,"aqi":72,"pm10":37.6,"pm2_5":21.3,"no2":5.6,"co":186.0,"o3":118.0,"so2":2.6,"mosquito_risk":7,"arthritis_risk":5,"migraine_risk":7,"frizz_risk":1,"updated_at":"2026-05-16T15:48:41.346439+05:30"},{"city":"Shillong","state":"Meghalaya","latitude":25.5788,"longitude":91.8933,"temp":21.1,"humidity":72,"rain":0.0,"pressure":852.7,"uv_index":8.1,"wind_gusts":43.9,"aqi":44,"pm10":13.2,"pm2_5":8.8,"no2":2.4,"co":258.0,"o3":112.0,"so2":3.0,"mosquito_risk":3,"arthritis_risk":5,"migraine_risk":7,"frizz_risk":0,"updated_at":"2026-05-16T15:48:41.346445+05:30"},{"city":"Imphal","state":"Manipur","latitude":24.817,"longitude":93.9368,"temp":26.6,"humidity":64,"rain":0.0,"pressure":918.8,"uv_index":8.75,"wind_gusts":28.8,"aqi":85,"pm10":26.7,"pm2_5":14.7,"no2":2.3,"co":199.0,"o3":98.0,"so2":2.9,"mosquito_risk":7,"arthritis_risk":5,"migraine_risk":7,"frizz_risk":1,"updated_at":"2026-05-16T15:48:41.346453+05:30"},{"city":"Aizawl","state":"Mizoram","latitude":23.7271,"longitude":92.7176,"temp":24.2,"humidity":77,"rain":0.0,"pressure":888.9,"uv_index":9.15,"wind_gusts":43.6,"aqi":58,"pm10":29.2,"pm2_5":13.9,"no2":1.5,"co":163.0,"o3":95.0,"so2":2.3,"mosquito_risk":3,"arthritis_risk":5,"migraine_risk":7,"frizz_risk":1,"updated_at":"2026-05-16T15:48:41.346459+05:30"},{"city":"Kohima","state":"Nagaland","latitude":25.6701,"longitude":94.1077,"temp":20.4,"humidity":96,"rain":0.1,"pressure":851.3,"uv_index":9.2,"wind_gusts":29.2,"aqi":59,"pm10":28.2,"pm2_5":15.6,"no2":1.5,"co":221.0,"o3":105.0,"so2":2.6,"mosquito_risk":6,"arthritis_risk":5,"migraine_risk":7,"frizz_risk":1,"updated_at":"2026-05-16T15:48:41.346466+05:30"},{"city":"Gangtok","state":"Sikkim","latitude":27.3314,"longitude":88.6138,"temp":18.2,"humidity":91,"rain":0.0,"pressure":833.4,"uv_index":9.1,"wind_gusts":37.4,"aqi":103,"pm10":20.3,"pm2_5":15.8,"no2":2.1,"co":293.0,"o3":136.0,"so2":2.4,"mosquito_risk":3,"arthritis_risk":10,"migraine_risk":7,"frizz_risk":1,"updated_at":"2026-05-16T15:48:41.346474+05:30"},{"city":"Siliguri","state":"West Bengal","latitude":26.7271,"longitude":88.3953,"temp":27.6,"humidity":74,"rain":0.0,"pressure":987.0,"uv_index":8.65,"wind_gusts":24.1,"aqi":118,"pm10":31.2,"pm2_5":23.4,"no2":3.7,"co":438.0,"o3":138.0,"so2":4.2,"mosquito_risk":7,"arthritis_risk":5,"migraine_risk":7,"frizz_risk":1,"updated_at":"2026-05-16T15:48:44.709862+05:30"},{"city":"Durgapur","state":"West Bengal","latitude":23.5204,"longitude":87.3119,"temp":36.5,"humidity":45,"rain":0.0,"pressure":988.2,"uv_index":9.05,"wind_gusts":32.8,"aqi":150,"pm10":109.2,"pm2_5":87.1,"no2":14.2,"co":573.0,"o3":252.0,"so2":56.3,"mosquito_risk":0,"arthritis_risk":5,"migraine_risk":10,"frizz_risk":1,"updated_at":"2026-05-16T15:48:44.709895+05:30"},{"city":"Asansol","state":"West Bengal","latitude":23.6739,"longitude":86.9524,"temp":37.2,"humidity":34,"rain":0.0,"pressure":986.6,"uv_index":9.05,"wind_gusts":27.4,"aqi":158,"pm10":107.3,"pm2_5":66.8,"no2":13.2,"co":493.0,"o3":206.0,"so2":35.5,"mosquito_risk":0,"arthritis_risk":5,"migraine_risk":10,"frizz_risk":1,"updated_at":"2026-05-16T15:48:44.709907+05:30"},{"city":"Pondicherry","state":"Puducherry","latitude":11.9139,"longitude":79.8145,"temp":29.3,"humidity":77,"rain":0.0,"pressure":1002.2,"uv_index":9.05,"wind_gusts":30.2,"aqi":80,"pm10":34.5,"pm2_5":27.5,"no2":3.5,"co":215.0,"o3":156.0,"so2":12.3,"mosquito_risk":7,"arthritis_risk":5,"migraine_risk":4,"frizz_risk":1,"updated_at":"2026-05-16T15:48:44.709916+05:30"},{"city":"Port Blair","state":"Andaman and Nicobar Islands","latitude":11.6234,"longitude":92.7265,"temp":27.5,"humidity":86,"rain":0.0,"pressure":1002.9,"uv_index":5.6,"wind_gusts":41.4,"aqi":27,"pm10":8.6,"pm2_5":5.4,"no2":0.4,"co":135.0,"o3":57.0,"so2":0.2,"mosquito_risk":7,"arthritis_risk":5,"migraine_risk":0,"frizz_risk":1,"updated_at":"2026-05-16T15:48:44.709925+05:30"},{"city":"Haridwar","state":"Uttarakhand","latitude":29.9457,"longitude":78.1642,"temp":35.2,"humidity":29,"rain":0.0,"pressure":969.2,"uv_index":7.5,"wind_gusts":34.2,"aqi":122,"pm10":48.8,"pm2_5":30.2,"no2":1.8,"co":235.0,"o3":168.0,"so2":9.2,"mosquito_risk":0,"arthritis_risk":5,"migraine_risk":10,"frizz_risk":0,"updated_at":"2026-05-16T15:48:44.709933+05:30"},{"city":"Rishikesh","state":"Uttarakhand","latitude":30.0869,"longitude":78.2676,"temp":34.7,"humidity":29,"rain":0.0,"pressure":962.1,"uv_index":7.6,"wind_gusts":29.9,"aqi":104,"pm10":40.9,"pm2_5":21.5,"no2":0.6,"co":214.0,"o3":155.0,"so2":5.4,"mosquito_risk":0,"arthritis_risk":5,"migraine_risk":7,"frizz_risk":0,"updated_at":"2026-05-16T15:48:44.709942+05:30"},{"city":"Nainital","state":"Uttarakhand","latitude":29.3919,"longitude":79.4542,"temp":21.4,"humidity":41,"rain":0.0,"pressure":804.9,"uv_index":8.45,"wind_gusts":38.2,"aqi":123,"pm10":48.2,"pm2_5":26.6,"no2":1.5,"co":201.0,"o3":169.0,"so2":10.0,"mosquito_risk":0,"arthritis_risk":5,"migraine_risk":7,"frizz_risk":0,"updated_at":"2026-05-16T15:48:44.709950+05:30"},{"city":"Mussoorie","state":"Uttarakhand","latitude":30.4599,"longitude":78.0664,"temp":19.5,"humidity":56,"rain":0.1,"pressure":802.3,"uv_index":8.0,"wind_gusts":47.5,"aqi":113,"pm10":41.4,"pm2_5":26.5,"no2":1.1,"co":190.0,"o3":168.0,"so2":7.4,"mosquito_risk":3,"arthritis_risk":5,"migraine_risk":7,"frizz_risk":0,"updated_at":"2026-05-16T15:48:44.709958+05:30"},{"city":"Dharamshala","state":"Himachal Pradesh","latitude":32.219,"longitude":76.3234,"temp":24.4,"humidity":49,"rain":0.1,"pressure":868.4,"uv_index":8.35,"wind_gusts":40.3,"aqi":79,"pm10":31.3,"pm2_5":11.9,"no2":0.1,"co":174.0,"o3":133.0,"so2":0.9,"mosquito_risk":3,"arthritis_risk":5,"migraine_risk":7,"frizz_risk":0,"updated_at":"2026-05-16T15:48:44.709966+05:30"},{"city":"Dalhousie","state":"Himachal Pradesh","latitude":32.5387,"longitude":75.971,"temp":21.5,"humidity":40,"rain":0.0,"pressure":805.5,"uv_index":8.6,"wind_gusts":40.7,"aqi":91,"pm10":28.5,"pm2_5":13.3,"no2":0.8,"co":155.0,"o3":147.0,"so2":1.4,"mosquito_risk":0,"arthritis_risk":5,"migraine_risk":7,"frizz_risk":0,"updated_at":"2026-05-16T15:48:44.709974+05:30"},{"city":"Patiala","state":"Punjab","latitude":30.3398,"longitude":76.3869,"temp":37.6,"humidity":21,"rain":0.0,"pressure":973.7,"uv_index":7.6,"wind_gusts":38.2,"aqi":208,"pm10":633.3,"pm2_5":79.4,"no2":1.2,"co":225.0,"o3":147.0,"so2":4.2,"mosquito_risk":0,"arthritis_risk":5,"migraine_risk":10,"frizz_risk":0,"updated_at":"2026-05-16T15:48:44.709981+05:30"},{"city":"Bhatinda","state":"Punjab","latitude":30.211,"longitude":74.9455,"temp":38.3,"humidity":23,"rain":0.0,"pressure":979.2,"uv_index":8.25,"wind_gusts":32.4,"aqi":111,"pm10":80.6,"pm2_5":25.8,"no2":1.5,"co":255.0,"o3":145.0,"so2":7.1,"mosquito_risk":0,"arthritis_risk":5,"migraine_risk":10,"frizz_risk":0,"updated_at":"2026-05-16T15:48:44.709988+05:30"},{"city":"Rohtak","state":"Haryana","latitude":28.8955,"longitude":76.6066,"temp":38.5,"humidity":21,"rain":0.0,"pressure":977.0,"uv_index":7.75,"wind_gusts":40.7,"aqi":424,"pm10":609.1,"pm2_5":86.8,"no2":2.3,"co":248.0,"o3":137.0,"so2":5.0,"mosquito_risk":0,"arthritis_risk":5,"migraine_risk":10,"frizz_risk":0,"updated_at":"2026-05-16T15:48:44.709996+05:30"},{"city":"Panipat","state":"Haryana","latitude":29.3909,"longitude":76.9635,"temp":38.0,"humidity":21,"rain":0.0,"pressure":975.4,"uv_index":7.55,"wind_gusts":40.0,"aqi":754,"pm10":1385.8,"pm2_5":159.7,"no2":2.5,"co":221.0,"o3":138.0,"so2":8.5,"mosquito_risk":0,"arthritis_risk":5,"migraine_risk":10,"frizz_risk":0,"updated_at":"2026-05-16T15:48:44.710004+05:30"},{"city":"Mathura","state":"Uttar Pradesh","latitude":27.4924,"longitude":77.6737,"temp":39.4,"humidity":19,"rain":0.0,"pressure":981.3,"uv_index":8.0,"wind_gusts":29.5,"aqi":372,"pm10":532.7,"pm2_5":77.5,"no2":2.3,"co":235.0,"o3":145.0,"so2":7.2,"mosquito_risk":0,"arthritis_risk":5,"migraine_risk":10,"frizz_risk":0,"updated_at":"2026-05-16T15:48:44.710012+05:30"},{"city":"Vrindavan","state":"Uttar Pradesh","latitude":27.5823,"longitude":77.7027,"temp":39.0,"humidity":21,"rain":0.0,"pressure":981.7,"uv_index":7.95,"wind_gusts":28.4,"aqi":372,"pm10":532.7,"pm2_5":77.5,"no2":2.3,"co":245.0,"o3":145.0,"so2":7.2,"mosquito_risk":0,"arthritis_risk":5,"migraine_risk":10,"frizz_risk":0,"updated_at":"2026-05-16T15:48:44.710019+05:30"},{"city":"Ayodhya","state":"Uttar Pradesh","latitude":26.7922,"longitude":82.1998,"temp":37.3,"humidity":32,"rain":0.0,"pressure":988.4,"uv_index":8.35,"wind_gusts":29.9,"aqi":160,"pm10":144.4,"pm2_5":46.3,"no2":1.6,"co":293.0,"o3":162.0,"so2":9.0,"mosquito_risk":0,"arthritis_risk":5,"migraine_risk":10,"frizz_risk":1,"updated_at":"2026-05-16T15:48:44.710026+05:30"},{"city":"Ratlam","state":"Madhya Pradesh","latitude":23.3315,"longitude":75.0367,"temp":37.7,"humidity":22,"rain":0.0,"pressure":950.9,"uv_index":8.55,"wind_gusts":34.9,"aqi":50,"pm10":31.2,"pm2_5":13.6,"no2":0.5,"co":131.0,"o3":114.0,"so2":2.1,"mosquito_risk":0,"arthritis_risk":5,"migraine_risk":10,"frizz_risk":0,"updated_at":"2026-05-16T15:48:44.710034+05:30"},{"city":"Sagar","state":"Madhya Pradesh","latitude":23.8388,"longitude":78.7378,"temp":40.1,"humidity":15,"rain":0.0,"pressure":945.5,"uv_index":8.75,"wind_gusts":36.0,"aqi":80,"pm10":37.0,"pm2_5":15.1,"no2":0.4,"co":193.0,"o3":131.0,"so2":3.0,"mosquito_risk":0,"arthritis_risk":5,"migraine_risk":10,"frizz_risk":0,"updated_at":"2026-05-16T15:48:44.710041+05:30"},{"city":"Satna","state":"Madhya Pradesh","latitude":24.6005,"longitude":80.8322,"temp":39.5,"humidity":19,"rain":0.0,"pressure":965.9,"uv_index":8.75,"wind_gusts":32.8,"aqi":112,"pm10":66.1,"pm2_5":22.3,"no2":0.5,"co":179.0,"o3":127.0,"so2":3.2,"mosquito_risk":0,"arthritis_risk":5,"migraine_risk":10,"frizz_risk":0,"updated_at":"2026-05-16T15:48:44.710048+05:30"},{"city":"Akola","state":"Maharashtra","latitude":20.7002,"longitude":77.0082,"temp":42.6,"humidity":15,"rain":0.0,"pressure":969.0,"uv_index":8.15,"wind_gusts":43.2,"aqi":74,"pm10":29.2,"pm2_5":13.0,"no2":1.1,"co":164.0,"o3":132.0,"so2":4.9,"mosquito_risk":0,"arthritis_risk":5,"migraine_risk":10,"frizz_risk":0,"updated_at":"2026-05-16T15:48:44.710056+05:30"},{"city":"Amravati","state":"Maharashtra","latitude":20.9374,"longitude":77.7796,"temp":43.2,"humidity":12,"rain":0.0,"pressure":961.0,"uv_index":8.9,"wind_gusts":38.9,"aqi":81,"pm10":31.7,"pm2_5":13.4,"no2":1.0,"co":170.0,"o3":135.0,"so2":6.2,"mosquito_risk":0,"arthritis_risk":5,"migraine_risk":10,"frizz_risk":0,"updated_at":"2026-05-16T15:48:44.710064+05:30"},{"city":"Latur","state":"Maharashtra","latitude":18.4088,"longitude":76.5604,"temp":39.0,"humidity":18,"rain":0.0,"pressure":935.2,"uv_index":8.7,"wind_gusts":36.4,"aqi":85,"pm10":24.4,"pm2_5":15.9,"no2":1.1,"co":162.0,"o3":154.0,"so2":6.8,"mosquito_risk":0,"arthritis_risk":5,"migraine_risk":10,"frizz_risk":0,"updated_at":"2026-05-16T15:48:44.710072+05:30"},{"city":"Nanded","state":"Maharashtra","latitude":19.1383,"longitude":77.3091,"temp":41.0,"humidity":16,"rain":0.0,"pressure":962.7,"uv_index":8.4,"wind_gusts":28.1,"aqi":111,"pm10":25.3,"pm2_5":14.8,"no2":0.4,"co":153.0,"o3":146.0,"so2":5.3,"mosquito_risk":0,"arthritis_risk":5,"migraine_risk":10,"frizz_risk":0,"updated_at":"2026-05-16T15:48:44.710079+05:30"},{"city":"Gulbarga","state":"Karnataka","latitude":17.3297,"longitude":76.8343,"temp":39.3,"humidity":19,"rain":0.0,"pressure":953.0,"uv_index":8.2,"wind_gusts":35.6,"aqi":117,"pm10":48.7,"pm2_5":30.4,"no2":1.7,"co":177.0,"o3":164.0,"so2":8.6,"mosquito_risk":0,"arthritis_risk":5,"migraine_risk":10,"frizz_risk":0,"updated_at":"2026-05-16T15:48:44.710085+05:30"},{"city":"Bidar","state":"Karnataka","latitude":17.9104,"longitude":77.5199,"temp":37.8,"humidity":21,"rain":0.0,"pressure":931.2,"uv_index":9.1,"wind_gusts":30.2,"aqi":125,"pm10":29.8,"pm2_5":19.6,"no2":1.2,"co":188.0,"o3":153.0,"so2":5.3,"mosquito_risk":0,"arthritis_risk":5,"migraine_risk":10,"frizz_risk":0,"updated_at":"2026-05-16T15:48:44.710092+05:30"},{"city":"Hospet","state":"Karnataka","latitude":15.2689,"longitude":76.3909,"temp":35.0,"humidity":37,"rain":0.0,"pressure":950.1,"uv_index":8.0,"wind_gusts":36.7,"aqi":86,"pm10":51.9,"pm2_5":33.3,"no2":3.0,"co":252.0,"o3":168.0,"so2":10.0,"mosquito_risk":0,"arthritis_risk":5,"migraine_risk":7,"frizz_risk":1,"updated_at":"2026-05-16T15:48:44.710099+05:30"},{"city":"Tirupur","state":"Tamil Nadu","latitude":11.1085,"longitude":77.3411,"temp":35.2,"humidity":37,"rain":0.0,"pressure":968.8,"uv_index":6.85,"wind_gusts":33.1,"aqi":94,"pm10":65.0,"pm2_5":35.0,"no2":5.4,"co":258.0,"o3":150.0,"so2":5.8,"mosquito_risk":0,"arthritis_risk":5,"migraine_risk":10,"frizz_risk":1,"updated_at":"2026-05-16T15:48:44.710106+05:30"},{"city":"Alappuzha","state":"Kerala","latitude":9.4981,"longitude":76.3388,"temp":25.4,"humidity":96,"rain":0.4,"pressure":1004.4,"uv_index":8.55,"wind_gusts":32.8,"aqi":62,"pm10":16.6,"pm2_5":11.0,"no2":4.1,"co":161.0,"o3":116.0,"so2":3.2,"mosquito_risk":10,"arthritis_risk":5,"migraine_risk":4,"frizz_risk":1,"updated_at":"2026-05-16T15:48:44.710113+05:30"},{"city":"Munnar","state":"Kerala","latitude":10.0889,"longitude":77.0595,"temp":20.7,"humidity":82,"rain":0.1,"pressure":853.6,"uv_index":4.6,"wind_gusts":23.8,"aqi":61,"pm10":43.3,"pm2_5":22.1,"no2":3.1,"co":204.0,"o3":101.0,"so2":2.5,"mosquito_risk":6,"arthritis_risk":5,"migraine_risk":3,"frizz_risk":1,"updated_at":"2026-05-16T15:48:44.710120+05:30"},{"city":"Silchar","state":"Assam","latitude":24.8333,"longitude":92.7789,"temp":27.0,"humidity":86,"rain":0.0,"pressure":999.5,"uv_index":8.75,"wind_gusts":25.6,"aqi":77,"pm10":23.9,"pm2_5":12.8,"no2":1.7,"co":206.0,"o3":106.0,"so2":3.5,"mosquito_risk":7,"arthritis_risk":5,"migraine_risk":7,"frizz_risk":1,"updated_at":"2026-05-16T15:48:44.710128+05:30"},{"city":"Dibrugarh","state":"Assam","latitude":27.4728,"longitude":94.912,"temp":29.5,"humidity":64,"rain":0.0,"pressure":990.1,"uv_index":8.9,"wind_gusts":26.3,"aqi":99,"pm10":31.4,"pm2_5":20.8,"no2":2.8,"co":224.0,"o3":121.0,"so2":2.3,"mosquito_risk":7,"arthritis_risk":5,"migraine_risk":7,"frizz_risk":1,"updated_at":"2026-05-16T15:48:44.710135+05:30"}]