[{"city":"Delhi","state":"Delhi","latitude":28.6139,"longitude":77.209,"temp":27.3,"humidity":40,"rain":0.0,"pressure":983.3,"uv_index":5.75,"wind_gusts":29.2,"aqi":345,"pm10":668.7,"pm2_5":96.6,"mosquito_risk":4,"arthritis_risk":5,"migraine_risk":3,"frizz_risk":0,"updated_at":"2026-03-13T18:36:07.149630+05:30"},{"city":"Mumbai","state":"Maharashtra","latitude":19.076,"longitude":72.8777,"temp":29.6,"humidity":61,"rain":0.0,"pressure":1005.8,"uv_index":7.65,"wind_gusts":23.8,"aqi":225,"pm10":40.0,"pm2_5":36.2,"mosquito_risk":7,"arthritis_risk":5,"migraine_risk":4,"frizz_risk":1,"updated_at":"2026-03-13T18:36:07.149681+05:30"},{"city":"Bangalore","state":"Karnataka","latitude":12.9716,"longitude":77.5946,"temp":29.3,"humidity":27,"rain":0.0,"pressure":911.4,"uv_index":9.3,"wind_gusts":28.8,"aqi":134,"pm10":38.5,"pm2_5":32.9,"mosquito_risk":4,"arthritis_risk":5,"migraine_risk":7,"frizz_risk":0,"updated_at":"2026-03-13T18:36:07.149696+05:30"},{"city":"Hyderabad","state":"Telangana","latitude":17.385,"longitude":78.4867,"temp":32.5,"humidity":22,"rain":0.0,"pressure":952.2,"uv_index":8.65,"wind_gusts":19.1,"aqi":176,"pm10":40.5,"pm2_5":31.5,"mosquito_risk":0,"arthritis_risk":5,"migraine_risk":7,"frizz_risk":0,"updated_at":"2026-03-13T18:36:07.149706+05:30"},{"city":"Chennai","state":"Tamil Nadu","latitude":13.0827,"longitude":80.2707,"temp":28.6,"humidity":67,"rain":0.0,"pressure":1007.7,"uv_index":9.05,"wind_gusts":32.4,"aqi":62,"pm10":18.7,"pm2_5":14.1,"mosquito_risk":7,"arthritis_risk":5,"migraine_risk":4,"frizz_risk":1,"updated_at":"2026-03-13T18:36:07.149714+05:30"},{"city":"Kolkata","state":"West Bengal","latitude":22.5726,"longitude":88.3639,"temp":28.1,"humidity":73,"rain":0.0,"pressure":1005.1,"uv_index":8.0,"wind_gusts":29.2,"aqi":129,"pm10":37.7,"pm2_5":32.5,"mosquito_risk":7,"arthritis_risk":5,"migraine_risk":4,"frizz_risk":1,"updated_at":"2026-03-13T18:36:07.149721+05:30"},{"city":"Pune","state":"Maharashtra","latitude":18.5204,"longitude":73.8567,"temp":32.8,"humidity":30,"rain":0.0,"pressure":947.1,"uv_index":8.2,"wind_gusts":37.8,"aqi":157,"pm10":21.6,"pm2_5":19.6,"mosquito_risk":0,"arthritis_risk":5,"migraine_risk":7,"frizz_risk":0,"updated_at":"2026-03-13T18:36:07.149732+05:30"},{"city":"Ahmedabad","state":"Gujarat","latitude":23.0225,"longitude":72.5714,"temp":35.1,"humidity":22,"rain":0.0,"pressure":1000.1,"uv_index":7.45,"wind_gusts":22.3,"aqi":129,"pm10":39.6,"pm2_5":22.2,"mosquito_risk":0,"arthritis_risk":5,"migraine_risk":7,"frizz_risk":0,"updated_at":"2026-03-13T18:36:07.149739+05:30"},{"city":"Jaipur","state":"Rajasthan","latitude":26.9124,"longitude":75.7873,"temp":30.2,"humidity":32,"rain":0.0,"pressure":959.7,"uv_index":6.95,"wind_gusts":27.0,"aqi":113,"pm10":129.9,"pm2_5":35.6,"mosquito_risk":0,"arthritis_risk":5,"migraine_risk":7,"frizz_risk":0,"updated_at":"2026-03-13T18:36:07.149746+05:30"},{"city":"Lucknow","state":"Uttar Pradesh","latitude":26.8467,"longitude":80.9462,"temp":30.1,"humidity":40,"rain":0.0,"pressure":992.2,"uv_index":6.05,"wind_gusts":28.4,"aqi":167,"pm10":155.1,"pm2_5":52.7,"mosquito_risk":0,"arthritis_risk":5,"migraine_risk":7,"frizz_risk":0,"updated_at":"2026-03-13T18:36:07.149753+05:30"},{"city":"Kanpur","state":"Uttar Pradesh","latitude":26.4499,"longitude":80.3319,"temp":29.1,"humidity":54,"rain":0.0,"pressure":990.7,"uv_index":6.35,"wind_gusts":18.7,"aqi":256,"pm10":241.2,"pm2_5":60.3,"mosquito_risk":4,"arthritis_risk":5,"migraine_risk":7,"frizz_risk":1,"updated_at":"2026-03-13T18:36:07.149759+05:30"},{"city":"Chandigarh","state":"Chandigarh","latitude":30.7333,"longitude":76.7794,"temp":23.7,"humidity":58,"rain":0.0,"pressure":969.1,"uv_index":5.35,"wind_gusts":29.5,"aqi":82,"pm10":26.7,"pm2_5":22.4,"mosquito_risk":0,"arthritis_risk":5,"migraine_risk":3,"frizz_risk":0,"updated_at":"2026-03-13T18:36:07.149765+05:30"},{"city":"Srinagar","state":"Jammu and Kashmir","latitude":34.0837,"longitude":74.7973,"temp":14.2,"humidity":55,"rain":0.0,"pressure":841.6,"uv_index":6.75,"wind_gusts":14.4,"aqi":96,"pm10":43.0,"pm2_5":28.4,"mosquito_risk":0,"arthritis_risk":5,"migraine_risk":7,"frizz_risk":0,"updated_at":"2026-03-13T18:36:07.149771+05:30"},{"city":"Jammu","state":"Jammu and Kashmir","latitude":32.7266,"longitude":74.857,"temp":24.5,"humidity":52,"rain":0.0,"pressure":972.9,"uv_index":6.45,"wind_gusts":24.8,"aqi":74,"pm10":27.8,"pm2_5":20.5,"mosquito_risk":0,"arthritis_risk":5,"migraine_risk":7,"frizz_risk":0,"updated_at":"2026-03-13T18:36:07.149777+05:30"},{"city":"Amritsar","state":"Punjab","latitude":31.634,"longitude":74.8723,"temp":23.8,"humidity":52,"rain":0.0,"pressure":981.6,"uv_index":5.85,"wind_gusts":25.6,"aqi":94,"pm10":26.1,"pm2_5":18.1,"mosquito_risk":0,"arthritis_risk":5,"migraine_risk":3,"frizz_risk":0,"updated_at":"2026-03-13T18:36:07.149783+05:30"},{"city":"Ludhiana","state":"Punjab","latitude":30.901,"longitude":75.8573,"temp":24.9,"humidity":54,"rain":0.0,"pressure":979.6,"uv_index":5.7,"wind_gusts":27.7,"aqi":104,"pm10":50.5,"pm2_5":24.7,"mosquito_risk":0,"arthritis_risk":5,"migraine_risk":3,"frizz_risk":0,"updated_at":"2026-03-13T18:36:07.149788+05:30"},{"city":"Jalandhar","state":"Punjab","latitude":31.326,"longitude":75.5762,"temp":24.7,"humidity":56,"rain":0.0,"pressure":980.7,"uv_index":5.7,"wind_gusts":25.6,"aqi":102,"pm10":50.6,"pm2_5":20.7,"mosquito_risk":0,"arthritis_risk":5,"migraine_risk":3,"frizz_risk":0,"updated_at":"2026-03-13T18:36:07.149797+05:30"},{"city":"Dehradun","state":"Uttarakhand","latitude":30.6284,"longitude":78.0322,"temp":17.3,"humidity":57,"rain":0.0,"pressure":829.6,"uv_index":5.7,"wind_gusts":28.8,"aqi":71,"pm10":35.5,"pm2_5":17.3,"mosquito_risk":0,"arthritis_risk":5,"migraine_risk":3,"frizz_risk":0,"updated_at":"2026-03-13T18:36:07.149803+05:30"},{"city":"Shimla","state":"Himachal Pradesh","latitude":31.1048,"longitude":77.1734,"temp":14.6,"humidity":57,"rain":0.0,"pressure":784.2,"uv_index":5.15,"wind_gusts":39.2,"aqi":69,"pm10":21.1,"pm2_5":12.6,"mosquito_risk":0,"arthritis_risk":5,"migraine_risk":3,"frizz_risk":0,"updated_at":"2026-03-13T18:36:07.149809+05:30"},{"city":"Manali","state":"Himachal Pradesh","latitude":32.2396,"longitude":77.1887,"temp":16.1,"humidity":29,"rain":0.0,"pressure":819.6,"uv_index":8.05,"wind_gusts":38.5,"aqi":88,"pm10":22.9,"pm2_5":7.8,"mosquito_risk":0,"arthritis_risk":5,"migraine_risk":7,"frizz_risk":1,"updated_at":"2026-03-13T18:36:07.149815+05:30"},{"city":"Gurgaon","state":"Haryana","latitude":28.4595,"longitude":77.0266,"temp":25.4,"humidity":48,"rain":0.0,"pressure":981.8,"uv_index":6.15,"wind_gusts":28.1,"aqi":1074,"pm10":1877.5,"pm2_5":210.9,"mosquito_risk":4,"arthritis_risk":5,"migraine_risk":7,"frizz_risk":0,"updated_at":"2026-03-13T18:36:07.149820+05:30"},{"city":"Noida","state":"Uttar Pradesh","latitude":28.5355,"longitude":77.391,"temp":27.4,"humidity":38,"rain":0.0,"pressure":984.8,"uv_index":5.95,"wind_gusts":28.8,"aqi":1074,"pm10":1877.5,"pm2_5":210.9,"mosquito_risk":4,"arthritis_risk":5,"migraine_risk":3,"frizz_risk":0,"updated_at":"2026-03-13T18:36:07.149826+05:30"},{"city":"Ghaziabad","state":"Uttar Pradesh","latitude":28.6692,"longitude":77.4538,"temp":26.1,"humidity":47,"rain":0.0,"pressure":983.0,"uv_index":5.75,"wind_gusts":27.7,"aqi":187,"pm10":412.6,"pm2_5":74.0,"mosquito_risk":4,"arthritis_risk":5,"migraine_risk":3,"frizz_risk":0,"updated_at":"2026-03-13T18:36:07.149831+05:30"},{"city":"Faridabad","state":"Haryana","latitude":28.4089,"longitude":77.3178,"temp":26.4,"humidity":39,"rain":0.0,"pressure":983.9,"uv_index":6.2,"wind_gusts":27.7,"aqi":1074,"pm10":1877.5,"pm2_5":210.9,"mosquito_risk":4,"arthritis_risk":5,"migraine_risk":7,"frizz_risk":0,"updated_at":"2026-03-13T18:36:07.149837+05:30"},{"city":"Meerut","state":"Uttar Pradesh","latitude":28.9845,"longitude":77.7064,"temp":24.6,"humidity":57,"rain":0.0,"pressure":981.6,"uv_index":4.85,"wind_gusts":27.7,"aqi":187,"pm10":412.6,"pm2_5":74.0,"mosquito_risk":0,"arthritis_risk":5,"migraine_risk":3,"frizz_risk":0,"updated_at":"2026-03-13T18:36:07.149842+05:30"},{"city":"Agra","state":"Uttar Pradesh","latitude":27.1767,"longitude":78.0081,"temp":29.4,"humidity":33,"rain":0.0,"pressure":987.2,"uv_index":6.25,"wind_gusts":24.8,"aqi":532,"pm10":568.1,"pm2_5":89.6,"mosquito_risk":4,"arthritis_risk":5,"migraine_risk":7,"frizz_risk":0,"updated_at":"2026-03-13T18:36:07.149847+05:30"},{"city":"Varanasi","state":"Uttar Pradesh","latitude":25.3176,"longitude":82.9739,"temp":28.4,"humidity":48,"rain":0.0,"pressure":996.2,"uv_index":7.35,"wind_gusts":25.2,"aqi":123,"pm10":123.4,"pm2_5":46.1,"mosquito_risk":4,"arthritis_risk":5,"migraine_risk":7,"frizz_risk":1,"updated_at":"2026-03-13T18:36:07.149855+05:30"},{"city":"Prayagraj","state":"Uttar Pradesh","latitude":25.4358,"longitude":81.8463,"temp":29.3,"humidity":48,"rain":0.0,"pressure":994.9,"uv_index":7.1,"wind_gusts":21.6,"aqi":148,"pm10":107.6,"pm2_5":41.7,"mosquito_risk":4,"arthritis_risk":5,"migraine_risk":7,"frizz_risk":1,"updated_at":"2026-03-13T18:36:07.149861+05:30"},{"city":"Gorakhpur","state":"Uttar Pradesh","latitude":26.7606,"longitude":83.3732,"temp":27.7,"humidity":56,"rain":0.0,"pressure":995.2,"uv_index":7.05,"wind_gusts":28.4,"aqi":182,"pm10":90.6,"pm2_5":48.2,"mosquito_risk":4,"arthritis_risk":5,"migraine_risk":7,"frizz_risk":1,"updated_at":"2026-03-13T18:36:07.149866+05:30"},{"city":"Bareilly","state":"Uttar Pradesh","latitude":28.367,"longitude":79.4304,"temp":25.2,"humidity":52,"rain":0.0,"pressure":986.0,"uv_index":6.35,"wind_gusts":26.6,"aqi":152,"pm10":51.2,"pm2_5":34.6,"mosquito_risk":4,"arthritis_risk":5,"migraine_risk":7,"frizz_risk":0,"updated_at":"2026-03-13T18:36:07.149871+05:30"},{"city":"Aligarh","state":"Uttar Pradesh","latitude":27.8974,"longitude":78.088,"temp":26.9,"humidity":37,"rain":0.0,"pressure":985.2,"uv_index":5.9,"wind_gusts":28.8,"aqi":617,"pm10":681.7,"pm2_5":112.9,"mosquito_risk":4,"arthritis_risk":5,"migraine_risk":3,"frizz_risk":0,"updated_at":"2026-03-13T18:36:07.149924+05:30"},{"city":"Moradabad","state":"Uttar Pradesh","latitude":28.8386,"longitude":78.7733,"temp":25.1,"humidity":55,"rain":0.0,"pressure":983.2,"uv_index":5.75,"wind_gusts":27.4,"aqi":149,"pm10":55.5,"pm2_5":35.0,"mosquito_risk":4,"arthritis_risk":5,"migraine_risk":3,"frizz_risk":0,"updated_at":"2026-03-13T18:36:07.149932+05:30"},{"city":"Saharanpur","state":"Uttar Pradesh","latitude":29.9637,"longitude":77.546,"temp":24.8,"humidity":56,"rain":0.0,"pressure":975.4,"uv_index":4.95,"wind_gusts":27.4,"aqi":135,"pm10":149.0,"pm2_5":45.2,"mosquito_risk":0,"arthritis_risk":5,"migraine_risk":3,"frizz_risk":0,"updated_at":"2026-03-13T18:36:07.149938+05:30"},{"city":"Jhansi","state":"Uttar Pradesh","latitude":25.4484,"longitude":78.5685,"temp":31.1,"humidity":27,"rain":0.0,"pressure":976.9,"uv_index":6.75,"wind_gusts":20.9,"aqi":91,"pm10":76.4,"pm2_5":29.9,"mosquito_risk":0,"arthritis_risk":5,"migraine_risk":7,"frizz_risk":0,"updated_at":"2026-03-13T18:36:10.797919+05:30"},{"city":"Surat","state":"Gujarat","latitude":21.1702,"longitude":72.8311,"temp":30.9,"humidity":42,"rain":0.0,"pressure":1004.7,"uv_index":7.35,"wind_gusts":23.8,"aqi":146,"pm10":65.2,"pm2_5":60.3,"mosquito_risk":0,"arthritis_risk":5,"migraine_risk":4,"frizz_risk":1,"updated_at":"2026-03-13T18:36:10.797949+05:30"},{"city":"Vadodara","state":"Gujarat","latitude":22.3072,"longitude":73.1812,"temp":35.3,"humidity":21,"rain":0.0,"pressure":1002.3,"uv_index":7.5,"wind_gusts":23.8,"aqi":165,"pm10":41.1,"pm2_5":32.6,"mosquito_risk":0,"arthritis_risk":5,"migraine_risk":7,"frizz_risk":0,"updated_at":"2026-03-13T18:36:10.797959+05:30"},{"city":"Rajkot","state":"Gujarat","latitude":22.3039,"longitude":70.8022,"temp":33.9,"humidity":20,"rain":0.0,"pressure":992.9,"uv_index":7.3,"wind_gusts":33.1,"aqi":93,"pm10":31.1,"pm2_5":17.8,"mosquito_risk":0,"arthritis_risk":5,"migraine_risk":7,"frizz_risk":0,"updated_at":"2026-03-13T18:36:10.797968+05:30"},{"city":"Thane","state":"Maharashtra","latitude":19.2183,"longitude":72.9781,"temp":30.7,"humidity":46,"rain":0.0,"pressure":1005.4,"uv_index":7.65,"wind_gusts":38.2,"aqi":225,"pm10":40.0,"pm2_5":36.2,"mosquito_risk":0,"arthritis_risk":5,"migraine_risk":4,"frizz_risk":1,"updated_at":"2026-03-13T18:36:10.797975+05:30"},{"city":"Nagpur","state":"Maharashtra","latitude":21.1458,"longitude":79.0882,"temp":32.3,"humidity":28,"rain":0.0,"pressure":971.3,"uv_index":8.05,"wind_gusts":19.4,"aqi":135,"pm10":26.8,"pm2_5":22.6,"mosquito_risk":0,"arthritis_risk":5,"migraine_risk":7,"frizz_risk":0,"updated_at":"2026-03-13T18:36:10.797982+05:30"},{"city":"Nashik","state":"Maharashtra","latitude":19.9975,"longitude":73.7898,"temp":32.2,"humidity":25,"rain":0.0,"pressure":944.4,"uv_index":7.85,"wind_gusts":34.9,"aqi":146,"pm10":24.2,"pm2_5":22.2,"mosquito_risk":0,"arthritis_risk":5,"migraine_risk":7,"frizz_risk":0,"updated_at":"2026-03-13T18:36:10.797989+05:30"},{"city":"Aurangabad","state":"Maharashtra","latitude":19.8762,"longitude":75.3433,"temp":32.8,"humidity":22,"rain":0.0,"pressure":943.0,"uv_index":8.35,"wind_gusts":29.5,"aqi":162,"pm10":21.4,"pm2_5":19.7,"mosquito_risk":0,"arthritis_risk":5,"migraine_risk":7,"frizz_risk":0,"updated_at":"2026-03-13T18:36:10.797996+05:30"},{"city":"Solapur","state":"Maharashtra","latitude":17.6599,"longitude":75.9064,"temp":32.3,"humidity":33,"rain":0.0,"pressure":955.3,"uv_index":8.6,"wind_gusts":24.1,"aqi":162,"pm10":36.3,"pm2_5":30.4,"mosquito_risk":0,"arthritis_risk":5,"migraine_risk":7,"frizz_risk":0,"updated_at":"2026-03-13T18:36:10.798003+05:30"},{"city":"Kolhapur","state":"Maharashtra","latitude":16.705,"longitude":74.2433,"temp":28.3,"humidity":67,"rain":0.0,"pressure":946.8,"uv_index":8.7,"wind_gusts":47.9,"aqi":164,"pm10":34.8,"pm2_5":32.2,"mosquito_risk":7,"arthritis_risk":5,"migraine_risk":7,"frizz_risk":1,"updated_at":"2026-03-13T18:36:10.798011+05:30"},{"city":"Goa","state":"Goa","latitude":15.2993,"longitude":74.124,"temp":28.4,"humidity":78,"rain":0.0,"pressure":996.5,"uv_index":8.7,"wind_gusts":31.3,"aqi":136,"pm10":40.9,"pm2_5":35.7,"mosquito_risk":7,"arthritis_risk":5,"migraine_risk":7,"frizz_risk":1,"updated_at":"2026-03-13T18:36:10.798018+05:30"},{"city":"Jodhpur","state":"Rajasthan","latitude":26.2389,"longitude":73.0243,"temp":33.6,"humidity":23,"rain":0.0,"pressure":981.8,"uv_index":6.8,"wind_gusts":18.7,"aqi":82,"pm10":155.1,"pm2_5":29.4,"mosquito_risk":0,"arthritis_risk":5,"migraine_risk":7,"frizz_risk":0,"updated_at":"2026-03-13T18:36:10.798025+05:30"},{"city":"Udaipur","state":"Rajasthan","latitude":24.5854,"longitude":73.7125,"temp":30.8,"humidity":15,"rain":0.0,"pressure":946.0,"uv_index":7.8,"wind_gusts":30.2,"aqi":92,"pm10":20.9,"pm2_5":13.2,"mosquito_risk":0,"arthritis_risk":5,"migraine_risk":7,"frizz_risk":0,"updated_at":"2026-03-13T18:36:10.798032+05:30"},{"city":"Kota","state":"Rajasthan","latitude":25.2138,"longitude":75.8648,"temp":32.9,"humidity":23,"rain":0.0,"pressure":977.0,"uv_index":7.1,"wind_gusts":17.6,"aqi":98,"pm10":31.4,"pm2_5":16.2,"mosquito_risk":0,"arthritis_risk":5,"migraine_risk":7,"frizz_risk":0,"updated_at":"2026-03-13T18:36:10.798040+05:30"},{"city":"Bikaner","state":"Rajasthan","latitude":28.0229,"longitude":73.3119,"temp":31.8,"humidity":19,"rain":0.0,"pressure":982.0,"uv_index":6.75,"wind_gusts":24.8,"aqi":93,"pm10":27.0,"pm2_5":15.5,"mosquito_risk":0,"arthritis_risk":5,"migraine_risk":7,"frizz_risk":0,"updated_at":"2026-03-13T18:36:10.798046+05:30"},{"city":"Ajmer","state":"Rajasthan","latitude":26.4499,"longitude":74.6399,"temp":31.0,"humidity":28,"rain":0.0,"pressure":954.0,"uv_index":7.05,"wind_gusts":22.0,"aqi":94,"pm10":129.5,"pm2_5":33.2,"mosquito_risk":0,"arthritis_risk":5,"migraine_risk":7,"frizz_risk":0,"updated_at":"2026-03-13T18:36:10.798053+05:30"},{"city":"Gwalior","state":"Madhya Pradesh","latitude":26.2183,"longitude":78.1828,"temp":28.6,"humidity":56,"rain":0.0,"pressure":982.7,"uv_index":6.8,"wind_gusts":21.2,"aqi":118,"pm10":102.2,"pm2_5":39.8,"mosquito_risk":4,"arthritis_risk":5,"migraine_risk":7,"frizz_risk":1,"updated_at":"2026-03-13T18:36:10.798060+05:30"},{"city":"Indore","state":"Madhya Pradesh","latitude":22.7196,"longitude":75.8577,"temp":30.7,"humidity":18,"rain":0.0,"pressure":947.1,"uv_index":7.75,"wind_gusts":32.4,"aqi":112,"pm10":19.9,"pm2_5":16.8,"mosquito_risk":0,"arthritis_risk":5,"migraine_risk":7,"frizz_risk":0,"updated_at":"2026-03-13T18:36:10.798066+05:30"},{"city":"Bhopal","state":"Madhya Pradesh","latitude":23.2599,"longitude":77.4126,"temp":29.9,"humidity":20,"rain":0.0,"pressure":953.0,"uv_index":7.55,"wind_gusts":31.0,"aqi":120,"pm10":14.2,"pm2_5":13.8,"mosquito_risk":4,"arthritis_risk":5,"migraine_risk":7,"frizz_risk":0,"updated_at":"2026-03-13T18:36:10.798073+05:30"},{"city":"Jabalpur","state":"Madhya Pradesh","latitude":23.1815,"longitude":79.9864,"temp":32.1,"humidity":34,"rain":0.0,"pressure":960.6,"uv_index":7.75,"wind_gusts":20.2,"aqi":136,"pm10":22.3,"pm2_5":20.7,"mosquito_risk":0,"arthritis_risk":5,"migraine_risk":7,"frizz_risk":0,"updated_at":"2026-03-13T18:36:10.798079+05:30"},{"city":"Ujjain","state":"Madhya Pradesh","latitude":23.1765,"longitude":75.7885,"temp":29.7,"humidity":24,"rain":0.0,"pressure":952.9,"uv_index":7.65,"wind_gusts":26.3,"aqi":91,"pm10":28.5,"pm2_5":23.0,"mosquito_risk":4,"arthritis_risk":5,"migraine_risk":7,"frizz_risk":0,"updated_at":"2026-03-13T18:36:10.798087+05:30"},{"city":"Visakhapatnam","state":"Andhra Pradesh","latitude":17.6868,"longitude":83.2185,"temp":27.0,"humidity":78,"rain":0.0,"pressure":1004.1,"uv_index":8.65,"wind_gusts":40.3,"aqi":85,"pm10":21.0,"pm2_5":17.5,"mosquito_risk":7,"arthritis_risk":5,"migraine_risk":4,"frizz_risk":1,"updated_at":"2026-03-13T18:36:10.798094+05:30"},{"city":"Vijayawada","state":"Andhra Pradesh","latitude":16.5062,"longitude":80.648,"temp":30.3,"humidity":57,"rain":0.0,"pressure":1002.5,"uv_index":8.75,"wind_gusts":31.3,"aqi":91,"pm10":21.7,"pm2_5":18.7,"mosquito_risk":0,"arthritis_risk":5,"migraine_risk":4,"frizz_risk":1,"updated_at":"2026-03-13T18:36:10.798101+05:30"},{"city":"Guntur","state":"Andhra Pradesh","latitude":16.3067,"longitude":80.4365,"temp":28.7,"humidity":65,"rain":0.0,"pressure":1003.9,"uv_index":8.75,"wind_gusts":33.8,"aqi":86,"pm10":24.0,"pm2_5":20.4,"mosquito_risk":7,"arthritis_risk":5,"migraine_risk":4,"frizz_risk":1,"updated_at":"2026-03-13T18:36:10.798108+05:30"},{"city":"Nellore","state":"Andhra Pradesh","latitude":14.4426,"longitude":79.9865,"temp":28.6,"humidity":68,"rain":0.0,"pressure":1006.0,"uv_index":8.9,"wind_gusts":30.2,"aqi":73,"pm10":18.7,"pm2_5":14.9,"mosquito_risk":7,"arthritis_risk":5,"migraine_risk":4,"frizz_risk":1,"updated_at":"2026-03-13T18:36:10.798115+05:30"},{"city":"Kurnool","state":"Andhra Pradesh","latitude":15.8281,"longitude":78.0373,"temp":35.2,"humidity":22,"rain":0.0,"pressure":975.2,"uv_index":8.7,"wind_gusts":23.8,"aqi":163,"pm10":56.2,"pm2_5":42.0,"mosquito_risk":0,"arthritis_risk":5,"migraine_risk":10,"frizz_risk":0,"updated_at":"2026-03-13T18:36:10.798122+05:30"},{"city":"Kakinada","state":"Andhra Pradesh","latitude":16.9891,"longitude":82.2475,"temp":27.9,"humidity":71,"rain":0.0,"pressure":1007.9,"uv_index":8.65,"wind_gusts":34.6,"aqi":75,"pm10":15.3,"pm2_5":11.5,"mosquito_risk":7,"arthritis_risk":5,"migraine_risk":4,"frizz_risk":1,"updated_at":"2026-03-13T18:36:10.798129+05:30"},{"city":"Tirupati","state":"Andhra Pradesh","latitude":13.6288,"longitude":79.4192,"temp":30.7,"humidity":45,"rain":0.0,"pressure":991.5,"uv_index":9.05,"wind_gusts":33.5,"aqi":95,"pm10":24.9,"pm2_5":21.3,"mosquito_risk":0,"arthritis_risk":5,"migraine_risk":7,"frizz_risk":1,"updated_at":"2026-03-13T18:36:10.798135+05:30"},{"city":"Warangal","state":"Telangana","latitude":17.9689,"longitude":79.5941,"temp":32.7,"humidity":43,"rain":0.0,"pressure":977.5,"uv_index":8.5,"wind_gusts":28.8,"aqi":144,"pm10":54.7,"pm2_5":41.6,"mosquito_risk":0,"arthritis_risk":5,"migraine_risk":7,"frizz_risk":1,"updated_at":"2026-03-13T18:36:10.798140+05:30"},{"city":"Nizamabad","state":"Telangana","latitude":18.6725,"longitude":78.0941,"temp":32.4,"humidity":34,"rain":0.0,"pressure":963.4,"uv_index":8.4,"wind_gusts":19.1,"aqi":172,"pm10":49.1,"pm2_5":38.1,"mosquito_risk":0,"arthritis_risk":5,"migraine_risk":7,"frizz_risk":0,"updated_at":"2026-03-13T18:36:10.798145+05:30"},{"city":"Mysore","state":"Karnataka","latitude":12.2958,"longitude":76.6396,"temp":29.9,"humidity":32,"rain":0.0,"pressure":927.5,"uv_index":9.3,"wind_gusts":29.9,"aqi":129,"pm10":39.0,"pm2_5":33.2,"mosquito_risk":4,"arthritis_risk":5,"migraine_risk":7,"frizz_risk":0,"updated_at":"2026-03-13T18:36:10.798151+05:30"},{"city":"Mangalore","state":"Karnataka","latitude":12.9141,"longitude":74.856,"temp":28.8,"humidity":81,"rain":0.0,"pressure":1005.5,"uv_index":8.95,"wind_gusts":23.0,"aqi":116,"pm10":41.7,"pm2_5":35.7,"mosquito_risk":7,"arthritis_risk":5,"migraine_risk":4,"frizz_risk":1,"updated_at":"2026-03-13T18:36:10.798156+05:30"},{"city":"Hubli-Dharwad","state":"Karnataka","latitude":15.3647,"longitude":75.124,"temp":33.0,"humidity":24,"rain":0.0,"pressure":939.2,"uv_index":8.9,"wind_gusts":33.5,"aqi":159,"pm10":31.5,"pm2_5":27.7,"mosquito_risk":0,"arthritis_risk":5,"migraine_risk":7,"frizz_risk":0,"updated_at":"2026-03-13T18:36:10.798162+05:30"},{"city":"Belgaum","state":"Karnataka","latitude":15.8497,"longitude":74.4977,"temp":27.6,"humidity":65,"rain":0.0,"pressure":924.7,"uv_index":8.95,"wind_gusts":41.0,"aqi":165,"pm10":35.5,"pm2_5":31.7,"mosquito_risk":7,"arthritis_risk":5,"migraine_risk":7,"frizz_risk":1,"updated_at":"2026-03-13T18:36:14.118807+05:30"},{"city":"Coimbatore","state":"Tamil Nadu","latitude":11.0168,"longitude":76.9558,"temp":30.9,"humidity":29,"rain":0.0,"pressure":960.6,"uv_index":9.3,"wind_gusts":42.8,"aqi":108,"pm10":31.4,"pm2_5":26.0,"mosquito_risk":0,"arthritis_risk":5,"migraine_risk":7,"frizz_risk":0,"updated_at":"2026-03-13T18:36:14.118838+05:30"},{"city":"Madurai","state":"Tamil Nadu","latitude":9.9252,"longitude":78.1198,"temp":32.7,"humidity":38,"rain":0.0,"pressure":991.5,"uv_index":9.25,"wind_gusts":26.6,"aqi":81,"pm10":15.6,"pm2_5":13.0,"mosquito_risk":0,"arthritis_risk":5,"migraine_risk":7,"frizz_risk":1,"updated_at":"2026-03-13T18:36:14.118848+05:30"},{"city":"Trichy","state":"Tamil Nadu","latitude":10.7905,"longitude":78.7047,"temp":31.4,"humidity":46,"rain":0.0,"pressure":998.8,"uv_index":9.15,"wind_gusts":23.0,"aqi":84,"pm10":20.0,"pm2_5":17.6,"mosquito_risk":0,"arthritis_risk":5,"migraine_risk":7,"frizz_risk":1,"updated_at":"2026-03-13T18:36:14.118856+05:30"},{"city":"Salem","state":"Tamil Nadu","latitude":11.6643,"longitude":78.146,"temp":31.1,"humidity":40,"rain":0.0,"pressure":976.4,"uv_index":9.2,"wind_gusts":24.8,"aqi":122,"pm10":39.3,"pm2_5":32.7,"mosquito_risk":0,"arthritis_risk":5,"migraine_risk":7,"frizz_risk":0,"updated_at":"2026-03-13T18:36:14.118863+05:30"},{"city":"Tirunelveli","state":"Tamil Nadu","latitude":8.7139,"longitude":77.7567,"temp":31.3,"humidity":41,"rain":0.0,"pressure":1001.9,"uv_index":9.2,"wind_gusts":31.3,"aqi":63,"pm10":13.0,"pm2_5":10.6,"mosquito_risk":0,"arthritis_risk":5,"migraine_risk":4,"frizz_risk":1,"updated_at":"2026-03-13T18:36:14.118871+05:30"},{"city":"Vellore","state":"Tamil Nadu","latitude":12.9165,"longitude":79.1325,"temp":30.0,"humidity":46,"rain":0.0,"pressure":984.5,"uv_index":9.1,"wind_gusts":33.1,"aqi":106,"pm10":23.6,"pm2_5":21.2,"mosquito_risk":4,"arthritis_risk":5,"migraine_risk":7,"frizz_risk":1,"updated_at":"2026-03-13T18:36:14.118878+05:30"},{"city":"Erode","state":"Tamil Nadu","latitude":11.341,"longitude":77.7172,"temp":33.2,"humidity":38,"rain":0.0,"pressure":987.6,"uv_index":9.15,"wind_gusts":23.8,"aqi":85,"pm10":30.7,"pm2_5":25.7,"mosquito_risk":0,"arthritis_risk":5,"migraine_risk":7,"frizz_risk":1,"updated_at":"2026-03-13T18:36:14.118886+05:30"},{"city":"Kochi","state":"Kerala","latitude":9.9312,"longitude":76.2673,"temp":28.8,"humidity":78,"rain":0.0,"pressure":1007.3,"uv_index":9.1,"wind_gusts":33.8,"aqi":145,"pm10":21.9,"pm2_5":20.4,"mosquito_risk":7,"arthritis_risk":5,"migraine_risk":4,"frizz_risk":1,"updated_at":"2026-03-13T18:36:14.118893+05:30"},{"city":"Thiruvananthapuram","state":"Kerala","latitude":8.5241,"longitude":76.9366,"temp":28.2,"humidity":80,"rain":0.0,"pressure":1006.8,"uv_index":9.1,"wind_gusts":24.1,"aqi":95,"pm10":20.7,"pm2_5":16.6,"mosquito_risk":7,"arthritis_risk":5,"migraine_risk":4,"frizz_risk":1,"updated_at":"2026-03-13T18:36:14.118900+05:30"},{"city":"Kozhikode","state":"Kerala","latitude":11.2588,"longitude":75.7804,"temp":28.9,"humidity":81,"rain":0.0,"pressure":1006.4,"uv_index":9.0,"wind_gusts":29.9,"aqi":94,"pm10":26.4,"pm2_5":23.1,"mosquito_risk":7,"arthritis_risk":5,"migraine_risk":4,"frizz_risk":1,"updated_at":"2026-03-13T18:36:14.118907+05:30"},{"city":"Thrissur","state":"Kerala","latitude":10.5276,"longitude":76.2144,"temp":29.0,"humidity":76,"rain":0.0,"pressure":1005.7,"uv_index":9.05,"wind_gusts":37.1,"aqi":122,"pm10":26.1,"pm2_5":23.9,"mosquito_risk":7,"arthritis_risk":5,"migraine_risk":4,"frizz_risk":1,"updated_at":"2026-03-13T18:36:14.118914+05:30"},{"city":"Kannur","state":"Kerala","latitude":11.8745,"longitude":75.3704,"temp":29.1,"humidity":75,"rain":0.0,"pressure":1006.1,"uv_index":9.0,"wind_gusts":28.1,"aqi":106,"pm10":36.4,"pm2_5":31.7,"mosquito_risk":7,"arthritis_risk":5,"migraine_risk":4,"frizz_risk":1,"updated_at":"2026-03-13T18:36:14.118921+05:30"},{"city":"Patna","state":"Bihar","latitude":25.5941,"longitude":85.1376,"temp":29.8,"humidity":53,"rain":0.0,"pressure":998.7,"uv_index":7.5,"wind_gusts":23.0,"aqi":179,"pm10":165.8,"pm2_5":59.4,"mosquito_risk":4,"arthritis_risk":5,"migraine_risk":7,"frizz_risk":1,"updated_at":"2026-03-13T18:36:14.118927+05:30"},{"city":"Gaya","state":"Bihar","latitude":24.7914,"longitude":85.0002,"temp":29.3,"humidity":51,"rain":0.0,"pressure":992.5,"uv_index":7.6,"wind_gusts":19.4,"aqi":144,"pm10":142.0,"pm2_5":46.6,"mosquito_risk":4,"arthritis_risk":5,"migraine_risk":7,"frizz_risk":1,"updated_at":"2026-03-13T18:36:14.118934+05:30"},{"city":"Muzaffarpur","state":"Bihar","latitude":26.1209,"longitude":85.3647,"temp":28.3,"humidity":65,"rain":0.0,"pressure":998.7,"uv_index":7.45,"wind_gusts":24.8,"aqi":182,"pm10":173.7,"pm2_5":71.0,"mosquito_risk":7,"arthritis_risk":5,"migraine_risk":7,"frizz_risk":1,"updated_at":"2026-03-13T18:36:14.118940+05:30"},{"city":"Bhagalpur","state":"Bihar","latitude":25.2425,"longitude":87.0117,"temp":28.2,"humidity":62,"rain":0.0,"pressure":999.7,"uv_index":7.5,"wind_gusts":26.6,"aqi":168,"pm10":180.7,"pm2_5":77.8,"mosquito_risk":7,"arthritis_risk":5,"migraine_risk":7,"frizz_risk":1,"updated_at":"2026-03-13T18:36:14.118947+05:30"},{"city":"Ranchi","state":"Jharkhand","latitude":23.3441,"longitude":85.3096,"temp":27.7,"humidity":23,"rain":0.0,"pressure":937.4,"uv_index":8.2,"wind_gusts":26.3,"aqi":113,"pm10":23.7,"pm2_5":15.3,"mosquito_risk":4,"arthritis_risk":5,"migraine_risk":7,"frizz_risk":0,"updated_at":"2026-03-13T18:36:14.118954+05:30"},{"city":"Jamshedpur","state":"Jharkhand","latitude":22.8046,"longitude":86.2029,"temp":31.7,"humidity":38,"rain":0.0,"pressure":989.4,"uv_index":8.05,"wind_gusts":16.6,"aqi":155,"pm10":47.1,"pm2_5":25.7,"mosquito_risk":0,"arthritis_risk":5,"migraine_risk":7,"frizz_risk":0,"updated_at":"2026-03-13T18:36:14.118960+05:30"},{"city":"Dhanbad","state":"Jharkhand","latitude":23.7957,"longitude":86.4304,"temp":32.2,"humidity":23,"rain":0.0,"pressure":978.6,"uv_index":7.95,"wind_gusts":26.3,"aqi":167,"pm10":66.4,"pm2_5":46.1,"mosquito_risk":0,"arthritis_risk":5,"migraine_risk":7,"frizz_risk":0,"updated_at":"2026-03-13T18:36:14.118967+05:30"},{"city":"Bokaro","state":"Jharkhand","latitude":23.6693,"longitude":86.1511,"temp":31.0,"humidity":26,"rain":0.0,"pressure":982.7,"uv_index":7.95,"wind_gusts":26.6,"aqi":150,"pm10":60.5,"pm2_5":40.3,"mosquito_risk":0,"arthritis_risk":5,"migraine_risk":7,"frizz_risk":0,"updated_at":"2026-03-13T18:36:14.118973+05:30"},{"city":"Bhubaneswar","state":"Odisha","latitude":20.2961,"longitude":85.8245,"temp":27.2,"humidity":76,"rain":0.0,"pressure":1002.6,"uv_index":8.4,"wind_gusts":33.5,"aqi":105,"pm10":29.9,"pm2_5":27.4,"mosquito_risk":7,"arthritis_risk":5,"migraine_risk":4,"frizz_risk":1,"updated_at":"2026-03-13T18:36:14.118980+05:30"},{"city":"Cuttack","state":"Odisha","latitude":20.4625,"longitude":85.8828,"temp":29.2,"humidity":66,"rain":0.0,"pressure":1004.0,"uv_index":8.4,"wind_gusts":28.1,"aqi":105,"pm10":29.9,"pm2_5":27.4,"mosquito_risk":7,"arthritis_risk":5,"migraine_risk":4,"frizz_risk":1,"updated_at":"2026-03-13T18:36:14.118987+05:30"},{"city":"Rourkela","state":"Odisha","latitude":22.2604,"longitude":84.8536,"temp":32.3,"humidity":30,"rain":0.0,"pressure":983.2,"uv_index":8.0,"wind_gusts":19.4,"aqi":146,"pm10":44.5,"pm2_5":25.8,"mosquito_risk":0,"arthritis_risk":5,"migraine_risk":7,"frizz_risk":0,"updated_at":"2026-03-13T18:36:14.118993+05:30"},{"city":"Raipur","state":"Chhattisgarh","latitude":21.2514,"longitude":81.6296,"temp":33.1,"humidity":23,"rain":0.0,"pressure":973.0,"uv_index":8.15,"wind_gusts":18.0,"aqi":159,"pm10":50.2,"pm2_5":42.5,"mosquito_risk":0,"arthritis_risk":5,"migraine_risk":7,"frizz_risk":0,"updated_at":"2026-03-13T18:36:14.118998+05:30"},{"city":"Bhilai","state":"Chhattisgarh","latitude":21.1938,"longitude":81.3509,"temp":32.8,"humidity":27,"rain":0.0,"pressure":973.2,"uv_index":8.15,"wind_gusts":14.8,"aqi":143,"pm10":42.1,"pm2_5":35.2,"mosquito_risk":0,"arthritis_risk":5,"migraine_risk":7,"frizz_risk":0,"updated_at":"2026-03-13T18:36:14.119003+05:30"},{"city":"Guwahati","state":"Assam","latitude":26.1158,"longitude":91.7086,"temp":22.7,"humidity":90,"rain":0.0,"pressure":1001.6,"uv_index":6.6,"wind_gusts":29.9,"aqi":154,"pm10":31.2,"pm2_5":26.8,"mosquito_risk":3,"arthritis_risk":5,"migraine_risk":4,"frizz_risk":1,"updated_at":"2026-03-13T18:36:14.119008+05:30"},{"city":"Agartala","state":"Tripura","latitude":23.8315,"longitude":91.2868,"temp":23.2,"humidity":85,"rain":0.0,"pressure":1006.4,"uv_index":7.6,"wind_gusts":32.8,"aqi":127,"pm10":79.9,"pm2_5":66.4,"mosquito_risk":3,"arthritis_risk":5,"migraine_risk":4,"frizz_risk":1,"updated_at":"2026-03-13T18:36:14.119014+05:30"},{"city":"Shillong","state":"Meghalaya","latitude":25.5788,"longitude":91.8933,"temp":13.4,"humidity":90,"rain":0.0,"pressure":854.6,"uv_index":7.0,"wind_gusts":56.9,"aqi":127,"pm10":28.8,"pm2_5":22.8,"mosquito_risk":3,"arthritis_risk":10,"migraine_risk":7,"frizz_risk":0,"updated_at":"2026-03-13T18:36:14.119019+05:30"},{"city":"Imphal","state":"Manipur","latitude":24.817,"longitude":93.9368,"temp":17.2,"humidity":91,"rain":0.0,"pressure":923.2,"uv_index":7.3,"wind_gusts":61.2,"aqi":158,"pm10":67.5,"pm2_5":61.7,"mosquito_risk":3,"arthritis_risk":10,"migraine_risk":7,"frizz_risk":0,"updated_at":"2026-03-13T18:36:14.119025+05:30"},{"city":"Aizawl","state":"Mizoram","latitude":23.7271,"longitude":92.7176,"temp":18.3,"humidity":84,"rain":0.0,"pressure":893.1,"uv_index":7.15,"wind_gusts":76.0,"aqi":147,"pm10":49.7,"pm2_5":46.4,"mosquito_risk":3,"arthritis_risk":10,"migraine_risk":7,"frizz_risk":0,"updated_at":"2026-03-13T18:36:14.119031+05:30"},{"city":"Kohima","state":"Nagaland","latitude":25.6701,"longitude":94.1077,"temp":14.9,"humidity":89,"rain":0.0,"pressure":853.5,"uv_index":6.25,"wind_gusts":82.8,"aqi":139,"pm10":54.1,"pm2_5":49.2,"mosquito_risk":3,"arthritis_risk":10,"migraine_risk":7,"frizz_risk":0,"updated_at":"2026-03-13T18:36:14.119036+05:30"},{"city":"Gangtok","state":"Sikkim","latitude":27.3314,"longitude":88.6138,"temp":14.6,"humidity":93,"rain":0.0,"pressure":835.5,"uv_index":5.15,"wind_gusts":15.8,"aqi":101,"pm10":31.3,"pm2_5":29.9,"mosquito_risk":3,"arthritis_risk":10,"migraine_risk":3,"frizz_risk":0,"updated_at":"2026-03-13T18:36:14.119041+05:30"},{"city":"Siliguri","state":"West Bengal","latitude":26.7271,"longitude":88.3953,"temp":20.2,"humidity":88,"rain":0.0,"pressure":993.3,"uv_index":7.3,"wind_gusts":29.5,"aqi":153,"pm10":43.2,"pm2_5":38.2,"mosquito_risk":3,"arthritis_risk":5,"migraine_risk":7,"frizz_risk":1,"updated_at":"2026-03-13T18:36:17.452838+05:30"},{"city":"Durgapur","state":"West Bengal","latitude":23.5204,"longitude":87.3119,"temp":32.4,"humidity":31,"rain":0.0,"pressure":993.4,"uv_index":7.95,"wind_gusts":26.3,"aqi":164,"pm10":65.9,"pm2_5":44.0,"mosquito_risk":0,"arthritis_risk":5,"migraine_risk":7,"frizz_risk":0,"updated_at":"2026-03-13T18:36:17.452867+05:30"},{"city":"Asansol","state":"West Bengal","latitude":23.6739,"longitude":86.9524,"temp":33.0,"humidity":34,"rain":0.0,"pressure":991.8,"uv_index":7.95,"wind_gusts":23.4,"aqi":166,"pm10":57.6,"pm2_5":35.6,"mosquito_risk":0,"arthritis_risk":5,"migraine_risk":7,"frizz_risk":0,"updated_at":"2026-03-13T18:36:17.452876+05:30"},{"city":"Pondicherry","state":"Puducherry","latitude":11.9139,"longitude":79.8145,"temp":27.9,"humidity":70,"rain":0.0,"pressure":1008.7,"uv_index":9.0,"wind_gusts":27.7,"aqi":60,"pm10":18.5,"pm2_5":13.5,"mosquito_risk":7,"arthritis_risk":0,"migraine_risk":4,"frizz_risk":1,"updated_at":"2026-03-13T18:36:17.452884+05:30"},{"city":"Port Blair","state":"Andaman and Nicobar Islands","latitude":11.6234,"longitude":92.7265,"temp":28.3,"humidity":76,"rain":0.0,"pressure":1007.5,"uv_index":8.95,"wind_gusts":22.3,"aqi":62,"pm10":9.6,"pm2_5":7.4,"mosquito_risk":7,"arthritis_risk":5,"migraine_risk":4,"frizz_risk":1,"updated_at":"2026-03-13T18:36:17.452892+05:30"},{"city":"Haridwar","state":"Uttarakhand","latitude":29.9457,"longitude":78.1642,"temp":26.0,"humidity":58,"rain":0.0,"pressure":974.0,"uv_index":5.6,"wind_gusts":29.5,"aqi":88,"pm10":46.1,"pm2_5":29.9,"mosquito_risk":4,"arthritis_risk":5,"migraine_risk":3,"frizz_risk":1,"updated_at":"2026-03-13T18:36:17.452900+05:30"},{"city":"Rishikesh","state":"Uttarakhand","latitude":30.0869,"longitude":78.2676,"temp":24.9,"humidity":60,"rain":0.0,"pressure":966.7,"uv_index":5.8,"wind_gusts":30.2,"aqi":79,"pm10":28.2,"pm2_5":18.2,"mosquito_risk":0,"arthritis_risk":5,"migraine_risk":3,"frizz_risk":1,"updated_at":"2026-03-13T18:36:17.452907+05:30"},{"city":"Nainital","state":"Uttarakhand","latitude":29.3919,"longitude":79.4542,"temp":19.0,"humidity":46,"rain":0.0,"pressure":805.6,"uv_index":6.55,"wind_gusts":44.3,"aqi":102,"pm10":31.7,"pm2_5":24.1,"mosquito_risk":0,"arthritis_risk":5,"migraine_risk":7,"frizz_risk":0,"updated_at":"2026-03-13T18:36:17.452914+05:30"},{"city":"Mussoorie","state":"Uttarakhand","latitude":30.4599,"longitude":78.0664,"temp":17.5,"humidity":53,"rain":0.0,"pressure":802.4,"uv_index":5.75,"wind_gusts":30.6,"aqi":80,"pm10":41.4,"pm2_5":27.9,"mosquito_risk":0,"arthritis_risk":5,"migraine_risk":3,"frizz_risk":0,"updated_at":"2026-03-13T18:36:17.452922+05:30"},{"city":"Dharamshala","state":"Himachal Pradesh","latitude":32.219,"longitude":76.3234,"temp":20.5,"humidity":54,"rain":0.0,"pressure":869.1,"uv_index":6.0,"wind_gusts":24.8,"aqi":82,"pm10":15.9,"pm2_5":9.5,"mosquito_risk":0,"arthritis_risk":5,"migraine_risk":3,"frizz_risk":0,"updated_at":"2026-03-13T18:36:17.452929+05:30"},{"city":"Dalhousie","state":"Himachal Pradesh","latitude":32.5387,"longitude":75.971,"temp":18.8,"humidity":44,"rain":0.0,"pressure":804.0,"uv_index":6.4,"wind_gusts":31.0,"aqi":78,"pm10":23.9,"pm2_5":16.8,"mosquito_risk":0,"arthritis_risk":5,"migraine_risk":7,"frizz_risk":0,"updated_at":"2026-03-13T18:36:17.452936+05:30"},{"city":"Patiala","state":"Punjab","latitude":30.3398,"longitude":76.3869,"temp":23.7,"humidity":59,"rain":0.0,"pressure":978.7,"uv_index":5.2,"wind_gusts":27.0,"aqi":348,"pm10":620.3,"pm2_5":78.2,"mosquito_risk":0,"arthritis_risk":5,"migraine_risk":3,"frizz_risk":0,"updated_at":"2026-03-13T18:36:17.452943+05:30"},{"city":"Bhatinda","state":"Punjab","latitude":30.211,"longitude":74.9455,"temp":25.1,"humidity":54,"rain":0.0,"pressure":984.8,"uv_index":6.25,"wind_gusts":27.7,"aqi":120,"pm10":35.2,"pm2_5":25.8,"mosquito_risk":4,"arthritis_risk":5,"migraine_risk":7,"frizz_risk":0,"updated_at":"2026-03-13T18:36:17.452950+05:30"},{"city":"Rohtak","state":"Haryana","latitude":28.8955,"longitude":76.6066,"temp":24.7,"humidity":52,"rain":0.0,"pressure":982.3,"uv_index":5.3,"wind_gusts":26.6,"aqi":520,"pm10":895.9,"pm2_5":116.6,"mosquito_risk":0,"arthritis_risk":5,"migraine_risk":3,"frizz_risk":0,"updated_at":"2026-03-13T18:36:17.452957+05:30"},{"city":"Panipat","state":"Haryana","latitude":29.3909,"longitude":76.9635,"temp":24.2,"humidity":58,"rain":0.0,"pressure":980.6,"uv_index":4.9,"wind_gusts":24.8,"aqi":962,"pm10":1471.5,"pm2_5":166.7,"mosquito_risk":0,"arthritis_risk":5,"migraine_risk":3,"frizz_risk":0,"updated_at":"2026-03-13T18:36:17.452964+05:30"},{"city":"Mathura","state":"Uttar Pradesh","latitude":27.4924,"longitude":77.6737,"temp":28.0,"humidity":35,"rain":0.0,"pressure":986.6,"uv_index":5.65,"wind_gusts":25.6,"aqi":666,"pm10":493.6,"pm2_5":82.7,"mosquito_risk":4,"arthritis_risk":5,"migraine_risk":3,"frizz_risk":0,"updated_at":"2026-03-13T18:36:17.452971+05:30"},{"city":"Vrindavan","state":"Uttar Pradesh","latitude":27.5823,"longitude":77.7027,"temp":27.3,"humidity":37,"rain":0.0,"pressure":987.1,"uv_index":5.75,"wind_gusts":28.8,"aqi":666,"pm10":493.6,"pm2_5":82.7,"mosquito_risk":4,"arthritis_risk":5,"migraine_risk":3,"frizz_risk":0,"updated_at":"2026-03-13T18:36:17.452978+05:30"},{"city":"Ayodhya","state":"Uttar Pradesh","latitude":26.7922,"longitude":82.1998,"temp":28.3,"humidity":50,"rain":0.0,"pressure":993.5,"uv_index":6.35,"wind_gusts":30.2,"aqi":156,"pm10":61.7,"pm2_5":37.7,"mosquito_risk":4,"arthritis_risk":5,"migraine_risk":7,"frizz_risk":1,"updated_at":"2026-03-13T18:36:17.452984+05:30"},{"city":"Ratlam","state":"Madhya Pradesh","latitude":23.3315,"longitude":75.0367,"temp":31.6,"humidity":21,"rain":0.0,"pressure":953.9,"uv_index":7.6,"wind_gusts":30.6,"aqi":103,"pm10":22.4,"pm2_5":17.8,"mosquito_risk":0,"arthritis_risk":5,"migraine_risk":7,"frizz_risk":0,"updated_at":"2026-03-13T18:36:17.452991+05:30"},{"city":"Sagar","state":"Madhya Pradesh","latitude":23.8388,"longitude":78.7378,"temp":30.7,"humidity":28,"rain":0.0,"pressure":949.3,"uv_index":7.6,"wind_gusts":29.2,"aqi":118,"pm10":12.3,"pm2_5":11.1,"mosquito_risk":0,"arthritis_risk":5,"migraine_risk":7,"frizz_risk":0,"updated_at":"2026-03-13T18:36:17.452998+05:30"},{"city":"Satna","state":"Madhya Pradesh","latitude":24.6005,"longitude":80.8322,"temp":31.1,"humidity":16,"rain":0.0,"pressure":970.1,"uv_index":7.2,"wind_gusts":29.9,"aqi":102,"pm10":21.2,"pm2_5":11.2,"mosquito_risk":0,"arthritis_risk":5,"migraine_risk":7,"frizz_risk":0,"updated_at":"2026-03-13T18:36:17.453004+05:30"},{"city":"Akola","state":"Maharashtra","latitude":20.7002,"longitude":77.0082,"temp":34.5,"humidity":20,"rain":0.0,"pressure":973.2,"uv_index":8.05,"wind_gusts":24.8,"aqi":172,"pm10":29.1,"pm2_5":25.4,"mosquito_risk":0,"arthritis_risk":5,"migraine_risk":7,"frizz_risk":0,"updated_at":"2026-03-13T18:36:17.453012+05:30"},{"city":"Amravati","state":"Maharashtra","latitude":20.9374,"longitude":77.7796,"temp":33.4,"humidity":22,"rain":0.0,"pressure":965.4,"uv_index":8.0,"wind_gusts":15.1,"aqi":169,"pm10":29.6,"pm2_5":25.0,"mosquito_risk":0,"arthritis_risk":5,"migraine_risk":7,"frizz_risk":0,"updated_at":"2026-03-13T18:36:17.453019+05:30"},{"city":"Latur","state":"Maharashtra","latitude":18.4088,"longitude":76.5604,"temp":31.7,"humidity":33,"rain":0.0,"pressure":938.9,"uv_index":8.5,"wind_gusts":21.2,"aqi":154,"pm10":38.2,"pm2_5":32.6,"mosquito_risk":0,"arthritis_risk":5,"migraine_risk":7,"frizz_risk":0,"updated_at":"2026-03-13T18:36:17.453026+05:30"},{"city":"Nanded","state":"Maharashtra","latitude":19.1383,"longitude":77.3091,"temp":35.2,"humidity":29,"rain":0.0,"pressure":966.9,"uv_index":8.25,"wind_gusts":21.6,"aqi":175,"pm10":40.7,"pm2_5":34.1,"mosquito_risk":0,"arthritis_risk":5,"migraine_risk":10,"frizz_risk":0,"updated_at":"2026-03-13T18:36:17.453033+05:30"},{"city":"Gulbarga","state":"Karnataka","latitude":17.3297,"longitude":76.8343,"temp":34.6,"humidity":24,"rain":0.0,"pressure":957.0,"uv_index":8.6,"wind_gusts":32.0,"aqi":172,"pm10":34.3,"pm2_5":28.5,"mosquito_risk":0,"arthritis_risk":5,"migraine_risk":7,"frizz_risk":0,"updated_at":"2026-03-13T18:36:17.453039+05:30"},{"city":"Bidar","state":"Karnataka","latitude":17.9104,"longitude":77.5199,"temp":32.2,"humidity":29,"rain":0.0,"pressure":934.5,"uv_index":8.55,"wind_gusts":26.6,"aqi":167,"pm10":35.3,"pm2_5":27.5,"mosquito_risk":0,"arthritis_risk":5,"migraine_risk":7,"frizz_risk":0,"updated_at":"2026-03-13T18:36:17.453046+05:30"},{"city":"Hospet","state":"Karnataka","latitude":15.2689,"longitude":76.3909,"temp":34.2,"humidity":24,"rain":0.0,"pressure":954.4,"uv_index":8.9,"wind_gusts":24.1,"aqi":167,"pm10":35.4,"pm2_5":30.4,"mosquito_risk":0,"arthritis_risk":5,"migraine_risk":7,"frizz_risk":0,"updated_at":"2026-03-13T18:36:17.453052+05:30"},{"city":"Tirupur","state":"Tamil Nadu","latitude":11.1085,"longitude":77.3411,"temp":32.7,"humidity":29,"rain":0.0,"pressure":974.0,"uv_index":9.3,"wind_gusts":30.6,"aqi":106,"pm10":36.1,"pm2_5":30.5,"mosquito_risk":0,"arthritis_risk":5,"migraine_risk":7,"frizz_risk":0,"updated_at":"2026-03-13T18:36:17.453058+05:30"},{"city":"Alappuzha","state":"Kerala","latitude":9.4981,"longitude":76.3388,"temp":28.5,"humidity":79,"rain":0.0,"pressure":1007.6,"uv_index":9.1,"wind_gusts":28.1,"aqi":151,"pm10":18.1,"pm2_5":16.2,"mosquito_risk":7,"arthritis_risk":5,"migraine_risk":4,"frizz_risk":1,"updated_at":"2026-03-13T18:36:17.453065+05:30"},{"city":"Munnar","state":"Kerala","latitude":10.0889,"longitude":77.0595,"temp":24.5,"humidity":65,"rain":0.0,"pressure":856.9,"uv_index":9.55,"wind_gusts":24.5,"aqi":73,"pm10":20.5,"pm2_5":18.0,"mosquito_risk":3,"arthritis_risk":5,"migraine_risk":7,"frizz_risk":1,"updated_at":"2026-03-13T18:36:17.453072+05:30"},{"city":"Silchar","state":"Assam","latitude":24.8333,"longitude":92.7789,"temp":22.9,"humidity":89,"rain":0.0,"pressure":1006.1,"uv_index":7.75,"wind_gusts":42.8,"aqi":164,"pm10":50.3,"pm2_5":43.9,"mosquito_risk":3,"arthritis_risk":5,"migraine_risk":4,"frizz_risk":1,"updated_at":"2026-03-13T18:36:17.453078+05:30"},{"city":"Dibrugarh","state":"Assam","latitude":27.4728,"longitude":94.912,"temp":21.7,"humidity":84,"rain":0.0,"pressure":995.9,"uv_index":5.5,"wind_gusts":25.2,"aqi":148,"pm10":64.0,"pm2_5":59.6,"mosquito_risk":3,"arthritis_risk":5,"migraine_risk":3,"frizz_risk":1,"updated_at":"2026-03-13T18:36:17.453084+05:30"}]