[{"city":"Delhi","state":"Delhi","latitude":28.6139,"longitude":77.209,"temp":37.6,"humidity":30,"rain":0.0,"pressure":974.5,"uv_index":7.75,"wind_gusts":31.0,"aqi":268,"pm10":377.2,"pm2_5":76.6,"no2":10.0,"co":271.0,"o3":139.0,"so2":12.6,"mosquito_risk":0,"arthritis_risk":5,"migraine_risk":10,"frizz_risk":1,"updated_at":"2026-06-24T17:50:32.392267+05:30"},{"city":"Mumbai","state":"Maharashtra","latitude":19.076,"longitude":72.8777,"temp":28.2,"humidity":79,"rain":0.0,"pressure":1004.3,"uv_index":3.6,"wind_gusts":29.2,"aqi":48,"pm10":35.3,"pm2_5":15.1,"no2":15.6,"co":304.0,"o3":60.0,"so2":12.0,"mosquito_risk":7,"arthritis_risk":5,"migraine_risk":0,"frizz_risk":1,"updated_at":"2026-06-24T17:50:32.392311+05:30"},{"city":"Bangalore","state":"Karnataka","latitude":12.9716,"longitude":77.5946,"temp":22.9,"humidity":89,"rain":0.0,"pressure":910.2,"uv_index":7.95,"wind_gusts":49.3,"aqi":31,"pm10":9.4,"pm2_5":6.4,"no2":9.8,"co":369.0,"o3":59.0,"so2":2.7,"mosquito_risk":3,"arthritis_risk":5,"migraine_risk":7,"frizz_risk":1,"updated_at":"2026-06-24T17:50:32.392326+05:30"},{"city":"Hyderabad","state":"Telangana","latitude":17.385,"longitude":78.4867,"temp":30.6,"humidity":48,"rain":0.0,"pressure":948.4,"uv_index":6.8,"wind_gusts":45.7,"aqi":36,"pm10":11.1,"pm2_5":7.4,"no2":4.8,"co":477.0,"o3":84.0,"so2":2.4,"mosquito_risk":0,"arthritis_risk":5,"migraine_risk":7,"frizz_risk":1,"updated_at":"2026-06-24T17:50:32.392336+05:30"},{"city":"Chennai","state":"Tamil Nadu","latitude":13.0827,"longitude":80.2707,"temp":32.8,"humidity":60,"rain":0.0,"pressure":1002.4,"uv_index":8.8,"wind_gusts":40.3,"aqi":64,"pm10":25.7,"pm2_5":17.6,"no2":9.2,"co":444.0,"o3":98.0,"so2":5.1,"mosquito_risk":0,"arthritis_risk":5,"migraine_risk":4,"frizz_risk":1,"updated_at":"2026-06-24T17:50:32.392343+05:30"},{"city":"Kolkata","state":"West Bengal","latitude":22.5726,"longitude":88.3639,"temp":31.1,"humidity":78,"rain":0.0,"pressure":998.9,"uv_index":8.85,"wind_gusts":28.4,"aqi":154,"pm10":64.3,"pm2_5":56.5,"no2":11.3,"co":653.0,"o3":135.0,"so2":14.6,"mosquito_risk":3,"arthritis_risk":5,"migraine_risk":7,"frizz_risk":1,"updated_at":"2026-06-24T17:50:32.392351+05:30"},{"city":"Pune","state":"Maharashtra","latitude":18.5204,"longitude":73.8567,"temp":26.9,"humidity":66,"rain":0.0,"pressure":944.1,"uv_index":1.0,"wind_gusts":38.9,"aqi":24,"pm10":8.1,"pm2_5":6.5,"no2":15.1,"co":225.0,"o3":43.0,"so2":5.7,"mosquito_risk":7,"arthritis_risk":5,"migraine_risk":3,"frizz_risk":1,"updated_at":"2026-06-24T17:50:32.392357+05:30"},{"city":"Ahmedabad","state":"Gujarat","latitude":23.0225,"longitude":72.5714,"temp":37.8,"humidity":35,"rain":0.1,"pressure":993.6,"uv_index":8.0,"wind_gusts":46.8,"aqi":71,"pm10":63.8,"pm2_5":23.5,"no2":2.7,"co":141.0,"o3":88.0,"so2":2.2,"mosquito_risk":3,"arthritis_risk":5,"migraine_risk":10,"frizz_risk":1,"updated_at":"2026-06-24T17:50:32.392364+05:30"},{"city":"Jaipur","state":"Rajasthan","latitude":26.9124,"longitude":75.7873,"temp":34.5,"humidity":34,"rain":0.0,"pressure":952.7,"uv_index":8.2,"wind_gusts":49.3,"aqi":113,"pm10":128.1,"pm2_5":36.4,"no2":2.8,"co":179.0,"o3":95.0,"so2":3.3,"mosquito_risk":0,"arthritis_risk":5,"migraine_risk":7,"frizz_risk":1,"updated_at":"2026-06-24T17:50:32.392371+05:30"},{"city":"Lucknow","state":"Uttar Pradesh","latitude":26.8467,"longitude":80.9462,"temp":38.2,"humidity":30,"rain":0.0,"pressure":984.5,"uv_index":8.3,"wind_gusts":32.0,"aqi":157,"pm10":237.5,"pm2_5":62.4,"no2":2.8,"co":176.0,"o3":126.0,"so2":3.7,"mosquito_risk":0,"arthritis_risk":5,"migraine_risk":10,"frizz_risk":1,"updated_at":"2026-06-24T17:50:32.392382+05:30"},{"city":"Kanpur","state":"Uttar Pradesh","latitude":26.4499,"longitude":80.3319,"temp":38.5,"humidity":29,"rain":0.0,"pressure":982.9,"uv_index":8.3,"wind_gusts":31.7,"aqi":172,"pm10":199.3,"pm2_5":49.2,"no2":2.9,"co":158.0,"o3":121.0,"so2":3.8,"mosquito_risk":0,"arthritis_risk":5,"migraine_risk":10,"frizz_risk":1,"updated_at":"2026-06-24T17:50:32.392389+05:30"},{"city":"Chandigarh","state":"Chandigarh","latitude":30.7333,"longitude":76.7794,"temp":33.4,"humidity":48,"rain":0.0,"pressure":961.2,"uv_index":7.8,"wind_gusts":28.1,"aqi":190,"pm10":137.8,"pm2_5":49.2,"no2":4.6,"co":376.0,"o3":198.0,"so2":11.9,"mosquito_risk":0,"arthritis_risk":5,"migraine_risk":7,"frizz_risk":1,"updated_at":"2026-06-24T17:50:32.392396+05:30"},{"city":"Srinagar","state":"Jammu and Kashmir","latitude":34.0837,"longitude":74.7973,"temp":28.0,"humidity":41,"rain":0.0,"pressure":837.7,"uv_index":9.1,"wind_gusts":24.1,"aqi":117,"pm10":12.3,"pm2_5":9.8,"no2":3.0,"co":369.0,"o3":137.0,"so2":2.2,"mosquito_risk":4,"arthritis_risk":5,"migraine_risk":7,"frizz_risk":0,"updated_at":"2026-06-24T17:50:32.392403+05:30"},{"city":"Jammu","state":"Jammu and Kashmir","latitude":32.7266,"longitude":74.857,"temp":37.0,"humidity":33,"rain":0.0,"pressure":964.3,"uv_index":8.65,"wind_gusts":37.1,"aqi":131,"pm10":38.2,"pm2_5":22.6,"no2":3.3,"co":269.0,"o3":148.0,"so2":3.1,"mosquito_risk":0,"arthritis_risk":5,"migraine_risk":10,"frizz_risk":1,"updated_at":"2026-06-24T17:50:32.392410+05:30"},{"city":"Amritsar","state":"Punjab","latitude":31.634,"longitude":74.8723,"temp":35.8,"humidity":39,"rain":0.0,"pressure":972.0,"uv_index":8.45,"wind_gusts":41.4,"aqi":145,"pm10":70.8,"pm2_5":34.7,"no2":3.8,"co":317.0,"o3":176.0,"so2":7.9,"mosquito_risk":0,"arthritis_risk":5,"migraine_risk":10,"frizz_risk":1,"updated_at":"2026-06-24T17:50:32.392416+05:30"},{"city":"Ludhiana","state":"Punjab","latitude":30.901,"longitude":75.8573,"temp":37.1,"humidity":31,"rain":0.0,"pressure":970.4,"uv_index":8.05,"wind_gusts":33.5,"aqi":161,"pm10":194.6,"pm2_5":55.6,"no2":3.7,"co":353.0,"o3":170.0,"so2":5.9,"mosquito_risk":0,"arthritis_risk":5,"migraine_risk":10,"frizz_risk":1,"updated_at":"2026-06-24T17:50:32.392422+05:30"},{"city":"Jalandhar","state":"Punjab","latitude":31.326,"longitude":75.5762,"temp":37.1,"humidity":31,"rain":0.0,"pressure":971.1,"uv_index":8.25,"wind_gusts":27.0,"aqi":162,"pm10":84.1,"pm2_5":37.7,"no2":3.4,"co":361.0,"o3":173.0,"so2":5.3,"mosquito_risk":0,"arthritis_risk":5,"migraine_risk":10,"frizz_risk":1,"updated_at":"2026-06-24T17:50:32.392428+05:30"},{"city":"Dehradun","state":"Uttarakhand","latitude":30.6284,"longitude":78.0322,"temp":21.6,"humidity":76,"rain":0.0,"pressure":827.6,"uv_index":7.65,"wind_gusts":27.0,"aqi":130,"pm10":24.2,"pm2_5":21.4,"no2":2.9,"co":234.0,"o3":157.0,"so2":3.8,"mosquito_risk":3,"arthritis_risk":5,"migraine_risk":7,"frizz_risk":1,"updated_at":"2026-06-24T17:50:32.392434+05:30"},{"city":"Shimla","state":"Himachal Pradesh","latitude":31.1048,"longitude":77.1734,"temp":17.2,"humidity":89,"rain":0.0,"pressure":781.5,"uv_index":7.7,"wind_gusts":34.2,"aqi":144,"pm10":42.0,"pm2_5":27.6,"no2":2.1,"co":281.0,"o3":177.0,"so2":7.9,"mosquito_risk":3,"arthritis_risk":10,"migraine_risk":7,"frizz_risk":0,"updated_at":"2026-06-24T17:50:32.392440+05:30"},{"city":"Manali","state":"Himachal Pradesh","latitude":32.2396,"longitude":77.1887,"temp":21.4,"humidity":74,"rain":0.0,"pressure":816.4,"uv_index":9.15,"wind_gusts":35.3,"aqi":64,"pm10":21.0,"pm2_5":19.7,"no2":30.8,"co":185.0,"o3":94.0,"so2":0.6,"mosquito_risk":3,"arthritis_risk":5,"migraine_risk":7,"frizz_risk":1,"updated_at":"2026-06-24T17:50:32.392454+05:30"},{"city":"Gurgaon","state":"Haryana","latitude":28.4595,"longitude":77.0266,"temp":36.4,"humidity":33,"rain":0.0,"pressure":973.2,"uv_index":7.8,"wind_gusts":28.8,"aqi":701,"pm10":555.1,"pm2_5":95.0,"no2":9.5,"co":222.0,"o3":131.0,"so2":9.2,"mosquito_risk":0,"arthritis_risk":5,"migraine_risk":10,"frizz_risk":1,"updated_at":"2026-06-24T17:50:32.392462+05:30"},{"city":"Noida","state":"Uttar Pradesh","latitude":28.5355,"longitude":77.391,"temp":35.5,"humidity":45,"rain":0.1,"pressure":975.9,"uv_index":7.75,"wind_gusts":23.0,"aqi":701,"pm10":555.1,"pm2_5":95.0,"no2":9.5,"co":374.0,"o3":131.0,"so2":9.2,"mosquito_risk":3,"arthritis_risk":5,"migraine_risk":10,"frizz_risk":1,"updated_at":"2026-06-24T17:50:32.392470+05:30"},{"city":"Ghaziabad","state":"Uttar Pradesh","latitude":28.6692,"longitude":77.4538,"temp":35.1,"humidity":41,"rain":0.1,"pressure":974.4,"uv_index":7.75,"wind_gusts":23.0,"aqi":286,"pm10":306.4,"pm2_5":80.1,"no2":8.5,"co":219.0,"o3":166.0,"so2":17.7,"mosquito_risk":3,"arthritis_risk":5,"migraine_risk":10,"frizz_risk":1,"updated_at":"2026-06-24T17:50:32.392477+05:30"},{"city":"Faridabad","state":"Haryana","latitude":28.4089,"longitude":77.3178,"temp":37.0,"humidity":31,"rain":0.1,"pressure":975.3,"uv_index":7.8,"wind_gusts":27.0,"aqi":701,"pm10":555.1,"pm2_5":95.0,"no2":9.5,"co":226.0,"o3":131.0,"so2":9.2,"mosquito_risk":3,"arthritis_risk":5,"migraine_risk":10,"frizz_risk":1,"updated_at":"2026-06-24T17:50:32.392483+05:30"},{"city":"Meerut","state":"Uttar Pradesh","latitude":28.9845,"longitude":77.7064,"temp":35.5,"humidity":38,"rain":0.0,"pressure":973.4,"uv_index":7.7,"wind_gusts":29.9,"aqi":286,"pm10":306.4,"pm2_5":80.1,"no2":8.5,"co":184.0,"o3":166.0,"so2":17.7,"mosquito_risk":0,"arthritis_risk":5,"migraine_risk":10,"frizz_risk":1,"updated_at":"2026-06-24T17:50:32.392490+05:30"},{"city":"Agra","state":"Uttar Pradesh","latitude":27.1767,"longitude":78.0081,"temp":37.3,"humidity":29,"rain":0.0,"pressure":979.2,"uv_index":8.1,"wind_gusts":25.9,"aqi":381,"pm10":529.0,"pm2_5":78.0,"no2":4.8,"co":157.0,"o3":116.0,"so2":3.2,"mosquito_risk":0,"arthritis_risk":5,"migraine_risk":10,"frizz_risk":1,"updated_at":"2026-06-24T17:50:32.392496+05:30"},{"city":"Varanasi","state":"Uttar Pradesh","latitude":25.3176,"longitude":82.9739,"temp":38.7,"humidity":31,"rain":0.0,"pressure":988.6,"uv_index":8.75,"wind_gusts":37.8,"aqi":112,"pm10":165.8,"pm2_5":48.2,"no2":4.6,"co":248.0,"o3":142.0,"so2":7.9,"mosquito_risk":0,"arthritis_risk":5,"migraine_risk":10,"frizz_risk":1,"updated_at":"2026-06-24T17:50:32.392503+05:30"},{"city":"Prayagraj","state":"Uttar Pradesh","latitude":25.4358,"longitude":81.8463,"temp":38.6,"humidity":31,"rain":0.0,"pressure":987.0,"uv_index":8.65,"wind_gusts":37.4,"aqi":113,"pm10":171.4,"pm2_5":47.4,"no2":2.9,"co":163.0,"o3":140.0,"so2":6.7,"mosquito_risk":0,"arthritis_risk":5,"migraine_risk":10,"frizz_risk":1,"updated_at":"2026-06-24T17:50:32.392509+05:30"},{"city":"Gorakhpur","state":"Uttar Pradesh","latitude":26.7606,"longitude":83.3732,"temp":36.9,"humidity":38,"rain":0.0,"pressure":988.2,"uv_index":8.6,"wind_gusts":25.9,"aqi":166,"pm10":131.8,"pm2_5":53.4,"no2":7.1,"co":265.0,"o3":153.0,"so2":9.4,"mosquito_risk":0,"arthritis_risk":5,"migraine_risk":10,"frizz_risk":1,"updated_at":"2026-06-24T17:50:32.392515+05:30"},{"city":"Bareilly","state":"Uttar Pradesh","latitude":28.367,"longitude":79.4304,"temp":34.6,"humidity":41,"rain":0.0,"pressure":978.6,"uv_index":7.9,"wind_gusts":27.4,"aqi":155,"pm10":290.6,"pm2_5":75.0,"no2":3.8,"co":191.0,"o3":146.0,"so2":8.2,"mosquito_risk":0,"arthritis_risk":5,"migraine_risk":7,"frizz_risk":1,"updated_at":"2026-06-24T17:50:32.392523+05:30"},{"city":"Aligarh","state":"Uttar Pradesh","latitude":27.8974,"longitude":78.088,"temp":35.6,"humidity":38,"rain":0.0,"pressure":977.3,"uv_index":7.8,"wind_gusts":25.2,"aqi":461,"pm10":555.1,"pm2_5":101.7,"no2":6.7,"co":170.0,"o3":120.0,"so2":6.4,"mosquito_risk":0,"arthritis_risk":5,"migraine_risk":10,"frizz_risk":1,"updated_at":"2026-06-24T17:50:32.392530+05:30"},{"city":"Moradabad","state":"Uttar Pradesh","latitude":28.8386,"longitude":78.7733,"temp":35.4,"humidity":39,"rain":0.0,"pressure":975.4,"uv_index":7.9,"wind_gusts":33.8,"aqi":175,"pm10":324.1,"pm2_5":88.7,"no2":4.6,"co":199.0,"o3":179.0,"so2":13.0,"mosquito_risk":0,"arthritis_risk":5,"migraine_risk":10,"frizz_risk":1,"updated_at":"2026-06-24T17:50:32.392536+05:30"},{"city":"Saharanpur","state":"Uttar Pradesh","latitude":29.9637,"longitude":77.546,"temp":34.5,"humidity":41,"rain":0.0,"pressure":967.9,"uv_index":7.45,"wind_gusts":30.6,"aqi":190,"pm10":177.9,"pm2_5":59.0,"no2":5.2,"co":232.0,"o3":192.0,"so2":14.8,"mosquito_risk":0,"arthritis_risk":5,"migraine_risk":7,"frizz_risk":1,"updated_at":"2026-06-24T17:50:32.392542+05:30"},{"city":"Jhansi","state":"Uttar Pradesh","latitude":25.4484,"longitude":78.5685,"temp":37.0,"humidity":33,"rain":0.0,"pressure":970.1,"uv_index":8.45,"wind_gusts":29.9,"aqi":78,"pm10":64.3,"pm2_5":24.3,"no2":2.1,"co":140.0,"o3":100.0,"so2":3.8,"mosquito_risk":0,"arthritis_risk":5,"migraine_risk":10,"frizz_risk":1,"updated_at":"2026-06-24T17:50:35.731009+05:30"},{"city":"Surat","state":"Gujarat","latitude":21.1702,"longitude":72.8311,"temp":29.4,"humidity":75,"rain":0.0,"pressure":1001.0,"uv_index":7.1,"wind_gusts":51.1,"aqi":78,"pm10":37.4,"pm2_5":19.7,"no2":13.9,"co":188.0,"o3":46.0,"so2":32.6,"mosquito_risk":7,"arthritis_risk":5,"migraine_risk":4,"frizz_risk":1,"updated_at":"2026-06-24T17:50:35.731041+05:30"},{"city":"Vadodara","state":"Gujarat","latitude":22.3072,"longitude":73.1812,"temp":33.4,"humidity":55,"rain":0.0,"pressure":997.0,"uv_index":6.1,"wind_gusts":52.6,"aqi":72,"pm10":84.5,"pm2_5":31.1,"no2":4.1,"co":154.0,"o3":101.0,"so2":5.2,"mosquito_risk":0,"arthritis_risk":5,"migraine_risk":7,"frizz_risk":1,"updated_at":"2026-06-24T17:50:35.731051+05:30"},{"city":"Rajkot","state":"Gujarat","latitude":22.3039,"longitude":70.8022,"temp":34.3,"humidity":52,"rain":0.0,"pressure":987.0,"uv_index":7.5,"wind_gusts":47.9,"aqi":68,"pm10":59.8,"pm2_5":24.8,"no2":1.9,"co":106.0,"o3":88.0,"so2":4.1,"mosquito_risk":0,"arthritis_risk":5,"migraine_risk":7,"frizz_risk":1,"updated_at":"2026-06-24T17:50:35.731059+05:30"},{"city":"Thane","state":"Maharashtra","latitude":19.2183,"longitude":72.9781,"temp":27.1,"humidity":86,"rain":0.0,"pressure":1003.7,"uv_index":3.65,"wind_gusts":23.4,"aqi":48,"pm10":35.3,"pm2_5":15.1,"no2":15.6,"co":291.0,"o3":60.0,"so2":12.0,"mosquito_risk":7,"arthritis_risk":5,"migraine_risk":0,"frizz_risk":1,"updated_at":"2026-06-24T17:50:35.731067+05:30"},{"city":"Nagpur","state":"Maharashtra","latitude":21.1458,"longitude":79.0882,"temp":29.8,"humidity":70,"rain":0.0,"pressure":967.2,"uv_index":8.7,"wind_gusts":36.0,"aqi":36,"pm10":12.3,"pm2_5":11.4,"no2":15.3,"co":268.0,"o3":85.0,"so2":28.8,"mosquito_risk":7,"arthritis_risk":5,"migraine_risk":7,"frizz_risk":1,"updated_at":"2026-06-24T17:50:35.731078+05:30"},{"city":"Nashik","state":"Maharashtra","latitude":19.9975,"longitude":73.7898,"temp":26.9,"humidity":66,"rain":0.0,"pressure":941.2,"uv_index":1.15,"wind_gusts":36.7,"aqi":35,"pm10":34.0,"pm2_5":16.3,"no2":6.3,"co":150.0,"o3":95.0,"so2":7.9,"mosquito_risk":7,"arthritis_risk":5,"migraine_risk":3,"frizz_risk":1,"updated_at":"2026-06-24T17:50:35.731086+05:30"},{"city":"Aurangabad","state":"Maharashtra","latitude":19.8762,"longitude":75.3433,"temp":28.4,"humidity":55,"rain":0.0,"pressure":939.2,"uv_index":7.5,"wind_gusts":34.2,"aqi":44,"pm10":65.7,"pm2_5":25.8,"no2":2.8,"co":217.0,"o3":85.0,"so2":3.9,"mosquito_risk":4,"arthritis_risk":5,"migraine_risk":7,"frizz_risk":1,"updated_at":"2026-06-24T17:50:35.731092+05:30"},{"city":"Solapur","state":"Maharashtra","latitude":17.6599,"longitude":75.9064,"temp":30.2,"humidity":50,"rain":0.1,"pressure":952.6,"uv_index":5.3,"wind_gusts":60.8,"aqi":35,"pm10":5.7,"pm2_5":4.4,"no2":5.1,"co":128.0,"o3":62.0,"so2":1.4,"mosquito_risk":3,"arthritis_risk":5,"migraine_risk":3,"frizz_risk":1,"updated_at":"2026-06-24T17:50:35.731100+05:30"},{"city":"Kolhapur","state":"Maharashtra","latitude":16.705,"longitude":74.2433,"temp":23.6,"humidity":87,"rain":0.0,"pressure":944.9,"uv_index":4.65,"wind_gusts":51.5,"aqi":27,"pm10":3.5,"pm2_5":3.2,"no2":5.9,"co":161.0,"o3":54.0,"so2":1.4,"mosquito_risk":3,"arthritis_risk":5,"migraine_risk":3,"frizz_risk":1,"updated_at":"2026-06-24T17:50:35.731107+05:30"},{"city":"Goa","state":"Goa","latitude":15.2993,"longitude":74.124,"temp":25.9,"humidity":90,"rain":0.1,"pressure":996.8,"uv_index":4.6,"wind_gusts":29.5,"aqi":36,"pm10":13.5,"pm2_5":7.2,"no2":2.0,"co":167.0,"o3":52.0,"so2":0.7,"mosquito_risk":10,"arthritis_risk":5,"migraine_risk":3,"frizz_risk":1,"updated_at":"2026-06-24T17:50:35.731114+05:30"},{"city":"Jodhpur","state":"Rajasthan","latitude":26.2389,"longitude":73.0243,"temp":36.9,"humidity":36,"rain":0.0,"pressure":974.3,"uv_index":8.4,"wind_gusts":42.5,"aqi":142,"pm10":277.5,"pm2_5":53.9,"no2":1.3,"co":117.0,"o3":82.0,"so2":1.2,"mosquito_risk":0,"arthritis_risk":5,"migraine_risk":10,"frizz_risk":1,"updated_at":"2026-06-24T17:50:35.731121+05:30"},{"city":"Udaipur","state":"Rajasthan","latitude":24.5854,"longitude":73.7125,"temp":33.5,"humidity":41,"rain":0.0,"pressure":940.0,"uv_index":8.75,"wind_gusts":36.0,"aqi":73,"pm10":80.1,"pm2_5":23.2,"no2":1.1,"co":119.0,"o3":85.0,"so2":1.6,"mosquito_risk":0,"arthritis_risk":5,"migraine_risk":7,"frizz_risk":1,"updated_at":"2026-06-24T17:50:35.731128+05:30"},{"city":"Kota","state":"Rajasthan","latitude":25.2138,"longitude":75.8648,"temp":32.4,"humidity":55,"rain":0.0,"pressure":971.8,"uv_index":8.3,"wind_gusts":59.4,"aqi":81,"pm10":85.4,"pm2_5":31.2,"no2":2.1,"co":149.0,"o3":103.0,"so2":3.8,"mosquito_risk":0,"arthritis_risk":5,"migraine_risk":7,"frizz_risk":1,"updated_at":"2026-06-24T17:50:35.731136+05:30"},{"city":"Bikaner","state":"Rajasthan","latitude":28.0229,"longitude":73.3119,"temp":35.8,"humidity":40,"rain":0.0,"pressure":973.3,"uv_index":8.45,"wind_gusts":28.8,"aqi":156,"pm10":189.1,"pm2_5":48.2,"no2":0.7,"co":127.0,"o3":89.0,"so2":2.3,"mosquito_risk":0,"arthritis_risk":5,"migraine_risk":10,"frizz_risk":1,"updated_at":"2026-06-24T17:50:35.731143+05:30"},{"city":"Ajmer","state":"Rajasthan","latitude":26.4499,"longitude":74.6399,"temp":32.6,"humidity":46,"rain":0.0,"pressure":947.7,"uv_index":8.3,"wind_gusts":44.6,"aqi":86,"pm10":126.2,"pm2_5":33.2,"no2":1.5,"co":127.0,"o3":92.0,"so2":2.0,"mosquito_risk":0,"arthritis_risk":5,"migraine_risk":7,"frizz_risk":1,"updated_at":"2026-06-24T17:50:35.731150+05:30"},{"city":"Gwalior","state":"Madhya Pradesh","latitude":26.2183,"longitude":78.1828,"temp":37.1,"humidity":30,"rain":0.0,"pressure":975.1,"uv_index":8.25,"wind_gusts":31.7,"aqi":102,"pm10":104.1,"pm2_5":30.4,"no2":1.4,"co":141.0,"o3":103.0,"so2":1.9,"mosquito_risk":0,"arthritis_risk":5,"migraine_risk":10,"frizz_risk":1,"updated_at":"2026-06-24T17:50:35.731157+05:30"},{"city":"Indore","state":"Madhya Pradesh","latitude":22.7196,"longitude":75.8577,"temp":24.4,"humidity":95,"rain":0.2,"pressure":942.2,"uv_index":2.35,"wind_gusts":42.8,"aqi":75,"pm10":44.8,"pm2_5":25.6,"no2":8.2,"co":327.0,"o3":87.0,"so2":3.6,"mosquito_risk":6,"arthritis_risk":5,"migraine_risk":3,"frizz_risk":1,"updated_at":"2026-06-24T17:50:35.731164+05:30"},{"city":"Bhopal","state":"Madhya Pradesh","latitude":23.2599,"longitude":77.4126,"temp":26.6,"humidity":89,"rain":0.0,"pressure":947.6,"uv_index":7.2,"wind_gusts":33.5,"aqi":56,"pm10":54.2,"pm2_5":26.4,"no2":2.0,"co":339.0,"o3":108.0,"so2":4.9,"mosquito_risk":7,"arthritis_risk":5,"migraine_risk":7,"frizz_risk":1,"updated_at":"2026-06-24T17:50:35.731172+05:30"},{"city":"Jabalpur","state":"Madhya Pradesh","latitude":23.1815,"longitude":79.9864,"temp":30.5,"humidity":65,"rain":0.0,"pressure":955.5,"uv_index":8.8,"wind_gusts":27.7,"aqi":51,"pm10":29.2,"pm2_5":17.9,"no2":2.9,"co":170.0,"o3":102.0,"so2":1.9,"mosquito_risk":3,"arthritis_risk":5,"migraine_risk":7,"frizz_risk":1,"updated_at":"2026-06-24T17:50:35.731179+05:30"},{"city":"Ujjain","state":"Madhya Pradesh","latitude":23.1765,"longitude":75.7885,"temp":26.4,"humidity":80,"rain":0.0,"pressure":947.9,"uv_index":2.65,"wind_gusts":40.3,"aqi":76,"pm10":53.8,"pm2_5":24.7,"no2":1.4,"co":230.0,"o3":96.0,"so2":2.7,"mosquito_risk":7,"arthritis_risk":5,"migraine_risk":3,"frizz_risk":1,"updated_at":"2026-06-24T17:50:35.731187+05:30"},{"city":"Visakhapatnam","state":"Andhra Pradesh","latitude":17.6868,"longitude":83.2185,"temp":31.1,"humidity":69,"rain":0.0,"pressure":997.1,"uv_index":8.75,"wind_gusts":42.5,"aqi":72,"pm10":26.9,"pm2_5":21.4,"no2":16.1,"co":335.0,"o3":97.0,"so2":32.1,"mosquito_risk":3,"arthritis_risk":5,"migraine_risk":7,"frizz_risk":1,"updated_at":"2026-06-24T17:50:35.731194+05:30"},{"city":"Vijayawada","state":"Andhra Pradesh","latitude":16.5062,"longitude":80.648,"temp":33.1,"humidity":57,"rain":0.0,"pressure":996.2,"uv_index":8.1,"wind_gusts":36.4,"aqi":61,"pm10":10.2,"pm2_5":8.9,"no2":5.5,"co":153.0,"o3":79.0,"so2":3.9,"mosquito_risk":0,"arthritis_risk":5,"migraine_risk":7,"frizz_risk":1,"updated_at":"2026-06-24T17:50:35.731202+05:30"},{"city":"Guntur","state":"Andhra Pradesh","latitude":16.3067,"longitude":80.4365,"temp":33.8,"humidity":51,"rain":0.0,"pressure":997.7,"uv_index":8.3,"wind_gusts":40.3,"aqi":54,"pm10":10.0,"pm2_5":8.3,"no2":4.7,"co":152.0,"o3":80.0,"so2":3.8,"mosquito_risk":0,"arthritis_risk":5,"migraine_risk":7,"frizz_risk":1,"updated_at":"2026-06-24T17:50:35.731210+05:30"},{"city":"Nellore","state":"Andhra Pradesh","latitude":14.4426,"longitude":79.9865,"temp":34.3,"humidity":45,"rain":0.0,"pressure":1000.7,"uv_index":8.7,"wind_gusts":47.2,"aqi":49,"pm10":13.1,"pm2_5":8.8,"no2":4.7,"co":155.0,"o3":82.0,"so2":3.5,"mosquito_risk":0,"arthritis_risk":5,"migraine_risk":4,"frizz_risk":1,"updated_at":"2026-06-24T17:50:35.731218+05:30"},{"city":"Kurnool","state":"Andhra Pradesh","latitude":15.8281,"longitude":78.0373,"temp":32.5,"humidity":44,"rain":0.0,"pressure":972.4,"uv_index":7.05,"wind_gusts":52.9,"aqi":31,"pm10":11.6,"pm2_5":6.9,"no2":2.6,"co":125.0,"o3":75.0,"so2":1.3,"mosquito_risk":0,"arthritis_risk":5,"migraine_risk":7,"frizz_risk":1,"updated_at":"2026-06-24T17:50:35.731226+05:30"},{"city":"Kakinada","state":"Andhra Pradesh","latitude":16.9891,"longitude":82.2475,"temp":31.6,"humidity":61,"rain":0.0,"pressure":1001.2,"uv_index":8.1,"wind_gusts":36.7,"aqi":63,"pm10":15.8,"pm2_5":11.8,"no2":3.1,"co":208.0,"o3":91.0,"so2":3.5,"mosquito_risk":3,"arthritis_risk":5,"migraine_risk":4,"frizz_risk":1,"updated_at":"2026-06-24T17:50:35.731234+05:30"},{"city":"Tirupati","state":"Andhra Pradesh","latitude":13.6288,"longitude":79.4192,"temp":33.5,"humidity":45,"rain":0.0,"pressure":986.8,"uv_index":8.7,"wind_gusts":49.3,"aqi":51,"pm10":12.2,"pm2_5":7.9,"no2":5.8,"co":148.0,"o3":64.0,"so2":1.3,"mosquito_risk":0,"arthritis_risk":5,"migraine_risk":7,"frizz_risk":1,"updated_at":"2026-06-24T17:50:35.731242+05:30"},{"city":"Warangal","state":"Telangana","latitude":17.9689,"longitude":79.5941,"temp":30.5,"humidity":61,"rain":0.3,"pressure":973.0,"uv_index":8.05,"wind_gusts":42.5,"aqi":40,"pm10":8.7,"pm2_5":7.0,"no2":3.5,"co":165.0,"o3":90.0,"so2":1.9,"mosquito_risk":6,"arthritis_risk":5,"migraine_risk":7,"frizz_risk":1,"updated_at":"2026-06-24T17:50:35.731249+05:30"},{"city":"Nizamabad","state":"Telangana","latitude":18.6725,"longitude":78.0941,"temp":25.1,"humidity":96,"rain":0.2,"pressure":960.0,"uv_index":5.05,"wind_gusts":44.6,"aqi":33,"pm10":13.2,"pm2_5":9.1,"no2":8.3,"co":181.0,"o3":62.0,"so2":2.6,"mosquito_risk":10,"arthritis_risk":5,"migraine_risk":3,"frizz_risk":1,"updated_at":"2026-06-24T17:50:35.731255+05:30"},{"city":"Mysore","state":"Karnataka","latitude":12.2958,"longitude":76.6396,"temp":25.3,"humidity":74,"rain":0.0,"pressure":927.3,"uv_index":4.95,"wind_gusts":50.0,"aqi":31,"pm10":6.3,"pm2_5":4.5,"no2":6.3,"co":136.0,"o3":56.0,"so2":1.6,"mosquito_risk":7,"arthritis_risk":5,"migraine_risk":3,"frizz_risk":1,"updated_at":"2026-06-24T17:50:35.731262+05:30"},{"city":"Mangalore","state":"Karnataka","latitude":12.9141,"longitude":74.856,"temp":24.8,"humidity":96,"rain":0.1,"pressure":1006.8,"uv_index":8.25,"wind_gusts":45.4,"aqi":42,"pm10":13.4,"pm2_5":8.5,"no2":5.1,"co":116.0,"o3":45.0,"so2":1.5,"mosquito_risk":6,"arthritis_risk":5,"migraine_risk":4,"frizz_risk":1,"updated_at":"2026-06-24T17:50:35.731269+05:30"},{"city":"Hubli-Dharwad","state":"Karnataka","latitude":15.3647,"longitude":75.124,"temp":23.7,"humidity":85,"rain":0.1,"pressure":938.6,"uv_index":7.85,"wind_gusts":57.2,"aqi":26,"pm10":4.4,"pm2_5":3.1,"no2":4.4,"co":118.0,"o3":52.0,"so2":1.0,"mosquito_risk":6,"arthritis_risk":5,"migraine_risk":7,"frizz_risk":1,"updated_at":"2026-06-24T17:50:35.731276+05:30"},{"city":"Belgaum","state":"Karnataka","latitude":15.8497,"longitude":74.4977,"temp":22.0,"humidity":91,"rain":0.0,"pressure":923.3,"uv_index":6.15,"wind_gusts":46.1,"aqi":26,"pm10":5.4,"pm2_5":3.5,"no2":4.7,"co":133.0,"o3":50.0,"so2":1.2,"mosquito_risk":3,"arthritis_risk":5,"migraine_risk":7,"frizz_risk":1,"updated_at":"2026-06-24T17:50:39.074174+05:30"},{"city":"Coimbatore","state":"Tamil Nadu","latitude":11.0168,"longitude":76.9558,"temp":25.1,"humidity":86,"rain":0.0,"pressure":960.3,"uv_index":8.45,"wind_gusts":50.8,"aqi":34,"pm10":7.4,"pm2_5":6.0,"no2":5.1,"co":171.0,"o3":63.0,"so2":2.2,"mosquito_risk":7,"arthritis_risk":5,"migraine_risk":7,"frizz_risk":1,"updated_at":"2026-06-24T17:50:39.074206+05:30"},{"city":"Madurai","state":"Tamil Nadu","latitude":9.9252,"longitude":78.1198,"temp":32.8,"humidity":51,"rain":0.0,"pressure":991.1,"uv_index":8.0,"wind_gusts":33.1,"aqi":64,"pm10":14.9,"pm2_5":11.4,"no2":11.6,"co":174.0,"o3":73.0,"so2":2.6,"mosquito_risk":0,"arthritis_risk":5,"migraine_risk":7,"frizz_risk":1,"updated_at":"2026-06-24T17:50:39.074217+05:30"},{"city":"Trichy","state":"Tamil Nadu","latitude":10.7905,"longitude":78.7047,"temp":32.3,"humidity":55,"rain":0.1,"pressure":997.0,"uv_index":8.05,"wind_gusts":49.0,"aqi":38,"pm10":26.7,"pm2_5":17.6,"no2":4.0,"co":138.0,"o3":79.0,"so2":2.1,"mosquito_risk":3,"arthritis_risk":5,"migraine_risk":7,"frizz_risk":1,"updated_at":"2026-06-24T17:50:39.074226+05:30"},{"city":"Salem","state":"Tamil Nadu","latitude":11.6643,"longitude":78.146,"temp":28.7,"humidity":67,"rain":0.3,"pressure":975.6,"uv_index":8.75,"wind_gusts":39.2,"aqi":54,"pm10":16.8,"pm2_5":12.8,"no2":11.4,"co":289.0,"o3":82.0,"so2":4.7,"mosquito_risk":10,"arthritis_risk":5,"migraine_risk":7,"frizz_risk":1,"updated_at":"2026-06-24T17:50:39.074234+05:30"},{"city":"Tirunelveli","state":"Tamil Nadu","latitude":8.7139,"longitude":77.7567,"temp":33.1,"humidity":47,"rain":0.0,"pressure":1001.3,"uv_index":8.15,"wind_gusts":38.5,"aqi":32,"pm10":5.0,"pm2_5":4.2,"no2":3.7,"co":134.0,"o3":69.0,"so2":1.3,"mosquito_risk":0,"arthritis_risk":5,"migraine_risk":4,"frizz_risk":1,"updated_at":"2026-06-24T17:50:39.074242+05:30"},{"city":"Vellore","state":"Tamil Nadu","latitude":12.9165,"longitude":79.1325,"temp":30.8,"humidity":60,"rain":0.1,"pressure":981.0,"uv_index":8.2,"wind_gusts":49.0,"aqi":46,"pm10":16.8,"pm2_5":12.0,"no2":8.3,"co":179.0,"o3":73.0,"so2":2.5,"mosquito_risk":3,"arthritis_risk":5,"migraine_risk":7,"frizz_risk":1,"updated_at":"2026-06-24T17:50:39.074249+05:30"},{"city":"Erode","state":"Tamil Nadu","latitude":11.341,"longitude":77.7172,"temp":31.1,"humidity":56,"rain":0.0,"pressure":987.2,"uv_index":8.7,"wind_gusts":42.5,"aqi":51,"pm10":12.4,"pm2_5":9.6,"no2":8.3,"co":180.0,"o3":79.0,"so2":2.2,"mosquito_risk":0,"arthritis_risk":5,"migraine_risk":7,"frizz_risk":1,"updated_at":"2026-06-24T17:50:39.074257+05:30"},{"city":"Kochi","state":"Kerala","latitude":9.9312,"longitude":76.2673,"temp":27.4,"humidity":85,"rain":0.0,"pressure":1008.9,"uv_index":7.15,"wind_gusts":34.6,"aqi":48,"pm10":10.0,"pm2_5":7.2,"no2":8.0,"co":163.0,"o3":41.0,"so2":2.2,"mosquito_risk":7,"arthritis_risk":0,"migraine_risk":4,"frizz_risk":1,"updated_at":"2026-06-24T17:50:39.074265+05:30"},{"city":"Thiruvananthapuram","state":"Kerala","latitude":8.5241,"longitude":76.9366,"temp":26.1,"humidity":91,"rain":0.0,"pressure":1008.1,"uv_index":7.9,"wind_gusts":42.1,"aqi":36,"pm10":7.8,"pm2_5":5.0,"no2":2.6,"co":157.0,"o3":54.0,"so2":1.0,"mosquito_risk":7,"arthritis_risk":0,"migraine_risk":4,"frizz_risk":1,"updated_at":"2026-06-24T17:50:39.074272+05:30"},{"city":"Kozhikode","state":"Kerala","latitude":11.2588,"longitude":75.7804,"temp":25.1,"humidity":97,"rain":0.1,"pressure":1008.1,"uv_index":8.35,"wind_gusts":33.5,"aqi":27,"pm10":8.4,"pm2_5":5.3,"no2":1.4,"co":144.0,"o3":56.0,"so2":0.8,"mosquito_risk":10,"arthritis_risk":0,"migraine_risk":4,"frizz_risk":1,"updated_at":"2026-06-24T17:50:39.074279+05:30"},{"city":"Thrissur","state":"Kerala","latitude":10.5276,"longitude":76.2144,"temp":26.3,"humidity":91,"rain":0.1,"pressure":1007.1,"uv_index":7.6,"wind_gusts":31.3,"aqi":51,"pm10":8.0,"pm2_5":6.2,"no2":5.2,"co":198.0,"o3":43.0,"so2":1.4,"mosquito_risk":10,"arthritis_risk":5,"migraine_risk":4,"frizz_risk":1,"updated_at":"2026-06-24T17:50:39.074287+05:30"},{"city":"Kannur","state":"Kerala","latitude":11.8745,"longitude":75.3704,"temp":26.0,"humidity":94,"rain":0.0,"pressure":1007.2,"uv_index":8.0,"wind_gusts":34.6,"aqi":36,"pm10":8.9,"pm2_5":6.4,"no2":5.4,"co":129.0,"o3":48.0,"so2":1.4,"mosquito_risk":7,"arthritis_risk":5,"migraine_risk":4,"frizz_risk":1,"updated_at":"2026-06-24T17:50:39.074294+05:30"},{"city":"Patna","state":"Bihar","latitude":25.5941,"longitude":85.1376,"temp":36.9,"humidity":39,"rain":0.0,"pressure":991.5,"uv_index":8.8,"wind_gusts":32.0,"aqi":161,"pm10":102.2,"pm2_5":50.1,"no2":16.2,"co":272.0,"o3":119.0,"so2":8.5,"mosquito_risk":0,"arthritis_risk":5,"migraine_risk":10,"frizz_risk":1,"updated_at":"2026-06-24T17:50:39.074301+05:30"},{"city":"Gaya","state":"Bihar","latitude":24.7914,"longitude":85.0002,"temp":35.6,"humidity":46,"rain":0.0,"pressure":985.6,"uv_index":8.9,"wind_gusts":34.6,"aqi":128,"pm10":88.0,"pm2_5":44.2,"no2":9.3,"co":295.0,"o3":112.0,"so2":6.9,"mosquito_risk":0,"arthritis_risk":5,"migraine_risk":10,"frizz_risk":1,"updated_at":"2026-06-24T17:50:39.074309+05:30"},{"city":"Muzaffarpur","state":"Bihar","latitude":26.1209,"longitude":85.3647,"temp":34.6,"humidity":62,"rain":0.0,"pressure":991.4,"uv_index":8.8,"wind_gusts":30.2,"aqi":173,"pm10":111.3,"pm2_5":61.5,"no2":17.9,"co":382.0,"o3":135.0,"so2":10.0,"mosquito_risk":3,"arthritis_risk":5,"migraine_risk":7,"frizz_risk":1,"updated_at":"2026-06-24T17:50:39.074316+05:30"},{"city":"Bhagalpur","state":"Bihar","latitude":25.2425,"longitude":87.0117,"temp":34.5,"humidity":61,"rain":0.0,"pressure":992.4,"uv_index":8.8,"wind_gusts":26.6,"aqi":172,"pm10":108.7,"pm2_5":48.5,"no2":6.9,"co":347.0,"o3":150.0,"so2":11.7,"mosquito_risk":3,"arthritis_risk":5,"migraine_risk":7,"frizz_risk":1,"updated_at":"2026-06-24T17:50:39.074323+05:30"},{"city":"Ranchi","state":"Jharkhand","latitude":23.3441,"longitude":85.3096,"temp":27.1,"humidity":77,"rain":0.0,"pressure":932.5,"uv_index":9.15,"wind_gusts":33.5,"aqi":97,"pm10":26.4,"pm2_5":20.8,"no2":5.3,"co":223.0,"o3":97.0,"so2":2.8,"mosquito_risk":7,"arthritis_risk":5,"migraine_risk":7,"frizz_risk":1,"updated_at":"2026-06-24T17:50:39.074330+05:30"},{"city":"Jamshedpur","state":"Jharkhand","latitude":22.8046,"longitude":86.2029,"temp":32.2,"humidity":65,"rain":0.0,"pressure":984.2,"uv_index":9.05,"wind_gusts":32.4,"aqi":136,"pm10":49.0,"pm2_5":36.6,"no2":8.0,"co":479.0,"o3":138.0,"so2":15.6,"mosquito_risk":3,"arthritis_risk":5,"migraine_risk":7,"frizz_risk":1,"updated_at":"2026-06-24T17:50:39.074337+05:30"},{"city":"Dhanbad","state":"Jharkhand","latitude":23.7957,"longitude":86.4304,"temp":32.8,"humidity":56,"rain":0.0,"pressure":972.9,"uv_index":9.05,"wind_gusts":29.5,"aqi":152,"pm10":86.6,"pm2_5":64.3,"no2":24.9,"co":289.0,"o3":149.0,"so2":69.0,"mosquito_risk":0,"arthritis_risk":5,"migraine_risk":7,"frizz_risk":1,"updated_at":"2026-06-24T17:50:39.074344+05:30"},{"city":"Bokaro","state":"Jharkhand","latitude":23.6693,"longitude":86.1511,"temp":32.9,"humidity":62,"rain":0.0,"pressure":976.6,"uv_index":8.95,"wind_gusts":32.0,"aqi":139,"pm10":66.1,"pm2_5":50.1,"no2":19.7,"co":262.0,"o3":129.0,"so2":57.5,"mosquito_risk":3,"arthritis_risk":5,"migraine_risk":7,"frizz_risk":1,"updated_at":"2026-06-24T17:50:39.074351+05:30"},{"city":"Bhubaneswar","state":"Odisha","latitude":20.2961,"longitude":85.8245,"temp":30.8,"humidity":77,"rain":0.0,"pressure":996.4,"uv_index":8.9,"wind_gusts":33.8,"aqi":139,"pm10":22.8,"pm2_5":21.1,"no2":6.2,"co":345.0,"o3":128.0,"so2":6.6,"mosquito_risk":3,"arthritis_risk":5,"migraine_risk":7,"frizz_risk":1,"updated_at":"2026-06-24T17:50:39.074358+05:30"},{"city":"Cuttack","state":"Odisha","latitude":20.4625,"longitude":85.8828,"temp":30.5,"humidity":82,"rain":0.0,"pressure":998.1,"uv_index":9.1,"wind_gusts":30.6,"aqi":139,"pm10":22.8,"pm2_5":21.1,"no2":6.2,"co":304.0,"o3":128.0,"so2":6.6,"mosquito_risk":3,"arthritis_risk":5,"migraine_risk":7,"frizz_risk":1,"updated_at":"2026-06-24T17:50:39.074365+05:30"},{"city":"Rourkela","state":"Odisha","latitude":22.2604,"longitude":84.8536,"temp":31.0,"humidity":69,"rain":0.0,"pressure":978.7,"uv_index":8.95,"wind_gusts":28.8,"aqi":121,"pm10":29.7,"pm2_5":28.5,"no2":6.4,"co":344.0,"o3":140.0,"so2":10.9,"mosquito_risk":3,"arthritis_risk":5,"migraine_risk":7,"frizz_risk":1,"updated_at":"2026-06-24T17:50:39.074372+05:30"},{"city":"Raipur","state":"Chhattisgarh","latitude":21.2514,"longitude":81.6296,"temp":35.4,"humidity":39,"rain":0.0,"pressure":968.1,"uv_index":8.9,"wind_gusts":31.7,"aqi":59,"pm10":14.9,"pm2_5":14.8,"no2":16.0,"co":270.0,"o3":84.0,"so2":33.3,"mosquito_risk":0,"arthritis_risk":5,"migraine_risk":10,"frizz_risk":1,"updated_at":"2026-06-24T17:50:39.074379+05:30"},{"city":"Bhilai","state":"Chhattisgarh","latitude":21.1938,"longitude":81.3509,"temp":34.7,"humidity":41,"rain":0.0,"pressure":968.5,"uv_index":8.9,"wind_gusts":33.1,"aqi":53,"pm10":13.4,"pm2_5":13.4,"no2":16.9,"co":649.0,"o3":78.0,"so2":31.6,"mosquito_risk":0,"arthritis_risk":5,"migraine_risk":7,"frizz_risk":1,"updated_at":"2026-06-24T17:50:39.074385+05:30"},{"city":"Guwahati","state":"Assam","latitude":26.1158,"longitude":91.7086,"temp":27.5,"humidity":96,"rain":0.0,"pressure":994.0,"uv_index":8.75,"wind_gusts":31.0,"aqi":67,"pm10":23.6,"pm2_5":16.4,"no2":5.7,"co":286.0,"o3":96.0,"so2":2.8,"mosquito_risk":7,"arthritis_risk":5,"migraine_risk":7,"frizz_risk":1,"updated_at":"2026-06-24T17:50:39.074392+05:30"},{"city":"Agartala","state":"Tripura","latitude":23.8315,"longitude":91.2868,"temp":30.3,"humidity":74,"rain":0.0,"pressure":999.2,"uv_index":4.85,"wind_gusts":27.0,"aqi":69,"pm10":42.6,"pm2_5":33.6,"no2":10.1,"co":258.0,"o3":109.0,"so2":7.1,"mosquito_risk":3,"arthritis_risk":5,"migraine_risk":3,"frizz_risk":1,"updated_at":"2026-06-24T17:50:39.074399+05:30"},{"city":"Shillong","state":"Meghalaya","latitude":25.5788,"longitude":91.8933,"temp":21.6,"humidity":96,"rain":0.0,"pressure":853.2,"uv_index":8.1,"wind_gusts":19.1,"aqi":62,"pm10":9.1,"pm2_5":7.1,"no2":7.6,"co":290.0,"o3":94.0,"so2":2.2,"mosquito_risk":3,"arthritis_risk":5,"migraine_risk":7,"frizz_risk":1,"updated_at":"2026-06-24T17:50:39.074407+05:30"},{"city":"Imphal","state":"Manipur","latitude":24.817,"longitude":93.9368,"temp":25.6,"humidity":79,"rain":0.0,"pressure":917.6,"uv_index":7.3,"wind_gusts":24.5,"aqi":49,"pm10":8.8,"pm2_5":7.3,"no2":6.6,"co":267.0,"o3":78.0,"so2":1.8,"mosquito_risk":7,"arthritis_risk":5,"migraine_risk":7,"frizz_risk":1,"updated_at":"2026-06-24T17:50:39.074414+05:30"},{"city":"Aizawl","state":"Mizoram","latitude":23.7271,"longitude":92.7176,"temp":22.4,"humidity":85,"rain":0.0,"pressure":887.8,"uv_index":4.7,"wind_gusts":18.4,"aqi":42,"pm10":16.9,"pm2_5":10.6,"no2":3.7,"co":176.0,"o3":74.0,"so2":0.8,"mosquito_risk":3,"arthritis_risk":5,"migraine_risk":3,"frizz_risk":1,"updated_at":"2026-06-24T17:50:39.074421+05:30"},{"city":"Kohima","state":"Nagaland","latitude":25.6701,"longitude":94.1077,"temp":20.8,"humidity":98,"rain":0.0,"pressure":851.1,"uv_index":7.05,"wind_gusts":27.4,"aqi":44,"pm10":7.2,"pm2_5":5.5,"no2":5.9,"co":222.0,"o3":76.0,"so2":1.1,"mosquito_risk":3,"arthritis_risk":5,"migraine_risk":7,"frizz_risk":1,"updated_at":"2026-06-24T17:50:39.074428+05:30"},{"city":"Gangtok","state":"Sikkim","latitude":27.3314,"longitude":88.6138,"temp":19.0,"humidity":97,"rain":0.3,"pressure":833.3,"uv_index":9.2,"wind_gusts":32.0,"aqi":98,"pm10":5.9,"pm2_5":4.1,"no2":3.8,"co":327.0,"o3":128.0,"so2":3.0,"mosquito_risk":6,"arthritis_risk":10,"migraine_risk":7,"frizz_risk":1,"updated_at":"2026-06-24T17:50:39.074435+05:30"},{"city":"Siliguri","state":"West Bengal","latitude":26.7271,"longitude":88.3953,"temp":28.5,"humidity":89,"rain":0.0,"pressure":985.2,"uv_index":8.75,"wind_gusts":23.8,"aqi":106,"pm10":50.9,"pm2_5":34.3,"no2":8.0,"co":691.0,"o3":121.0,"so2":5.1,"mosquito_risk":7,"arthritis_risk":5,"migraine_risk":7,"frizz_risk":1,"updated_at":"2026-06-24T17:50:42.410543+05:30"},{"city":"Durgapur","state":"West Bengal","latitude":23.5204,"longitude":87.3119,"temp":31.8,"humidity":76,"rain":0.0,"pressure":987.6,"uv_index":9.0,"wind_gusts":28.8,"aqi":188,"pm10":103.4,"pm2_5":86.4,"no2":26.8,"co":954.0,"o3":181.0,"so2":61.2,"mosquito_risk":3,"arthritis_risk":5,"migraine_risk":7,"frizz_risk":1,"updated_at":"2026-06-24T17:50:42.410576+05:30"},{"city":"Asansol","state":"West Bengal","latitude":23.6739,"longitude":86.9524,"temp":32.0,"humidity":74,"rain":0.0,"pressure":986.1,"uv_index":9.0,"wind_gusts":28.1,"aqi":155,"pm10":93.6,"pm2_5":72.6,"no2":25.1,"co":497.0,"o3":159.0,"so2":50.1,"mosquito_risk":3,"arthritis_risk":5,"migraine_risk":7,"frizz_risk":1,"updated_at":"2026-06-24T17:50:42.410587+05:30"},{"city":"Pondicherry","state":"Puducherry","latitude":11.9139,"longitude":79.8145,"temp":30.4,"humidity":75,"rain":0.0,"pressure":1004.5,"uv_index":7.9,"wind_gusts":37.1,"aqi":62,"pm10":31.3,"pm2_5":22.8,"no2":9.9,"co":363.0,"o3":124.0,"so2":10.2,"mosquito_risk":3,"arthritis_risk":5,"migraine_risk":4,"frizz_risk":1,"updated_at":"2026-06-24T17:50:42.410596+05:30"},{"city":"Port Blair","state":"Andaman and Nicobar Islands","latitude":11.6234,"longitude":92.7265,"temp":28.4,"humidity":78,"rain":0.0,"pressure":1005.4,"uv_index":8.65,"wind_gusts":44.6,"aqi":30,"pm10":10.8,"pm2_5":6.5,"no2":0.5,"co":105.0,"o3":48.0,"so2":0.4,"mosquito_risk":7,"arthritis_risk":5,"migraine_risk":4,"frizz_risk":1,"updated_at":"2026-06-24T17:50:42.410604+05:30"},{"city":"Haridwar","state":"Uttarakhand","latitude":29.9457,"longitude":78.1642,"temp":34.0,"humidity":46,"rain":0.0,"pressure":966.2,"uv_index":7.6,"wind_gusts":27.4,"aqi":180,"pm10":90.3,"pm2_5":41.9,"no2":3.0,"co":222.0,"o3":195.0,"so2":11.2,"mosquito_risk":0,"arthritis_risk":5,"migraine_risk":7,"frizz_risk":1,"updated_at":"2026-06-24T17:50:42.410612+05:30"},{"city":"Rishikesh","state":"Uttarakhand","latitude":30.0869,"longitude":78.2676,"temp":33.0,"humidity":46,"rain":0.0,"pressure":959.3,"uv_index":7.7,"wind_gusts":25.2,"aqi":163,"pm10":67.1,"pm2_5":34.9,"no2":1.7,"co":250.0,"o3":190.0,"so2":8.2,"mosquito_risk":0,"arthritis_risk":5,"migraine_risk":7,"frizz_risk":1,"updated_at":"2026-06-24T17:50:42.410620+05:30"},{"city":"Nainital","state":"Uttarakhand","latitude":29.3919,"longitude":79.4542,"temp":19.3,"humidity":87,"rain":0.0,"pressure":802.8,"uv_index":8.05,"wind_gusts":27.7,"aqi":165,"pm10":163.4,"pm2_5":50.1,"no2":2.3,"co":256.0,"o3":178.0,"so2":10.1,"mosquito_risk":3,"arthritis_risk":10,"migraine_risk":7,"frizz_risk":1,"updated_at":"2026-06-24T17:50:42.410627+05:30"},{"city":"Mussoorie","state":"Uttarakhand","latitude":30.4599,"longitude":78.0664,"temp":18.4,"humidity":89,"rain":0.1,"pressure":800.3,"uv_index":7.55,"wind_gusts":38.2,"aqi":163,"pm10":45.1,"pm2_5":29.8,"no2":3.1,"co":247.0,"o3":180.0,"so2":7.5,"mosquito_risk":6,"arthritis_risk":10,"migraine_risk":7,"frizz_risk":1,"updated_at":"2026-06-24T17:50:42.410635+05:30"},{"city":"Dharamshala","state":"Himachal Pradesh","latitude":32.219,"longitude":76.3234,"temp":24.9,"humidity":65,"rain":0.0,"pressure":865.1,"uv_index":8.5,"wind_gusts":34.9,"aqi":106,"pm10":13.9,"pm2_5":10.9,"no2":1.3,"co":284.0,"o3":144.0,"so2":1.1,"mosquito_risk":3,"arthritis_risk":5,"migraine_risk":7,"frizz_risk":1,"updated_at":"2026-06-24T17:50:42.410642+05:30"},{"city":"Dalhousie","state":"Himachal Pradesh","latitude":32.5387,"longitude":75.971,"temp":21.2,"humidity":66,"rain":0.0,"pressure":802.4,"uv_index":8.2,"wind_gusts":33.5,"aqi":148,"pm10":30.5,"pm2_5":21.1,"no2":2.9,"co":257.0,"o3":163.0,"so2":2.6,"mosquito_risk":3,"arthritis_risk":5,"migraine_risk":7,"frizz_risk":0,"updated_at":"2026-06-24T17:50:42.410650+05:30"},{"city":"Patiala","state":"Punjab","latitude":30.3398,"longitude":76.3869,"temp":36.0,"humidity":36,"rain":0.0,"pressure":970.1,"uv_index":7.65,"wind_gusts":35.3,"aqi":184,"pm10":383.7,"pm2_5":78.9,"no2":3.1,"co":201.0,"o3":151.0,"so2":7.2,"mosquito_risk":0,"arthritis_risk":5,"migraine_risk":10,"frizz_risk":1,"updated_at":"2026-06-24T17:50:42.410658+05:30"},{"city":"Bhatinda","state":"Punjab","latitude":30.211,"longitude":74.9455,"temp":37.6,"humidity":30,"rain":0.0,"pressure":974.9,"uv_index":8.25,"wind_gusts":32.4,"aqi":150,"pm10":159.3,"pm2_5":52.2,"no2":4.3,"co":172.0,"o3":144.0,"so2":12.4,"mosquito_risk":0,"arthritis_risk":5,"migraine_risk":10,"frizz_risk":1,"updated_at":"2026-06-24T17:50:42.410666+05:30"},{"city":"Rohtak","state":"Haryana","latitude":28.8955,"longitude":76.6066,"temp":35.8,"humidity":38,"rain":0.0,"pressure":973.3,"uv_index":7.75,"wind_gusts":26.3,"aqi":320,"pm10":389.3,"pm2_5":66.8,"no2":5.2,"co":186.0,"o3":122.0,"so2":3.8,"mosquito_risk":0,"arthritis_risk":5,"migraine_risk":10,"frizz_risk":1,"updated_at":"2026-06-24T17:50:42.410673+05:30"},{"city":"Panipat","state":"Haryana","latitude":29.3909,"longitude":76.9635,"temp":35.3,"humidity":40,"rain":0.0,"pressure":972.2,"uv_index":7.6,"wind_gusts":28.8,"aqi":731,"pm10":486.2,"pm2_5":84.3,"no2":6.0,"co":174.0,"o3":147.0,"so2":14.7,"mosquito_risk":0,"arthritis_risk":5,"migraine_risk":10,"frizz_risk":1,"updated_at":"2026-06-24T17:50:42.410680+05:30"},{"city":"Mathura","state":"Uttar Pradesh","latitude":27.4924,"longitude":77.6737,"temp":35.5,"humidity":38,"rain":0.0,"pressure":978.6,"uv_index":8.05,"wind_gusts":26.6,"aqi":450,"pm10":564.4,"pm2_5":88.0,"no2":5.7,"co":166.0,"o3":111.0,"so2":2.3,"mosquito_risk":0,"arthritis_risk":5,"migraine_risk":10,"frizz_risk":1,"updated_at":"2026-06-24T17:50:42.410687+05:30"},{"city":"Vrindavan","state":"Uttar Pradesh","latitude":27.5823,"longitude":77.7027,"temp":34.9,"humidity":42,"rain":0.0,"pressure":979.0,"uv_index":8.0,"wind_gusts":25.6,"aqi":450,"pm10":564.4,"pm2_5":88.0,"no2":5.7,"co":173.0,"o3":111.0,"so2":2.3,"mosquito_risk":0,"arthritis_risk":5,"migraine_risk":7,"frizz_risk":1,"updated_at":"2026-06-24T17:50:42.410694+05:30"},{"city":"Ayodhya","state":"Uttar Pradesh","latitude":26.7922,"longitude":82.1998,"temp":36.4,"humidity":41,"rain":0.0,"pressure":986.4,"uv_index":8.35,"wind_gusts":27.0,"aqi":158,"pm10":163.0,"pm2_5":57.7,"no2":4.1,"co":201.0,"o3":150.0,"so2":6.6,"mosquito_risk":0,"arthritis_risk":5,"migraine_risk":10,"frizz_risk":1,"updated_at":"2026-06-24T17:50:42.410701+05:30"},{"city":"Ratlam","state":"Madhya Pradesh","latitude":23.3315,"longitude":75.0367,"temp":30.7,"humidity":58,"rain":0.0,"pressure":948.5,"uv_index":7.65,"wind_gusts":40.3,"aqi":75,"pm10":47.6,"pm2_5":21.3,"no2":1.0,"co":124.0,"o3":93.0,"so2":2.5,"mosquito_risk":0,"arthritis_risk":5,"migraine_risk":7,"frizz_risk":1,"updated_at":"2026-06-24T17:50:42.410710+05:30"},{"city":"Sagar","state":"Madhya Pradesh","latitude":23.8388,"longitude":78.7378,"temp":29.4,"humidity":66,"rain":0.0,"pressure":944.3,"uv_index":8.65,"wind_gusts":37.8,"aqi":60,"pm10":55.5,"pm2_5":25.3,"no2":1.6,"co":182.0,"o3":112.0,"so2":2.2,"mosquito_risk":7,"arthritis_risk":5,"migraine_risk":7,"frizz_risk":1,"updated_at":"2026-06-24T17:50:42.410717+05:30"},{"city":"Satna","state":"Madhya Pradesh","latitude":24.6005,"longitude":80.8322,"temp":33.3,"humidity":47,"rain":0.0,"pressure":964.2,"uv_index":8.75,"wind_gusts":38.5,"aqi":80,"pm10":93.4,"pm2_5":34.1,"no2":1.2,"co":153.0,"o3":114.0,"so2":2.4,"mosquito_risk":0,"arthritis_risk":5,"migraine_risk":7,"frizz_risk":1,"updated_at":"2026-06-24T17:50:42.410725+05:30"},{"city":"Akola","state":"Maharashtra","latitude":20.7002,"longitude":77.0082,"temp":24.8,"humidity":94,"rain":0.2,"pressure":970.2,"uv_index":8.5,"wind_gusts":42.5,"aqi":45,"pm10":29.2,"pm2_5":16.6,"no2":4.9,"co":173.0,"o3":86.0,"so2":4.7,"mosquito_risk":6,"arthritis_risk":5,"migraine_risk":7,"frizz_risk":1,"updated_at":"2026-06-24T17:50:42.410734+05:30"},{"city":"Amravati","state":"Maharashtra","latitude":20.9374,"longitude":77.7796,"temp":26.9,"humidity":83,"rain":0.2,"pressure":961.9,"uv_index":8.65,"wind_gusts":39.6,"aqi":46,"pm10":23.1,"pm2_5":13.9,"no2":5.3,"co":215.0,"o3":92.0,"so2":7.2,"mosquito_risk":10,"arthritis_risk":5,"migraine_risk":7,"frizz_risk":1,"updated_at":"2026-06-24T17:50:42.410742+05:30"},{"city":"Latur","state":"Maharashtra","latitude":18.4088,"longitude":76.5604,"temp":29.6,"humidity":50,"rain":0.0,"pressure":935.1,"uv_index":2.45,"wind_gusts":44.6,"aqi":35,"pm10":21.9,"pm2_5":10.9,"no2":2.5,"co":158.0,"o3":81.0,"so2":1.7,"mosquito_risk":4,"arthritis_risk":5,"migraine_risk":3,"frizz_risk":1,"updated_at":"2026-06-24T17:50:42.410749+05:30"},{"city":"Nanded","state":"Maharashtra","latitude":19.1383,"longitude":77.3091,"temp":27.2,"humidity":79,"rain":0.0,"pressure":963.9,"uv_index":7.3,"wind_gusts":42.1,"aqi":32,"pm10":22.4,"pm2_5":13.8,"no2":7.6,"co":195.0,"o3":66.0,"so2":2.1,"mosquito_risk":7,"arthritis_risk":5,"migraine_risk":7,"frizz_risk":1,"updated_at":"2026-06-24T17:50:42.410756+05:30"},{"city":"Gulbarga","state":"Karnataka","latitude":17.3297,"longitude":76.8343,"temp":31.7,"humidity":42,"rain":0.0,"pressure":953.8,"uv_index":5.15,"wind_gusts":61.6,"aqi":34,"pm10":5.5,"pm2_5":4.2,"no2":5.7,"co":145.0,"o3":65.0,"so2":1.6,"mosquito_risk":0,"arthritis_risk":5,"migraine_risk":3,"frizz_risk":1,"updated_at":"2026-06-24T17:50:42.410764+05:30"},{"city":"Bidar","state":"Karnataka","latitude":17.9104,"longitude":77.5199,"temp":27.4,"humidity":66,"rain":0.0,"pressure":931.1,"uv_index":7.55,"wind_gusts":48.6,"aqi":39,"pm10":19.2,"pm2_5":10.7,"no2":4.6,"co":149.0,"o3":83.0,"so2":3.1,"mosquito_risk":7,"arthritis_risk":5,"migraine_risk":7,"frizz_risk":1,"updated_at":"2026-06-24T17:50:42.410771+05:30"},{"city":"Hospet","state":"Karnataka","latitude":15.2689,"longitude":76.3909,"temp":27.6,"humidity":64,"rain":0.0,"pressure":953.1,"uv_index":7.3,"wind_gusts":55.4,"aqi":29,"pm10":6.1,"pm2_5":4.0,"no2":3.5,"co":118.0,"o3":57.0,"so2":1.5,"mosquito_risk":7,"arthritis_risk":5,"migraine_risk":7,"frizz_risk":1,"updated_at":"2026-06-24T17:50:42.410778+05:30"},{"city":"Tirupur","state":"Tamil Nadu","latitude":11.1085,"longitude":77.3411,"temp":27.9,"humidity":70,"rain":0.0,"pressure":973.4,"uv_index":8.8,"wind_gusts":56.2,"aqi":56,"pm10":12.8,"pm2_5":9.9,"no2":7.8,"co":147.0,"o3":76.0,"so2":2.7,"mosquito_risk":7,"arthritis_risk":5,"migraine_risk":7,"frizz_risk":1,"updated_at":"2026-06-24T17:50:42.410784+05:30"},{"city":"Alappuzha","state":"Kerala","latitude":9.4981,"longitude":76.3388,"temp":27.2,"humidity":85,"rain":0.1,"pressure":1009.0,"uv_index":7.3,"wind_gusts":34.9,"aqi":39,"pm10":9.2,"pm2_5":6.2,"no2":5.4,"co":89.0,"o3":48.0,"so2":1.6,"mosquito_risk":10,"arthritis_risk":0,"migraine_risk":4,"frizz_risk":1,"updated_at":"2026-06-24T17:50:42.410791+05:30"},{"city":"Munnar","state":"Kerala","latitude":10.0889,"longitude":77.0595,"temp":17.7,"humidity":99,"rain":0.0,"pressure":856.5,"uv_index":7.65,"wind_gusts":41.4,"aqi":27,"pm10":3.1,"pm2_5":2.7,"no2":4.2,"co":102.0,"o3":52.0,"so2":1.2,"mosquito_risk":3,"arthritis_risk":10,"migraine_risk":7,"frizz_risk":1,"updated_at":"2026-06-24T17:50:42.410799+05:30"},{"city":"Silchar","state":"Assam","latitude":24.8333,"longitude":92.7789,"temp":28.9,"humidity":82,"rain":0.0,"pressure":998.6,"uv_index":8.15,"wind_gusts":22.0,"aqi":66,"pm10":25.6,"pm2_5":18.5,"no2":6.0,"co":258.0,"o3":82.0,"so2":3.7,"mosquito_risk":7,"arthritis_risk":5,"migraine_risk":7,"frizz_risk":1,"updated_at":"2026-06-24T17:50:42.410805+05:30"},{"city":"Dibrugarh","state":"Assam","latitude":27.4728,"longitude":94.912,"temp":28.1,"humidity":88,"rain":0.0,"pressure":988.3,"uv_index":8.95,"wind_gusts":29.2,"aqi":70,"pm10":16.7,"pm2_5":15.1,"no2":7.9,"co":272.0,"o3":95.0,"so2":1.9,"mosquito_risk":7,"arthritis_risk":5,"migraine_risk":7,"frizz_risk":1,"updated_at":"2026-06-24T17:50:42.410812+05:30"}]