[{"city":"Delhi","state":"Delhi","latitude":28.6139,"longitude":77.209,"temp":34.0,"humidity":26,"rain":0.0,"pressure":982.3,"uv_index":7.4,"wind_gusts":51.8,"aqi":533,"pm10":336.2,"pm2_5":85.2,"mosquito_risk":0,"arthritis_risk":5,"migraine_risk":7,"frizz_risk":0,"updated_at":"2026-04-26T08:50:17.003122+05:30"},{"city":"Mumbai","state":"Maharashtra","latitude":19.076,"longitude":72.8777,"temp":31.5,"humidity":53,"rain":0.0,"pressure":1008.2,"uv_index":7.55,"wind_gusts":36.7,"aqi":83,"pm10":71.0,"pm2_5":30.5,"mosquito_risk":0,"arthritis_risk":0,"migraine_risk":4,"frizz_risk":1,"updated_at":"2026-04-26T08:50:17.003160+05:30"},{"city":"Bangalore","state":"Karnataka","latitude":12.9716,"longitude":77.5946,"temp":27.5,"humidity":52,"rain":0.0,"pressure":914.2,"uv_index":9.6,"wind_gusts":38.2,"aqi":80,"pm10":32.8,"pm2_5":28.1,"mosquito_risk":4,"arthritis_risk":5,"migraine_risk":7,"frizz_risk":1,"updated_at":"2026-04-26T08:50:17.003175+05:30"},{"city":"Hyderabad","state":"Telangana","latitude":17.385,"longitude":78.4867,"temp":32.2,"humidity":40,"rain":0.0,"pressure":955.0,"uv_index":9.25,"wind_gusts":27.0,"aqi":98,"pm10":24.4,"pm2_5":20.8,"mosquito_risk":0,"arthritis_risk":5,"migraine_risk":7,"frizz_risk":1,"updated_at":"2026-04-26T08:50:17.003185+05:30"},{"city":"Chennai","state":"Tamil Nadu","latitude":13.0827,"longitude":80.2707,"temp":31.7,"humidity":65,"rain":0.0,"pressure":1008.9,"uv_index":9.25,"wind_gusts":51.8,"aqi":34,"pm10":15.8,"pm2_5":10.0,"mosquito_risk":3,"arthritis_risk":0,"migraine_risk":4,"frizz_risk":1,"updated_at":"2026-04-26T08:50:17.003194+05:30"},{"city":"Kolkata","state":"West Bengal","latitude":22.5726,"longitude":88.3639,"temp":32.3,"humidity":64,"rain":0.0,"pressure":1005.4,"uv_index":8.65,"wind_gusts":46.8,"aqi":71,"pm10":20.5,"pm2_5":14.7,"mosquito_risk":3,"arthritis_risk":5,"migraine_risk":4,"frizz_risk":1,"updated_at":"2026-04-26T08:50:17.003206+05:30"},{"city":"Pune","state":"Maharashtra","latitude":18.5204,"longitude":73.8567,"temp":33.5,"humidity":17,"rain":0.0,"pressure":949.5,"uv_index":8.55,"wind_gusts":37.1,"aqi":83,"pm10":23.7,"pm2_5":20.4,"mosquito_risk":0,"arthritis_risk":5,"migraine_risk":7,"frizz_risk":0,"updated_at":"2026-04-26T08:50:17.003214+05:30"},{"city":"Ahmedabad","state":"Gujarat","latitude":23.0225,"longitude":72.5714,"temp":31.4,"humidity":54,"rain":0.0,"pressure":1002.2,"uv_index":8.2,"wind_gusts":38.9,"aqi":65,"pm10":41.3,"pm2_5":16.8,"mosquito_risk":0,"arthritis_risk":5,"migraine_risk":4,"frizz_risk":1,"updated_at":"2026-04-26T08:50:17.003222+05:30"},{"city":"Jaipur","state":"Rajasthan","latitude":26.9124,"longitude":75.7873,"temp":35.7,"humidity":20,"rain":0.0,"pressure":960.4,"uv_index":8.05,"wind_gusts":46.1,"aqi":134,"pm10":105.9,"pm2_5":32.1,"mosquito_risk":0,"arthritis_risk":5,"migraine_risk":10,"frizz_risk":0,"updated_at":"2026-04-26T08:50:17.003230+05:30"},{"city":"Lucknow","state":"Uttar Pradesh","latitude":26.8467,"longitude":80.9462,"temp":33.5,"humidity":39,"rain":0.0,"pressure":991.9,"uv_index":7.9,"wind_gusts":49.3,"aqi":146,"pm10":258.9,"pm2_5":80.8,"mosquito_risk":0,"arthritis_risk":5,"migraine_risk":7,"frizz_risk":1,"updated_at":"2026-04-26T08:50:17.003238+05:30"},{"city":"Kanpur","state":"Uttar Pradesh","latitude":26.4499,"longitude":80.3319,"temp":36.4,"humidity":21,"rain":0.0,"pressure":990.2,"uv_index":7.9,"wind_gusts":49.7,"aqi":344,"pm10":527.1,"pm2_5":111.3,"mosquito_risk":0,"arthritis_risk":5,"migraine_risk":10,"frizz_risk":0,"updated_at":"2026-04-26T08:50:17.003246+05:30"},{"city":"Chandigarh","state":"Chandigarh","latitude":30.7333,"longitude":76.7794,"temp":34.2,"humidity":23,"rain":0.0,"pressure":967.8,"uv_index":7.4,"wind_gusts":45.4,"aqi":66,"pm10":80.8,"pm2_5":26.0,"mosquito_risk":0,"arthritis_risk":5,"migraine_risk":7,"frizz_risk":0,"updated_at":"2026-04-26T08:50:17.003254+05:30"},{"city":"Srinagar","state":"Jammu and Kashmir","latitude":34.0837,"longitude":74.7973,"temp":13.5,"humidity":85,"rain":0.0,"pressure":845.9,"uv_index":8.6,"wind_gusts":15.8,"aqi":80,"pm10":38.9,"pm2_5":26.3,"mosquito_risk":3,"arthritis_risk":10,"migraine_risk":7,"frizz_risk":0,"updated_at":"2026-04-26T08:50:17.003261+05:30"},{"city":"Jammu","state":"Jammu and Kashmir","latitude":32.7266,"longitude":74.857,"temp":28.9,"humidity":38,"rain":0.0,"pressure":972.1,"uv_index":8.2,"wind_gusts":35.3,"aqi":76,"pm10":31.9,"pm2_5":23.7,"mosquito_risk":4,"arthritis_risk":5,"migraine_risk":7,"frizz_risk":0,"updated_at":"2026-04-26T08:50:17.003268+05:30"},{"city":"Amritsar","state":"Punjab","latitude":31.634,"longitude":74.8723,"temp":30.2,"humidity":36,"rain":0.0,"pressure":980.2,"uv_index":8.1,"wind_gusts":33.8,"aqi":97,"pm10":95.7,"pm2_5":35.4,"mosquito_risk":0,"arthritis_risk":5,"migraine_risk":7,"frizz_risk":0,"updated_at":"2026-04-26T08:50:17.003277+05:30"},{"city":"Ludhiana","state":"Punjab","latitude":30.901,"longitude":75.8573,"temp":30.7,"humidity":37,"rain":0.0,"pressure":978.0,"uv_index":7.65,"wind_gusts":38.9,"aqi":86,"pm10":68.7,"pm2_5":35.3,"mosquito_risk":0,"arthritis_risk":5,"migraine_risk":7,"frizz_risk":0,"updated_at":"2026-04-26T08:50:17.003286+05:30"},{"city":"Jalandhar","state":"Punjab","latitude":31.326,"longitude":75.5762,"temp":29.9,"humidity":39,"rain":0.0,"pressure":979.0,"uv_index":7.85,"wind_gusts":34.9,"aqi":95,"pm10":98.5,"pm2_5":41.6,"mosquito_risk":4,"arthritis_risk":5,"migraine_risk":7,"frizz_risk":0,"updated_at":"2026-04-26T08:50:17.003293+05:30"},{"city":"Dehradun","state":"Uttarakhand","latitude":30.6284,"longitude":78.0322,"temp":22.6,"humidity":37,"rain":0.0,"pressure":832.6,"uv_index":7.8,"wind_gusts":52.2,"aqi":43,"pm10":26.4,"pm2_5":7.5,"mosquito_risk":0,"arthritis_risk":5,"migraine_risk":7,"frizz_risk":0,"updated_at":"2026-04-26T08:50:17.003300+05:30"},{"city":"Shimla","state":"Himachal Pradesh","latitude":31.1048,"longitude":77.1734,"temp":20.7,"humidity":27,"rain":0.0,"pressure":787.8,"uv_index":7.9,"wind_gusts":48.6,"aqi":55,"pm10":77.1,"pm2_5":16.2,"mosquito_risk":0,"arthritis_risk":5,"migraine_risk":7,"frizz_risk":0,"updated_at":"2026-04-26T08:50:17.003307+05:30"},{"city":"Manali","state":"Himachal Pradesh","latitude":32.2396,"longitude":77.1887,"temp":19.2,"humidity":32,"rain":0.0,"pressure":820.3,"uv_index":9.35,"wind_gusts":45.0,"aqi":46,"pm10":4.1,"pm2_5":1.8,"mosquito_risk":0,"arthritis_risk":5,"migraine_risk":7,"frizz_risk":0,"updated_at":"2026-04-26T08:50:17.003314+05:30"},{"city":"Gurgaon","state":"Haryana","latitude":28.4595,"longitude":77.0266,"temp":32.5,"humidity":29,"rain":0.0,"pressure":980.8,"uv_index":7.55,"wind_gusts":53.6,"aqi":1425,"pm10":1017.0,"pm2_5":144.8,"mosquito_risk":0,"arthritis_risk":5,"migraine_risk":7,"frizz_risk":0,"updated_at":"2026-04-26T08:50:17.003321+05:30"},{"city":"Noida","state":"Uttar Pradesh","latitude":28.5355,"longitude":77.391,"temp":34.2,"humidity":27,"rain":0.0,"pressure":983.5,"uv_index":7.45,"wind_gusts":44.6,"aqi":1425,"pm10":1017.0,"pm2_5":144.8,"mosquito_risk":0,"arthritis_risk":5,"migraine_risk":7,"frizz_risk":0,"updated_at":"2026-04-26T08:50:17.003327+05:30"},{"city":"Ghaziabad","state":"Uttar Pradesh","latitude":28.6692,"longitude":77.4538,"temp":34.5,"humidity":25,"rain":0.0,"pressure":981.8,"uv_index":7.4,"wind_gusts":50.8,"aqi":398,"pm10":328.8,"pm2_5":83.8,"mosquito_risk":0,"arthritis_risk":5,"migraine_risk":7,"frizz_risk":0,"updated_at":"2026-04-26T08:50:17.003334+05:30"},{"city":"Faridabad","state":"Haryana","latitude":28.4089,"longitude":77.3178,"temp":34.3,"humidity":26,"rain":0.0,"pressure":982.9,"uv_index":7.5,"wind_gusts":53.6,"aqi":1425,"pm10":1017.0,"pm2_5":144.8,"mosquito_risk":0,"arthritis_risk":5,"migraine_risk":7,"frizz_risk":0,"updated_at":"2026-04-26T08:50:17.003340+05:30"},{"city":"Meerut","state":"Uttar Pradesh","latitude":28.9845,"longitude":77.7064,"temp":32.3,"humidity":35,"rain":0.0,"pressure":980.3,"uv_index":7.35,"wind_gusts":48.6,"aqi":398,"pm10":328.8,"pm2_5":83.8,"mosquito_risk":0,"arthritis_risk":5,"migraine_risk":7,"frizz_risk":0,"updated_at":"2026-04-26T08:50:17.003346+05:30"},{"city":"Agra","state":"Uttar Pradesh","latitude":27.1767,"longitude":78.0081,"temp":34.3,"humidity":26,"rain":0.0,"pressure":987.0,"uv_index":7.8,"wind_gusts":45.0,"aqi":980,"pm10":771.1,"pm2_5":139.7,"mosquito_risk":0,"arthritis_risk":5,"migraine_risk":7,"frizz_risk":0,"updated_at":"2026-04-26T08:50:17.003355+05:30"},{"city":"Varanasi","state":"Uttar Pradesh","latitude":25.3176,"longitude":82.9739,"temp":33.5,"humidity":49,"rain":0.0,"pressure":995.7,"uv_index":8.5,"wind_gusts":49.7,"aqi":138,"pm10":121.1,"pm2_5":60.3,"mosquito_risk":0,"arthritis_risk":5,"migraine_risk":7,"frizz_risk":1,"updated_at":"2026-04-26T08:50:17.003362+05:30"},{"city":"Prayagraj","state":"Uttar Pradesh","latitude":25.4358,"longitude":81.8463,"temp":34.2,"humidity":25,"rain":0.0,"pressure":994.6,"uv_index":8.4,"wind_gusts":47.5,"aqi":122,"pm10":90.6,"pm2_5":63.8,"mosquito_risk":0,"arthritis_risk":5,"migraine_risk":7,"frizz_risk":0,"updated_at":"2026-04-26T08:50:17.003369+05:30"},{"city":"Gorakhpur","state":"Uttar Pradesh","latitude":26.7606,"longitude":83.3732,"temp":31.4,"humidity":48,"rain":0.0,"pressure":996.3,"uv_index":8.35,"wind_gusts":45.4,"aqi":151,"pm10":99.7,"pm2_5":62.6,"mosquito_risk":0,"arthritis_risk":5,"migraine_risk":7,"frizz_risk":1,"updated_at":"2026-04-26T08:50:17.003376+05:30"},{"city":"Bareilly","state":"Uttar Pradesh","latitude":28.367,"longitude":79.4304,"temp":32.7,"humidity":30,"rain":0.0,"pressure":985.2,"uv_index":7.65,"wind_gusts":45.4,"aqi":114,"pm10":137.8,"pm2_5":61.2,"mosquito_risk":0,"arthritis_risk":5,"migraine_risk":7,"frizz_risk":0,"updated_at":"2026-04-26T08:50:17.003383+05:30"},{"city":"Aligarh","state":"Uttar Pradesh","latitude":27.8974,"longitude":78.088,"temp":34.5,"humidity":26,"rain":0.0,"pressure":984.5,"uv_index":7.6,"wind_gusts":55.4,"aqi":822,"pm10":670.6,"pm2_5":123.9,"mosquito_risk":0,"arthritis_risk":5,"migraine_risk":7,"frizz_risk":0,"updated_at":"2026-04-26T08:50:17.003389+05:30"},{"city":"Moradabad","state":"Uttar Pradesh","latitude":28.8386,"longitude":78.7733,"temp":31.8,"humidity":29,"rain":0.0,"pressure":982.5,"uv_index":7.5,"wind_gusts":54.0,"aqi":142,"pm10":98.0,"pm2_5":50.4,"mosquito_risk":0,"arthritis_risk":5,"migraine_risk":7,"frizz_risk":0,"updated_at":"2026-04-26T08:50:17.003397+05:30"},{"city":"Saharanpur","state":"Uttar Pradesh","latitude":29.9637,"longitude":77.546,"temp":32.0,"humidity":32,"rain":0.0,"pressure":974.2,"uv_index":7.1,"wind_gusts":53.6,"aqi":92,"pm10":78.7,"pm2_5":35.6,"mosquito_risk":0,"arthritis_risk":5,"migraine_risk":7,"frizz_risk":0,"updated_at":"2026-04-26T08:50:17.003403+05:30"},{"city":"Jhansi","state":"Uttar Pradesh","latitude":25.4484,"longitude":78.5685,"temp":36.0,"humidity":22,"rain":0.0,"pressure":977.8,"uv_index":8.3,"wind_gusts":40.7,"aqi":90,"pm10":336.2,"pm2_5":65.4,"mosquito_risk":0,"arthritis_risk":5,"migraine_risk":10,"frizz_risk":0,"updated_at":"2026-04-26T08:50:20.353640+05:30"},{"city":"Surat","state":"Gujarat","latitude":21.1702,"longitude":72.8311,"temp":33.0,"humidity":32,"rain":0.0,"pressure":1006.8,"uv_index":7.85,"wind_gusts":33.5,"aqi":101,"pm10":90.1,"pm2_5":54.9,"mosquito_risk":0,"arthritis_risk":5,"migraine_risk":4,"frizz_risk":0,"updated_at":"2026-04-26T08:50:20.353713+05:30"},{"city":"Vadodara","state":"Gujarat","latitude":22.3072,"longitude":73.1812,"temp":31.9,"humidity":37,"rain":0.0,"pressure":1004.7,"uv_index":8.15,"wind_gusts":37.1,"aqi":73,"pm10":49.5,"pm2_5":27.6,"mosquito_risk":0,"arthritis_risk":5,"migraine_risk":4,"frizz_risk":0,"updated_at":"2026-04-26T08:50:20.353726+05:30"},{"city":"Rajkot","state":"Gujarat","latitude":22.3039,"longitude":70.8022,"temp":29.5,"humidity":64,"rain":0.0,"pressure":994.9,"uv_index":7.85,"wind_gusts":37.4,"aqi":59,"pm10":46.0,"pm2_5":15.7,"mosquito_risk":7,"arthritis_risk":5,"migraine_risk":7,"frizz_risk":1,"updated_at":"2026-04-26T08:50:20.353736+05:30"},{"city":"Thane","state":"Maharashtra","latitude":19.2183,"longitude":72.9781,"temp":32.1,"humidity":45,"rain":0.0,"pressure":1007.6,"uv_index":7.65,"wind_gusts":30.6,"aqi":83,"pm10":71.0,"pm2_5":30.5,"mosquito_risk":0,"arthritis_risk":5,"migraine_risk":4,"frizz_risk":1,"updated_at":"2026-04-26T08:50:20.353744+05:30"},{"city":"Nagpur","state":"Maharashtra","latitude":21.1458,"longitude":79.0882,"temp":35.5,"humidity":20,"rain":0.0,"pressure":973.5,"uv_index":8.9,"wind_gusts":32.8,"aqi":95,"pm10":41.7,"pm2_5":37.0,"mosquito_risk":0,"arthritis_risk":5,"migraine_risk":10,"frizz_risk":0,"updated_at":"2026-04-26T08:50:20.353756+05:30"},{"city":"Nashik","state":"Maharashtra","latitude":19.9975,"longitude":73.7898,"temp":33.7,"humidity":19,"rain":0.0,"pressure":946.8,"uv_index":8.2,"wind_gusts":39.6,"aqi":71,"pm10":34.3,"pm2_5":16.8,"mosquito_risk":0,"arthritis_risk":5,"migraine_risk":7,"frizz_risk":0,"updated_at":"2026-04-26T08:50:20.353766+05:30"},{"city":"Aurangabad","state":"Maharashtra","latitude":19.8762,"longitude":75.3433,"temp":35.3,"humidity":16,"rain":0.0,"pressure":945.6,"uv_index":9.05,"wind_gusts":37.8,"aqi":71,"pm10":24.8,"pm2_5":17.5,"mosquito_risk":0,"arthritis_risk":5,"migraine_risk":10,"frizz_risk":0,"updated_at":"2026-04-26T08:50:20.353775+05:30"},{"city":"Solapur","state":"Maharashtra","latitude":17.6599,"longitude":75.9064,"temp":33.6,"humidity":29,"rain":0.0,"pressure":958.5,"uv_index":8.85,"wind_gusts":27.0,"aqi":115,"pm10":46.8,"pm2_5":42.8,"mosquito_risk":0,"arthritis_risk":5,"migraine_risk":7,"frizz_risk":0,"updated_at":"2026-04-26T08:50:20.353783+05:30"},{"city":"Kolhapur","state":"Maharashtra","latitude":16.705,"longitude":74.2433,"temp":30.8,"humidity":47,"rain":0.0,"pressure":949.2,"uv_index":8.75,"wind_gusts":46.1,"aqi":138,"pm10":65.0,"pm2_5":60.5,"mosquito_risk":0,"arthritis_risk":5,"migraine_risk":7,"frizz_risk":1,"updated_at":"2026-04-26T08:50:20.353792+05:30"},{"city":"Goa","state":"Goa","latitude":15.2993,"longitude":74.124,"temp":32.2,"humidity":68,"rain":0.0,"pressure":998.6,"uv_index":9.0,"wind_gusts":38.2,"aqi":82,"pm10":37.8,"pm2_5":27.9,"mosquito_risk":3,"arthritis_risk":5,"migraine_risk":7,"frizz_risk":1,"updated_at":"2026-04-26T08:50:20.353800+05:30"},{"city":"Jodhpur","state":"Rajasthan","latitude":26.2389,"longitude":73.0243,"temp":34.6,"humidity":22,"rain":0.0,"pressure":983.2,"uv_index":8.3,"wind_gusts":35.3,"aqi":81,"pm10":83.4,"pm2_5":25.7,"mosquito_risk":0,"arthritis_risk":5,"migraine_risk":7,"frizz_risk":0,"updated_at":"2026-04-26T08:50:20.353808+05:30"},{"city":"Udaipur","state":"Rajasthan","latitude":24.5854,"longitude":73.7125,"temp":34.8,"humidity":20,"rain":0.0,"pressure":948.0,"uv_index":8.8,"wind_gusts":29.9,"aqi":56,"pm10":18.7,"pm2_5":8.7,"mosquito_risk":0,"arthritis_risk":5,"migraine_risk":7,"frizz_risk":0,"updated_at":"2026-04-26T08:50:20.353816+05:30"},{"city":"Kota","state":"Rajasthan","latitude":25.2138,"longitude":75.8648,"temp":35.1,"humidity":23,"rain":0.0,"pressure":979.2,"uv_index":8.3,"wind_gusts":41.4,"aqi":84,"pm10":101.5,"pm2_5":34.8,"mosquito_risk":0,"arthritis_risk":5,"migraine_risk":10,"frizz_risk":0,"updated_at":"2026-04-26T08:50:20.353824+05:30"},{"city":"Bikaner","state":"Rajasthan","latitude":28.0229,"longitude":73.3119,"temp":34.3,"humidity":26,"rain":0.0,"pressure":981.8,"uv_index":8.15,"wind_gusts":32.4,"aqi":75,"pm10":105.7,"pm2_5":24.6,"mosquito_risk":0,"arthritis_risk":5,"migraine_risk":7,"frizz_risk":0,"updated_at":"2026-04-26T08:50:20.353832+05:30"},{"city":"Ajmer","state":"Rajasthan","latitude":26.4499,"longitude":74.6399,"temp":34.2,"humidity":22,"rain":0.0,"pressure":956.0,"uv_index":8.25,"wind_gusts":46.8,"aqi":76,"pm10":91.0,"pm2_5":26.1,"mosquito_risk":0,"arthritis_risk":5,"migraine_risk":7,"frizz_risk":0,"updated_at":"2026-04-26T08:50:20.353839+05:30"},{"city":"Gwalior","state":"Madhya Pradesh","latitude":26.2183,"longitude":78.1828,"temp":36.5,"humidity":20,"rain":0.0,"pressure":982.7,"uv_index":8.0,"wind_gusts":48.6,"aqi":126,"pm10":365.1,"pm2_5":82.0,"mosquito_risk":0,"arthritis_risk":5,"migraine_risk":10,"frizz_risk":0,"updated_at":"2026-04-26T08:50:20.353847+05:30"},{"city":"Indore","state":"Madhya Pradesh","latitude":22.7196,"longitude":75.8577,"temp":34.8,"humidity":17,"rain":0.0,"pressure":949.6,"uv_index":8.65,"wind_gusts":49.0,"aqi":63,"pm10":19.7,"pm2_5":12.5,"mosquito_risk":0,"arthritis_risk":5,"migraine_risk":7,"frizz_risk":0,"updated_at":"2026-04-26T08:50:20.353854+05:30"},{"city":"Bhopal","state":"Madhya Pradesh","latitude":23.2599,"longitude":77.4126,"temp":35.9,"humidity":19,"rain":0.0,"pressure":954.6,"uv_index":8.6,"wind_gusts":34.6,"aqi":61,"pm10":66.1,"pm2_5":28.2,"mosquito_risk":0,"arthritis_risk":5,"migraine_risk":10,"frizz_risk":0,"updated_at":"2026-04-26T08:50:20.353861+05:30"},{"city":"Jabalpur","state":"Madhya Pradesh","latitude":23.1815,"longitude":79.9864,"temp":35.2,"humidity":20,"rain":0.0,"pressure":961.8,"uv_index":8.75,"wind_gusts":39.6,"aqi":48,"pm10":85.7,"pm2_5":27.4,"mosquito_risk":0,"arthritis_risk":5,"migraine_risk":10,"frizz_risk":0,"updated_at":"2026-04-26T08:50:20.353869+05:30"},{"city":"Ujjain","state":"Madhya Pradesh","latitude":23.1765,"longitude":75.7885,"temp":34.8,"humidity":19,"rain":0.0,"pressure":955.0,"uv_index":8.55,"wind_gusts":50.0,"aqi":70,"pm10":24.5,"pm2_5":14.7,"mosquito_risk":0,"arthritis_risk":5,"migraine_risk":7,"frizz_risk":0,"updated_at":"2026-04-26T08:50:20.353877+05:30"},{"city":"Visakhapatnam","state":"Andhra Pradesh","latitude":17.6868,"longitude":83.2185,"temp":31.4,"humidity":66,"rain":0.0,"pressure":1004.8,"uv_index":8.8,"wind_gusts":47.9,"aqi":55,"pm10":23.1,"pm2_5":17.6,"mosquito_risk":3,"arthritis_risk":5,"migraine_risk":4,"frizz_risk":1,"updated_at":"2026-04-26T08:50:20.353885+05:30"},{"city":"Vijayawada","state":"Andhra Pradesh","latitude":16.5062,"longitude":80.648,"temp":32.2,"humidity":66,"rain":0.0,"pressure":1003.8,"uv_index":8.9,"wind_gusts":37.8,"aqi":52,"pm10":19.3,"pm2_5":12.5,"mosquito_risk":3,"arthritis_risk":5,"migraine_risk":4,"frizz_risk":1,"updated_at":"2026-04-26T08:50:20.353892+05:30"},{"city":"Guntur","state":"Andhra Pradesh","latitude":16.3067,"longitude":80.4365,"temp":32.5,"humidity":64,"rain":0.0,"pressure":1004.9,"uv_index":8.9,"wind_gusts":39.6,"aqi":53,"pm10":18.5,"pm2_5":12.6,"mosquito_risk":3,"arthritis_risk":5,"migraine_risk":4,"frizz_risk":1,"updated_at":"2026-04-26T08:50:20.353901+05:30"},{"city":"Nellore","state":"Andhra Pradesh","latitude":14.4426,"longitude":79.9865,"temp":31.5,"humidity":63,"rain":0.0,"pressure":1007.3,"uv_index":9.2,"wind_gusts":45.4,"aqi":48,"pm10":15.3,"pm2_5":11.6,"mosquito_risk":3,"arthritis_risk":5,"migraine_risk":4,"frizz_risk":1,"updated_at":"2026-04-26T08:50:20.353909+05:30"},{"city":"Kurnool","state":"Andhra Pradesh","latitude":15.8281,"longitude":78.0373,"temp":35.2,"humidity":35,"rain":0.0,"pressure":978.1,"uv_index":9.2,"wind_gusts":32.4,"aqi":83,"pm10":24.9,"pm2_5":22.1,"mosquito_risk":0,"arthritis_risk":5,"migraine_risk":10,"frizz_risk":1,"updated_at":"2026-04-26T08:50:20.353918+05:30"},{"city":"Kakinada","state":"Andhra Pradesh","latitude":16.9891,"longitude":82.2475,"temp":32.0,"humidity":64,"rain":0.0,"pressure":1008.8,"uv_index":8.95,"wind_gusts":46.8,"aqi":42,"pm10":19.2,"pm2_5":11.5,"mosquito_risk":3,"arthritis_risk":0,"migraine_risk":4,"frizz_risk":1,"updated_at":"2026-04-26T08:50:20.353924+05:30"},{"city":"Tirupati","state":"Andhra Pradesh","latitude":13.6288,"longitude":79.4192,"temp":30.6,"humidity":60,"rain":0.0,"pressure":993.2,"uv_index":9.3,"wind_gusts":44.3,"aqi":62,"pm10":15.6,"pm2_5":11.6,"mosquito_risk":0,"arthritis_risk":5,"migraine_risk":7,"frizz_risk":1,"updated_at":"2026-04-26T08:50:20.353930+05:30"},{"city":"Warangal","state":"Telangana","latitude":17.9689,"longitude":79.5941,"temp":30.8,"humidity":59,"rain":0.0,"pressure":980.2,"uv_index":8.85,"wind_gusts":36.0,"aqi":86,"pm10":19.6,"pm2_5":16.8,"mosquito_risk":0,"arthritis_risk":5,"migraine_risk":7,"frizz_risk":1,"updated_at":"2026-04-26T08:50:20.353936+05:30"},{"city":"Nizamabad","state":"Telangana","latitude":18.6725,"longitude":78.0941,"temp":34.3,"humidity":35,"rain":0.0,"pressure":966.0,"uv_index":9.15,"wind_gusts":31.0,"aqi":119,"pm10":32.9,"pm2_5":29.9,"mosquito_risk":0,"arthritis_risk":5,"migraine_risk":7,"frizz_risk":1,"updated_at":"2026-04-26T08:50:20.353942+05:30"},{"city":"Mysore","state":"Karnataka","latitude":12.2958,"longitude":76.6396,"temp":27.1,"humidity":71,"rain":0.0,"pressure":930.6,"uv_index":9.45,"wind_gusts":36.7,"aqi":79,"pm10":38.8,"pm2_5":35.7,"mosquito_risk":7,"arthritis_risk":5,"migraine_risk":7,"frizz_risk":1,"updated_at":"2026-04-26T08:50:20.353949+05:30"},{"city":"Mangalore","state":"Karnataka","latitude":12.9141,"longitude":74.856,"temp":30.2,"humidity":77,"rain":0.0,"pressure":1008.0,"uv_index":9.1,"wind_gusts":37.1,"aqi":71,"pm10":28.5,"pm2_5":21.6,"mosquito_risk":3,"arthritis_risk":0,"migraine_risk":4,"frizz_risk":1,"updated_at":"2026-04-26T08:50:20.353955+05:30"},{"city":"Hubli-Dharwad","state":"Karnataka","latitude":15.3647,"longitude":75.124,"temp":29.0,"humidity":68,"rain":0.0,"pressure":942.4,"uv_index":9.2,"wind_gusts":49.7,"aqi":97,"pm10":38.8,"pm2_5":32.7,"mosquito_risk":7,"arthritis_risk":5,"migraine_risk":7,"frizz_risk":1,"updated_at":"2026-04-26T08:50:20.353962+05:30"},{"city":"Belgaum","state":"Karnataka","latitude":15.8497,"longitude":74.4977,"temp":29.1,"humidity":56,"rain":0.0,"pressure":927.8,"uv_index":9.1,"wind_gusts":40.7,"aqi":122,"pm10":46.7,"pm2_5":38.9,"mosquito_risk":4,"arthritis_risk":5,"migraine_risk":7,"frizz_risk":1,"updated_at":"2026-04-26T08:50:23.696202+05:30"},{"city":"Coimbatore","state":"Tamil Nadu","latitude":11.0168,"longitude":76.9558,"temp":30.0,"humidity":53,"rain":0.0,"pressure":963.7,"uv_index":9.35,"wind_gusts":37.1,"aqi":74,"pm10":24.6,"pm2_5":20.6,"mosquito_risk":4,"arthritis_risk":5,"migraine_risk":7,"frizz_risk":1,"updated_at":"2026-04-26T08:50:23.696231+05:30"},{"city":"Madurai","state":"Tamil Nadu","latitude":9.9252,"longitude":78.1198,"temp":31.0,"humidity":64,"rain":0.0,"pressure":994.7,"uv_index":9.25,"wind_gusts":37.8,"aqi":55,"pm10":10.8,"pm2_5":9.3,"mosquito_risk":3,"arthritis_risk":5,"migraine_risk":7,"frizz_risk":1,"updated_at":"2026-04-26T08:50:23.696241+05:30"},{"city":"Trichy","state":"Tamil Nadu","latitude":10.7905,"longitude":78.7047,"temp":30.7,"humidity":70,"rain":0.0,"pressure":1001.6,"uv_index":9.25,"wind_gusts":34.9,"aqi":53,"pm10":12.5,"pm2_5":9.9,"mosquito_risk":3,"arthritis_risk":5,"migraine_risk":4,"frizz_risk":1,"updated_at":"2026-04-26T08:50:23.696249+05:30"},{"city":"Salem","state":"Tamil Nadu","latitude":11.6643,"longitude":78.146,"temp":30.3,"humidity":57,"rain":0.0,"pressure":979.5,"uv_index":9.35,"wind_gusts":42.1,"aqi":67,"pm10":15.3,"pm2_5":11.3,"mosquito_risk":0,"arthritis_risk":5,"migraine_risk":7,"frizz_risk":1,"updated_at":"2026-04-26T08:50:23.696257+05:30"},{"city":"Tirunelveli","state":"Tamil Nadu","latitude":8.7139,"longitude":77.7567,"temp":31.6,"humidity":56,"rain":0.0,"pressure":1004.7,"uv_index":9.2,"wind_gusts":40.3,"aqi":51,"pm10":9.7,"pm2_5":9.0,"mosquito_risk":0,"arthritis_risk":5,"migraine_risk":4,"frizz_risk":1,"updated_at":"2026-04-26T08:50:23.696264+05:30"},{"city":"Vellore","state":"Tamil Nadu","latitude":12.9165,"longitude":79.1325,"temp":30.8,"humidity":56,"rain":0.0,"pressure":986.5,"uv_index":9.35,"wind_gusts":38.9,"aqi":81,"pm10":20.3,"pm2_5":15.8,"mosquito_risk":0,"arthritis_risk":5,"migraine_risk":7,"frizz_risk":1,"updated_at":"2026-04-26T08:50:23.696271+05:30"},{"city":"Erode","state":"Tamil Nadu","latitude":11.341,"longitude":77.7172,"temp":30.5,"humidity":64,"rain":0.0,"pressure":991.0,"uv_index":9.3,"wind_gusts":42.5,"aqi":57,"pm10":11.8,"pm2_5":9.1,"mosquito_risk":3,"arthritis_risk":5,"migraine_risk":7,"frizz_risk":1,"updated_at":"2026-04-26T08:50:23.696278+05:30"},{"city":"Kochi","state":"Kerala","latitude":9.9312,"longitude":76.2673,"temp":29.6,"humidity":76,"rain":0.0,"pressure":1009.7,"uv_index":9.0,"wind_gusts":34.6,"aqi":77,"pm10":20.8,"pm2_5":19.3,"mosquito_risk":7,"arthritis_risk":0,"migraine_risk":4,"frizz_risk":1,"updated_at":"2026-04-26T08:50:23.696285+05:30"},{"city":"Thiruvananthapuram","state":"Kerala","latitude":8.5241,"longitude":76.9366,"temp":29.7,"humidity":73,"rain":0.0,"pressure":1008.9,"uv_index":9.0,"wind_gusts":32.0,"aqi":51,"pm10":14.0,"pm2_5":11.1,"mosquito_risk":7,"arthritis_risk":0,"migraine_risk":4,"frizz_risk":1,"updated_at":"2026-04-26T08:50:23.696291+05:30"},{"city":"Kozhikode","state":"Kerala","latitude":11.2588,"longitude":75.7804,"temp":28.8,"humidity":83,"rain":0.0,"pressure":1009.2,"uv_index":8.05,"wind_gusts":35.3,"aqi":60,"pm10":19.6,"pm2_5":16.9,"mosquito_risk":7,"arthritis_risk":0,"migraine_risk":4,"frizz_risk":1,"updated_at":"2026-04-26T08:50:23.696298+05:30"},{"city":"Thrissur","state":"Kerala","latitude":10.5276,"longitude":76.2144,"temp":30.5,"humidity":71,"rain":0.0,"pressure":1008.1,"uv_index":8.65,"wind_gusts":39.2,"aqi":69,"pm10":22.1,"pm2_5":20.4,"mosquito_risk":3,"arthritis_risk":0,"migraine_risk":4,"frizz_risk":1,"updated_at":"2026-04-26T08:50:23.696306+05:30"},{"city":"Kannur","state":"Kerala","latitude":11.8745,"longitude":75.3704,"temp":29.2,"humidity":80,"rain":0.0,"pressure":1008.6,"uv_index":9.05,"wind_gusts":36.4,"aqi":68,"pm10":23.5,"pm2_5":18.7,"mosquito_risk":7,"arthritis_risk":0,"migraine_risk":4,"frizz_risk":1,"updated_at":"2026-04-26T08:50:23.696313+05:30"},{"city":"Patna","state":"Bihar","latitude":25.5941,"longitude":85.1376,"temp":31.5,"humidity":64,"rain":0.0,"pressure":998.9,"uv_index":8.6,"wind_gusts":50.4,"aqi":151,"pm10":59.8,"pm2_5":53.0,"mosquito_risk":3,"arthritis_risk":5,"migraine_risk":7,"frizz_risk":1,"updated_at":"2026-04-26T08:50:23.696320+05:30"},{"city":"Gaya","state":"Bihar","latitude":24.7914,"longitude":85.0002,"temp":33.4,"humidity":52,"rain":0.0,"pressure":992.0,"uv_index":8.65,"wind_gusts":45.0,"aqi":119,"pm10":66.6,"pm2_5":54.4,"mosquito_risk":0,"arthritis_risk":5,"migraine_risk":7,"frizz_risk":1,"updated_at":"2026-04-26T08:50:23.696326+05:30"},{"city":"Muzaffarpur","state":"Bihar","latitude":26.1209,"longitude":85.3647,"temp":29.1,"humidity":66,"rain":0.0,"pressure":999.9,"uv_index":8.65,"wind_gusts":42.8,"aqi":153,"pm10":68.5,"pm2_5":57.5,"mosquito_risk":7,"arthritis_risk":5,"migraine_risk":7,"frizz_risk":1,"updated_at":"2026-04-26T08:50:23.696333+05:30"},{"city":"Bhagalpur","state":"Bihar","latitude":25.2425,"longitude":87.0117,"temp":27.8,"humidity":73,"rain":0.0,"pressure":1001.3,"uv_index":8.6,"wind_gusts":46.8,"aqi":143,"pm10":59.3,"pm2_5":50.4,"mosquito_risk":7,"arthritis_risk":5,"migraine_risk":4,"frizz_risk":1,"updated_at":"2026-04-26T08:50:23.696339+05:30"},{"city":"Ranchi","state":"Jharkhand","latitude":23.3441,"longitude":85.3096,"temp":31.4,"humidity":43,"rain":0.0,"pressure":938.2,"uv_index":9.15,"wind_gusts":39.2,"aqi":117,"pm10":65.2,"pm2_5":56.3,"mosquito_risk":0,"arthritis_risk":5,"migraine_risk":7,"frizz_risk":1,"updated_at":"2026-04-26T08:50:23.696346+05:30"},{"city":"Jamshedpur","state":"Jharkhand","latitude":22.8046,"longitude":86.2029,"temp":34.8,"humidity":42,"rain":0.0,"pressure":989.9,"uv_index":9.0,"wind_gusts":48.2,"aqi":137,"pm10":61.9,"pm2_5":49.1,"mosquito_risk":0,"arthritis_risk":5,"migraine_risk":7,"frizz_risk":1,"updated_at":"2026-04-26T08:50:23.696353+05:30"},{"city":"Dhanbad","state":"Jharkhand","latitude":23.7957,"longitude":86.4304,"temp":33.2,"humidity":50,"rain":0.0,"pressure":978.8,"uv_index":8.95,"wind_gusts":55.4,"aqi":155,"pm10":81.0,"pm2_5":72.2,"mosquito_risk":0,"arthritis_risk":5,"migraine_risk":7,"frizz_risk":1,"updated_at":"2026-04-26T08:50:23.696359+05:30"},{"city":"Bokaro","state":"Jharkhand","latitude":23.6693,"longitude":86.1511,"temp":34.4,"humidity":35,"rain":0.0,"pressure":982.4,"uv_index":8.95,"wind_gusts":45.7,"aqi":154,"pm10":72.4,"pm2_5":63.3,"mosquito_risk":0,"arthritis_risk":5,"migraine_risk":7,"frizz_risk":1,"updated_at":"2026-04-26T08:50:23.696365+05:30"},{"city":"Bhubaneswar","state":"Odisha","latitude":20.2961,"longitude":85.8245,"temp":31.5,"humidity":71,"rain":0.0,"pressure":1002.9,"uv_index":9.1,"wind_gusts":46.8,"aqi":58,"pm10":21.4,"pm2_5":15.8,"mosquito_risk":3,"arthritis_risk":5,"migraine_risk":4,"frizz_risk":1,"updated_at":"2026-04-26T08:50:23.696372+05:30"},{"city":"Cuttack","state":"Odisha","latitude":20.4625,"longitude":85.8828,"temp":31.4,"humidity":72,"rain":0.0,"pressure":1004.7,"uv_index":9.05,"wind_gusts":45.0,"aqi":58,"pm10":21.4,"pm2_5":15.8,"mosquito_risk":3,"arthritis_risk":5,"migraine_risk":4,"frizz_risk":1,"updated_at":"2026-04-26T08:50:23.696378+05:30"},{"city":"Rourkela","state":"Odisha","latitude":22.2604,"longitude":84.8536,"temp":33.3,"humidity":52,"rain":0.0,"pressure":985.1,"uv_index":8.9,"wind_gusts":39.2,"aqi":147,"pm10":67.1,"pm2_5":54.8,"mosquito_risk":0,"arthritis_risk":5,"migraine_risk":7,"frizz_risk":1,"updated_at":"2026-04-26T08:50:23.696384+05:30"},{"city":"Raipur","state":"Chhattisgarh","latitude":21.2514,"longitude":81.6296,"temp":34.3,"humidity":35,"rain":0.0,"pressure":975.1,"uv_index":8.95,"wind_gusts":42.8,"aqi":98,"pm10":49.6,"pm2_5":46.6,"mosquito_risk":0,"arthritis_risk":5,"migraine_risk":7,"frizz_risk":1,"updated_at":"2026-04-26T08:50:23.696390+05:30"},{"city":"Bhilai","state":"Chhattisgarh","latitude":21.1938,"longitude":81.3509,"temp":33.5,"humidity":38,"rain":0.0,"pressure":975.5,"uv_index":9.0,"wind_gusts":43.2,"aqi":93,"pm10":46.7,"pm2_5":44.2,"mosquito_risk":0,"arthritis_risk":5,"migraine_risk":7,"frizz_risk":1,"updated_at":"2026-04-26T08:50:23.696396+05:30"},{"city":"Guwahati","state":"Assam","latitude":26.1158,"longitude":91.7086,"temp":22.1,"humidity":98,"rain":0.1,"pressure":1004.8,"uv_index":3.2,"wind_gusts":40.3,"aqi":151,"pm10":56.0,"pm2_5":41.0,"mosquito_risk":6,"arthritis_risk":5,"migraine_risk":0,"frizz_risk":1,"updated_at":"2026-04-26T08:50:23.696403+05:30"},{"city":"Agartala","state":"Tripura","latitude":23.8315,"longitude":91.2868,"temp":31.8,"humidity":61,"rain":0.0,"pressure":1007.1,"uv_index":8.8,"wind_gusts":41.4,"aqi":118,"pm10":29.4,"pm2_5":20.3,"mosquito_risk":3,"arthritis_risk":5,"migraine_risk":4,"frizz_risk":1,"updated_at":"2026-04-26T08:50:23.696409+05:30"},{"city":"Shillong","state":"Meghalaya","latitude":25.5788,"longitude":91.8933,"temp":19.1,"humidity":88,"rain":0.1,"pressure":859.1,"uv_index":2.55,"wind_gusts":49.3,"aqi":134,"pm10":71.5,"pm2_5":42.4,"mosquito_risk":6,"arthritis_risk":10,"migraine_risk":3,"frizz_risk":1,"updated_at":"2026-04-26T08:50:23.696416+05:30"},{"city":"Imphal","state":"Manipur","latitude":24.817,"longitude":93.9368,"temp":25.9,"humidity":54,"rain":0.0,"pressure":925.8,"uv_index":7.3,"wind_gusts":35.3,"aqi":151,"pm10":115.3,"pm2_5":54.4,"mosquito_risk":4,"arthritis_risk":5,"migraine_risk":7,"frizz_risk":0,"updated_at":"2026-04-26T08:50:23.696422+05:30"},{"city":"Aizawl","state":"Mizoram","latitude":23.7271,"longitude":92.7176,"temp":26.5,"humidity":56,"rain":0.0,"pressure":895.7,"uv_index":9.0,"wind_gusts":42.8,"aqi":115,"pm10":81.3,"pm2_5":36.4,"mosquito_risk":4,"arthritis_risk":5,"migraine_risk":7,"frizz_risk":1,"updated_at":"2026-04-26T08:50:23.696429+05:30"},{"city":"Kohima","state":"Nagaland","latitude":25.6701,"longitude":94.1077,"temp":22.2,"humidity":66,"rain":0.0,"pressure":858.5,"uv_index":6.85,"wind_gusts":34.6,"aqi":154,"pm10":121.5,"pm2_5":51.5,"mosquito_risk":3,"arthritis_risk":5,"migraine_risk":7,"frizz_risk":0,"updated_at":"2026-04-26T08:50:23.696435+05:30"},{"city":"Gangtok","state":"Sikkim","latitude":27.3314,"longitude":88.6138,"temp":19.2,"humidity":61,"rain":0.0,"pressure":838.7,"uv_index":8.95,"wind_gusts":39.2,"aqi":77,"pm10":26.6,"pm2_5":13.1,"mosquito_risk":3,"arthritis_risk":5,"migraine_risk":7,"frizz_risk":0,"updated_at":"2026-04-26T08:50:23.696441+05:30"},{"city":"Siliguri","state":"West Bengal","latitude":26.7271,"longitude":88.3953,"temp":23.0,"humidity":86,"rain":0.1,"pressure":995.3,"uv_index":8.35,"wind_gusts":35.3,"aqi":140,"pm10":104.1,"pm2_5":49.2,"mosquito_risk":6,"arthritis_risk":5,"migraine_risk":7,"frizz_risk":1,"updated_at":"2026-04-26T08:50:27.035638+05:30"},{"city":"Durgapur","state":"West Bengal","latitude":23.5204,"longitude":87.3119,"temp":31.9,"humidity":66,"rain":0.0,"pressure":993.9,"uv_index":8.9,"wind_gusts":38.5,"aqi":126,"pm10":52.6,"pm2_5":46.9,"mosquito_risk":3,"arthritis_risk":5,"migraine_risk":7,"frizz_risk":1,"updated_at":"2026-04-26T08:50:27.035696+05:30"},{"city":"Asansol","state":"West Bengal","latitude":23.6739,"longitude":86.9524,"temp":32.3,"humidity":64,"rain":0.0,"pressure":992.4,"uv_index":8.9,"wind_gusts":49.0,"aqi":134,"pm10":66.4,"pm2_5":59.4,"mosquito_risk":3,"arthritis_risk":5,"migraine_risk":7,"frizz_risk":1,"updated_at":"2026-04-26T08:50:27.035707+05:30"},{"city":"Pondicherry","state":"Puducherry","latitude":11.9139,"longitude":79.8145,"temp":31.0,"humidity":68,"rain":0.0,"pressure":1010.2,"uv_index":9.2,"wind_gusts":43.6,"aqi":29,"pm10":14.8,"pm2_5":9.3,"mosquito_risk":3,"arthritis_risk":0,"migraine_risk":4,"frizz_risk":1,"updated_at":"2026-04-26T08:50:27.035715+05:30"},{"city":"Port Blair","state":"Andaman and Nicobar Islands","latitude":11.6234,"longitude":92.7265,"temp":32.7,"humidity":56,"rain":0.0,"pressure":1008.9,"uv_index":9.1,"wind_gusts":36.7,"aqi":55,"pm10":21.4,"pm2_5":14.3,"mosquito_risk":0,"arthritis_risk":0,"migraine_risk":4,"frizz_risk":1,"updated_at":"2026-04-26T08:50:27.035722+05:30"},{"city":"Haridwar","state":"Uttarakhand","latitude":29.9457,"longitude":78.1642,"temp":29.1,"humidity":49,"rain":0.0,"pressure":972.4,"uv_index":7.2,"wind_gusts":44.6,"aqi":69,"pm10":29.0,"pm2_5":23.2,"mosquito_risk":4,"arthritis_risk":5,"migraine_risk":7,"frizz_risk":1,"updated_at":"2026-04-26T08:50:27.035730+05:30"},{"city":"Rishikesh","state":"Uttarakhand","latitude":30.0869,"longitude":78.2676,"temp":29.3,"humidity":45,"rain":0.0,"pressure":965.3,"uv_index":7.3,"wind_gusts":35.3,"aqi":65,"pm10":25.2,"pm2_5":17.8,"mosquito_risk":4,"arthritis_risk":5,"migraine_risk":7,"frizz_risk":0,"updated_at":"2026-04-26T08:50:27.035737+05:30"},{"city":"Nainital","state":"Uttarakhand","latitude":29.3919,"longitude":79.4542,"temp":22.3,"humidity":37,"rain":0.0,"pressure":808.6,"uv_index":8.15,"wind_gusts":53.3,"aqi":75,"pm10":40.2,"pm2_5":23.6,"mosquito_risk":0,"arthritis_risk":5,"migraine_risk":7,"frizz_risk":0,"updated_at":"2026-04-26T08:50:27.035744+05:30"},{"city":"Mussoorie","state":"Uttarakhand","latitude":30.4599,"longitude":78.0664,"temp":22.3,"humidity":29,"rain":0.0,"pressure":805.9,"uv_index":7.7,"wind_gusts":59.8,"aqi":60,"pm10":23.3,"pm2_5":13.6,"mosquito_risk":0,"arthritis_risk":5,"migraine_risk":7,"frizz_risk":0,"updated_at":"2026-04-26T08:50:27.035751+05:30"},{"city":"Dharamshala","state":"Himachal Pradesh","latitude":32.219,"longitude":76.3234,"temp":24.9,"humidity":33,"rain":0.0,"pressure":870.9,"uv_index":8.05,"wind_gusts":45.0,"aqi":44,"pm10":26.5,"pm2_5":6.6,"mosquito_risk":0,"arthritis_risk":5,"migraine_risk":7,"frizz_risk":0,"updated_at":"2026-04-26T08:50:27.035761+05:30"},{"city":"Dalhousie","state":"Himachal Pradesh","latitude":32.5387,"longitude":75.971,"temp":21.0,"humidity":37,"rain":0.0,"pressure":807.4,"uv_index":8.3,"wind_gusts":41.0,"aqi":67,"pm10":41.9,"pm2_5":13.6,"mosquito_risk":0,"arthritis_risk":5,"migraine_risk":7,"frizz_risk":0,"updated_at":"2026-04-26T08:50:27.035772+05:30"},{"city":"Patiala","state":"Punjab","latitude":30.3398,"longitude":76.3869,"temp":33.8,"humidity":26,"rain":0.0,"pressure":977.4,"uv_index":7.3,"wind_gusts":47.9,"aqi":462,"pm10":440.5,"pm2_5":69.6,"mosquito_risk":0,"arthritis_risk":5,"migraine_risk":7,"frizz_risk":0,"updated_at":"2026-04-26T08:50:27.035779+05:30"},{"city":"Bhatinda","state":"Punjab","latitude":30.211,"longitude":74.9455,"temp":34.0,"humidity":25,"rain":0.0,"pressure":983.3,"uv_index":8.0,"wind_gusts":43.6,"aqi":94,"pm10":102.9,"pm2_5":39.0,"mosquito_risk":0,"arthritis_risk":5,"migraine_risk":7,"frizz_risk":0,"updated_at":"2026-04-26T08:50:27.035786+05:30"},{"city":"Rohtak","state":"Haryana","latitude":28.8955,"longitude":76.6066,"temp":33.6,"humidity":28,"rain":0.0,"pressure":981.3,"uv_index":7.45,"wind_gusts":51.1,"aqi":762,"pm10":393.9,"pm2_5":81.3,"mosquito_risk":0,"arthritis_risk":5,"migraine_risk":7,"frizz_risk":0,"updated_at":"2026-04-26T08:50:27.035792+05:30"},{"city":"Panipat","state":"Haryana","latitude":29.3909,"longitude":76.9635,"temp":34.8,"humidity":24,"rain":0.0,"pressure":979.5,"uv_index":7.25,"wind_gusts":55.4,"aqi":1477,"pm10":875.4,"pm2_5":128.5,"mosquito_risk":0,"arthritis_risk":5,"migraine_risk":7,"frizz_risk":0,"updated_at":"2026-04-26T08:50:27.035799+05:30"},{"city":"Mathura","state":"Uttar Pradesh","latitude":27.4924,"longitude":77.6737,"temp":33.5,"humidity":29,"rain":0.0,"pressure":986.1,"uv_index":7.75,"wind_gusts":47.5,"aqi":927,"pm10":670.6,"pm2_5":112.9,"mosquito_risk":0,"arthritis_risk":5,"migraine_risk":7,"frizz_risk":0,"updated_at":"2026-04-26T08:50:27.035805+05:30"},{"city":"Vrindavan","state":"Uttar Pradesh","latitude":27.5823,"longitude":77.7027,"temp":33.5,"humidity":29,"rain":0.0,"pressure":986.4,"uv_index":7.7,"wind_gusts":47.9,"aqi":927,"pm10":670.6,"pm2_5":112.9,"mosquito_risk":0,"arthritis_risk":5,"migraine_risk":7,"frizz_risk":0,"updated_at":"2026-04-26T08:50:27.035811+05:30"},{"city":"Ayodhya","state":"Uttar Pradesh","latitude":26.7922,"longitude":82.1998,"temp":31.9,"humidity":48,"rain":0.0,"pressure":994.1,"uv_index":8.1,"wind_gusts":43.9,"aqi":149,"pm10":100.1,"pm2_5":65.4,"mosquito_risk":0,"arthritis_risk":5,"migraine_risk":7,"frizz_risk":1,"updated_at":"2026-04-26T08:50:27.035818+05:30"},{"city":"Ratlam","state":"Madhya Pradesh","latitude":23.3315,"longitude":75.0367,"temp":34.6,"humidity":20,"rain":0.0,"pressure":956.0,"uv_index":8.5,"wind_gusts":34.2,"aqi":61,"pm10":23.7,"pm2_5":13.0,"mosquito_risk":0,"arthritis_risk":5,"migraine_risk":7,"frizz_risk":0,"updated_at":"2026-04-26T08:50:27.035824+05:30"},{"city":"Sagar","state":"Madhya Pradesh","latitude":23.8388,"longitude":78.7378,"temp":35.7,"humidity":19,"rain":0.0,"pressure":951.0,"uv_index":8.65,"wind_gusts":44.3,"aqi":63,"pm10":320.4,"pm2_5":55.2,"mosquito_risk":0,"arthritis_risk":5,"migraine_risk":10,"frizz_risk":0,"updated_at":"2026-04-26T08:50:27.035831+05:30"},{"city":"Satna","state":"Madhya Pradesh","latitude":24.6005,"longitude":80.8322,"temp":36.1,"humidity":20,"rain":0.0,"pressure":970.9,"uv_index":8.65,"wind_gusts":39.6,"aqi":97,"pm10":616.5,"pm2_5":96.4,"mosquito_risk":0,"arthritis_risk":5,"migraine_risk":10,"frizz_risk":0,"updated_at":"2026-04-26T08:50:27.035837+05:30"},{"city":"Akola","state":"Maharashtra","latitude":20.7002,"longitude":77.0082,"temp":35.5,"humidity":20,"rain":0.0,"pressure":975.6,"uv_index":8.85,"wind_gusts":33.8,"aqi":60,"pm10":18.6,"pm2_5":14.8,"mosquito_risk":0,"arthritis_risk":5,"migraine_risk":10,"frizz_risk":0,"updated_at":"2026-04-26T08:50:27.035844+05:30"},{"city":"Amravati","state":"Maharashtra","latitude":20.9374,"longitude":77.7796,"temp":36.2,"humidity":18,"rain":0.0,"pressure":968.0,"uv_index":8.85,"wind_gusts":26.6,"aqi":65,"pm10":19.8,"pm2_5":16.6,"mosquito_risk":0,"arthritis_risk":5,"migraine_risk":10,"frizz_risk":0,"updated_at":"2026-04-26T08:50:27.035851+05:30"},{"city":"Latur","state":"Maharashtra","latitude":18.4088,"longitude":76.5604,"temp":34.0,"humidity":27,"rain":0.0,"pressure":942.1,"uv_index":8.85,"wind_gusts":28.1,"aqi":111,"pm10":44.5,"pm2_5":40.9,"mosquito_risk":0,"arthritis_risk":5,"migraine_risk":7,"frizz_risk":0,"updated_at":"2026-04-26T08:50:27.035857+05:30"},{"city":"Nanded","state":"Maharashtra","latitude":19.1383,"longitude":77.3091,"temp":35.1,"humidity":27,"rain":0.0,"pressure":969.7,"uv_index":8.95,"wind_gusts":29.5,"aqi":110,"pm10":57.2,"pm2_5":52.6,"mosquito_risk":0,"arthritis_risk":5,"migraine_risk":10,"frizz_risk":0,"updated_at":"2026-04-26T08:50:27.035864+05:30"},{"city":"Gulbarga","state":"Karnataka","latitude":17.3297,"longitude":76.8343,"temp":33.0,"humidity":38,"rain":0.0,"pressure":960.5,"uv_index":8.2,"wind_gusts":29.5,"aqi":111,"pm10":31.2,"pm2_5":28.2,"mosquito_risk":0,"arthritis_risk":5,"migraine_risk":7,"frizz_risk":1,"updated_at":"2026-04-26T08:50:27.035870+05:30"},{"city":"Bidar","state":"Karnataka","latitude":17.9104,"longitude":77.5199,"temp":32.0,"humidity":42,"rain":0.0,"pressure":937.6,"uv_index":8.7,"wind_gusts":37.4,"aqi":114,"pm10":25.6,"pm2_5":22.8,"mosquito_risk":0,"arthritis_risk":5,"migraine_risk":7,"frizz_risk":1,"updated_at":"2026-04-26T08:50:27.035876+05:30"},{"city":"Hospet","state":"Karnataka","latitude":15.2689,"longitude":76.3909,"temp":29.4,"humidity":71,"rain":0.0,"pressure":957.4,"uv_index":9.0,"wind_gusts":34.9,"aqi":98,"pm10":33.6,"pm2_5":31.2,"mosquito_risk":7,"arthritis_risk":5,"migraine_risk":7,"frizz_risk":1,"updated_at":"2026-04-26T08:50:27.035882+05:30"},{"city":"Tirupur","state":"Tamil Nadu","latitude":11.1085,"longitude":77.3411,"temp":30.2,"humidity":57,"rain":0.0,"pressure":977.1,"uv_index":9.4,"wind_gusts":33.5,"aqi":63,"pm10":16.8,"pm2_5":13.7,"mosquito_risk":0,"arthritis_risk":5,"migraine_risk":7,"frizz_risk":1,"updated_at":"2026-04-26T08:50:27.035887+05:30"},{"city":"Alappuzha","state":"Kerala","latitude":9.4981,"longitude":76.3388,"temp":29.2,"humidity":81,"rain":0.0,"pressure":1009.7,"uv_index":8.85,"wind_gusts":34.2,"aqi":69,"pm10":18.9,"pm2_5":17.5,"mosquito_risk":7,"arthritis_risk":0,"migraine_risk":4,"frizz_risk":1,"updated_at":"2026-04-26T08:50:27.035894+05:30"},{"city":"Munnar","state":"Kerala","latitude":10.0889,"longitude":77.0595,"temp":22.5,"humidity":50,"rain":0.0,"pressure":859.3,"uv_index":9.6,"wind_gusts":28.1,"aqi":62,"pm10":11.8,"pm2_5":10.4,"mosquito_risk":0,"arthritis_risk":5,"migraine_risk":7,"frizz_risk":0,"updated_at":"2026-04-26T08:50:27.035901+05:30"},{"city":"Silchar","state":"Assam","latitude":24.8333,"longitude":92.7789,"temp":27.1,"humidity":75,"rain":0.0,"pressure":1006.9,"uv_index":6.95,"wind_gusts":46.1,"aqi":162,"pm10":132.2,"pm2_5":75.9,"mosquito_risk":7,"arthritis_risk":5,"migraine_risk":4,"frizz_risk":1,"updated_at":"2026-04-26T08:50:27.035907+05:30"},{"city":"Dibrugarh","state":"Assam","latitude":27.4728,"longitude":94.912,"temp":22.8,"humidity":85,"rain":0.1,"pressure":999.3,"uv_index":8.65,"wind_gusts":22.3,"aqi":92,"pm10":49.1,"pm2_5":31.8,"mosquito_risk":6,"arthritis_risk":5,"migraine_risk":7,"frizz_risk":1,"updated_at":"2026-04-26T08:50:27.035913+05:30"}]