[{"city":"Delhi","state":"Delhi","latitude":28.6139,"longitude":77.209,"temp":20.7,"humidity":75,"rain":0.0,"pressure":984.0,"uv_index":6.15,"wind_gusts":22.0,"aqi":198,"pm10":114.3,"pm2_5":54.6,"mosquito_risk":3,"arthritis_risk":5,"migraine_risk":7,"frizz_risk":1,"updated_at":"2026-03-31T05:08:43.240382+05:30"},{"city":"Mumbai","state":"Maharashtra","latitude":19.076,"longitude":72.8777,"temp":27.6,"humidity":84,"rain":0.0,"pressure":1008.4,"uv_index":8.05,"wind_gusts":25.9,"aqi":68,"pm10":34.5,"pm2_5":15.5,"mosquito_risk":7,"arthritis_risk":0,"migraine_risk":4,"frizz_risk":1,"updated_at":"2026-03-31T05:08:43.240426+05:30"},{"city":"Bangalore","state":"Karnataka","latitude":12.9716,"longitude":77.5946,"temp":21.6,"humidity":75,"rain":0.0,"pressure":910.4,"uv_index":9.0,"wind_gusts":27.0,"aqi":102,"pm10":34.1,"pm2_5":31.5,"mosquito_risk":3,"arthritis_risk":5,"migraine_risk":7,"frizz_risk":1,"updated_at":"2026-03-31T05:08:43.240441+05:30"},{"city":"Hyderabad","state":"Telangana","latitude":17.385,"longitude":78.4867,"temp":23.1,"humidity":84,"rain":0.0,"pressure":953.9,"uv_index":9.05,"wind_gusts":37.4,"aqi":116,"pm10":41.8,"pm2_5":38.3,"mosquito_risk":3,"arthritis_risk":5,"migraine_risk":7,"frizz_risk":1,"updated_at":"2026-03-31T05:08:43.240450+05:30"},{"city":"Chennai","state":"Tamil Nadu","latitude":13.0827,"longitude":80.2707,"temp":26.1,"humidity":86,"rain":0.0,"pressure":1007.0,"uv_index":9.3,"wind_gusts":29.5,"aqi":49,"pm10":16.2,"pm2_5":11.6,"mosquito_risk":7,"arthritis_risk":5,"migraine_risk":4,"frizz_risk":1,"updated_at":"2026-03-31T05:08:43.240460+05:30"},{"city":"Kolkata","state":"West Bengal","latitude":22.5726,"longitude":88.3639,"temp":25.8,"humidity":93,"rain":0.0,"pressure":1006.8,"uv_index":7.8,"wind_gusts":23.8,"aqi":92,"pm10":25.1,"pm2_5":21.1,"mosquito_risk":7,"arthritis_risk":5,"migraine_risk":4,"frizz_risk":1,"updated_at":"2026-03-31T05:08:43.240468+05:30"},{"city":"Pune","state":"Maharashtra","latitude":18.5204,"longitude":73.8567,"temp":23.1,"humidity":97,"rain":0.0,"pressure":948.1,"uv_index":8.55,"wind_gusts":36.0,"aqi":81,"pm10":54.7,"pm2_5":41.2,"mosquito_risk":3,"arthritis_risk":5,"migraine_risk":7,"frizz_risk":1,"updated_at":"2026-03-31T05:08:43.240480+05:30"},{"city":"Ahmedabad","state":"Gujarat","latitude":23.0225,"longitude":72.5714,"temp":25.3,"humidity":73,"rain":0.0,"pressure":1001.8,"uv_index":7.8,"wind_gusts":29.2,"aqi":59,"pm10":43.8,"pm2_5":27.3,"mosquito_risk":7,"arthritis_risk":5,"migraine_risk":4,"frizz_risk":1,"updated_at":"2026-03-31T05:08:43.240487+05:30"},{"city":"Jaipur","state":"Rajasthan","latitude":26.9124,"longitude":75.7873,"temp":22.9,"humidity":63,"rain":0.0,"pressure":960.3,"uv_index":7.2,"wind_gusts":46.8,"aqi":88,"pm10":34.5,"pm2_5":16.6,"mosquito_risk":3,"arthritis_risk":5,"migraine_risk":7,"frizz_risk":0,"updated_at":"2026-03-31T05:08:43.240495+05:30"},{"city":"Lucknow","state":"Uttar Pradesh","latitude":26.8467,"longitude":80.9462,"temp":24.4,"humidity":69,"rain":0.0,"pressure":993.4,"uv_index":7.25,"wind_gusts":26.6,"aqi":145,"pm10":279.4,"pm2_5":79.2,"mosquito_risk":3,"arthritis_risk":5,"migraine_risk":7,"frizz_risk":1,"updated_at":"2026-03-31T05:08:43.240502+05:30"},{"city":"Kanpur","state":"Uttar Pradesh","latitude":26.4499,"longitude":80.3319,"temp":22.9,"humidity":75,"rain":0.0,"pressure":992.0,"uv_index":7.3,"wind_gusts":27.4,"aqi":351,"pm10":581.1,"pm2_5":116.9,"mosquito_risk":3,"arthritis_risk":5,"migraine_risk":7,"frizz_risk":1,"updated_at":"2026-03-31T05:08:43.240509+05:30"},{"city":"Chandigarh","state":"Chandigarh","latitude":30.7333,"longitude":76.7794,"temp":19.3,"humidity":85,"rain":0.0,"pressure":969.7,"uv_index":6.3,"wind_gusts":22.3,"aqi":109,"pm10":69.2,"pm2_5":28.1,"mosquito_risk":3,"arthritis_risk":10,"migraine_risk":7,"frizz_risk":1,"updated_at":"2026-03-31T05:08:43.240517+05:30"},{"city":"Srinagar","state":"Jammu and Kashmir","latitude":34.0837,"longitude":74.7973,"temp":7.9,"humidity":88,"rain":0.0,"pressure":843.0,"uv_index":4.95,"wind_gusts":18.0,"aqi":77,"pm10":30.7,"pm2_5":20.0,"mosquito_risk":3,"arthritis_risk":10,"migraine_risk":3,"frizz_risk":0,"updated_at":"2026-03-31T05:08:43.240524+05:30"},{"city":"Jammu","state":"Jammu and Kashmir","latitude":32.7266,"longitude":74.857,"temp":19.3,"humidity":71,"rain":0.0,"pressure":975.2,"uv_index":6.9,"wind_gusts":38.2,"aqi":70,"pm10":42.8,"pm2_5":18.5,"mosquito_risk":3,"arthritis_risk":5,"migraine_risk":7,"frizz_risk":0,"updated_at":"2026-03-31T05:08:43.240531+05:30"},{"city":"Amritsar","state":"Punjab","latitude":31.634,"longitude":74.8723,"temp":18.7,"humidity":84,"rain":0.0,"pressure":982.7,"uv_index":6.65,"wind_gusts":32.0,"aqi":127,"pm10":202.1,"pm2_5":63.3,"mosquito_risk":3,"arthritis_risk":10,"migraine_risk":7,"frizz_risk":0,"updated_at":"2026-03-31T05:08:43.240538+05:30"},{"city":"Ludhiana","state":"Punjab","latitude":30.901,"longitude":75.8573,"temp":19.6,"humidity":84,"rain":0.0,"pressure":980.2,"uv_index":6.2,"wind_gusts":19.8,"aqi":291,"pm10":276.6,"pm2_5":87.5,"mosquito_risk":3,"arthritis_risk":10,"migraine_risk":7,"frizz_risk":1,"updated_at":"2026-03-31T05:08:43.240545+05:30"},{"city":"Jalandhar","state":"Punjab","latitude":31.326,"longitude":75.5762,"temp":19.4,"humidity":91,"rain":0.0,"pressure":981.6,"uv_index":6.55,"wind_gusts":19.8,"aqi":173,"pm10":317.6,"pm2_5":85.0,"mosquito_risk":3,"arthritis_risk":10,"migraine_risk":7,"frizz_risk":1,"updated_at":"2026-03-31T05:08:43.240554+05:30"},{"city":"Dehradun","state":"Uttarakhand","latitude":30.6284,"longitude":78.0322,"temp":12.3,"humidity":75,"rain":0.0,"pressure":829.0,"uv_index":7.1,"wind_gusts":37.8,"aqi":45,"pm10":22.8,"pm2_5":8.6,"mosquito_risk":3,"arthritis_risk":5,"migraine_risk":7,"frizz_risk":0,"updated_at":"2026-03-31T05:08:43.240561+05:30"},{"city":"Shimla","state":"Himachal Pradesh","latitude":31.1048,"longitude":77.1734,"temp":10.6,"humidity":66,"rain":0.0,"pressure":782.6,"uv_index":6.95,"wind_gusts":33.8,"aqi":56,"pm10":41.3,"pm2_5":12.7,"mosquito_risk":3,"arthritis_risk":5,"migraine_risk":7,"frizz_risk":0,"updated_at":"2026-03-31T05:08:43.240568+05:30"},{"city":"Manali","state":"Himachal Pradesh","latitude":32.2396,"longitude":77.1887,"temp":12.8,"humidity":50,"rain":0.0,"pressure":818.6,"uv_index":8.55,"wind_gusts":33.8,"aqi":48,"pm10":2.4,"pm2_5":1.5,"mosquito_risk":0,"arthritis_risk":5,"migraine_risk":7,"frizz_risk":0,"updated_at":"2026-03-31T05:08:43.240575+05:30"},{"city":"Gurgaon","state":"Haryana","latitude":28.4595,"longitude":77.0266,"temp":18.2,"humidity":88,"rain":0.0,"pressure":982.3,"uv_index":6.4,"wind_gusts":23.0,"aqi":778,"pm10":127.6,"pm2_5":52.4,"mosquito_risk":3,"arthritis_risk":10,"migraine_risk":7,"frizz_risk":1,"updated_at":"2026-03-31T05:08:43.240581+05:30"},{"city":"Noida","state":"Uttar Pradesh","latitude":28.5355,"longitude":77.391,"temp":20.6,"humidity":75,"rain":0.0,"pressure":985.5,"uv_index":6.05,"wind_gusts":20.5,"aqi":778,"pm10":127.6,"pm2_5":52.4,"mosquito_risk":3,"arthritis_risk":5,"migraine_risk":7,"frizz_risk":0,"updated_at":"2026-03-31T05:08:43.240587+05:30"},{"city":"Ghaziabad","state":"Uttar Pradesh","latitude":28.6692,"longitude":77.4538,"temp":19.4,"humidity":77,"rain":0.0,"pressure":983.6,"uv_index":6.05,"wind_gusts":23.4,"aqi":161,"pm10":125.3,"pm2_5":51.9,"mosquito_risk":3,"arthritis_risk":5,"migraine_risk":7,"frizz_risk":0,"updated_at":"2026-03-31T05:08:43.240593+05:30"},{"city":"Faridabad","state":"Haryana","latitude":28.4089,"longitude":77.3178,"temp":18.2,"humidity":85,"rain":0.0,"pressure":984.6,"uv_index":6.0,"wind_gusts":23.8,"aqi":778,"pm10":127.6,"pm2_5":52.4,"mosquito_risk":3,"arthritis_risk":10,"migraine_risk":3,"frizz_risk":0,"updated_at":"2026-03-31T05:08:43.240601+05:30"},{"city":"Meerut","state":"Uttar Pradesh","latitude":28.9845,"longitude":77.7064,"temp":18.4,"humidity":78,"rain":0.0,"pressure":982.3,"uv_index":6.55,"wind_gusts":25.6,"aqi":161,"pm10":125.3,"pm2_5":51.9,"mosquito_risk":3,"arthritis_risk":5,"migraine_risk":7,"frizz_risk":0,"updated_at":"2026-03-31T05:08:43.240608+05:30"},{"city":"Agra","state":"Uttar Pradesh","latitude":27.1767,"longitude":78.0081,"temp":20.2,"humidity":70,"rain":0.0,"pressure":988.7,"uv_index":6.9,"wind_gusts":27.0,"aqi":617,"pm10":251.5,"pm2_5":37.0,"mosquito_risk":3,"arthritis_risk":5,"migraine_risk":7,"frizz_risk":0,"updated_at":"2026-03-31T05:08:43.240636+05:30"},{"city":"Varanasi","state":"Uttar Pradesh","latitude":25.3176,"longitude":82.9739,"temp":23.6,"humidity":81,"rain":0.0,"pressure":997.0,"uv_index":7.6,"wind_gusts":28.4,"aqi":97,"pm10":80.6,"pm2_5":51.6,"mosquito_risk":3,"arthritis_risk":5,"migraine_risk":7,"frizz_risk":1,"updated_at":"2026-03-31T05:08:43.240647+05:30"},{"city":"Prayagraj","state":"Uttar Pradesh","latitude":25.4358,"longitude":81.8463,"temp":24.4,"humidity":70,"rain":0.0,"pressure":995.4,"uv_index":7.85,"wind_gusts":26.6,"aqi":102,"pm10":243.1,"pm2_5":73.3,"mosquito_risk":3,"arthritis_risk":5,"migraine_risk":7,"frizz_risk":1,"updated_at":"2026-03-31T05:08:43.240655+05:30"},{"city":"Gorakhpur","state":"Uttar Pradesh","latitude":26.7606,"longitude":83.3732,"temp":22.9,"humidity":86,"rain":0.0,"pressure":997.4,"uv_index":6.25,"wind_gusts":28.4,"aqi":155,"pm10":105.7,"pm2_5":89.6,"mosquito_risk":3,"arthritis_risk":5,"migraine_risk":7,"frizz_risk":1,"updated_at":"2026-03-31T05:08:43.240664+05:30"},{"city":"Bareilly","state":"Uttar Pradesh","latitude":28.367,"longitude":79.4304,"temp":21.2,"humidity":87,"rain":0.0,"pressure":987.2,"uv_index":6.45,"wind_gusts":29.5,"aqi":108,"pm10":65.9,"pm2_5":32.9,"mosquito_risk":3,"arthritis_risk":5,"migraine_risk":7,"frizz_risk":1,"updated_at":"2026-03-31T05:08:43.240670+05:30"},{"city":"Aligarh","state":"Uttar Pradesh","latitude":27.8974,"longitude":78.088,"temp":18.7,"humidity":79,"rain":0.0,"pressure":986.3,"uv_index":6.35,"wind_gusts":29.9,"aqi":601,"pm10":394.9,"pm2_5":72.2,"mosquito_risk":3,"arthritis_risk":5,"migraine_risk":7,"frizz_risk":0,"updated_at":"2026-03-31T05:08:43.240677+05:30"},{"city":"Moradabad","state":"Uttar Pradesh","latitude":28.8386,"longitude":78.7733,"temp":20.7,"humidity":87,"rain":0.0,"pressure":984.2,"uv_index":6.65,"wind_gusts":28.1,"aqi":136,"pm10":84.3,"pm2_5":37.8,"mosquito_risk":3,"arthritis_risk":5,"migraine_risk":7,"frizz_risk":1,"updated_at":"2026-03-31T05:08:43.240683+05:30"},{"city":"Saharanpur","state":"Uttar Pradesh","latitude":29.9637,"longitude":77.546,"temp":19.3,"humidity":91,"rain":0.0,"pressure":976.6,"uv_index":6.2,"wind_gusts":24.8,"aqi":138,"pm10":163.0,"pm2_5":60.3,"mosquito_risk":3,"arthritis_risk":10,"migraine_risk":7,"frizz_risk":1,"updated_at":"2026-03-31T05:08:43.240689+05:30"},{"city":"Jhansi","state":"Uttar Pradesh","latitude":25.4484,"longitude":78.5685,"temp":22.8,"humidity":64,"rain":0.0,"pressure":978.6,"uv_index":7.8,"wind_gusts":23.8,"aqi":56,"pm10":33.3,"pm2_5":11.9,"mosquito_risk":3,"arthritis_risk":5,"migraine_risk":7,"frizz_risk":0,"updated_at":"2026-03-31T05:08:46.563909+05:30"},{"city":"Surat","state":"Gujarat","latitude":21.1702,"longitude":72.8311,"temp":26.5,"humidity":85,"rain":0.0,"pressure":1006.4,"uv_index":7.8,"wind_gusts":28.8,"aqi":96,"pm10":22.4,"pm2_5":20.1,"mosquito_risk":7,"arthritis_risk":5,"migraine_risk":4,"frizz_risk":1,"updated_at":"2026-03-31T05:08:46.563943+05:30"},{"city":"Vadodara","state":"Gujarat","latitude":22.3072,"longitude":73.1812,"temp":27.1,"humidity":78,"rain":0.0,"pressure":1003.9,"uv_index":8.0,"wind_gusts":28.8,"aqi":77,"pm10":50.9,"pm2_5":40.0,"mosquito_risk":7,"arthritis_risk":5,"migraine_risk":4,"frizz_risk":1,"updated_at":"2026-03-31T05:08:46.563955+05:30"},{"city":"Rajkot","state":"Gujarat","latitude":22.3039,"longitude":70.8022,"temp":23.0,"humidity":95,"rain":0.0,"pressure":994.2,"uv_index":7.8,"wind_gusts":37.8,"aqi":56,"pm10":41.9,"pm2_5":17.2,"mosquito_risk":3,"arthritis_risk":5,"migraine_risk":7,"frizz_risk":1,"updated_at":"2026-03-31T05:08:46.563964+05:30"},{"city":"Thane","state":"Maharashtra","latitude":19.2183,"longitude":72.9781,"temp":26.5,"humidity":85,"rain":0.0,"pressure":1007.9,"uv_index":8.05,"wind_gusts":38.9,"aqi":68,"pm10":34.5,"pm2_5":15.5,"mosquito_risk":7,"arthritis_risk":5,"migraine_risk":4,"frizz_risk":1,"updated_at":"2026-03-31T05:08:46.563973+05:30"},{"city":"Nagpur","state":"Maharashtra","latitude":21.1458,"longitude":79.0882,"temp":24.5,"humidity":70,"rain":0.0,"pressure":973.4,"uv_index":8.55,"wind_gusts":19.8,"aqi":57,"pm10":24.8,"pm2_5":19.9,"mosquito_risk":3,"arthritis_risk":5,"migraine_risk":7,"frizz_risk":1,"updated_at":"2026-03-31T05:08:46.563982+05:30"},{"city":"Nashik","state":"Maharashtra","latitude":19.9975,"longitude":73.7898,"temp":21.5,"humidity":92,"rain":0.0,"pressure":945.3,"uv_index":8.25,"wind_gusts":30.2,"aqi":61,"pm10":46.8,"pm2_5":23.6,"mosquito_risk":3,"arthritis_risk":5,"migraine_risk":7,"frizz_risk":1,"updated_at":"2026-03-31T05:08:46.563990+05:30"},{"city":"Aurangabad","state":"Maharashtra","latitude":19.8762,"longitude":75.3433,"temp":21.2,"humidity":85,"rain":0.0,"pressure":943.9,"uv_index":8.75,"wind_gusts":27.4,"aqi":58,"pm10":27.5,"pm2_5":22.5,"mosquito_risk":3,"arthritis_risk":5,"migraine_risk":7,"frizz_risk":1,"updated_at":"2026-03-31T05:08:46.563998+05:30"},{"city":"Solapur","state":"Maharashtra","latitude":17.6599,"longitude":75.9064,"temp":23.6,"humidity":80,"rain":0.0,"pressure":957.2,"uv_index":8.9,"wind_gusts":24.8,"aqi":83,"pm10":32.9,"pm2_5":29.4,"mosquito_risk":3,"arthritis_risk":5,"migraine_risk":7,"frizz_risk":1,"updated_at":"2026-03-31T05:08:46.564007+05:30"},{"city":"Kolhapur","state":"Maharashtra","latitude":16.705,"longitude":74.2433,"temp":22.6,"humidity":95,"rain":0.0,"pressure":947.3,"uv_index":8.9,"wind_gusts":36.4,"aqi":78,"pm10":49.1,"pm2_5":41.7,"mosquito_risk":3,"arthritis_risk":5,"migraine_risk":7,"frizz_risk":1,"updated_at":"2026-03-31T05:08:46.564015+05:30"},{"city":"Goa","state":"Goa","latitude":15.2993,"longitude":74.124,"temp":27.2,"humidity":83,"rain":0.0,"pressure":996.9,"uv_index":9.0,"wind_gusts":33.5,"aqi":65,"pm10":43.1,"pm2_5":30.9,"mosquito_risk":7,"arthritis_risk":5,"migraine_risk":7,"frizz_risk":1,"updated_at":"2026-03-31T05:08:46.564022+05:30"},{"city":"Jodhpur","state":"Rajasthan","latitude":26.2389,"longitude":73.0243,"temp":25.0,"humidity":62,"rain":0.0,"pressure":982.8,"uv_index":7.7,"wind_gusts":35.6,"aqi":89,"pm10":20.0,"pm2_5":9.7,"mosquito_risk":7,"arthritis_risk":5,"migraine_risk":7,"frizz_risk":1,"updated_at":"2026-03-31T05:08:46.564028+05:30"},{"city":"Udaipur","state":"Rajasthan","latitude":24.5854,"longitude":73.7125,"temp":19.5,"humidity":75,"rain":0.0,"pressure":945.8,"uv_index":8.3,"wind_gusts":39.2,"aqi":43,"pm10":18.1,"pm2_5":10.6,"mosquito_risk":3,"arthritis_risk":5,"migraine_risk":7,"frizz_risk":0,"updated_at":"2026-03-31T05:08:46.564035+05:30"},{"city":"Kota","state":"Rajasthan","latitude":25.2138,"longitude":75.8648,"temp":23.9,"humidity":73,"rain":0.0,"pressure":979.3,"uv_index":7.75,"wind_gusts":41.0,"aqi":50,"pm10":23.7,"pm2_5":15.2,"mosquito_risk":3,"arthritis_risk":5,"migraine_risk":7,"frizz_risk":1,"updated_at":"2026-03-31T05:08:46.564041+05:30"},{"city":"Bikaner","state":"Rajasthan","latitude":28.0229,"longitude":73.3119,"temp":25.0,"humidity":53,"rain":0.0,"pressure":981.4,"uv_index":6.8,"wind_gusts":26.3,"aqi":86,"pm10":85.7,"pm2_5":21.4,"mosquito_risk":4,"arthritis_risk":5,"migraine_risk":7,"frizz_risk":0,"updated_at":"2026-03-31T05:08:46.564048+05:30"},{"city":"Ajmer","state":"Rajasthan","latitude":26.4499,"longitude":74.6399,"temp":24.0,"humidity":58,"rain":0.0,"pressure":954.6,"uv_index":7.7,"wind_gusts":45.7,"aqi":45,"pm10":20.6,"pm2_5":10.2,"mosquito_risk":0,"arthritis_risk":5,"migraine_risk":7,"frizz_risk":0,"updated_at":"2026-03-31T05:08:46.564055+05:30"},{"city":"Gwalior","state":"Madhya Pradesh","latitude":26.2183,"longitude":78.1828,"temp":22.6,"humidity":68,"rain":0.0,"pressure":984.0,"uv_index":7.35,"wind_gusts":23.4,"aqi":68,"pm10":25.0,"pm2_5":10.4,"mosquito_risk":3,"arthritis_risk":5,"migraine_risk":7,"frizz_risk":1,"updated_at":"2026-03-31T05:08:46.564061+05:30"},{"city":"Indore","state":"Madhya Pradesh","latitude":22.7196,"longitude":75.8577,"temp":23.0,"humidity":71,"rain":0.0,"pressure":948.1,"uv_index":8.3,"wind_gusts":24.8,"aqi":50,"pm10":20.6,"pm2_5":13.0,"mosquito_risk":3,"arthritis_risk":5,"migraine_risk":7,"frizz_risk":1,"updated_at":"2026-03-31T05:08:46.564067+05:30"},{"city":"Bhopal","state":"Madhya Pradesh","latitude":23.2599,"longitude":77.4126,"temp":22.9,"humidity":71,"rain":0.0,"pressure":953.8,"uv_index":8.25,"wind_gusts":31.7,"aqi":42,"pm10":22.6,"pm2_5":14.0,"mosquito_risk":3,"arthritis_risk":5,"migraine_risk":7,"frizz_risk":1,"updated_at":"2026-03-31T05:08:46.564073+05:30"},{"city":"Jabalpur","state":"Madhya Pradesh","latitude":23.1815,"longitude":79.9864,"temp":23.5,"humidity":74,"rain":0.0,"pressure":961.3,"uv_index":8.35,"wind_gusts":17.6,"aqi":50,"pm10":64.3,"pm2_5":19.3,"mosquito_risk":3,"arthritis_risk":5,"migraine_risk":7,"frizz_risk":1,"updated_at":"2026-03-31T05:08:46.564079+05:30"},{"city":"Ujjain","state":"Madhya Pradesh","latitude":23.1765,"longitude":75.7885,"temp":22.9,"humidity":74,"rain":0.0,"pressure":953.8,"uv_index":8.2,"wind_gusts":25.6,"aqi":50,"pm10":19.8,"pm2_5":13.2,"mosquito_risk":3,"arthritis_risk":5,"migraine_risk":7,"frizz_risk":1,"updated_at":"2026-03-31T05:08:46.564086+05:30"},{"city":"Visakhapatnam","state":"Andhra Pradesh","latitude":17.6868,"longitude":83.2185,"temp":25.1,"humidity":90,"rain":0.0,"pressure":1004.1,"uv_index":9.0,"wind_gusts":37.1,"aqi":59,"pm10":20.1,"pm2_5":17.5,"mosquito_risk":7,"arthritis_risk":5,"migraine_risk":4,"frizz_risk":1,"updated_at":"2026-03-31T05:08:46.564093+05:30"},{"city":"Vijayawada","state":"Andhra Pradesh","latitude":16.5062,"longitude":80.648,"temp":25.3,"humidity":89,"rain":0.0,"pressure":1003.1,"uv_index":9.1,"wind_gusts":25.6,"aqi":60,"pm10":24.1,"pm2_5":20.6,"mosquito_risk":7,"arthritis_risk":5,"migraine_risk":4,"frizz_risk":1,"updated_at":"2026-03-31T05:08:46.564099+05:30"},{"city":"Guntur","state":"Andhra Pradesh","latitude":16.3067,"longitude":80.4365,"temp":26.0,"humidity":89,"rain":0.0,"pressure":1003.9,"uv_index":9.1,"wind_gusts":29.5,"aqi":63,"pm10":19.3,"pm2_5":15.9,"mosquito_risk":7,"arthritis_risk":5,"migraine_risk":4,"frizz_risk":1,"updated_at":"2026-03-31T05:08:46.564106+05:30"},{"city":"Nellore","state":"Andhra Pradesh","latitude":14.4426,"longitude":79.9865,"temp":25.4,"humidity":90,"rain":0.0,"pressure":1005.5,"uv_index":9.15,"wind_gusts":30.6,"aqi":58,"pm10":13.5,"pm2_5":10.3,"mosquito_risk":7,"arthritis_risk":5,"migraine_risk":4,"frizz_risk":1,"updated_at":"2026-03-31T05:08:46.564113+05:30"},{"city":"Kurnool","state":"Andhra Pradesh","latitude":15.8281,"longitude":78.0373,"temp":27.1,"humidity":67,"rain":0.0,"pressure":976.4,"uv_index":9.05,"wind_gusts":29.5,"aqi":103,"pm10":23.6,"pm2_5":21.7,"mosquito_risk":7,"arthritis_risk":5,"migraine_risk":7,"frizz_risk":1,"updated_at":"2026-03-31T05:08:46.564120+05:30"},{"city":"Kakinada","state":"Andhra Pradesh","latitude":16.9891,"longitude":82.2475,"temp":23.5,"humidity":95,"rain":0.0,"pressure":1008.2,"uv_index":9.05,"wind_gusts":32.4,"aqi":47,"pm10":16.4,"pm2_5":12.7,"mosquito_risk":3,"arthritis_risk":0,"migraine_risk":4,"frizz_risk":1,"updated_at":"2026-03-31T05:08:46.564127+05:30"},{"city":"Tirupati","state":"Andhra Pradesh","latitude":13.6288,"longitude":79.4192,"temp":23.4,"humidity":94,"rain":0.0,"pressure":991.6,"uv_index":9.3,"wind_gusts":33.8,"aqi":83,"pm10":28.9,"pm2_5":26.9,"mosquito_risk":3,"arthritis_risk":5,"migraine_risk":7,"frizz_risk":1,"updated_at":"2026-03-31T05:08:46.564133+05:30"},{"city":"Warangal","state":"Telangana","latitude":17.9689,"longitude":79.5941,"temp":24.5,"humidity":85,"rain":0.0,"pressure":980.3,"uv_index":8.95,"wind_gusts":26.3,"aqi":106,"pm10":43.3,"pm2_5":38.4,"mosquito_risk":3,"arthritis_risk":5,"migraine_risk":7,"frizz_risk":1,"updated_at":"2026-03-31T05:08:46.564140+05:30"},{"city":"Nizamabad","state":"Telangana","latitude":18.6725,"longitude":78.0941,"temp":23.2,"humidity":82,"rain":0.0,"pressure":965.6,"uv_index":8.85,"wind_gusts":37.1,"aqi":90,"pm10":42.3,"pm2_5":33.4,"mosquito_risk":3,"arthritis_risk":5,"migraine_risk":7,"frizz_risk":1,"updated_at":"2026-03-31T05:08:46.564146+05:30"},{"city":"Mysore","state":"Karnataka","latitude":12.2958,"longitude":76.6396,"temp":21.8,"humidity":97,"rain":0.0,"pressure":927.2,"uv_index":8.55,"wind_gusts":26.6,"aqi":118,"pm10":57.3,"pm2_5":52.6,"mosquito_risk":3,"arthritis_risk":5,"migraine_risk":7,"frizz_risk":1,"updated_at":"2026-03-31T05:08:46.564152+05:30"},{"city":"Mangalore","state":"Karnataka","latitude":12.9141,"longitude":74.856,"temp":29.7,"humidity":76,"rain":0.0,"pressure":1005.2,"uv_index":9.05,"wind_gusts":26.6,"aqi":87,"pm10":48.5,"pm2_5":44.8,"mosquito_risk":7,"arthritis_risk":5,"migraine_risk":4,"frizz_risk":1,"updated_at":"2026-03-31T05:08:46.564158+05:30"},{"city":"Hubli-Dharwad","state":"Karnataka","latitude":15.3647,"longitude":75.124,"temp":22.8,"humidity":94,"rain":0.0,"pressure":940.2,"uv_index":9.1,"wind_gusts":31.7,"aqi":67,"pm10":31.2,"pm2_5":28.2,"mosquito_risk":3,"arthritis_risk":5,"migraine_risk":7,"frizz_risk":1,"updated_at":"2026-03-31T05:08:46.564165+05:30"},{"city":"Belgaum","state":"Karnataka","latitude":15.8497,"longitude":74.4977,"temp":21.8,"humidity":94,"rain":0.0,"pressure":924.8,"uv_index":9.1,"wind_gusts":41.8,"aqi":64,"pm10":47.6,"pm2_5":38.2,"mosquito_risk":3,"arthritis_risk":5,"migraine_risk":7,"frizz_risk":1,"updated_at":"2026-03-31T05:08:49.884398+05:30"},{"city":"Coimbatore","state":"Tamil Nadu","latitude":11.0168,"longitude":76.9558,"temp":23.4,"humidity":93,"rain":0.0,"pressure":960.7,"uv_index":9.05,"wind_gusts":40.0,"aqi":92,"pm10":50.8,"pm2_5":46.7,"mosquito_risk":3,"arthritis_risk":5,"migraine_risk":7,"frizz_risk":1,"updated_at":"2026-03-31T05:08:49.884430+05:30"},{"city":"Madurai","state":"Tamil Nadu","latitude":9.9252,"longitude":78.1198,"temp":25.0,"humidity":95,"rain":0.0,"pressure":992.3,"uv_index":9.4,"wind_gusts":31.0,"aqi":69,"pm10":31.7,"pm2_5":29.9,"mosquito_risk":7,"arthritis_risk":5,"migraine_risk":7,"frizz_risk":1,"updated_at":"2026-03-31T05:08:49.884440+05:30"},{"city":"Trichy","state":"Tamil Nadu","latitude":10.7905,"longitude":78.7047,"temp":25.5,"humidity":94,"rain":0.0,"pressure":999.4,"uv_index":9.35,"wind_gusts":25.9,"aqi":59,"pm10":24.8,"pm2_5":21.9,"mosquito_risk":7,"arthritis_risk":5,"migraine_risk":7,"frizz_risk":1,"updated_at":"2026-03-31T05:08:49.884447+05:30"},{"city":"Salem","state":"Tamil Nadu","latitude":11.6643,"longitude":78.146,"temp":24.8,"humidity":88,"rain":0.0,"pressure":976.8,"uv_index":9.4,"wind_gusts":32.4,"aqi":70,"pm10":25.7,"pm2_5":24.4,"mosquito_risk":3,"arthritis_risk":5,"migraine_risk":7,"frizz_risk":1,"updated_at":"2026-03-31T05:08:49.884455+05:30"},{"city":"Tirunelveli","state":"Tamil Nadu","latitude":8.7139,"longitude":77.7567,"temp":23.1,"humidity":89,"rain":0.0,"pressure":1002.2,"uv_index":8.65,"wind_gusts":37.8,"aqi":79,"pm10":40.4,"pm2_5":38.0,"mosquito_risk":3,"arthritis_risk":5,"migraine_risk":4,"frizz_risk":1,"updated_at":"2026-03-31T05:08:49.884463+05:30"},{"city":"Vellore","state":"Tamil Nadu","latitude":12.9165,"longitude":79.1325,"temp":23.2,"humidity":97,"rain":0.0,"pressure":984.4,"uv_index":9.4,"wind_gusts":32.0,"aqi":100,"pm10":45.4,"pm2_5":43.3,"mosquito_risk":3,"arthritis_risk":5,"migraine_risk":7,"frizz_risk":1,"updated_at":"2026-03-31T05:08:49.884470+05:30"},{"city":"Erode","state":"Tamil Nadu","latitude":11.341,"longitude":77.7172,"temp":26.1,"humidity":85,"rain":0.0,"pressure":988.5,"uv_index":9.4,"wind_gusts":27.0,"aqi":61,"pm10":15.4,"pm2_5":14.8,"mosquito_risk":7,"arthritis_risk":5,"migraine_risk":7,"frizz_risk":1,"updated_at":"2026-03-31T05:08:49.884477+05:30"},{"city":"Kochi","state":"Kerala","latitude":9.9312,"longitude":76.2673,"temp":28.5,"humidity":80,"rain":0.0,"pressure":1007.1,"uv_index":8.9,"wind_gusts":28.8,"aqi":105,"pm10":46.9,"pm2_5":45.6,"mosquito_risk":7,"arthritis_risk":5,"migraine_risk":4,"frizz_risk":1,"updated_at":"2026-03-31T05:08:49.884484+05:30"},{"city":"Thiruvananthapuram","state":"Kerala","latitude":8.5241,"longitude":76.9366,"temp":27.9,"humidity":84,"rain":0.0,"pressure":1006.3,"uv_index":9.2,"wind_gusts":28.1,"aqi":81,"pm10":31.2,"pm2_5":27.1,"mosquito_risk":7,"arthritis_risk":5,"migraine_risk":4,"frizz_risk":1,"updated_at":"2026-03-31T05:08:49.884492+05:30"},{"city":"Kozhikode","state":"Kerala","latitude":11.2588,"longitude":75.7804,"temp":28.5,"humidity":81,"rain":0.0,"pressure":1006.5,"uv_index":8.25,"wind_gusts":28.1,"aqi":110,"pm10":56.6,"pm2_5":51.3,"mosquito_risk":7,"arthritis_risk":5,"migraine_risk":4,"frizz_risk":1,"updated_at":"2026-03-31T05:08:49.884499+05:30"},{"city":"Thrissur","state":"Kerala","latitude":10.5276,"longitude":76.2144,"temp":26.8,"humidity":94,"rain":0.0,"pressure":1005.6,"uv_index":8.75,"wind_gusts":34.2,"aqi":118,"pm10":65.4,"pm2_5":62.2,"mosquito_risk":7,"arthritis_risk":5,"migraine_risk":4,"frizz_risk":1,"updated_at":"2026-03-31T05:08:49.884508+05:30"},{"city":"Kannur","state":"Kerala","latitude":11.8745,"longitude":75.3704,"temp":28.0,"humidity":86,"rain":0.0,"pressure":1005.6,"uv_index":9.0,"wind_gusts":30.6,"aqi":113,"pm10":56.3,"pm2_5":53.2,"mosquito_risk":7,"arthritis_risk":5,"migraine_risk":4,"frizz_risk":1,"updated_at":"2026-03-31T05:08:49.884515+05:30"},{"city":"Patna","state":"Bihar","latitude":25.5941,"longitude":85.1376,"temp":23.0,"humidity":90,"rain":0.0,"pressure":1001.0,"uv_index":8.1,"wind_gusts":24.1,"aqi":162,"pm10":112.2,"pm2_5":102.2,"mosquito_risk":3,"arthritis_risk":5,"migraine_risk":4,"frizz_risk":1,"updated_at":"2026-03-31T05:08:49.884523+05:30"},{"city":"Gaya","state":"Bihar","latitude":24.7914,"longitude":85.0002,"temp":24.4,"humidity":86,"rain":0.0,"pressure":993.8,"uv_index":8.2,"wind_gusts":20.9,"aqi":126,"pm10":76.8,"pm2_5":65.0,"mosquito_risk":3,"arthritis_risk":5,"migraine_risk":7,"frizz_risk":1,"updated_at":"2026-03-31T05:08:49.884530+05:30"},{"city":"Muzaffarpur","state":"Bihar","latitude":26.1209,"longitude":85.3647,"temp":21.4,"humidity":90,"rain":0.0,"pressure":1001.5,"uv_index":8.1,"wind_gusts":27.4,"aqi":167,"pm10":118.7,"pm2_5":109.2,"mosquito_risk":3,"arthritis_risk":5,"migraine_risk":4,"frizz_risk":1,"updated_at":"2026-03-31T05:08:49.884537+05:30"},{"city":"Bhagalpur","state":"Bihar","latitude":25.2425,"longitude":87.0117,"temp":22.4,"humidity":96,"rain":0.0,"pressure":1002.5,"uv_index":8.1,"wind_gusts":22.3,"aqi":161,"pm10":93.6,"pm2_5":89.6,"mosquito_risk":3,"arthritis_risk":5,"migraine_risk":4,"frizz_risk":1,"updated_at":"2026-03-31T05:08:49.884543+05:30"},{"city":"Ranchi","state":"Jharkhand","latitude":23.3441,"longitude":85.3096,"temp":21.8,"humidity":90,"rain":0.0,"pressure":938.0,"uv_index":8.45,"wind_gusts":32.8,"aqi":128,"pm10":69.6,"pm2_5":58.0,"mosquito_risk":3,"arthritis_risk":5,"migraine_risk":7,"frizz_risk":1,"updated_at":"2026-03-31T05:08:49.884550+05:30"},{"city":"Jamshedpur","state":"Jharkhand","latitude":22.8046,"longitude":86.2029,"temp":25.4,"humidity":91,"rain":0.0,"pressure":991.5,"uv_index":8.65,"wind_gusts":33.1,"aqi":145,"pm10":76.6,"pm2_5":70.1,"mosquito_risk":7,"arthritis_risk":5,"migraine_risk":7,"frizz_risk":1,"updated_at":"2026-03-31T05:08:49.884557+05:30"},{"city":"Dhanbad","state":"Jharkhand","latitude":23.7957,"longitude":86.4304,"temp":23.6,"humidity":86,"rain":0.0,"pressure":980.6,"uv_index":8.55,"wind_gusts":29.2,"aqi":167,"pm10":137.8,"pm2_5":129.9,"mosquito_risk":3,"arthritis_risk":5,"migraine_risk":7,"frizz_risk":1,"updated_at":"2026-03-31T05:08:49.884564+05:30"},{"city":"Bokaro","state":"Jharkhand","latitude":23.6693,"longitude":86.1511,"temp":23.3,"humidity":91,"rain":0.0,"pressure":985.0,"uv_index":8.55,"wind_gusts":32.8,"aqi":165,"pm10":139.2,"pm2_5":131.3,"mosquito_risk":3,"arthritis_risk":5,"migraine_risk":7,"frizz_risk":1,"updated_at":"2026-03-31T05:08:49.884571+05:30"},{"city":"Bhubaneswar","state":"Odisha","latitude":20.2961,"longitude":85.8245,"temp":26.0,"humidity":92,"rain":0.0,"pressure":1002.8,"uv_index":8.85,"wind_gusts":28.8,"aqi":64,"pm10":15.3,"pm2_5":12.3,"mosquito_risk":7,"arthritis_risk":5,"migraine_risk":4,"frizz_risk":1,"updated_at":"2026-03-31T05:08:49.884578+05:30"},{"city":"Cuttack","state":"Odisha","latitude":20.4625,"longitude":85.8828,"temp":26.0,"humidity":93,"rain":0.0,"pressure":1004.9,"uv_index":8.85,"wind_gusts":21.6,"aqi":64,"pm10":15.3,"pm2_5":12.3,"mosquito_risk":7,"arthritis_risk":5,"migraine_risk":4,"frizz_risk":1,"updated_at":"2026-03-31T05:08:49.884585+05:30"},{"city":"Rourkela","state":"Odisha","latitude":22.2604,"longitude":84.8536,"temp":25.1,"humidity":92,"rain":0.0,"pressure":985.1,"uv_index":8.55,"wind_gusts":20.5,"aqi":106,"pm10":49.7,"pm2_5":44.8,"mosquito_risk":7,"arthritis_risk":5,"migraine_risk":7,"frizz_risk":1,"updated_at":"2026-03-31T05:08:49.884592+05:30"},{"city":"Raipur","state":"Chhattisgarh","latitude":21.2514,"longitude":81.6296,"temp":25.6,"humidity":64,"rain":0.0,"pressure":974.9,"uv_index":8.4,"wind_gusts":33.1,"aqi":107,"pm10":53.6,"pm2_5":50.5,"mosquito_risk":7,"arthritis_risk":5,"migraine_risk":7,"frizz_risk":1,"updated_at":"2026-03-31T05:08:49.884598+05:30"},{"city":"Bhilai","state":"Chhattisgarh","latitude":21.1938,"longitude":81.3509,"temp":25.1,"humidity":68,"rain":0.0,"pressure":975.0,"uv_index":8.1,"wind_gusts":29.2,"aqi":86,"pm10":35.9,"pm2_5":32.6,"mosquito_risk":7,"arthritis_risk":5,"migraine_risk":7,"frizz_risk":1,"updated_at":"2026-03-31T05:08:49.884604+05:30"},{"city":"Guwahati","state":"Assam","latitude":26.1158,"longitude":91.7086,"temp":21.6,"humidity":94,"rain":0.0,"pressure":1003.8,"uv_index":8.05,"wind_gusts":22.0,"aqi":123,"pm10":58.1,"pm2_5":48.0,"mosquito_risk":3,"arthritis_risk":5,"migraine_risk":4,"frizz_risk":1,"updated_at":"2026-03-31T05:08:49.884610+05:30"},{"city":"Agartala","state":"Tripura","latitude":23.8315,"longitude":91.2868,"temp":22.8,"humidity":93,"rain":0.0,"pressure":1008.0,"uv_index":8.3,"wind_gusts":30.6,"aqi":118,"pm10":27.8,"pm2_5":24.0,"mosquito_risk":3,"arthritis_risk":0,"migraine_risk":4,"frizz_risk":1,"updated_at":"2026-03-31T05:08:49.884638+05:30"},{"city":"Shillong","state":"Meghalaya","latitude":25.5788,"longitude":91.8933,"temp":13.3,"humidity":91,"rain":0.0,"pressure":855.8,"uv_index":7.25,"wind_gusts":35.6,"aqi":117,"pm10":56.6,"pm2_5":46.1,"mosquito_risk":3,"arthritis_risk":10,"migraine_risk":7,"frizz_risk":0,"updated_at":"2026-03-31T05:08:49.884646+05:30"},{"city":"Imphal","state":"Manipur","latitude":24.817,"longitude":93.9368,"temp":16.6,"humidity":94,"rain":0.0,"pressure":924.3,"uv_index":8.45,"wind_gusts":57.6,"aqi":101,"pm10":7.2,"pm2_5":5.9,"mosquito_risk":3,"arthritis_risk":10,"migraine_risk":7,"frizz_risk":0,"updated_at":"2026-03-31T05:08:49.884655+05:30"},{"city":"Aizawl","state":"Mizoram","latitude":23.7271,"longitude":92.7176,"temp":17.0,"humidity":94,"rain":0.0,"pressure":893.4,"uv_index":8.55,"wind_gusts":40.7,"aqi":122,"pm10":61.2,"pm2_5":48.0,"mosquito_risk":3,"arthritis_risk":10,"migraine_risk":7,"frizz_risk":0,"updated_at":"2026-03-31T05:08:49.884662+05:30"},{"city":"Kohima","state":"Nagaland","latitude":25.6701,"longitude":94.1077,"temp":14.2,"humidity":79,"rain":0.0,"pressure":854.8,"uv_index":8.55,"wind_gusts":63.0,"aqi":91,"pm10":18.7,"pm2_5":14.8,"mosquito_risk":3,"arthritis_risk":5,"migraine_risk":7,"frizz_risk":0,"updated_at":"2026-03-31T05:08:49.884668+05:30"},{"city":"Gangtok","state":"Sikkim","latitude":27.3314,"longitude":88.6138,"temp":14.1,"humidity":91,"rain":0.0,"pressure":836.7,"uv_index":8.3,"wind_gusts":19.1,"aqi":121,"pm10":64.0,"pm2_5":53.4,"mosquito_risk":3,"arthritis_risk":10,"migraine_risk":7,"frizz_risk":0,"updated_at":"2026-03-31T05:08:49.884674+05:30"},{"city":"Siliguri","state":"West Bengal","latitude":26.7271,"longitude":88.3953,"temp":18.8,"humidity":84,"rain":0.0,"pressure":995.8,"uv_index":8.0,"wind_gusts":19.4,"aqi":159,"pm10":138.3,"pm2_5":103.6,"mosquito_risk":3,"arthritis_risk":10,"migraine_risk":7,"frizz_risk":1,"updated_at":"2026-03-31T05:08:53.212351+05:30"},{"city":"Durgapur","state":"West Bengal","latitude":23.5204,"longitude":87.3119,"temp":25.1,"humidity":93,"rain":0.1,"pressure":995.7,"uv_index":8.45,"wind_gusts":19.8,"aqi":158,"pm10":84.8,"pm2_5":78.7,"mosquito_risk":10,"arthritis_risk":5,"migraine_risk":7,"frizz_risk":1,"updated_at":"2026-03-31T05:08:53.212384+05:30"},{"city":"Asansol","state":"West Bengal","latitude":23.6739,"longitude":86.9524,"temp":24.9,"humidity":90,"rain":0.0,"pressure":994.2,"uv_index":8.55,"wind_gusts":26.6,"aqi":158,"pm10":90.6,"pm2_5":84.1,"mosquito_risk":3,"arthritis_risk":5,"migraine_risk":7,"frizz_risk":1,"updated_at":"2026-03-31T05:08:53.212395+05:30"},{"city":"Pondicherry","state":"Puducherry","latitude":11.9139,"longitude":79.8145,"temp":24.5,"humidity":97,"rain":0.0,"pressure":1008.3,"uv_index":9.25,"wind_gusts":26.3,"aqi":44,"pm10":15.3,"pm2_5":10.9,"mosquito_risk":3,"arthritis_risk":0,"migraine_risk":4,"frizz_risk":1,"updated_at":"2026-03-31T05:08:53.212404+05:30"},{"city":"Port Blair","state":"Andaman and Nicobar Islands","latitude":11.6234,"longitude":92.7265,"temp":28.3,"humidity":76,"rain":0.0,"pressure":1007.1,"uv_index":9.2,"wind_gusts":14.0,"aqi":58,"pm10":15.9,"pm2_5":13.0,"mosquito_risk":7,"arthritis_risk":5,"migraine_risk":4,"frizz_risk":1,"updated_at":"2026-03-31T05:08:53.212414+05:30"},{"city":"Haridwar","state":"Uttarakhand","latitude":29.9457,"longitude":78.1642,"temp":20.1,"humidity":77,"rain":0.0,"pressure":975.0,"uv_index":6.55,"wind_gusts":31.0,"aqi":97,"pm10":51.0,"pm2_5":25.5,"mosquito_risk":3,"arthritis_risk":5,"migraine_risk":7,"frizz_risk":0,"updated_at":"2026-03-31T05:08:53.212422+05:30"},{"city":"Rishikesh","state":"Uttarakhand","latitude":30.0869,"longitude":78.2676,"temp":19.7,"humidity":65,"rain":0.0,"pressure":967.7,"uv_index":6.65,"wind_gusts":33.8,"aqi":76,"pm10":43.2,"pm2_5":15.7,"mosquito_risk":3,"arthritis_risk":5,"migraine_risk":7,"frizz_risk":0,"updated_at":"2026-03-31T05:08:53.212431+05:30"},{"city":"Nainital","state":"Uttarakhand","latitude":29.3919,"longitude":79.4542,"temp":18.5,"humidity":42,"rain":0.0,"pressure":806.1,"uv_index":7.5,"wind_gusts":41.4,"aqi":75,"pm10":62.6,"pm2_5":26.1,"mosquito_risk":0,"arthritis_risk":5,"migraine_risk":7,"frizz_risk":0,"updated_at":"2026-03-31T05:08:53.212439+05:30"},{"city":"Mussoorie","state":"Uttarakhand","latitude":30.4599,"longitude":78.0664,"temp":15.0,"humidity":53,"rain":0.0,"pressure":802.2,"uv_index":7.0,"wind_gusts":42.5,"aqi":73,"pm10":25.4,"pm2_5":15.1,"mosquito_risk":0,"arthritis_risk":5,"migraine_risk":7,"frizz_risk":0,"updated_at":"2026-03-31T05:08:53.212448+05:30"},{"city":"Dharamshala","state":"Himachal Pradesh","latitude":32.219,"longitude":76.3234,"temp":17.8,"humidity":55,"rain":0.0,"pressure":869.6,"uv_index":7.2,"wind_gusts":22.7,"aqi":36,"pm10":13.4,"pm2_5":6.3,"mosquito_risk":0,"arthritis_risk":5,"migraine_risk":7,"frizz_risk":0,"updated_at":"2026-03-31T05:08:53.212455+05:30"},{"city":"Dalhousie","state":"Himachal Pradesh","latitude":32.5387,"longitude":75.971,"temp":13.6,"humidity":60,"rain":0.0,"pressure":803.2,"uv_index":6.7,"wind_gusts":27.4,"aqi":65,"pm10":42.4,"pm2_5":20.7,"mosquito_risk":0,"arthritis_risk":5,"migraine_risk":7,"frizz_risk":0,"updated_at":"2026-03-31T05:08:53.212464+05:30"},{"city":"Patiala","state":"Punjab","latitude":30.3398,"longitude":76.3869,"temp":18.1,"humidity":82,"rain":0.0,"pressure":979.2,"uv_index":5.9,"wind_gusts":15.8,"aqi":467,"pm10":297.1,"pm2_5":83.8,"mosquito_risk":3,"arthritis_risk":10,"migraine_risk":3,"frizz_risk":0,"updated_at":"2026-03-31T05:08:53.212473+05:30"},{"city":"Bhatinda","state":"Punjab","latitude":30.211,"longitude":74.9455,"temp":19.1,"humidity":79,"rain":0.0,"pressure":984.4,"uv_index":6.6,"wind_gusts":29.5,"aqi":154,"pm10":173.2,"pm2_5":49.1,"mosquito_risk":3,"arthritis_risk":5,"migraine_risk":7,"frizz_risk":0,"updated_at":"2026-03-31T05:08:53.212481+05:30"},{"city":"Rohtak","state":"Haryana","latitude":28.8955,"longitude":76.6066,"temp":17.9,"humidity":91,"rain":0.0,"pressure":982.6,"uv_index":6.05,"wind_gusts":23.8,"aqi":288,"pm10":121.5,"pm2_5":58.0,"mosquito_risk":3,"arthritis_risk":10,"migraine_risk":7,"frizz_risk":1,"updated_at":"2026-03-31T05:08:53.212489+05:30"},{"city":"Panipat","state":"Haryana","latitude":29.3909,"longitude":76.9635,"temp":17.7,"humidity":80,"rain":0.0,"pressure":981.3,"uv_index":6.55,"wind_gusts":19.1,"aqi":429,"pm10":111.8,"pm2_5":57.3,"mosquito_risk":3,"arthritis_risk":5,"migraine_risk":7,"frizz_risk":0,"updated_at":"2026-03-31T05:08:53.212496+05:30"},{"city":"Mathura","state":"Uttar Pradesh","latitude":27.4924,"longitude":77.6737,"temp":20.4,"humidity":70,"rain":0.0,"pressure":987.7,"uv_index":6.85,"wind_gusts":22.7,"aqi":409,"pm10":101.7,"pm2_5":28.4,"mosquito_risk":3,"arthritis_risk":5,"migraine_risk":7,"frizz_risk":0,"updated_at":"2026-03-31T05:08:53.212504+05:30"},{"city":"Vrindavan","state":"Uttar Pradesh","latitude":27.5823,"longitude":77.7027,"temp":19.1,"humidity":79,"rain":0.0,"pressure":988.1,"uv_index":6.8,"wind_gusts":25.2,"aqi":409,"pm10":101.7,"pm2_5":28.4,"mosquito_risk":3,"arthritis_risk":5,"migraine_risk":7,"frizz_risk":0,"updated_at":"2026-03-31T05:08:53.212512+05:30"},{"city":"Ayodhya","state":"Uttar Pradesh","latitude":26.7922,"longitude":82.1998,"temp":22.6,"humidity":83,"rain":0.0,"pressure":995.1,"uv_index":7.45,"wind_gusts":30.2,"aqi":129,"pm10":161.6,"pm2_5":62.6,"mosquito_risk":3,"arthritis_risk":5,"migraine_risk":7,"frizz_risk":1,"updated_at":"2026-03-31T05:08:53.212521+05:30"},{"city":"Ratlam","state":"Madhya Pradesh","latitude":23.3315,"longitude":75.0367,"temp":22.4,"humidity":77,"rain":0.0,"pressure":954.0,"uv_index":8.15,"wind_gusts":30.6,"aqi":47,"pm10":18.6,"pm2_5":11.9,"mosquito_risk":3,"arthritis_risk":5,"migraine_risk":7,"frizz_risk":1,"updated_at":"2026-03-31T05:08:53.212528+05:30"},{"city":"Sagar","state":"Madhya Pradesh","latitude":23.8388,"longitude":78.7378,"temp":24.2,"humidity":60,"rain":0.0,"pressure":950.5,"uv_index":8.2,"wind_gusts":27.0,"aqi":38,"pm10":35.6,"pm2_5":12.9,"mosquito_risk":0,"arthritis_risk":5,"migraine_risk":7,"frizz_risk":0,"updated_at":"2026-03-31T05:08:53.212537+05:30"},{"city":"Satna","state":"Madhya Pradesh","latitude":24.6005,"longitude":80.8322,"temp":25.7,"humidity":55,"rain":0.0,"pressure":971.3,"uv_index":8.2,"wind_gusts":22.3,"aqi":92,"pm10":364.1,"pm2_5":81.3,"mosquito_risk":4,"arthritis_risk":5,"migraine_risk":7,"frizz_risk":0,"updated_at":"2026-03-31T05:08:53.212545+05:30"},{"city":"Akola","state":"Maharashtra","latitude":20.7002,"longitude":77.0082,"temp":24.5,"humidity":79,"rain":0.0,"pressure":975.6,"uv_index":8.55,"wind_gusts":26.6,"aqi":58,"pm10":36.7,"pm2_5":28.4,"mosquito_risk":3,"arthritis_risk":5,"migraine_risk":7,"frizz_risk":1,"updated_at":"2026-03-31T05:08:53.212554+05:30"},{"city":"Amravati","state":"Maharashtra","latitude":20.9374,"longitude":77.7796,"temp":24.1,"humidity":78,"rain":0.0,"pressure":967.6,"uv_index":8.55,"wind_gusts":22.0,"aqi":55,"pm10":37.3,"pm2_5":27.6,"mosquito_risk":3,"arthritis_risk":5,"migraine_risk":7,"frizz_risk":1,"updated_at":"2026-03-31T05:08:53.212563+05:30"},{"city":"Latur","state":"Maharashtra","latitude":18.4088,"longitude":76.5604,"temp":21.7,"humidity":81,"rain":0.0,"pressure":939.5,"uv_index":8.85,"wind_gusts":29.2,"aqi":74,"pm10":34.0,"pm2_5":29.3,"mosquito_risk":3,"arthritis_risk":5,"migraine_risk":7,"frizz_risk":1,"updated_at":"2026-03-31T05:08:53.212570+05:30"},{"city":"Nanded","state":"Maharashtra","latitude":19.1383,"longitude":77.3091,"temp":23.0,"humidity":84,"rain":0.0,"pressure":968.8,"uv_index":8.75,"wind_gusts":16.9,"aqi":66,"pm10":30.7,"pm2_5":25.8,"mosquito_risk":3,"arthritis_risk":5,"migraine_risk":7,"frizz_risk":1,"updated_at":"2026-03-31T05:08:53.212576+05:30"},{"city":"Gulbarga","state":"Karnataka","latitude":17.3297,"longitude":76.8343,"temp":24.0,"humidity":75,"rain":0.0,"pressure":959.0,"uv_index":8.3,"wind_gusts":28.1,"aqi":99,"pm10":43.2,"pm2_5":39.2,"mosquito_risk":3,"arthritis_risk":5,"migraine_risk":7,"frizz_risk":1,"updated_at":"2026-03-31T05:08:53.212582+05:30"},{"city":"Bidar","state":"Karnataka","latitude":17.9104,"longitude":77.5199,"temp":22.5,"humidity":79,"rain":0.0,"pressure":935.6,"uv_index":7.6,"wind_gusts":32.8,"aqi":99,"pm10":48.8,"pm2_5":43.4,"mosquito_risk":3,"arthritis_risk":5,"migraine_risk":7,"frizz_risk":1,"updated_at":"2026-03-31T05:08:53.212588+05:30"},{"city":"Hospet","state":"Karnataka","latitude":15.2689,"longitude":76.3909,"temp":24.4,"humidity":84,"rain":0.0,"pressure":956.0,"uv_index":9.15,"wind_gusts":25.2,"aqi":108,"pm10":19.0,"pm2_5":17.1,"mosquito_risk":3,"arthritis_risk":5,"migraine_risk":7,"frizz_risk":1,"updated_at":"2026-03-31T05:08:53.212594+05:30"},{"city":"Tirupur","state":"Tamil Nadu","latitude":11.1085,"longitude":77.3411,"temp":25.7,"humidity":89,"rain":0.0,"pressure":974.5,"uv_index":9.5,"wind_gusts":30.6,"aqi":80,"pm10":31.4,"pm2_5":29.6,"mosquito_risk":7,"arthritis_risk":5,"migraine_risk":7,"frizz_risk":1,"updated_at":"2026-03-31T05:08:53.212600+05:30"},{"city":"Alappuzha","state":"Kerala","latitude":9.4981,"longitude":76.3388,"temp":27.9,"humidity":85,"rain":0.0,"pressure":1007.2,"uv_index":9.15,"wind_gusts":25.6,"aqi":104,"pm10":47.3,"pm2_5":44.2,"mosquito_risk":7,"arthritis_risk":5,"migraine_risk":4,"frizz_risk":1,"updated_at":"2026-03-31T05:08:53.212606+05:30"},{"city":"Munnar","state":"Kerala","latitude":10.0889,"longitude":77.0595,"temp":18.5,"humidity":87,"rain":0.0,"pressure":854.4,"uv_index":9.75,"wind_gusts":26.6,"aqi":78,"pm10":35.0,"pm2_5":33.3,"mosquito_risk":3,"arthritis_risk":10,"migraine_risk":7,"frizz_risk":1,"updated_at":"2026-03-31T05:08:53.212633+05:30"},{"city":"Silchar","state":"Assam","latitude":24.8333,"longitude":92.7789,"temp":22.1,"humidity":93,"rain":0.0,"pressure":1007.5,"uv_index":8.35,"wind_gusts":25.9,"aqi":116,"pm10":32.8,"pm2_5":25.8,"mosquito_risk":3,"arthritis_risk":5,"migraine_risk":4,"frizz_risk":1,"updated_at":"2026-03-31T05:08:53.212642+05:30"},{"city":"Dibrugarh","state":"Assam","latitude":27.4728,"longitude":94.912,"temp":20.9,"humidity":94,"rain":0.0,"pressure":998.7,"uv_index":7.95,"wind_gusts":7.2,"aqi":98,"pm10":37.3,"pm2_5":34.1,"mosquito_risk":3,"arthritis_risk":5,"migraine_risk":7,"frizz_risk":1,"updated_at":"2026-03-31T05:08:53.212649+05:30"}]