[{"city":"Delhi","state":"Delhi","latitude":28.6139,"longitude":77.209,"temp":26.1,"humidity":42,"rain":0.0,"pressure":984.9,"uv_index":6.1,"wind_gusts":48.2,"aqi":252,"pm10":590.5,"pm2_5":87.1,"mosquito_risk":4,"arthritis_risk":5,"migraine_risk":7,"frizz_risk":0,"updated_at":"2026-03-16T10:49:40.834888+05:30"},{"city":"Mumbai","state":"Maharashtra","latitude":19.076,"longitude":72.8777,"temp":27.0,"humidity":75,"rain":0.0,"pressure":1011.4,"uv_index":7.65,"wind_gusts":18.4,"aqi":103,"pm10":99.4,"pm2_5":47.0,"mosquito_risk":7,"arthritis_risk":0,"migraine_risk":4,"frizz_risk":1,"updated_at":"2026-03-16T10:49:40.834928+05:30"},{"city":"Bangalore","state":"Karnataka","latitude":12.9716,"longitude":77.5946,"temp":27.5,"humidity":50,"rain":0.0,"pressure":915.2,"uv_index":9.35,"wind_gusts":28.4,"aqi":82,"pm10":18.2,"pm2_5":17.2,"mosquito_risk":4,"arthritis_risk":5,"migraine_risk":7,"frizz_risk":1,"updated_at":"2026-03-16T10:49:40.834944+05:30"},{"city":"Hyderabad","state":"Telangana","latitude":17.385,"longitude":78.4867,"temp":29.5,"humidity":53,"rain":0.0,"pressure":957.0,"uv_index":8.75,"wind_gusts":20.9,"aqi":94,"pm10":31.9,"pm2_5":23.8,"mosquito_risk":4,"arthritis_risk":5,"migraine_risk":7,"frizz_risk":1,"updated_at":"2026-03-16T10:49:40.834954+05:30"},{"city":"Chennai","state":"Tamil Nadu","latitude":13.0827,"longitude":80.2707,"temp":31.5,"humidity":53,"rain":0.0,"pressure":1011.4,"uv_index":9.05,"wind_gusts":31.0,"aqi":38,"pm10":10.7,"pm2_5":8.4,"mosquito_risk":0,"arthritis_risk":0,"migraine_risk":4,"frizz_risk":1,"updated_at":"2026-03-16T10:49:40.834962+05:30"},{"city":"Kolkata","state":"West Bengal","latitude":22.5726,"longitude":88.3639,"temp":29.6,"humidity":65,"rain":0.0,"pressure":1009.8,"uv_index":8.05,"wind_gusts":30.6,"aqi":70,"pm10":35.9,"pm2_5":28.3,"mosquito_risk":7,"arthritis_risk":0,"migraine_risk":4,"frizz_risk":1,"updated_at":"2026-03-16T10:49:40.834975+05:30"},{"city":"Pune","state":"Maharashtra","latitude":18.5204,"longitude":73.8567,"temp":32.4,"humidity":17,"rain":0.0,"pressure":951.3,"uv_index":8.25,"wind_gusts":39.6,"aqi":96,"pm10":40.3,"pm2_5":18.4,"mosquito_risk":0,"arthritis_risk":5,"migraine_risk":7,"frizz_risk":0,"updated_at":"2026-03-16T10:49:40.834987+05:30"},{"city":"Ahmedabad","state":"Gujarat","latitude":23.0225,"longitude":72.5714,"temp":30.2,"humidity":45,"rain":0.0,"pressure":1004.8,"uv_index":7.45,"wind_gusts":25.2,"aqi":65,"pm10":31.0,"pm2_5":17.0,"mosquito_risk":0,"arthritis_risk":5,"migraine_risk":4,"frizz_risk":1,"updated_at":"2026-03-16T10:49:40.834995+05:30"},{"city":"Jaipur","state":"Rajasthan","latitude":26.9124,"longitude":75.7873,"temp":25.8,"humidity":46,"rain":0.0,"pressure":962.1,"uv_index":6.85,"wind_gusts":33.5,"aqi":159,"pm10":273.8,"pm2_5":63.6,"mosquito_risk":4,"arthritis_risk":5,"migraine_risk":7,"frizz_risk":0,"updated_at":"2026-03-16T10:49:40.835003+05:30"},{"city":"Lucknow","state":"Uttar Pradesh","latitude":26.8467,"longitude":80.9462,"temp":27.7,"humidity":40,"rain":0.0,"pressure":997.3,"uv_index":6.65,"wind_gusts":48.6,"aqi":84,"pm10":42.6,"pm2_5":22.0,"mosquito_risk":4,"arthritis_risk":5,"migraine_risk":7,"frizz_risk":0,"updated_at":"2026-03-16T10:49:40.835010+05:30"},{"city":"Kanpur","state":"Uttar Pradesh","latitude":26.4499,"longitude":80.3319,"temp":26.8,"humidity":42,"rain":0.0,"pressure":995.2,"uv_index":6.7,"wind_gusts":35.3,"aqi":118,"pm10":196.5,"pm2_5":44.7,"mosquito_risk":4,"arthritis_risk":5,"migraine_risk":7,"frizz_risk":0,"updated_at":"2026-03-16T10:49:40.835016+05:30"},{"city":"Chandigarh","state":"Chandigarh","latitude":30.7333,"longitude":76.7794,"temp":19.7,"humidity":61,"rain":0.0,"pressure":970.7,"uv_index":5.55,"wind_gusts":55.8,"aqi":66,"pm10":52.2,"pm2_5":17.0,"mosquito_risk":3,"arthritis_risk":5,"migraine_risk":3,"frizz_risk":0,"updated_at":"2026-03-16T10:49:40.835024+05:30"},{"city":"Srinagar","state":"Jammu and Kashmir","latitude":34.0837,"longitude":74.7973,"temp":7.3,"humidity":83,"rain":0.0,"pressure":838.6,"uv_index":5.25,"wind_gusts":22.3,"aqi":51,"pm10":17.2,"pm2_5":14.1,"mosquito_risk":3,"arthritis_risk":10,"migraine_risk":3,"frizz_risk":0,"updated_at":"2026-03-16T10:49:40.835030+05:30"},{"city":"Jammu","state":"Jammu and Kashmir","latitude":32.7266,"longitude":74.857,"temp":15.1,"humidity":81,"rain":0.9,"pressure":975.7,"uv_index":6.2,"wind_gusts":38.9,"aqi":73,"pm10":18.6,"pm2_5":11.8,"mosquito_risk":6,"arthritis_risk":10,"migraine_risk":7,"frizz_risk":0,"updated_at":"2026-03-16T10:49:40.835041+05:30"},{"city":"Amritsar","state":"Punjab","latitude":31.634,"longitude":74.8723,"temp":13.7,"humidity":93,"rain":1.5,"pressure":984.5,"uv_index":5.65,"wind_gusts":34.6,"aqi":78,"pm10":90.1,"pm2_5":28.1,"mosquito_risk":6,"arthritis_risk":10,"migraine_risk":3,"frizz_risk":0,"updated_at":"2026-03-16T10:49:40.835048+05:30"},{"city":"Ludhiana","state":"Punjab","latitude":30.901,"longitude":75.8573,"temp":16.2,"humidity":82,"rain":0.0,"pressure":981.2,"uv_index":6.15,"wind_gusts":48.6,"aqi":82,"pm10":36.0,"pm2_5":23.1,"mosquito_risk":3,"arthritis_risk":10,"migraine_risk":7,"frizz_risk":0,"updated_at":"2026-03-16T10:49:40.835054+05:30"},{"city":"Jalandhar","state":"Punjab","latitude":31.326,"longitude":75.5762,"temp":15.4,"humidity":87,"rain":0.0,"pressure":983.5,"uv_index":6.05,"wind_gusts":55.4,"aqi":73,"pm10":75.4,"pm2_5":26.3,"mosquito_risk":3,"arthritis_risk":10,"migraine_risk":7,"frizz_risk":0,"updated_at":"2026-03-16T10:49:40.835063+05:30"},{"city":"Dehradun","state":"Uttarakhand","latitude":30.6284,"longitude":78.0322,"temp":14.2,"humidity":49,"rain":0.0,"pressure":829.5,"uv_index":5.95,"wind_gusts":33.1,"aqi":46,"pm10":20.4,"pm2_5":6.0,"mosquito_risk":0,"arthritis_risk":5,"migraine_risk":3,"frizz_risk":0,"updated_at":"2026-03-16T10:49:40.835070+05:30"},{"city":"Shimla","state":"Himachal Pradesh","latitude":31.1048,"longitude":77.1734,"temp":12.1,"humidity":47,"rain":0.0,"pressure":782.9,"uv_index":5.8,"wind_gusts":50.0,"aqi":46,"pm10":13.6,"pm2_5":5.5,"mosquito_risk":0,"arthritis_risk":5,"migraine_risk":3,"frizz_risk":0,"updated_at":"2026-03-16T10:49:40.835076+05:30"},{"city":"Manali","state":"Himachal Pradesh","latitude":32.2396,"longitude":77.1887,"temp":10.7,"humidity":55,"rain":0.0,"pressure":816.0,"uv_index":6.3,"wind_gusts":37.8,"aqi":49,"pm10":16.1,"pm2_5":4.7,"mosquito_risk":0,"arthritis_risk":5,"migraine_risk":7,"frizz_risk":0,"updated_at":"2026-03-16T10:49:40.835083+05:30"},{"city":"Gurgaon","state":"Haryana","latitude":28.4595,"longitude":77.0266,"temp":26.2,"humidity":41,"rain":0.0,"pressure":983.2,"uv_index":6.25,"wind_gusts":46.1,"aqi":1988,"pm10":2339.5,"pm2_5":241.2,"mosquito_risk":4,"arthritis_risk":5,"migraine_risk":7,"frizz_risk":0,"updated_at":"2026-03-16T10:49:40.835089+05:30"},{"city":"Noida","state":"Uttar Pradesh","latitude":28.5355,"longitude":77.391,"temp":26.6,"humidity":41,"rain":0.0,"pressure":986.6,"uv_index":6.15,"wind_gusts":44.6,"aqi":1988,"pm10":2339.5,"pm2_5":241.2,"mosquito_risk":4,"arthritis_risk":5,"migraine_risk":7,"frizz_risk":0,"updated_at":"2026-03-16T10:49:40.835096+05:30"},{"city":"Ghaziabad","state":"Uttar Pradesh","latitude":28.6692,"longitude":77.4538,"temp":25.9,"humidity":46,"rain":0.0,"pressure":984.9,"uv_index":6.1,"wind_gusts":45.7,"aqi":95,"pm10":271.0,"pm2_5":45.8,"mosquito_risk":4,"arthritis_risk":5,"migraine_risk":7,"frizz_risk":0,"updated_at":"2026-03-16T10:49:40.835102+05:30"},{"city":"Faridabad","state":"Haryana","latitude":28.4089,"longitude":77.3178,"temp":26.2,"humidity":42,"rain":0.0,"pressure":986.0,"uv_index":6.15,"wind_gusts":43.9,"aqi":1988,"pm10":2339.5,"pm2_5":241.2,"mosquito_risk":4,"arthritis_risk":5,"migraine_risk":7,"frizz_risk":0,"updated_at":"2026-03-16T10:49:40.835108+05:30"},{"city":"Meerut","state":"Uttar Pradesh","latitude":28.9845,"longitude":77.7064,"temp":25.1,"humidity":49,"rain":0.0,"pressure":983.7,"uv_index":6.0,"wind_gusts":53.6,"aqi":95,"pm10":271.0,"pm2_5":45.8,"mosquito_risk":4,"arthritis_risk":5,"migraine_risk":3,"frizz_risk":0,"updated_at":"2026-03-16T10:49:40.835115+05:30"},{"city":"Agra","state":"Uttar Pradesh","latitude":27.1767,"longitude":78.0081,"temp":26.3,"humidity":45,"rain":0.0,"pressure":990.9,"uv_index":6.45,"wind_gusts":34.9,"aqi":966,"pm10":1009.6,"pm2_5":110.6,"mosquito_risk":4,"arthritis_risk":5,"migraine_risk":7,"frizz_risk":0,"updated_at":"2026-03-16T10:49:40.835121+05:30"},{"city":"Varanasi","state":"Uttar Pradesh","latitude":25.3176,"longitude":82.9739,"temp":29.7,"humidity":53,"rain":0.0,"pressure":1000.3,"uv_index":7.35,"wind_gusts":29.9,"aqi":152,"pm10":90.6,"pm2_5":63.6,"mosquito_risk":4,"arthritis_risk":5,"migraine_risk":4,"frizz_risk":1,"updated_at":"2026-03-16T10:49:40.835131+05:30"},{"city":"Prayagraj","state":"Uttar Pradesh","latitude":25.4358,"longitude":81.8463,"temp":27.1,"humidity":55,"rain":0.0,"pressure":999.1,"uv_index":7.2,"wind_gusts":33.8,"aqi":116,"pm10":99.9,"pm2_5":70.1,"mosquito_risk":4,"arthritis_risk":5,"migraine_risk":7,"frizz_risk":1,"updated_at":"2026-03-16T10:49:40.835137+05:30"},{"city":"Gorakhpur","state":"Uttar Pradesh","latitude":26.7606,"longitude":83.3732,"temp":26.7,"humidity":56,"rain":0.0,"pressure":1001.9,"uv_index":7.05,"wind_gusts":33.5,"aqi":147,"pm10":51.7,"pm2_5":34.1,"mosquito_risk":4,"arthritis_risk":5,"migraine_risk":4,"frizz_risk":1,"updated_at":"2026-03-16T10:49:40.835144+05:30"},{"city":"Bareilly","state":"Uttar Pradesh","latitude":28.367,"longitude":79.4304,"temp":24.5,"humidity":57,"rain":0.0,"pressure":990.2,"uv_index":6.35,"wind_gusts":60.8,"aqi":94,"pm10":45.2,"pm2_5":20.7,"mosquito_risk":0,"arthritis_risk":5,"migraine_risk":7,"frizz_risk":0,"updated_at":"2026-03-16T10:49:40.835150+05:30"},{"city":"Aligarh","state":"Uttar Pradesh","latitude":27.8974,"longitude":78.088,"temp":26.4,"humidity":43,"rain":0.0,"pressure":988.5,"uv_index":6.2,"wind_gusts":37.4,"aqi":583,"pm10":784.2,"pm2_5":92.2,"mosquito_risk":4,"arthritis_risk":5,"migraine_risk":7,"frizz_risk":0,"updated_at":"2026-03-16T10:49:40.835159+05:30"},{"city":"Moradabad","state":"Uttar Pradesh","latitude":28.8386,"longitude":78.7733,"temp":24.4,"humidity":52,"rain":0.0,"pressure":986.7,"uv_index":6.15,"wind_gusts":69.1,"aqi":102,"pm10":59.3,"pm2_5":23.7,"mosquito_risk":0,"arthritis_risk":5,"migraine_risk":7,"frizz_risk":0,"updated_at":"2026-03-16T10:49:40.835165+05:30"},{"city":"Saharanpur","state":"Uttar Pradesh","latitude":29.9637,"longitude":77.546,"temp":22.2,"humidity":55,"rain":0.0,"pressure":977.9,"uv_index":5.75,"wind_gusts":41.8,"aqi":88,"pm10":56.5,"pm2_5":20.5,"mosquito_risk":0,"arthritis_risk":5,"migraine_risk":3,"frizz_risk":0,"updated_at":"2026-03-16T10:49:40.835171+05:30"},{"city":"Jhansi","state":"Uttar Pradesh","latitude":25.4484,"longitude":78.5685,"temp":27.4,"humidity":45,"rain":0.0,"pressure":980.7,"uv_index":7.15,"wind_gusts":27.4,"aqi":75,"pm10":29.3,"pm2_5":20.1,"mosquito_risk":4,"arthritis_risk":5,"migraine_risk":7,"frizz_risk":0,"updated_at":"2026-03-16T10:49:44.174092+05:30"},{"city":"Surat","state":"Gujarat","latitude":21.1702,"longitude":72.8311,"temp":28.2,"humidity":75,"rain":0.0,"pressure":1009.9,"uv_index":7.4,"wind_gusts":23.4,"aqi":115,"pm10":86.8,"pm2_5":48.2,"mosquito_risk":7,"arthritis_risk":0,"migraine_risk":4,"frizz_risk":1,"updated_at":"2026-03-16T10:49:44.174123+05:30"},{"city":"Vadodara","state":"Gujarat","latitude":22.3072,"longitude":73.1812,"temp":31.3,"humidity":55,"rain":0.0,"pressure":1007.2,"uv_index":7.35,"wind_gusts":24.8,"aqi":82,"pm10":51.0,"pm2_5":25.6,"mosquito_risk":0,"arthritis_risk":5,"migraine_risk":4,"frizz_risk":1,"updated_at":"2026-03-16T10:49:44.174133+05:30"},{"city":"Rajkot","state":"Gujarat","latitude":22.3039,"longitude":70.8022,"temp":30.6,"humidity":37,"rain":0.0,"pressure":997.2,"uv_index":7.3,"wind_gusts":28.4,"aqi":68,"pm10":43.3,"pm2_5":17.3,"mosquito_risk":0,"arthritis_risk":5,"migraine_risk":7,"frizz_risk":0,"updated_at":"2026-03-16T10:49:44.174141+05:30"},{"city":"Thane","state":"Maharashtra","latitude":19.2183,"longitude":72.9781,"temp":29.4,"humidity":61,"rain":0.0,"pressure":1010.9,"uv_index":7.7,"wind_gusts":31.3,"aqi":103,"pm10":99.4,"pm2_5":47.0,"mosquito_risk":7,"arthritis_risk":0,"migraine_risk":4,"frizz_risk":1,"updated_at":"2026-03-16T10:49:44.174149+05:30"},{"city":"Nagpur","state":"Maharashtra","latitude":21.1458,"longitude":79.0882,"temp":31.4,"humidity":27,"rain":0.0,"pressure":976.4,"uv_index":8.0,"wind_gusts":18.4,"aqi":123,"pm10":47.4,"pm2_5":38.9,"mosquito_risk":0,"arthritis_risk":5,"migraine_risk":7,"frizz_risk":0,"updated_at":"2026-03-16T10:49:44.174156+05:30"},{"city":"Nashik","state":"Maharashtra","latitude":19.9975,"longitude":73.7898,"temp":28.8,"humidity":34,"rain":0.0,"pressure":948.7,"uv_index":7.45,"wind_gusts":25.2,"aqi":78,"pm10":65.9,"pm2_5":20.8,"mosquito_risk":4,"arthritis_risk":5,"migraine_risk":7,"frizz_risk":0,"updated_at":"2026-03-16T10:49:44.174163+05:30"},{"city":"Aurangabad","state":"Maharashtra","latitude":19.8762,"longitude":75.3433,"temp":29.8,"humidity":30,"rain":0.0,"pressure":947.4,"uv_index":8.1,"wind_gusts":25.9,"aqi":77,"pm10":42.8,"pm2_5":17.2,"mosquito_risk":4,"arthritis_risk":5,"migraine_risk":7,"frizz_risk":0,"updated_at":"2026-03-16T10:49:44.174170+05:30"},{"city":"Solapur","state":"Maharashtra","latitude":17.6599,"longitude":75.9064,"temp":29.7,"humidity":34,"rain":0.0,"pressure":960.5,"uv_index":8.65,"wind_gusts":22.7,"aqi":103,"pm10":37.6,"pm2_5":24.1,"mosquito_risk":4,"arthritis_risk":5,"migraine_risk":7,"frizz_risk":0,"updated_at":"2026-03-16T10:49:44.174178+05:30"},{"city":"Kolhapur","state":"Maharashtra","latitude":16.705,"longitude":74.2433,"temp":29.9,"humidity":28,"rain":0.0,"pressure":951.1,"uv_index":8.75,"wind_gusts":39.6,"aqi":105,"pm10":45.3,"pm2_5":29.7,"mosquito_risk":4,"arthritis_risk":5,"migraine_risk":7,"frizz_risk":0,"updated_at":"2026-03-16T10:49:44.174184+05:30"},{"city":"Goa","state":"Goa","latitude":15.2993,"longitude":74.124,"temp":30.3,"humidity":58,"rain":0.0,"pressure":1001.2,"uv_index":8.8,"wind_gusts":33.5,"aqi":107,"pm10":50.2,"pm2_5":28.5,"mosquito_risk":0,"arthritis_risk":5,"migraine_risk":4,"frizz_risk":1,"updated_at":"2026-03-16T10:49:44.174192+05:30"},{"city":"Jodhpur","state":"Rajasthan","latitude":26.2389,"longitude":73.0243,"temp":31.1,"humidity":24,"rain":0.0,"pressure":984.3,"uv_index":7.2,"wind_gusts":38.2,"aqi":90,"pm10":174.6,"pm2_5":33.6,"mosquito_risk":0,"arthritis_risk":5,"migraine_risk":7,"frizz_risk":0,"updated_at":"2026-03-16T10:49:44.174198+05:30"},{"city":"Udaipur","state":"Rajasthan","latitude":24.5854,"longitude":73.7125,"temp":30.7,"humidity":19,"rain":0.0,"pressure":948.7,"uv_index":7.85,"wind_gusts":32.4,"aqi":49,"pm10":37.0,"pm2_5":10.1,"mosquito_risk":0,"arthritis_risk":5,"migraine_risk":7,"frizz_risk":0,"updated_at":"2026-03-16T10:49:44.174205+05:30"},{"city":"Kota","state":"Rajasthan","latitude":25.2138,"longitude":75.8648,"temp":30.5,"humidity":26,"rain":0.0,"pressure":981.2,"uv_index":7.2,"wind_gusts":22.0,"aqi":59,"pm10":75.2,"pm2_5":18.7,"mosquito_risk":0,"arthritis_risk":5,"migraine_risk":7,"frizz_risk":0,"updated_at":"2026-03-16T10:49:44.174212+05:30"},{"city":"Bikaner","state":"Rajasthan","latitude":28.0229,"longitude":73.3119,"temp":28.3,"humidity":21,"rain":0.0,"pressure":982.7,"uv_index":6.9,"wind_gusts":31.3,"aqi":40,"pm10":53.1,"pm2_5":21.0,"mosquito_risk":4,"arthritis_risk":5,"migraine_risk":7,"frizz_risk":0,"updated_at":"2026-03-16T10:49:44.174219+05:30"},{"city":"Ajmer","state":"Rajasthan","latitude":26.4499,"longitude":74.6399,"temp":29.6,"humidity":24,"rain":0.0,"pressure":956.2,"uv_index":7.15,"wind_gusts":35.3,"aqi":65,"pm10":69.2,"pm2_5":13.9,"mosquito_risk":4,"arthritis_risk":5,"migraine_risk":7,"frizz_risk":0,"updated_at":"2026-03-16T10:49:44.174226+05:30"},{"city":"Gwalior","state":"Madhya Pradesh","latitude":26.2183,"longitude":78.1828,"temp":25.0,"humidity":58,"rain":0.0,"pressure":986.2,"uv_index":6.85,"wind_gusts":26.6,"aqi":89,"pm10":43.5,"pm2_5":25.6,"mosquito_risk":4,"arthritis_risk":5,"migraine_risk":7,"frizz_risk":1,"updated_at":"2026-03-16T10:49:44.174232+05:30"},{"city":"Indore","state":"Madhya Pradesh","latitude":22.7196,"longitude":75.8577,"temp":30.5,"humidity":29,"rain":0.0,"pressure":951.2,"uv_index":7.75,"wind_gusts":33.1,"aqi":61,"pm10":36.6,"pm2_5":15.4,"mosquito_risk":0,"arthritis_risk":5,"migraine_risk":7,"frizz_risk":0,"updated_at":"2026-03-16T10:49:44.174238+05:30"},{"city":"Bhopal","state":"Madhya Pradesh","latitude":23.2599,"longitude":77.4126,"temp":31.0,"humidity":25,"rain":0.0,"pressure":956.8,"uv_index":7.65,"wind_gusts":32.4,"aqi":55,"pm10":24.0,"pm2_5":10.5,"mosquito_risk":0,"arthritis_risk":5,"migraine_risk":7,"frizz_risk":0,"updated_at":"2026-03-16T10:49:44.174245+05:30"},{"city":"Jabalpur","state":"Madhya Pradesh","latitude":23.1815,"longitude":79.9864,"temp":30.9,"humidity":32,"rain":0.0,"pressure":964.3,"uv_index":7.8,"wind_gusts":37.4,"aqi":67,"pm10":26.6,"pm2_5":13.3,"mosquito_risk":0,"arthritis_risk":5,"migraine_risk":7,"frizz_risk":0,"updated_at":"2026-03-16T10:49:44.174251+05:30"},{"city":"Ujjain","state":"Madhya Pradesh","latitude":23.1765,"longitude":75.7885,"temp":29.7,"humidity":37,"rain":0.0,"pressure":956.8,"uv_index":7.65,"wind_gusts":32.0,"aqi":64,"pm10":32.5,"pm2_5":18.1,"mosquito_risk":4,"arthritis_risk":5,"migraine_risk":7,"frizz_risk":0,"updated_at":"2026-03-16T10:49:44.174258+05:30"},{"city":"Visakhapatnam","state":"Andhra Pradesh","latitude":17.6868,"longitude":83.2185,"temp":30.3,"humidity":58,"rain":0.0,"pressure":1008.0,"uv_index":8.7,"wind_gusts":39.2,"aqi":64,"pm10":20.5,"pm2_5":14.8,"mosquito_risk":0,"arthritis_risk":0,"migraine_risk":4,"frizz_risk":1,"updated_at":"2026-03-16T10:49:44.174264+05:30"},{"city":"Vijayawada","state":"Andhra Pradesh","latitude":16.5062,"longitude":80.648,"temp":29.9,"humidity":61,"rain":0.0,"pressure":1007.2,"uv_index":8.8,"wind_gusts":25.9,"aqi":53,"pm10":11.1,"pm2_5":8.0,"mosquito_risk":7,"arthritis_risk":5,"migraine_risk":4,"frizz_risk":1,"updated_at":"2026-03-16T10:49:44.174271+05:30"},{"city":"Guntur","state":"Andhra Pradesh","latitude":16.3067,"longitude":80.4365,"temp":30.2,"humidity":59,"rain":0.0,"pressure":1008.2,"uv_index":8.8,"wind_gusts":28.1,"aqi":52,"pm10":11.2,"pm2_5":8.1,"mosquito_risk":0,"arthritis_risk":0,"migraine_risk":4,"frizz_risk":1,"updated_at":"2026-03-16T10:49:44.174277+05:30"},{"city":"Nellore","state":"Andhra Pradesh","latitude":14.4426,"longitude":79.9865,"temp":30.2,"humidity":61,"rain":0.0,"pressure":1010.0,"uv_index":8.95,"wind_gusts":31.3,"aqi":46,"pm10":15.7,"pm2_5":14.6,"mosquito_risk":3,"arthritis_risk":0,"migraine_risk":4,"frizz_risk":1,"updated_at":"2026-03-16T10:49:44.174285+05:30"},{"city":"Kurnool","state":"Andhra Pradesh","latitude":15.8281,"longitude":78.0373,"temp":32.5,"humidity":47,"rain":0.0,"pressure":980.2,"uv_index":8.8,"wind_gusts":24.1,"aqi":82,"pm10":21.9,"pm2_5":18.6,"mosquito_risk":0,"arthritis_risk":5,"migraine_risk":7,"frizz_risk":1,"updated_at":"2026-03-16T10:49:44.174292+05:30"},{"city":"Kakinada","state":"Andhra Pradesh","latitude":16.9891,"longitude":82.2475,"temp":31.2,"humidity":56,"rain":0.0,"pressure":1011.7,"uv_index":8.7,"wind_gusts":27.4,"aqi":52,"pm10":12.5,"pm2_5":8.4,"mosquito_risk":0,"arthritis_risk":0,"migraine_risk":4,"frizz_risk":1,"updated_at":"2026-03-16T10:49:44.174299+05:30"},{"city":"Tirupati","state":"Andhra Pradesh","latitude":13.6288,"longitude":79.4192,"temp":29.6,"humidity":57,"rain":0.0,"pressure":995.9,"uv_index":9.05,"wind_gusts":27.0,"aqi":62,"pm10":9.9,"pm2_5":9.2,"mosquito_risk":4,"arthritis_risk":5,"migraine_risk":7,"frizz_risk":1,"updated_at":"2026-03-16T10:49:44.174305+05:30"},{"city":"Warangal","state":"Telangana","latitude":17.9689,"longitude":79.5941,"temp":28.4,"humidity":65,"rain":0.0,"pressure":983.0,"uv_index":8.55,"wind_gusts":32.0,"aqi":76,"pm10":19.1,"pm2_5":16.6,"mosquito_risk":7,"arthritis_risk":5,"migraine_risk":7,"frizz_risk":1,"updated_at":"2026-03-16T10:49:44.174312+05:30"},{"city":"Nizamabad","state":"Telangana","latitude":18.6725,"longitude":78.0941,"temp":32.6,"humidity":39,"rain":0.0,"pressure":968.0,"uv_index":8.45,"wind_gusts":40.7,"aqi":138,"pm10":43.9,"pm2_5":38.1,"mosquito_risk":0,"arthritis_risk":5,"migraine_risk":7,"frizz_risk":1,"updated_at":"2026-03-16T10:49:44.174319+05:30"},{"city":"Mysore","state":"Karnataka","latitude":12.2958,"longitude":76.6396,"temp":28.3,"humidity":51,"rain":0.0,"pressure":931.8,"uv_index":9.35,"wind_gusts":27.0,"aqi":104,"pm10":42.7,"pm2_5":37.8,"mosquito_risk":4,"arthritis_risk":5,"migraine_risk":7,"frizz_risk":1,"updated_at":"2026-03-16T10:49:44.174325+05:30"},{"city":"Mangalore","state":"Karnataka","latitude":12.9141,"longitude":74.856,"temp":28.4,"humidity":78,"rain":0.0,"pressure":1009.8,"uv_index":9.0,"wind_gusts":19.4,"aqi":93,"pm10":41.6,"pm2_5":36.7,"mosquito_risk":7,"arthritis_risk":0,"migraine_risk":4,"frizz_risk":1,"updated_at":"2026-03-16T10:49:44.174331+05:30"},{"city":"Hubli-Dharwad","state":"Karnataka","latitude":15.3647,"longitude":75.124,"temp":28.1,"humidity":52,"rain":0.0,"pressure":944.1,"uv_index":8.7,"wind_gusts":36.4,"aqi":108,"pm10":42.0,"pm2_5":35.9,"mosquito_risk":4,"arthritis_risk":5,"migraine_risk":7,"frizz_risk":1,"updated_at":"2026-03-16T10:49:44.174337+05:30"},{"city":"Belgaum","state":"Karnataka","latitude":15.8497,"longitude":74.4977,"temp":29.6,"humidity":27,"rain":0.0,"pressure":929.1,"uv_index":9.0,"wind_gusts":36.7,"aqi":96,"pm10":32.2,"pm2_5":22.4,"mosquito_risk":4,"arthritis_risk":5,"migraine_risk":7,"frizz_risk":0,"updated_at":"2026-03-16T10:49:47.515168+05:30"},{"city":"Coimbatore","state":"Tamil Nadu","latitude":11.0168,"longitude":76.9558,"temp":30.1,"humidity":52,"rain":0.0,"pressure":965.2,"uv_index":9.3,"wind_gusts":32.4,"aqi":84,"pm10":29.7,"pm2_5":27.3,"mosquito_risk":0,"arthritis_risk":5,"migraine_risk":7,"frizz_risk":1,"updated_at":"2026-03-16T10:49:47.515197+05:30"},{"city":"Madurai","state":"Tamil Nadu","latitude":9.9252,"longitude":78.1198,"temp":31.5,"humidity":51,"rain":0.0,"pressure":996.5,"uv_index":9.25,"wind_gusts":25.2,"aqi":52,"pm10":12.1,"pm2_5":9.3,"mosquito_risk":0,"arthritis_risk":5,"migraine_risk":7,"frizz_risk":1,"updated_at":"2026-03-16T10:49:47.515207+05:30"},{"city":"Trichy","state":"Tamil Nadu","latitude":10.7905,"longitude":78.7047,"temp":30.8,"humidity":57,"rain":0.0,"pressure":1003.5,"uv_index":9.2,"wind_gusts":22.7,"aqi":51,"pm10":14.0,"pm2_5":12.5,"mosquito_risk":0,"arthritis_risk":5,"migraine_risk":4,"frizz_risk":1,"updated_at":"2026-03-16T10:49:47.515216+05:30"},{"city":"Salem","state":"Tamil Nadu","latitude":11.6643,"longitude":78.146,"temp":30.3,"humidity":55,"rain":0.0,"pressure":981.0,"uv_index":9.25,"wind_gusts":15.1,"aqi":64,"pm10":10.8,"pm2_5":9.6,"mosquito_risk":0,"arthritis_risk":5,"migraine_risk":7,"frizz_risk":1,"updated_at":"2026-03-16T10:49:47.515223+05:30"},{"city":"Tirunelveli","state":"Tamil Nadu","latitude":8.7139,"longitude":77.7567,"temp":33.0,"humidity":47,"rain":0.0,"pressure":1006.4,"uv_index":9.3,"wind_gusts":46.1,"aqi":55,"pm10":10.7,"pm2_5":8.5,"mosquito_risk":0,"arthritis_risk":5,"migraine_risk":4,"frizz_risk":1,"updated_at":"2026-03-16T10:49:47.515230+05:30"},{"city":"Vellore","state":"Tamil Nadu","latitude":12.9165,"longitude":79.1325,"temp":30.3,"humidity":51,"rain":0.0,"pressure":988.8,"uv_index":9.15,"wind_gusts":29.2,"aqi":81,"pm10":15.5,"pm2_5":14.5,"mosquito_risk":0,"arthritis_risk":5,"migraine_risk":7,"frizz_risk":1,"updated_at":"2026-03-16T10:49:47.515237+05:30"},{"city":"Erode","state":"Tamil Nadu","latitude":11.341,"longitude":77.7172,"temp":31.2,"humidity":56,"rain":0.0,"pressure":992.7,"uv_index":9.2,"wind_gusts":22.0,"aqi":42,"pm10":9.2,"pm2_5":7.9,"mosquito_risk":0,"arthritis_risk":5,"migraine_risk":7,"frizz_risk":1,"updated_at":"2026-03-16T10:49:47.515244+05:30"},{"city":"Kochi","state":"Kerala","latitude":9.9312,"longitude":76.2673,"temp":28.1,"humidity":78,"rain":0.0,"pressure":1011.5,"uv_index":9.1,"wind_gusts":33.8,"aqi":76,"pm10":23.6,"pm2_5":21.4,"mosquito_risk":7,"arthritis_risk":0,"migraine_risk":4,"frizz_risk":1,"updated_at":"2026-03-16T10:49:47.515251+05:30"},{"city":"Thiruvananthapuram","state":"Kerala","latitude":8.5241,"longitude":76.9366,"temp":27.9,"humidity":78,"rain":0.0,"pressure":1010.7,"uv_index":9.15,"wind_gusts":29.5,"aqi":46,"pm10":14.0,"pm2_5":12.8,"mosquito_risk":7,"arthritis_risk":0,"migraine_risk":4,"frizz_risk":1,"updated_at":"2026-03-16T10:49:47.515258+05:30"},{"city":"Kozhikode","state":"Kerala","latitude":11.2588,"longitude":75.7804,"temp":29.3,"humidity":76,"rain":0.0,"pressure":1010.8,"uv_index":9.0,"wind_gusts":29.9,"aqi":67,"pm10":22.1,"pm2_5":19.6,"mosquito_risk":7,"arthritis_risk":0,"migraine_risk":4,"frizz_risk":1,"updated_at":"2026-03-16T10:49:47.515264+05:30"},{"city":"Thrissur","state":"Kerala","latitude":10.5276,"longitude":76.2144,"temp":31.9,"humidity":60,"rain":0.0,"pressure":1009.7,"uv_index":9.05,"wind_gusts":36.0,"aqi":73,"pm10":21.5,"pm2_5":19.3,"mosquito_risk":0,"arthritis_risk":0,"migraine_risk":4,"frizz_risk":1,"updated_at":"2026-03-16T10:49:47.515271+05:30"},{"city":"Kannur","state":"Kerala","latitude":11.8745,"longitude":75.3704,"temp":30.7,"humidity":63,"rain":0.0,"pressure":1010.1,"uv_index":8.9,"wind_gusts":29.2,"aqi":84,"pm10":33.4,"pm2_5":29.2,"mosquito_risk":3,"arthritis_risk":0,"migraine_risk":4,"frizz_risk":1,"updated_at":"2026-03-16T10:49:47.515278+05:30"},{"city":"Patna","state":"Bihar","latitude":25.5941,"longitude":85.1376,"temp":29.5,"humidity":53,"rain":0.0,"pressure":1003.0,"uv_index":7.55,"wind_gusts":36.0,"aqi":155,"pm10":85.7,"pm2_5":61.9,"mosquito_risk":4,"arthritis_risk":5,"migraine_risk":4,"frizz_risk":1,"updated_at":"2026-03-16T10:49:47.515284+05:30"},{"city":"Gaya","state":"Bihar","latitude":24.7914,"longitude":85.0002,"temp":30.3,"humidity":57,"rain":0.0,"pressure":996.4,"uv_index":7.25,"wind_gusts":33.5,"aqi":148,"pm10":85.0,"pm2_5":58.4,"mosquito_risk":0,"arthritis_risk":5,"migraine_risk":7,"frizz_risk":1,"updated_at":"2026-03-16T10:49:47.515290+05:30"},{"city":"Muzaffarpur","state":"Bihar","latitude":26.1209,"longitude":85.3647,"temp":28.5,"humidity":64,"rain":0.0,"pressure":1003.3,"uv_index":7.5,"wind_gusts":36.4,"aqi":161,"pm10":87.3,"pm2_5":65.2,"mosquito_risk":7,"arthritis_risk":5,"migraine_risk":4,"frizz_risk":1,"updated_at":"2026-03-16T10:49:47.515296+05:30"},{"city":"Bhagalpur","state":"Bihar","latitude":25.2425,"longitude":87.0117,"temp":28.4,"humidity":68,"rain":0.0,"pressure":1004.4,"uv_index":7.5,"wind_gusts":31.7,"aqi":156,"pm10":86.4,"pm2_5":78.2,"mosquito_risk":7,"arthritis_risk":5,"migraine_risk":4,"frizz_risk":1,"updated_at":"2026-03-16T10:49:47.515302+05:30"},{"city":"Ranchi","state":"Jharkhand","latitude":23.3441,"longitude":85.3096,"temp":29.9,"humidity":46,"rain":0.0,"pressure":941.0,"uv_index":7.9,"wind_gusts":51.5,"aqi":147,"pm10":57.9,"pm2_5":51.2,"mosquito_risk":4,"arthritis_risk":5,"migraine_risk":7,"frizz_risk":1,"updated_at":"2026-03-16T10:49:47.515308+05:30"},{"city":"Jamshedpur","state":"Jharkhand","latitude":22.8046,"longitude":86.2029,"temp":31.6,"humidity":53,"rain":0.0,"pressure":993.7,"uv_index":7.95,"wind_gusts":40.7,"aqi":154,"pm10":68.0,"pm2_5":59.6,"mosquito_risk":0,"arthritis_risk":5,"migraine_risk":7,"frizz_risk":1,"updated_at":"2026-03-16T10:49:47.515314+05:30"},{"city":"Dhanbad","state":"Jharkhand","latitude":23.7957,"longitude":86.4304,"temp":30.7,"humidity":46,"rain":0.0,"pressure":983.0,"uv_index":7.45,"wind_gusts":39.2,"aqi":171,"pm10":96.2,"pm2_5":86.1,"mosquito_risk":0,"arthritis_risk":5,"migraine_risk":7,"frizz_risk":1,"updated_at":"2026-03-16T10:49:47.515320+05:30"},{"city":"Bokaro","state":"Jharkhand","latitude":23.6693,"longitude":86.1511,"temp":31.5,"humidity":46,"rain":0.0,"pressure":986.9,"uv_index":7.55,"wind_gusts":36.0,"aqi":161,"pm10":86.6,"pm2_5":77.3,"mosquito_risk":0,"arthritis_risk":5,"migraine_risk":7,"frizz_risk":1,"updated_at":"2026-03-16T10:49:47.515327+05:30"},{"city":"Bhubaneswar","state":"Odisha","latitude":20.2961,"longitude":85.8245,"temp":31.3,"humidity":59,"rain":0.0,"pressure":1006.4,"uv_index":8.5,"wind_gusts":38.5,"aqi":66,"pm10":25.6,"pm2_5":19.9,"mosquito_risk":0,"arthritis_risk":5,"migraine_risk":4,"frizz_risk":1,"updated_at":"2026-03-16T10:49:47.515333+05:30"},{"city":"Cuttack","state":"Odisha","latitude":20.4625,"longitude":85.8828,"temp":31.6,"humidity":62,"rain":0.0,"pressure":1008.1,"uv_index":8.5,"wind_gusts":37.1,"aqi":66,"pm10":25.6,"pm2_5":19.9,"mosquito_risk":3,"arthritis_risk":0,"migraine_risk":4,"frizz_risk":1,"updated_at":"2026-03-16T10:49:47.515339+05:30"},{"city":"Rourkela","state":"Odisha","latitude":22.2604,"longitude":84.8536,"temp":33.5,"humidity":44,"rain":0.0,"pressure":988.1,"uv_index":8.05,"wind_gusts":46.1,"aqi":156,"pm10":73.1,"pm2_5":62.4,"mosquito_risk":0,"arthritis_risk":5,"migraine_risk":7,"frizz_risk":1,"updated_at":"2026-03-16T10:49:47.515345+05:30"},{"city":"Raipur","state":"Chhattisgarh","latitude":21.2514,"longitude":81.6296,"temp":33.1,"humidity":44,"rain":0.0,"pressure":977.5,"uv_index":8.2,"wind_gusts":41.4,"aqi":141,"pm10":44.5,"pm2_5":39.8,"mosquito_risk":0,"arthritis_risk":5,"migraine_risk":7,"frizz_risk":1,"updated_at":"2026-03-16T10:49:47.515351+05:30"},{"city":"Bhilai","state":"Chhattisgarh","latitude":21.1938,"longitude":81.3509,"temp":33.2,"humidity":44,"rain":0.0,"pressure":977.8,"uv_index":8.25,"wind_gusts":40.7,"aqi":134,"pm10":36.4,"pm2_5":32.1,"mosquito_risk":0,"arthritis_risk":5,"migraine_risk":7,"frizz_risk":1,"updated_at":"2026-03-16T10:49:47.515358+05:30"},{"city":"Guwahati","state":"Assam","latitude":26.1158,"longitude":91.7086,"temp":22.0,"humidity":86,"rain":0.0,"pressure":1006.1,"uv_index":6.95,"wind_gusts":37.4,"aqi":80,"pm10":26.5,"pm2_5":20.1,"mosquito_risk":3,"arthritis_risk":5,"migraine_risk":4,"frizz_risk":1,"updated_at":"2026-03-16T10:49:47.515364+05:30"},{"city":"Agartala","state":"Tripura","latitude":23.8315,"longitude":91.2868,"temp":25.1,"humidity":78,"rain":0.0,"pressure":1011.4,"uv_index":6.95,"wind_gusts":33.8,"aqi":64,"pm10":27.8,"pm2_5":22.5,"mosquito_risk":7,"arthritis_risk":0,"migraine_risk":4,"frizz_risk":1,"updated_at":"2026-03-16T10:49:47.515370+05:30"},{"city":"Shillong","state":"Meghalaya","latitude":25.5788,"longitude":91.8933,"temp":15.2,"humidity":75,"rain":0.0,"pressure":858.3,"uv_index":7.9,"wind_gusts":74.2,"aqi":51,"pm10":16.2,"pm2_5":12.6,"mosquito_risk":3,"arthritis_risk":5,"migraine_risk":7,"frizz_risk":0,"updated_at":"2026-03-16T10:49:47.515376+05:30"},{"city":"Imphal","state":"Manipur","latitude":24.817,"longitude":93.9368,"temp":19.3,"humidity":78,"rain":0.0,"pressure":926.9,"uv_index":8.2,"wind_gusts":74.5,"aqi":100,"pm10":53.6,"pm2_5":32.4,"mosquito_risk":3,"arthritis_risk":5,"migraine_risk":7,"frizz_risk":0,"updated_at":"2026-03-16T10:49:47.515383+05:30"},{"city":"Aizawl","state":"Mizoram","latitude":23.7271,"longitude":92.7176,"temp":22.6,"humidity":61,"rain":0.0,"pressure":897.3,"uv_index":8.1,"wind_gusts":61.9,"aqi":83,"pm10":38.2,"pm2_5":23.2,"mosquito_risk":3,"arthritis_risk":5,"migraine_risk":7,"frizz_risk":0,"updated_at":"2026-03-16T10:49:47.515388+05:30"},{"city":"Kohima","state":"Nagaland","latitude":25.6701,"longitude":94.1077,"temp":17.4,"humidity":68,"rain":0.0,"pressure":857.4,"uv_index":7.65,"wind_gusts":105.5,"aqi":79,"pm10":40.9,"pm2_5":26.4,"mosquito_risk":3,"arthritis_risk":5,"migraine_risk":7,"frizz_risk":0,"updated_at":"2026-03-16T10:49:47.515394+05:30"},{"city":"Gangtok","state":"Sikkim","latitude":27.3314,"longitude":88.6138,"temp":17.7,"humidity":62,"rain":0.0,"pressure":839.3,"uv_index":7.65,"wind_gusts":23.4,"aqi":104,"pm10":46.8,"pm2_5":28.4,"mosquito_risk":3,"arthritis_risk":5,"migraine_risk":7,"frizz_risk":0,"updated_at":"2026-03-16T10:49:47.515400+05:30"},{"city":"Siliguri","state":"West Bengal","latitude":26.7271,"longitude":88.3953,"temp":20.5,"humidity":81,"rain":0.0,"pressure":997.8,"uv_index":7.45,"wind_gusts":27.0,"aqi":154,"pm10":47.3,"pm2_5":36.6,"mosquito_risk":3,"arthritis_risk":5,"migraine_risk":7,"frizz_risk":1,"updated_at":"2026-03-16T10:49:50.860198+05:30"},{"city":"Durgapur","state":"West Bengal","latitude":23.5204,"longitude":87.3119,"temp":29.1,"humidity":63,"rain":0.0,"pressure":998.6,"uv_index":7.8,"wind_gusts":45.4,"aqi":156,"pm10":91.5,"pm2_5":82.7,"mosquito_risk":7,"arthritis_risk":5,"migraine_risk":7,"frizz_risk":1,"updated_at":"2026-03-16T10:49:50.860229+05:30"},{"city":"Asansol","state":"West Bengal","latitude":23.6739,"longitude":86.9524,"temp":29.6,"humidity":57,"rain":0.0,"pressure":996.9,"uv_index":7.85,"wind_gusts":43.2,"aqi":162,"pm10":101.3,"pm2_5":91.0,"mosquito_risk":4,"arthritis_risk":5,"migraine_risk":7,"frizz_risk":1,"updated_at":"2026-03-16T10:49:50.860241+05:30"},{"city":"Pondicherry","state":"Puducherry","latitude":11.9139,"longitude":79.8145,"temp":31.0,"humidity":60,"rain":0.0,"pressure":1012.4,"uv_index":9.05,"wind_gusts":31.3,"aqi":28,"pm10":11.4,"pm2_5":8.2,"mosquito_risk":0,"arthritis_risk":0,"migraine_risk":4,"frizz_risk":1,"updated_at":"2026-03-16T10:49:50.860248+05:30"},{"city":"Port Blair","state":"Andaman and Nicobar Islands","latitude":11.6234,"longitude":92.7265,"temp":29.5,"humidity":67,"rain":0.0,"pressure":1010.1,"uv_index":9.0,"wind_gusts":21.2,"aqi":86,"pm10":22.9,"pm2_5":18.8,"mosquito_risk":7,"arthritis_risk":0,"migraine_risk":4,"frizz_risk":1,"updated_at":"2026-03-16T10:49:50.860256+05:30"},{"city":"Haridwar","state":"Uttarakhand","latitude":29.9457,"longitude":78.1642,"temp":24.5,"humidity":44,"rain":0.0,"pressure":976.2,"uv_index":5.85,"wind_gusts":51.8,"aqi":67,"pm10":49.7,"pm2_5":15.1,"mosquito_risk":0,"arthritis_risk":5,"migraine_risk":3,"frizz_risk":0,"updated_at":"2026-03-16T10:49:50.860264+05:30"},{"city":"Rishikesh","state":"Uttarakhand","latitude":30.0869,"longitude":78.2676,"temp":24.4,"humidity":36,"rain":0.0,"pressure":968.8,"uv_index":5.95,"wind_gusts":32.4,"aqi":58,"pm10":63.8,"pm2_5":15.1,"mosquito_risk":0,"arthritis_risk":5,"migraine_risk":3,"frizz_risk":0,"updated_at":"2026-03-16T10:49:50.860272+05:30"},{"city":"Nainital","state":"Uttarakhand","latitude":29.3919,"longitude":79.4542,"temp":19.1,"humidity":37,"rain":0.0,"pressure":808.2,"uv_index":6.75,"wind_gusts":68.8,"aqi":62,"pm10":74.3,"pm2_5":17.0,"mosquito_risk":0,"arthritis_risk":5,"migraine_risk":7,"frizz_risk":0,"updated_at":"2026-03-16T10:49:50.860279+05:30"},{"city":"Mussoorie","state":"Uttarakhand","latitude":30.4599,"longitude":78.0664,"temp":15.8,"humidity":44,"rain":0.0,"pressure":802.4,"uv_index":5.95,"wind_gusts":43.9,"aqi":61,"pm10":49.5,"pm2_5":13.6,"mosquito_risk":0,"arthritis_risk":5,"migraine_risk":3,"frizz_risk":0,"updated_at":"2026-03-16T10:49:50.860287+05:30"},{"city":"Dharamshala","state":"Himachal Pradesh","latitude":32.219,"longitude":76.3234,"temp":14.8,"humidity":53,"rain":0.0,"pressure":868.3,"uv_index":4.9,"wind_gusts":36.0,"aqi":50,"pm10":13.6,"pm2_5":6.8,"mosquito_risk":0,"arthritis_risk":5,"migraine_risk":3,"frizz_risk":0,"updated_at":"2026-03-16T10:49:50.860294+05:30"},{"city":"Dalhousie","state":"Himachal Pradesh","latitude":32.5387,"longitude":75.971,"temp":12.1,"humidity":56,"rain":0.0,"pressure":801.7,"uv_index":4.0,"wind_gusts":39.6,"aqi":65,"pm10":18.6,"pm2_5":13.9,"mosquito_risk":0,"arthritis_risk":5,"migraine_risk":3,"frizz_risk":0,"updated_at":"2026-03-16T10:49:50.860302+05:30"},{"city":"Patiala","state":"Punjab","latitude":30.3398,"longitude":76.3869,"temp":20.4,"humidity":60,"rain":0.0,"pressure":980.1,"uv_index":5.85,"wind_gusts":49.3,"aqi":76,"pm10":30.9,"pm2_5":18.3,"mosquito_risk":0,"arthritis_risk":5,"migraine_risk":3,"frizz_risk":0,"updated_at":"2026-03-16T10:49:50.860308+05:30"},{"city":"Bhatinda","state":"Punjab","latitude":30.211,"longitude":74.9455,"temp":20.5,"humidity":67,"rain":0.0,"pressure":985.4,"uv_index":6.55,"wind_gusts":31.7,"aqi":78,"pm10":69.8,"pm2_5":21.8,"mosquito_risk":3,"arthritis_risk":5,"migraine_risk":7,"frizz_risk":0,"updated_at":"2026-03-16T10:49:50.860315+05:30"},{"city":"Rohtak","state":"Haryana","latitude":28.8955,"longitude":76.6066,"temp":26.1,"humidity":41,"rain":0.0,"pressure":982.9,"uv_index":6.15,"wind_gusts":49.3,"aqi":379,"pm10":899.7,"pm2_5":125.3,"mosquito_risk":4,"arthritis_risk":5,"migraine_risk":7,"frizz_risk":0,"updated_at":"2026-03-16T10:49:50.860322+05:30"},{"city":"Panipat","state":"Haryana","latitude":29.3909,"longitude":76.9635,"temp":26.0,"humidity":41,"rain":0.0,"pressure":981.5,"uv_index":5.9,"wind_gusts":46.4,"aqi":122,"pm10":379.0,"pm2_5":60.1,"mosquito_risk":4,"arthritis_risk":5,"migraine_risk":3,"frizz_risk":0,"updated_at":"2026-03-16T10:49:50.860329+05:30"},{"city":"Mathura","state":"Uttar Pradesh","latitude":27.4924,"longitude":77.6737,"temp":26.9,"humidity":41,"rain":0.0,"pressure":989.7,"uv_index":6.35,"wind_gusts":34.2,"aqi":1153,"pm10":1113.9,"pm2_5":125.3,"mosquito_risk":4,"arthritis_risk":5,"migraine_risk":7,"frizz_risk":0,"updated_at":"2026-03-16T10:49:50.860335+05:30"},{"city":"Vrindavan","state":"Uttar Pradesh","latitude":27.5823,"longitude":77.7027,"temp":26.6,"humidity":41,"rain":0.0,"pressure":990.1,"uv_index":6.35,"wind_gusts":37.1,"aqi":1153,"pm10":1113.9,"pm2_5":125.3,"mosquito_risk":4,"arthritis_risk":5,"migraine_risk":7,"frizz_risk":0,"updated_at":"2026-03-16T10:49:50.860343+05:30"},{"city":"Ayodhya","state":"Uttar Pradesh","latitude":26.7922,"longitude":82.1998,"temp":27.8,"humidity":39,"rain":0.0,"pressure":999.5,"uv_index":6.75,"wind_gusts":33.1,"aqi":119,"pm10":43.4,"pm2_5":30.5,"mosquito_risk":4,"arthritis_risk":5,"migraine_risk":7,"frizz_risk":0,"updated_at":"2026-03-16T10:49:50.860349+05:30"},{"city":"Ratlam","state":"Madhya Pradesh","latitude":23.3315,"longitude":75.0367,"temp":29.6,"humidity":47,"rain":0.0,"pressure":957.7,"uv_index":7.6,"wind_gusts":32.4,"aqi":63,"pm10":30.0,"pm2_5":15.3,"mosquito_risk":4,"arthritis_risk":5,"migraine_risk":7,"frizz_risk":1,"updated_at":"2026-03-16T10:49:50.860356+05:30"},{"city":"Sagar","state":"Madhya Pradesh","latitude":23.8388,"longitude":78.7378,"temp":30.2,"humidity":28,"rain":0.0,"pressure":952.9,"uv_index":7.6,"wind_gusts":29.5,"aqi":51,"pm10":34.0,"pm2_5":11.9,"mosquito_risk":0,"arthritis_risk":5,"migraine_risk":7,"frizz_risk":0,"updated_at":"2026-03-16T10:49:50.860362+05:30"},{"city":"Satna","state":"Madhya Pradesh","latitude":24.6005,"longitude":80.8322,"temp":32.9,"humidity":34,"rain":0.0,"pressure":973.3,"uv_index":7.6,"wind_gusts":38.5,"aqi":83,"pm10":53.2,"pm2_5":39.9,"mosquito_risk":0,"arthritis_risk":5,"migraine_risk":7,"frizz_risk":0,"updated_at":"2026-03-16T10:49:50.860369+05:30"},{"city":"Akola","state":"Maharashtra","latitude":20.7002,"longitude":77.0082,"temp":32.7,"humidity":33,"rain":0.0,"pressure":978.4,"uv_index":8.1,"wind_gusts":22.0,"aqi":74,"pm10":32.8,"pm2_5":17.3,"mosquito_risk":0,"arthritis_risk":5,"migraine_risk":7,"frizz_risk":0,"updated_at":"2026-03-16T10:49:50.860375+05:30"},{"city":"Amravati","state":"Maharashtra","latitude":20.9374,"longitude":77.7796,"temp":33.4,"humidity":23,"rain":0.0,"pressure":970.5,"uv_index":8.1,"wind_gusts":28.8,"aqi":78,"pm10":30.2,"pm2_5":16.1,"mosquito_risk":0,"arthritis_risk":5,"migraine_risk":7,"frizz_risk":0,"updated_at":"2026-03-16T10:49:50.860382+05:30"},{"city":"Latur","state":"Maharashtra","latitude":18.4088,"longitude":76.5604,"temp":30.4,"humidity":31,"rain":0.0,"pressure":943.1,"uv_index":8.55,"wind_gusts":19.4,"aqi":99,"pm10":39.6,"pm2_5":22.9,"mosquito_risk":0,"arthritis_risk":5,"migraine_risk":7,"frizz_risk":0,"updated_at":"2026-03-16T10:49:50.860389+05:30"},{"city":"Nanded","state":"Maharashtra","latitude":19.1383,"longitude":77.3091,"temp":32.5,"humidity":31,"rain":0.0,"pressure":972.1,"uv_index":8.35,"wind_gusts":18.4,"aqi":124,"pm10":38.1,"pm2_5":24.6,"mosquito_risk":0,"arthritis_risk":5,"migraine_risk":7,"frizz_risk":0,"updated_at":"2026-03-16T10:49:50.860395+05:30"},{"city":"Gulbarga","state":"Karnataka","latitude":17.3297,"longitude":76.8343,"temp":32.2,"humidity":35,"rain":0.0,"pressure":961.6,"uv_index":8.65,"wind_gusts":26.6,"aqi":115,"pm10":37.8,"pm2_5":31.8,"mosquito_risk":0,"arthritis_risk":5,"migraine_risk":7,"frizz_risk":0,"updated_at":"2026-03-16T10:49:50.860401+05:30"},{"city":"Bidar","state":"Karnataka","latitude":17.9104,"longitude":77.5199,"temp":31.4,"humidity":37,"rain":0.0,"pressure":938.8,"uv_index":8.6,"wind_gusts":37.4,"aqi":108,"pm10":31.3,"pm2_5":27.8,"mosquito_risk":0,"arthritis_risk":5,"migraine_risk":7,"frizz_risk":0,"updated_at":"2026-03-16T10:49:50.860408+05:30"},{"city":"Hospet","state":"Karnataka","latitude":15.2689,"longitude":76.3909,"temp":29.7,"humidity":52,"rain":0.0,"pressure":959.0,"uv_index":8.9,"wind_gusts":19.1,"aqi":123,"pm10":41.0,"pm2_5":36.4,"mosquito_risk":4,"arthritis_risk":5,"migraine_risk":7,"frizz_risk":1,"updated_at":"2026-03-16T10:49:50.860414+05:30"},{"city":"Tirupur","state":"Tamil Nadu","latitude":11.1085,"longitude":77.3411,"temp":30.7,"humidity":54,"rain":0.0,"pressure":978.8,"uv_index":9.3,"wind_gusts":47.5,"aqi":64,"pm10":20.0,"pm2_5":18.3,"mosquito_risk":0,"arthritis_risk":5,"migraine_risk":7,"frizz_risk":1,"updated_at":"2026-03-16T10:49:50.860420+05:30"},{"city":"Alappuzha","state":"Kerala","latitude":9.4981,"longitude":76.3388,"temp":28.1,"humidity":78,"rain":0.0,"pressure":1011.7,"uv_index":9.1,"wind_gusts":32.8,"aqi":73,"pm10":27.8,"pm2_5":25.7,"mosquito_risk":7,"arthritis_risk":0,"migraine_risk":4,"frizz_risk":1,"updated_at":"2026-03-16T10:49:50.860426+05:30"},{"city":"Munnar","state":"Kerala","latitude":10.0889,"longitude":77.0595,"temp":27.3,"humidity":54,"rain":0.0,"pressure":861.1,"uv_index":9.6,"wind_gusts":35.3,"aqi":68,"pm10":13.8,"pm2_5":12.5,"mosquito_risk":4,"arthritis_risk":5,"migraine_risk":7,"frizz_risk":1,"updated_at":"2026-03-16T10:49:50.860433+05:30"},{"city":"Silchar","state":"Assam","latitude":24.8333,"longitude":92.7789,"temp":23.4,"humidity":77,"rain":0.0,"pressure":1010.4,"uv_index":7.9,"wind_gusts":44.3,"aqi":78,"pm10":34.3,"pm2_5":24.4,"mosquito_risk":3,"arthritis_risk":0,"migraine_risk":4,"frizz_risk":1,"updated_at":"2026-03-16T10:49:50.860440+05:30"},{"city":"Dibrugarh","state":"Assam","latitude":27.4728,"longitude":94.912,"temp":18.5,"humidity":91,"rain":0.0,"pressure":1000.0,"uv_index":4.55,"wind_gusts":37.1,"aqi":86,"pm10":42.3,"pm2_5":28.2,"mosquito_risk":3,"arthritis_risk":10,"migraine_risk":0,"frizz_risk":1,"updated_at":"2026-03-16T10:49:50.860447+05:30"}]