[{"city":"Delhi","state":"Delhi","latitude":28.6139,"longitude":77.209,"temp":24.0,"humidity":70,"rain":0.0,"pressure":985.5,"uv_index":6.4,"wind_gusts":20.9,"aqi":171,"pm10":85.7,"pm2_5":42.7,"mosquito_risk":3,"arthritis_risk":5,"migraine_risk":7,"frizz_risk":1,"updated_at":"2026-03-23T18:45:17.161058+05:30"},{"city":"Mumbai","state":"Maharashtra","latitude":19.076,"longitude":72.8777,"temp":29.3,"humidity":64,"rain":0.0,"pressure":1007.8,"uv_index":7.9,"wind_gusts":23.0,"aqi":205,"pm10":50.1,"pm2_5":38.6,"mosquito_risk":7,"arthritis_risk":5,"migraine_risk":4,"frizz_risk":1,"updated_at":"2026-03-23T18:45:17.161103+05:30"},{"city":"Bangalore","state":"Karnataka","latitude":12.9716,"longitude":77.5946,"temp":29.2,"humidity":35,"rain":0.0,"pressure":912.0,"uv_index":9.45,"wind_gusts":25.6,"aqi":120,"pm10":36.1,"pm2_5":30.3,"mosquito_risk":4,"arthritis_risk":5,"migraine_risk":7,"frizz_risk":0,"updated_at":"2026-03-23T18:45:17.161118+05:30"},{"city":"Hyderabad","state":"Telangana","latitude":17.385,"longitude":78.4867,"temp":31.5,"humidity":34,"rain":0.0,"pressure":953.4,"uv_index":8.9,"wind_gusts":24.5,"aqi":114,"pm10":44.6,"pm2_5":31.2,"mosquito_risk":0,"arthritis_risk":5,"migraine_risk":7,"frizz_risk":0,"updated_at":"2026-03-23T18:45:17.161127+05:30"},{"city":"Chennai","state":"Tamil Nadu","latitude":13.0827,"longitude":80.2707,"temp":28.5,"humidity":68,"rain":0.0,"pressure":1008.5,"uv_index":9.2,"wind_gusts":31.7,"aqi":38,"pm10":10.2,"pm2_5":6.5,"mosquito_risk":7,"arthritis_risk":0,"migraine_risk":4,"frizz_risk":1,"updated_at":"2026-03-23T18:45:17.161135+05:30"},{"city":"Kolkata","state":"West Bengal","latitude":22.5726,"longitude":88.3639,"temp":26.6,"humidity":65,"rain":0.0,"pressure":1009.0,"uv_index":8.3,"wind_gusts":20.5,"aqi":155,"pm10":70.3,"pm2_5":61.2,"mosquito_risk":7,"arthritis_risk":0,"migraine_risk":4,"frizz_risk":1,"updated_at":"2026-03-23T18:45:17.161153+05:30"},{"city":"Pune","state":"Maharashtra","latitude":18.5204,"longitude":73.8567,"temp":31.2,"humidity":30,"rain":0.0,"pressure":948.5,"uv_index":8.45,"wind_gusts":45.7,"aqi":128,"pm10":23.3,"pm2_5":16.8,"mosquito_risk":0,"arthritis_risk":5,"migraine_risk":7,"frizz_risk":0,"updated_at":"2026-03-23T18:45:17.161163+05:30"},{"city":"Ahmedabad","state":"Gujarat","latitude":23.0225,"longitude":72.5714,"temp":32.5,"humidity":22,"rain":0.0,"pressure":1002.6,"uv_index":7.85,"wind_gusts":32.4,"aqi":84,"pm10":41.3,"pm2_5":20.4,"mosquito_risk":0,"arthritis_risk":5,"migraine_risk":4,"frizz_risk":0,"updated_at":"2026-03-23T18:45:17.161170+05:30"},{"city":"Jaipur","state":"Rajasthan","latitude":26.9124,"longitude":75.7873,"temp":26.4,"humidity":46,"rain":0.0,"pressure":961.7,"uv_index":7.25,"wind_gusts":40.3,"aqi":111,"pm10":180.7,"pm2_5":37.1,"mosquito_risk":4,"arthritis_risk":5,"migraine_risk":7,"frizz_risk":0,"updated_at":"2026-03-23T18:45:17.161177+05:30"},{"city":"Lucknow","state":"Uttar Pradesh","latitude":26.8467,"longitude":80.9462,"temp":25.7,"humidity":54,"rain":0.0,"pressure":995.7,"uv_index":6.6,"wind_gusts":37.8,"aqi":163,"pm10":103.6,"pm2_5":41.3,"mosquito_risk":4,"arthritis_risk":5,"migraine_risk":7,"frizz_risk":0,"updated_at":"2026-03-23T18:45:17.161184+05:30"},{"city":"Kanpur","state":"Uttar Pradesh","latitude":26.4499,"longitude":80.3319,"temp":24.3,"humidity":65,"rain":0.0,"pressure":993.6,"uv_index":4.7,"wind_gusts":29.2,"aqi":270,"pm10":252.4,"pm2_5":55.1,"mosquito_risk":3,"arthritis_risk":5,"migraine_risk":3,"frizz_risk":1,"updated_at":"2026-03-23T18:45:17.161192+05:30"},{"city":"Chandigarh","state":"Chandigarh","latitude":30.7333,"longitude":76.7794,"temp":22.5,"humidity":67,"rain":0.0,"pressure":970.8,"uv_index":6.45,"wind_gusts":27.4,"aqi":121,"pm10":42.4,"pm2_5":30.9,"mosquito_risk":3,"arthritis_risk":5,"migraine_risk":7,"frizz_risk":1,"updated_at":"2026-03-23T18:45:17.161198+05:30"},{"city":"Srinagar","state":"Jammu and Kashmir","latitude":34.0837,"longitude":74.7973,"temp":11.2,"humidity":81,"rain":0.0,"pressure":840.4,"uv_index":6.3,"wind_gusts":18.7,"aqi":115,"pm10":31.1,"pm2_5":22.1,"mosquito_risk":3,"arthritis_risk":10,"migraine_risk":7,"frizz_risk":0,"updated_at":"2026-03-23T18:45:17.161205+05:30"},{"city":"Jammu","state":"Jammu and Kashmir","latitude":32.7266,"longitude":74.857,"temp":23.3,"humidity":62,"rain":0.0,"pressure":975.2,"uv_index":7.0,"wind_gusts":16.2,"aqi":113,"pm10":34.9,"pm2_5":27.9,"mosquito_risk":3,"arthritis_risk":5,"migraine_risk":7,"frizz_risk":0,"updated_at":"2026-03-23T18:45:17.161211+05:30"},{"city":"Amritsar","state":"Punjab","latitude":31.634,"longitude":74.8723,"temp":24.1,"humidity":59,"rain":0.0,"pressure":982.9,"uv_index":7.05,"wind_gusts":16.9,"aqi":128,"pm10":47.8,"pm2_5":34.2,"mosquito_risk":0,"arthritis_risk":5,"migraine_risk":7,"frizz_risk":0,"updated_at":"2026-03-23T18:45:17.161216+05:30"},{"city":"Ludhiana","state":"Punjab","latitude":30.901,"longitude":75.8573,"temp":24.1,"humidity":59,"rain":0.0,"pressure":981.1,"uv_index":6.65,"wind_gusts":23.4,"aqi":139,"pm10":49.7,"pm2_5":34.8,"mosquito_risk":0,"arthritis_risk":5,"migraine_risk":7,"frizz_risk":0,"updated_at":"2026-03-23T18:45:17.161222+05:30"},{"city":"Jalandhar","state":"Punjab","latitude":31.326,"longitude":75.5762,"temp":23.6,"humidity":60,"rain":0.0,"pressure":982.3,"uv_index":6.85,"wind_gusts":23.0,"aqi":138,"pm10":39.7,"pm2_5":27.9,"mosquito_risk":0,"arthritis_risk":5,"migraine_risk":7,"frizz_risk":0,"updated_at":"2026-03-23T18:45:17.161229+05:30"},{"city":"Dehradun","state":"Uttarakhand","latitude":30.6284,"longitude":78.0322,"temp":12.6,"humidity":82,"rain":0.0,"pressure":829.4,"uv_index":6.85,"wind_gusts":21.6,"aqi":105,"pm10":28.2,"pm2_5":22.0,"mosquito_risk":3,"arthritis_risk":10,"migraine_risk":7,"frizz_risk":0,"updated_at":"2026-03-23T18:45:17.161235+05:30"},{"city":"Shimla","state":"Himachal Pradesh","latitude":31.1048,"longitude":77.1734,"temp":10.7,"humidity":84,"rain":0.0,"pressure":783.1,"uv_index":6.9,"wind_gusts":33.1,"aqi":108,"pm10":29.2,"pm2_5":22.1,"mosquito_risk":3,"arthritis_risk":10,"migraine_risk":7,"frizz_risk":0,"updated_at":"2026-03-23T18:45:17.161241+05:30"},{"city":"Manali","state":"Himachal Pradesh","latitude":32.2396,"longitude":77.1887,"temp":13.0,"humidity":73,"rain":0.0,"pressure":817.6,"uv_index":8.85,"wind_gusts":27.7,"aqi":124,"pm10":14.1,"pm2_5":9.5,"mosquito_risk":3,"arthritis_risk":5,"migraine_risk":7,"frizz_risk":0,"updated_at":"2026-03-23T18:45:17.161247+05:30"},{"city":"Gurgaon","state":"Haryana","latitude":28.4595,"longitude":77.0266,"temp":22.4,"humidity":83,"rain":0.0,"pressure":983.9,"uv_index":6.55,"wind_gusts":18.4,"aqi":300,"pm10":204.4,"pm2_5":47.5,"mosquito_risk":3,"arthritis_risk":5,"migraine_risk":7,"frizz_risk":1,"updated_at":"2026-03-23T18:45:17.161252+05:30"},{"city":"Noida","state":"Uttar Pradesh","latitude":28.5355,"longitude":77.391,"temp":24.1,"humidity":71,"rain":0.0,"pressure":987.1,"uv_index":6.4,"wind_gusts":20.2,"aqi":300,"pm10":204.4,"pm2_5":47.5,"mosquito_risk":3,"arthritis_risk":5,"migraine_risk":7,"frizz_risk":1,"updated_at":"2026-03-23T18:45:17.161258+05:30"},{"city":"Ghaziabad","state":"Uttar Pradesh","latitude":28.6692,"longitude":77.4538,"temp":23.1,"humidity":77,"rain":0.0,"pressure":985.3,"uv_index":6.35,"wind_gusts":22.0,"aqi":156,"pm10":120.1,"pm2_5":54.6,"mosquito_risk":3,"arthritis_risk":5,"migraine_risk":7,"frizz_risk":1,"updated_at":"2026-03-23T18:45:17.161263+05:30"},{"city":"Faridabad","state":"Haryana","latitude":28.4089,"longitude":77.3178,"temp":23.3,"humidity":74,"rain":0.0,"pressure":986.2,"uv_index":6.4,"wind_gusts":20.9,"aqi":300,"pm10":204.4,"pm2_5":47.5,"mosquito_risk":3,"arthritis_risk":5,"migraine_risk":7,"frizz_risk":1,"updated_at":"2026-03-23T18:45:17.161269+05:30"},{"city":"Meerut","state":"Uttar Pradesh","latitude":28.9845,"longitude":77.7064,"temp":21.6,"humidity":83,"rain":0.0,"pressure":984.2,"uv_index":6.25,"wind_gusts":27.0,"aqi":156,"pm10":120.1,"pm2_5":54.6,"mosquito_risk":3,"arthritis_risk":5,"migraine_risk":7,"frizz_risk":1,"updated_at":"2026-03-23T18:45:17.161276+05:30"},{"city":"Agra","state":"Uttar Pradesh","latitude":27.1767,"longitude":78.0081,"temp":24.3,"humidity":66,"rain":0.0,"pressure":990.4,"uv_index":5.15,"wind_gusts":24.8,"aqi":238,"pm10":110.4,"pm2_5":51.7,"mosquito_risk":3,"arthritis_risk":5,"migraine_risk":3,"frizz_risk":1,"updated_at":"2026-03-23T18:45:17.161281+05:30"},{"city":"Varanasi","state":"Uttar Pradesh","latitude":25.3176,"longitude":82.9739,"temp":27.3,"humidity":48,"rain":0.0,"pressure":999.9,"uv_index":7.65,"wind_gusts":27.4,"aqi":125,"pm10":101.0,"pm2_5":38.8,"mosquito_risk":4,"arthritis_risk":5,"migraine_risk":7,"frizz_risk":0,"updated_at":"2026-03-23T18:45:17.161289+05:30"},{"city":"Prayagraj","state":"Uttar Pradesh","latitude":25.4358,"longitude":81.8463,"temp":27.5,"humidity":49,"rain":0.0,"pressure":998.2,"uv_index":7.55,"wind_gusts":20.5,"aqi":126,"pm10":84.3,"pm2_5":31.5,"mosquito_risk":4,"arthritis_risk":5,"migraine_risk":7,"frizz_risk":0,"updated_at":"2026-03-23T18:45:17.161296+05:30"},{"city":"Gorakhpur","state":"Uttar Pradesh","latitude":26.7606,"longitude":83.3732,"temp":25.0,"humidity":59,"rain":0.0,"pressure":999.6,"uv_index":7.4,"wind_gusts":23.0,"aqi":148,"pm10":94.5,"pm2_5":36.1,"mosquito_risk":4,"arthritis_risk":5,"migraine_risk":7,"frizz_risk":1,"updated_at":"2026-03-23T18:45:17.161302+05:30"},{"city":"Bareilly","state":"Uttar Pradesh","latitude":28.367,"longitude":79.4304,"temp":23.2,"humidity":76,"rain":0.0,"pressure":989.3,"uv_index":5.25,"wind_gusts":25.2,"aqi":108,"pm10":44.4,"pm2_5":23.3,"mosquito_risk":3,"arthritis_risk":5,"migraine_risk":3,"frizz_risk":1,"updated_at":"2026-03-23T18:45:17.161307+05:30"},{"city":"Aligarh","state":"Uttar Pradesh","latitude":27.8974,"longitude":78.088,"temp":23.2,"humidity":76,"rain":0.0,"pressure":988.2,"uv_index":4.35,"wind_gusts":20.9,"aqi":190,"pm10":165.8,"pm2_5":41.2,"mosquito_risk":3,"arthritis_risk":5,"migraine_risk":3,"frizz_risk":1,"updated_at":"2026-03-23T18:45:17.161312+05:30"},{"city":"Moradabad","state":"Uttar Pradesh","latitude":28.8386,"longitude":78.7733,"temp":22.3,"humidity":80,"rain":0.0,"pressure":986.5,"uv_index":5.9,"wind_gusts":27.4,"aqi":125,"pm10":61.0,"pm2_5":32.0,"mosquito_risk":3,"arthritis_risk":5,"migraine_risk":3,"frizz_risk":1,"updated_at":"2026-03-23T18:45:17.161317+05:30"},{"city":"Saharanpur","state":"Uttar Pradesh","latitude":29.9637,"longitude":77.546,"temp":21.5,"humidity":80,"rain":0.0,"pressure":978.0,"uv_index":6.2,"wind_gusts":25.2,"aqi":150,"pm10":52.2,"pm2_5":35.5,"mosquito_risk":3,"arthritis_risk":5,"migraine_risk":7,"frizz_risk":1,"updated_at":"2026-03-23T18:45:17.161322+05:30"},{"city":"Jhansi","state":"Uttar Pradesh","latitude":25.4484,"longitude":78.5685,"temp":27.2,"humidity":50,"rain":0.0,"pressure":979.7,"uv_index":7.4,"wind_gusts":33.1,"aqi":108,"pm10":78.7,"pm2_5":30.9,"mosquito_risk":4,"arthritis_risk":5,"migraine_risk":7,"frizz_risk":0,"updated_at":"2026-03-23T18:45:20.488096+05:30"},{"city":"Surat","state":"Gujarat","latitude":21.1702,"longitude":72.8311,"temp":31.1,"humidity":44,"rain":0.0,"pressure":1006.6,"uv_index":7.65,"wind_gusts":25.6,"aqi":109,"pm10":65.7,"pm2_5":47.7,"mosquito_risk":0,"arthritis_risk":5,"migraine_risk":4,"frizz_risk":1,"updated_at":"2026-03-23T18:45:20.488129+05:30"},{"city":"Vadodara","state":"Gujarat","latitude":22.3072,"longitude":73.1812,"temp":33.2,"humidity":36,"rain":0.0,"pressure":1004.2,"uv_index":7.85,"wind_gusts":25.9,"aqi":101,"pm10":55.3,"pm2_5":27.6,"mosquito_risk":0,"arthritis_risk":5,"migraine_risk":4,"frizz_risk":1,"updated_at":"2026-03-23T18:45:20.488178+05:30"},{"city":"Rajkot","state":"Gujarat","latitude":22.3039,"longitude":70.8022,"temp":31.5,"humidity":20,"rain":0.0,"pressure":995.5,"uv_index":7.7,"wind_gusts":35.6,"aqi":64,"pm10":26.7,"pm2_5":14.5,"mosquito_risk":0,"arthritis_risk":5,"migraine_risk":7,"frizz_risk":0,"updated_at":"2026-03-23T18:45:20.488198+05:30"},{"city":"Thane","state":"Maharashtra","latitude":19.2183,"longitude":72.9781,"temp":30.8,"humidity":48,"rain":0.0,"pressure":1007.4,"uv_index":7.9,"wind_gusts":37.8,"aqi":205,"pm10":50.1,"pm2_5":38.6,"mosquito_risk":0,"arthritis_risk":5,"migraine_risk":4,"frizz_risk":1,"updated_at":"2026-03-23T18:45:20.488208+05:30"},{"city":"Nagpur","state":"Maharashtra","latitude":21.1458,"longitude":79.0882,"temp":31.5,"humidity":30,"rain":0.0,"pressure":973.9,"uv_index":8.1,"wind_gusts":20.5,"aqi":154,"pm10":30.3,"pm2_5":21.9,"mosquito_risk":0,"arthritis_risk":5,"migraine_risk":7,"frizz_risk":0,"updated_at":"2026-03-23T18:45:20.488217+05:30"},{"city":"Nashik","state":"Maharashtra","latitude":19.9975,"longitude":73.7898,"temp":29.8,"humidity":36,"rain":0.0,"pressure":946.0,"uv_index":8.15,"wind_gusts":36.4,"aqi":124,"pm10":22.9,"pm2_5":13.3,"mosquito_risk":4,"arthritis_risk":5,"migraine_risk":7,"frizz_risk":0,"updated_at":"2026-03-23T18:45:20.488226+05:30"},{"city":"Aurangabad","state":"Maharashtra","latitude":19.8762,"longitude":75.3433,"temp":31.6,"humidity":29,"rain":0.0,"pressure":944.2,"uv_index":8.65,"wind_gusts":27.0,"aqi":118,"pm10":13.4,"pm2_5":9.1,"mosquito_risk":0,"arthritis_risk":5,"migraine_risk":7,"frizz_risk":0,"updated_at":"2026-03-23T18:45:20.488235+05:30"},{"city":"Solapur","state":"Maharashtra","latitude":17.6599,"longitude":75.9064,"temp":33.0,"humidity":30,"rain":0.0,"pressure":956.7,"uv_index":8.8,"wind_gusts":27.4,"aqi":116,"pm10":39.2,"pm2_5":26.4,"mosquito_risk":0,"arthritis_risk":5,"migraine_risk":7,"frizz_risk":0,"updated_at":"2026-03-23T18:45:20.488243+05:30"},{"city":"Kolhapur","state":"Maharashtra","latitude":16.705,"longitude":74.2433,"temp":28.1,"humidity":57,"rain":0.0,"pressure":947.7,"uv_index":8.85,"wind_gusts":37.8,"aqi":135,"pm10":51.1,"pm2_5":40.7,"mosquito_risk":4,"arthritis_risk":5,"migraine_risk":7,"frizz_risk":1,"updated_at":"2026-03-23T18:45:20.488252+05:30"},{"city":"Goa","state":"Goa","latitude":15.2993,"longitude":74.124,"temp":28.8,"humidity":77,"rain":0.0,"pressure":997.9,"uv_index":8.9,"wind_gusts":33.8,"aqi":128,"pm10":34.5,"pm2_5":22.6,"mosquito_risk":7,"arthritis_risk":5,"migraine_risk":7,"frizz_risk":1,"updated_at":"2026-03-23T18:45:20.488261+05:30"},{"city":"Jodhpur","state":"Rajasthan","latitude":26.2389,"longitude":73.0243,"temp":30.9,"humidity":30,"rain":0.0,"pressure":983.9,"uv_index":7.5,"wind_gusts":27.4,"aqi":74,"pm10":76.1,"pm2_5":19.2,"mosquito_risk":0,"arthritis_risk":5,"migraine_risk":7,"frizz_risk":0,"updated_at":"2026-03-23T18:45:20.488269+05:30"},{"city":"Udaipur","state":"Rajasthan","latitude":24.5854,"longitude":73.7125,"temp":28.1,"humidity":32,"rain":0.0,"pressure":947.4,"uv_index":7.55,"wind_gusts":38.5,"aqi":54,"pm10":35.4,"pm2_5":15.9,"mosquito_risk":4,"arthritis_risk":5,"migraine_risk":7,"frizz_risk":0,"updated_at":"2026-03-23T18:45:20.488277+05:30"},{"city":"Kota","state":"Rajasthan","latitude":25.2138,"longitude":75.8648,"temp":27.4,"humidity":53,"rain":0.0,"pressure":980.3,"uv_index":7.1,"wind_gusts":34.2,"aqi":74,"pm10":94.5,"pm2_5":30.9,"mosquito_risk":4,"arthritis_risk":5,"migraine_risk":7,"frizz_risk":1,"updated_at":"2026-03-23T18:45:20.488285+05:30"},{"city":"Bikaner","state":"Rajasthan","latitude":28.0229,"longitude":73.3119,"temp":30.0,"humidity":35,"rain":0.0,"pressure":983.0,"uv_index":7.25,"wind_gusts":15.8,"aqi":74,"pm10":46.1,"pm2_5":15.2,"mosquito_risk":4,"arthritis_risk":5,"migraine_risk":7,"frizz_risk":0,"updated_at":"2026-03-23T18:45:20.488293+05:30"},{"city":"Ajmer","state":"Rajasthan","latitude":26.4499,"longitude":74.6399,"temp":27.0,"humidity":45,"rain":0.0,"pressure":955.8,"uv_index":7.5,"wind_gusts":31.7,"aqi":62,"pm10":51.0,"pm2_5":16.5,"mosquito_risk":4,"arthritis_risk":5,"migraine_risk":7,"frizz_risk":0,"updated_at":"2026-03-23T18:45:20.488301+05:30"},{"city":"Gwalior","state":"Madhya Pradesh","latitude":26.2183,"longitude":78.1828,"temp":24.9,"humidity":64,"rain":0.0,"pressure":985.3,"uv_index":4.35,"wind_gusts":31.7,"aqi":95,"pm10":96.4,"pm2_5":30.0,"mosquito_risk":3,"arthritis_risk":5,"migraine_risk":3,"frizz_risk":1,"updated_at":"2026-03-23T18:45:20.488310+05:30"},{"city":"Indore","state":"Madhya Pradesh","latitude":22.7196,"longitude":75.8577,"temp":29.0,"humidity":45,"rain":0.0,"pressure":948.5,"uv_index":8.1,"wind_gusts":26.6,"aqi":74,"pm10":32.6,"pm2_5":14.1,"mosquito_risk":4,"arthritis_risk":5,"migraine_risk":7,"frizz_risk":0,"updated_at":"2026-03-23T18:45:20.488318+05:30"},{"city":"Bhopal","state":"Madhya Pradesh","latitude":23.2599,"longitude":77.4126,"temp":28.7,"humidity":37,"rain":0.0,"pressure":954.5,"uv_index":8.0,"wind_gusts":33.8,"aqi":98,"pm10":20.7,"pm2_5":11.8,"mosquito_risk":4,"arthritis_risk":5,"migraine_risk":7,"frizz_risk":0,"updated_at":"2026-03-23T18:45:20.488326+05:30"},{"city":"Jabalpur","state":"Madhya Pradesh","latitude":23.1815,"longitude":79.9864,"temp":28.5,"humidity":40,"rain":0.0,"pressure":963.0,"uv_index":7.8,"wind_gusts":20.9,"aqi":92,"pm10":24.3,"pm2_5":14.4,"mosquito_risk":4,"arthritis_risk":5,"migraine_risk":7,"frizz_risk":0,"updated_at":"2026-03-23T18:45:20.488334+05:30"},{"city":"Ujjain","state":"Madhya Pradesh","latitude":23.1765,"longitude":75.7885,"temp":27.8,"humidity":42,"rain":0.0,"pressure":954.2,"uv_index":8.0,"wind_gusts":25.6,"aqi":81,"pm10":33.5,"pm2_5":15.4,"mosquito_risk":4,"arthritis_risk":5,"migraine_risk":7,"frizz_risk":0,"updated_at":"2026-03-23T18:45:20.488343+05:30"},{"city":"Visakhapatnam","state":"Andhra Pradesh","latitude":17.6868,"longitude":83.2185,"temp":27.0,"humidity":76,"rain":0.0,"pressure":1006.1,"uv_index":8.85,"wind_gusts":33.8,"aqi":95,"pm10":25.8,"pm2_5":18.1,"mosquito_risk":7,"arthritis_risk":5,"migraine_risk":4,"frizz_risk":1,"updated_at":"2026-03-23T18:45:20.488351+05:30"},{"city":"Vijayawada","state":"Andhra Pradesh","latitude":16.5062,"longitude":80.648,"temp":29.9,"humidity":58,"rain":0.0,"pressure":1003.6,"uv_index":8.95,"wind_gusts":23.0,"aqi":74,"pm10":19.8,"pm2_5":15.4,"mosquito_risk":4,"arthritis_risk":5,"migraine_risk":4,"frizz_risk":1,"updated_at":"2026-03-23T18:45:20.488359+05:30"},{"city":"Guntur","state":"Andhra Pradesh","latitude":16.3067,"longitude":80.4365,"temp":28.5,"humidity":65,"rain":0.0,"pressure":1005.1,"uv_index":8.95,"wind_gusts":26.6,"aqi":73,"pm10":21.6,"pm2_5":16.6,"mosquito_risk":7,"arthritis_risk":5,"migraine_risk":4,"frizz_risk":1,"updated_at":"2026-03-23T18:45:20.488366+05:30"},{"city":"Nellore","state":"Andhra Pradesh","latitude":14.4426,"longitude":79.9865,"temp":28.3,"humidity":69,"rain":0.0,"pressure":1007.1,"uv_index":9.1,"wind_gusts":28.4,"aqi":54,"pm10":12.7,"pm2_5":8.1,"mosquito_risk":7,"arthritis_risk":5,"migraine_risk":4,"frizz_risk":1,"updated_at":"2026-03-23T18:45:20.488373+05:30"},{"city":"Kurnool","state":"Andhra Pradesh","latitude":15.8281,"longitude":78.0373,"temp":34.5,"humidity":31,"rain":0.0,"pressure":976.3,"uv_index":8.95,"wind_gusts":25.9,"aqi":88,"pm10":34.0,"pm2_5":22.9,"mosquito_risk":0,"arthritis_risk":5,"migraine_risk":7,"frizz_risk":0,"updated_at":"2026-03-23T18:45:20.488381+05:30"},{"city":"Kakinada","state":"Andhra Pradesh","latitude":16.9891,"longitude":82.2475,"temp":27.9,"humidity":71,"rain":0.0,"pressure":1009.6,"uv_index":8.9,"wind_gusts":30.6,"aqi":61,"pm10":20.0,"pm2_5":11.0,"mosquito_risk":7,"arthritis_risk":0,"migraine_risk":4,"frizz_risk":1,"updated_at":"2026-03-23T18:45:20.488388+05:30"},{"city":"Tirupati","state":"Andhra Pradesh","latitude":13.6288,"longitude":79.4192,"temp":30.8,"humidity":47,"rain":0.0,"pressure":991.9,"uv_index":9.2,"wind_gusts":29.9,"aqi":86,"pm10":22.1,"pm2_5":17.4,"mosquito_risk":0,"arthritis_risk":5,"migraine_risk":7,"frizz_risk":1,"updated_at":"2026-03-23T18:45:20.488394+05:30"},{"city":"Warangal","state":"Telangana","latitude":17.9689,"longitude":79.5941,"temp":32.1,"humidity":41,"rain":0.0,"pressure":979.1,"uv_index":8.8,"wind_gusts":24.1,"aqi":115,"pm10":53.2,"pm2_5":42.3,"mosquito_risk":0,"arthritis_risk":5,"migraine_risk":7,"frizz_risk":1,"updated_at":"2026-03-23T18:45:20.488401+05:30"},{"city":"Nizamabad","state":"Telangana","latitude":18.6725,"longitude":78.0941,"temp":31.1,"humidity":37,"rain":0.0,"pressure":965.0,"uv_index":8.7,"wind_gusts":25.2,"aqi":134,"pm10":40.2,"pm2_5":31.8,"mosquito_risk":0,"arthritis_risk":5,"migraine_risk":7,"frizz_risk":0,"updated_at":"2026-03-23T18:45:20.488407+05:30"},{"city":"Mysore","state":"Karnataka","latitude":12.2958,"longitude":76.6396,"temp":30.8,"humidity":36,"rain":0.0,"pressure":928.2,"uv_index":9.4,"wind_gusts":26.6,"aqi":125,"pm10":33.1,"pm2_5":26.1,"mosquito_risk":0,"arthritis_risk":5,"migraine_risk":7,"frizz_risk":0,"updated_at":"2026-03-23T18:45:20.488414+05:30"},{"city":"Mangalore","state":"Karnataka","latitude":12.9141,"longitude":74.856,"temp":29.7,"humidity":74,"rain":0.0,"pressure":1006.4,"uv_index":9.05,"wind_gusts":26.6,"aqi":80,"pm10":27.8,"pm2_5":17.6,"mosquito_risk":7,"arthritis_risk":5,"migraine_risk":4,"frizz_risk":1,"updated_at":"2026-03-23T18:45:20.488421+05:30"},{"city":"Hubli-Dharwad","state":"Karnataka","latitude":15.3647,"longitude":75.124,"temp":31.0,"humidity":41,"rain":0.0,"pressure":940.6,"uv_index":9.1,"wind_gusts":35.6,"aqi":156,"pm10":48.2,"pm2_5":33.9,"mosquito_risk":0,"arthritis_risk":5,"migraine_risk":7,"frizz_risk":1,"updated_at":"2026-03-23T18:45:20.488428+05:30"},{"city":"Belgaum","state":"Karnataka","latitude":15.8497,"longitude":74.4977,"temp":26.6,"humidity":69,"rain":0.0,"pressure":925.8,"uv_index":9.15,"wind_gusts":41.8,"aqi":156,"pm10":34.1,"pm2_5":27.6,"mosquito_risk":7,"arthritis_risk":5,"migraine_risk":7,"frizz_risk":1,"updated_at":"2026-03-23T18:45:23.825373+05:30"},{"city":"Coimbatore","state":"Tamil Nadu","latitude":11.0168,"longitude":76.9558,"temp":31.4,"humidity":34,"rain":0.0,"pressure":961.4,"uv_index":9.4,"wind_gusts":37.1,"aqi":112,"pm10":24.2,"pm2_5":17.0,"mosquito_risk":0,"arthritis_risk":5,"migraine_risk":7,"frizz_risk":0,"updated_at":"2026-03-23T18:45:23.825406+05:30"},{"city":"Madurai","state":"Tamil Nadu","latitude":9.9252,"longitude":78.1198,"temp":33.1,"humidity":41,"rain":0.0,"pressure":992.4,"uv_index":9.35,"wind_gusts":30.6,"aqi":71,"pm10":17.1,"pm2_5":10.8,"mosquito_risk":0,"arthritis_risk":5,"migraine_risk":7,"frizz_risk":1,"updated_at":"2026-03-23T18:45:23.825418+05:30"},{"city":"Trichy","state":"Tamil Nadu","latitude":10.7905,"longitude":78.7047,"temp":31.3,"humidity":52,"rain":0.0,"pressure":999.5,"uv_index":9.3,"wind_gusts":23.8,"aqi":67,"pm10":18.1,"pm2_5":14.6,"mosquito_risk":0,"arthritis_risk":5,"migraine_risk":7,"frizz_risk":1,"updated_at":"2026-03-23T18:45:23.825427+05:30"},{"city":"Salem","state":"Tamil Nadu","latitude":11.6643,"longitude":78.146,"temp":32.3,"humidity":36,"rain":0.0,"pressure":977.0,"uv_index":9.35,"wind_gusts":29.2,"aqi":114,"pm10":29.7,"pm2_5":21.8,"mosquito_risk":0,"arthritis_risk":5,"migraine_risk":7,"frizz_risk":0,"updated_at":"2026-03-23T18:45:23.825436+05:30"},{"city":"Tirunelveli","state":"Tamil Nadu","latitude":8.7139,"longitude":77.7567,"temp":31.8,"humidity":44,"rain":0.0,"pressure":1002.6,"uv_index":9.3,"wind_gusts":34.2,"aqi":69,"pm10":15.0,"pm2_5":9.0,"mosquito_risk":0,"arthritis_risk":5,"migraine_risk":4,"frizz_risk":1,"updated_at":"2026-03-23T18:45:23.825445+05:30"},{"city":"Vellore","state":"Tamil Nadu","latitude":12.9165,"longitude":79.1325,"temp":30.5,"humidity":46,"rain":0.0,"pressure":984.9,"uv_index":9.25,"wind_gusts":36.0,"aqi":79,"pm10":21.2,"pm2_5":16.2,"mosquito_risk":0,"arthritis_risk":5,"migraine_risk":7,"frizz_risk":1,"updated_at":"2026-03-23T18:45:23.825454+05:30"},{"city":"Erode","state":"Tamil Nadu","latitude":11.341,"longitude":77.7172,"temp":33.3,"humidity":41,"rain":0.0,"pressure":988.1,"uv_index":9.35,"wind_gusts":18.4,"aqi":87,"pm10":24.2,"pm2_5":17.4,"mosquito_risk":0,"arthritis_risk":5,"migraine_risk":7,"frizz_risk":1,"updated_at":"2026-03-23T18:45:23.825462+05:30"},{"city":"Kochi","state":"Kerala","latitude":9.9312,"longitude":76.2673,"temp":29.5,"humidity":76,"rain":0.0,"pressure":1007.7,"uv_index":9.15,"wind_gusts":33.5,"aqi":129,"pm10":34.5,"pm2_5":25.0,"mosquito_risk":7,"arthritis_risk":5,"migraine_risk":4,"frizz_risk":1,"updated_at":"2026-03-23T18:45:23.825471+05:30"},{"city":"Thiruvananthapuram","state":"Kerala","latitude":8.5241,"longitude":76.9366,"temp":29.7,"humidity":69,"rain":0.0,"pressure":1007.6,"uv_index":9.15,"wind_gusts":24.1,"aqi":116,"pm10":22.4,"pm2_5":15.7,"mosquito_risk":7,"arthritis_risk":5,"migraine_risk":4,"frizz_risk":1,"updated_at":"2026-03-23T18:45:23.825479+05:30"},{"city":"Kozhikode","state":"Kerala","latitude":11.2588,"longitude":75.7804,"temp":30.1,"humidity":72,"rain":0.0,"pressure":1006.8,"uv_index":9.1,"wind_gusts":28.4,"aqi":105,"pm10":33.2,"pm2_5":18.6,"mosquito_risk":3,"arthritis_risk":5,"migraine_risk":4,"frizz_risk":1,"updated_at":"2026-03-23T18:45:23.825488+05:30"},{"city":"Thrissur","state":"Kerala","latitude":10.5276,"longitude":76.2144,"temp":29.8,"humidity":71,"rain":0.0,"pressure":1006.2,"uv_index":9.1,"wind_gusts":38.9,"aqi":102,"pm10":33.8,"pm2_5":24.6,"mosquito_risk":7,"arthritis_risk":5,"migraine_risk":4,"frizz_risk":1,"updated_at":"2026-03-23T18:45:23.825497+05:30"},{"city":"Kannur","state":"Kerala","latitude":11.8745,"longitude":75.3704,"temp":30.0,"humidity":69,"rain":0.0,"pressure":1006.5,"uv_index":9.1,"wind_gusts":27.4,"aqi":69,"pm10":26.5,"pm2_5":15.3,"mosquito_risk":7,"arthritis_risk":5,"migraine_risk":4,"frizz_risk":1,"updated_at":"2026-03-23T18:45:23.825506+05:30"},{"city":"Patna","state":"Bihar","latitude":25.5941,"longitude":85.1376,"temp":28.5,"humidity":43,"rain":0.0,"pressure":1002.5,"uv_index":7.85,"wind_gusts":20.9,"aqi":151,"pm10":87.1,"pm2_5":41.0,"mosquito_risk":4,"arthritis_risk":5,"migraine_risk":4,"frizz_risk":0,"updated_at":"2026-03-23T18:45:23.825514+05:30"},{"city":"Gaya","state":"Bihar","latitude":24.7914,"longitude":85.0002,"temp":25.9,"humidity":57,"rain":0.0,"pressure":996.2,"uv_index":7.95,"wind_gusts":17.6,"aqi":117,"pm10":71.9,"pm2_5":28.4,"mosquito_risk":4,"arthritis_risk":5,"migraine_risk":7,"frizz_risk":1,"updated_at":"2026-03-23T18:45:23.825523+05:30"},{"city":"Muzaffarpur","state":"Bihar","latitude":26.1209,"longitude":85.3647,"temp":26.7,"humidity":53,"rain":0.0,"pressure":1002.6,"uv_index":7.8,"wind_gusts":15.8,"aqi":151,"pm10":97.3,"pm2_5":51.3,"mosquito_risk":4,"arthritis_risk":5,"migraine_risk":4,"frizz_risk":1,"updated_at":"2026-03-23T18:45:23.825531+05:30"},{"city":"Bhagalpur","state":"Bihar","latitude":25.2425,"longitude":87.0117,"temp":24.7,"humidity":67,"rain":0.0,"pressure":1004.0,"uv_index":7.85,"wind_gusts":14.4,"aqi":139,"pm10":41.8,"pm2_5":37.7,"mosquito_risk":3,"arthritis_risk":5,"migraine_risk":4,"frizz_risk":1,"updated_at":"2026-03-23T18:45:23.825538+05:30"},{"city":"Ranchi","state":"Jharkhand","latitude":23.3441,"longitude":85.3096,"temp":24.6,"humidity":41,"rain":0.0,"pressure":939.9,"uv_index":8.55,"wind_gusts":27.7,"aqi":93,"pm10":27.8,"pm2_5":12.5,"mosquito_risk":0,"arthritis_risk":5,"migraine_risk":7,"frizz_risk":0,"updated_at":"2026-03-23T18:45:23.825544+05:30"},{"city":"Jamshedpur","state":"Jharkhand","latitude":22.8046,"longitude":86.2029,"temp":28.7,"humidity":41,"rain":0.0,"pressure":993.0,"uv_index":8.4,"wind_gusts":18.7,"aqi":156,"pm10":51.0,"pm2_5":34.0,"mosquito_risk":4,"arthritis_risk":5,"migraine_risk":7,"frizz_risk":0,"updated_at":"2026-03-23T18:45:23.825551+05:30"},{"city":"Dhanbad","state":"Jharkhand","latitude":23.7957,"longitude":86.4304,"temp":26.7,"humidity":44,"rain":0.0,"pressure":982.3,"uv_index":8.3,"wind_gusts":16.9,"aqi":152,"pm10":80.6,"pm2_5":61.5,"mosquito_risk":4,"arthritis_risk":5,"migraine_risk":7,"frizz_risk":0,"updated_at":"2026-03-23T18:45:23.825557+05:30"},{"city":"Bokaro","state":"Jharkhand","latitude":23.6693,"longitude":86.1511,"temp":25.9,"humidity":49,"rain":0.0,"pressure":986.3,"uv_index":8.3,"wind_gusts":18.7,"aqi":152,"pm10":69.4,"pm2_5":48.3,"mosquito_risk":4,"arthritis_risk":5,"migraine_risk":7,"frizz_risk":0,"updated_at":"2026-03-23T18:45:23.825564+05:30"},{"city":"Bhubaneswar","state":"Odisha","latitude":20.2961,"longitude":85.8245,"temp":27.7,"humidity":70,"rain":0.0,"pressure":1004.8,"uv_index":8.65,"wind_gusts":32.4,"aqi":163,"pm10":51.0,"pm2_5":40.0,"mosquito_risk":7,"arthritis_risk":5,"migraine_risk":4,"frizz_risk":1,"updated_at":"2026-03-23T18:45:23.825570+05:30"},{"city":"Cuttack","state":"Odisha","latitude":20.4625,"longitude":85.8828,"temp":30.5,"humidity":37,"rain":0.0,"pressure":1006.0,"uv_index":8.7,"wind_gusts":24.8,"aqi":163,"pm10":51.0,"pm2_5":40.0,"mosquito_risk":0,"arthritis_risk":5,"migraine_risk":4,"frizz_risk":0,"updated_at":"2026-03-23T18:45:23.825577+05:30"},{"city":"Rourkela","state":"Odisha","latitude":22.2604,"longitude":84.8536,"temp":28.2,"humidity":43,"rain":0.0,"pressure":986.7,"uv_index":8.3,"wind_gusts":19.1,"aqi":129,"pm10":44.5,"pm2_5":26.4,"mosquito_risk":4,"arthritis_risk":5,"migraine_risk":7,"frizz_risk":0,"updated_at":"2026-03-23T18:45:23.825583+05:30"},{"city":"Raipur","state":"Chhattisgarh","latitude":21.2514,"longitude":81.6296,"temp":30.6,"humidity":33,"rain":0.0,"pressure":975.9,"uv_index":8.45,"wind_gusts":18.7,"aqi":140,"pm10":49.2,"pm2_5":35.0,"mosquito_risk":0,"arthritis_risk":5,"migraine_risk":7,"frizz_risk":0,"updated_at":"2026-03-23T18:45:23.825590+05:30"},{"city":"Bhilai","state":"Chhattisgarh","latitude":21.1938,"longitude":81.3509,"temp":30.0,"humidity":36,"rain":0.0,"pressure":976.0,"uv_index":8.45,"wind_gusts":16.6,"aqi":148,"pm10":45.9,"pm2_5":33.6,"mosquito_risk":4,"arthritis_risk":5,"migraine_risk":7,"frizz_risk":0,"updated_at":"2026-03-23T18:45:23.825597+05:30"},{"city":"Guwahati","state":"Assam","latitude":26.1158,"longitude":91.7086,"temp":23.9,"humidity":75,"rain":0.0,"pressure":1004.9,"uv_index":7.6,"wind_gusts":20.9,"aqi":97,"pm10":30.3,"pm2_5":28.8,"mosquito_risk":3,"arthritis_risk":5,"migraine_risk":4,"frizz_risk":1,"updated_at":"2026-03-23T18:45:23.825603+05:30"},{"city":"Agartala","state":"Tripura","latitude":23.8315,"longitude":91.2868,"temp":25.3,"humidity":59,"rain":0.0,"pressure":1009.2,"uv_index":8.05,"wind_gusts":13.3,"aqi":157,"pm10":72.6,"pm2_5":68.5,"mosquito_risk":4,"arthritis_risk":0,"migraine_risk":4,"frizz_risk":1,"updated_at":"2026-03-23T18:45:23.825610+05:30"},{"city":"Shillong","state":"Meghalaya","latitude":25.5788,"longitude":91.8933,"temp":12.6,"humidity":80,"rain":0.0,"pressure":856.6,"uv_index":7.15,"wind_gusts":25.2,"aqi":99,"pm10":26.6,"pm2_5":25.0,"mosquito_risk":3,"arthritis_risk":5,"migraine_risk":7,"frizz_risk":0,"updated_at":"2026-03-23T18:45:23.825617+05:30"},{"city":"Imphal","state":"Manipur","latitude":24.817,"longitude":93.9368,"temp":15.8,"humidity":78,"rain":0.0,"pressure":924.6,"uv_index":8.35,"wind_gusts":36.7,"aqi":89,"pm10":23.4,"pm2_5":21.5,"mosquito_risk":3,"arthritis_risk":5,"migraine_risk":7,"frizz_risk":0,"updated_at":"2026-03-23T18:45:23.825623+05:30"},{"city":"Aizawl","state":"Mizoram","latitude":23.7271,"longitude":92.7176,"temp":17.0,"humidity":67,"rain":0.0,"pressure":893.9,"uv_index":8.3,"wind_gusts":33.5,"aqi":92,"pm10":28.4,"pm2_5":25.0,"mosquito_risk":3,"arthritis_risk":5,"migraine_risk":7,"frizz_risk":0,"updated_at":"2026-03-23T18:45:23.825630+05:30"},{"city":"Kohima","state":"Nagaland","latitude":25.6701,"longitude":94.1077,"temp":12.2,"humidity":99,"rain":0.0,"pressure":854.8,"uv_index":8.0,"wind_gusts":39.2,"aqi":78,"pm10":21.9,"pm2_5":19.3,"mosquito_risk":3,"arthritis_risk":10,"migraine_risk":7,"frizz_risk":0,"updated_at":"2026-03-23T18:45:23.825636+05:30"},{"city":"Gangtok","state":"Sikkim","latitude":27.3314,"longitude":88.6138,"temp":12.5,"humidity":97,"rain":0.1,"pressure":837.6,"uv_index":6.5,"wind_gusts":18.7,"aqi":92,"pm10":27.5,"pm2_5":26.9,"mosquito_risk":6,"arthritis_risk":10,"migraine_risk":7,"frizz_risk":0,"updated_at":"2026-03-23T18:45:23.825643+05:30"},{"city":"Siliguri","state":"West Bengal","latitude":26.7271,"longitude":88.3953,"temp":20.1,"humidity":65,"rain":0.0,"pressure":996.9,"uv_index":7.1,"wind_gusts":20.5,"aqi":116,"pm10":31.3,"pm2_5":29.8,"mosquito_risk":3,"arthritis_risk":5,"migraine_risk":7,"frizz_risk":0,"updated_at":"2026-03-23T18:45:27.167005+05:30"},{"city":"Durgapur","state":"West Bengal","latitude":23.5204,"longitude":87.3119,"temp":27.3,"humidity":50,"rain":0.0,"pressure":997.8,"uv_index":8.25,"wind_gusts":16.2,"aqi":157,"pm10":62.4,"pm2_5":53.4,"mosquito_risk":4,"arthritis_risk":5,"migraine_risk":7,"frizz_risk":0,"updated_at":"2026-03-23T18:45:27.167037+05:30"},{"city":"Asansol","state":"West Bengal","latitude":23.6739,"longitude":86.9524,"temp":27.4,"humidity":47,"rain":0.0,"pressure":996.2,"uv_index":8.25,"wind_gusts":16.6,"aqi":132,"pm10":59.5,"pm2_5":46.0,"mosquito_risk":4,"arthritis_risk":5,"migraine_risk":7,"frizz_risk":0,"updated_at":"2026-03-23T18:45:27.167046+05:30"},{"city":"Pondicherry","state":"Puducherry","latitude":11.9139,"longitude":79.8145,"temp":27.5,"humidity":72,"rain":0.0,"pressure":1009.3,"uv_index":9.15,"wind_gusts":29.2,"aqi":32,"pm10":8.8,"pm2_5":5.4,"mosquito_risk":7,"arthritis_risk":0,"migraine_risk":4,"frizz_risk":1,"updated_at":"2026-03-23T18:45:27.167054+05:30"},{"city":"Port Blair","state":"Andaman and Nicobar Islands","latitude":11.6234,"longitude":92.7265,"temp":28.3,"humidity":79,"rain":0.0,"pressure":1008.0,"uv_index":9.1,"wind_gusts":23.4,"aqi":31,"pm10":3.9,"pm2_5":2.5,"mosquito_risk":7,"arthritis_risk":0,"migraine_risk":4,"frizz_risk":1,"updated_at":"2026-03-23T18:45:27.167062+05:30"},{"city":"Haridwar","state":"Uttarakhand","latitude":29.9457,"longitude":78.1642,"temp":22.1,"humidity":80,"rain":0.0,"pressure":976.8,"uv_index":6.35,"wind_gusts":24.8,"aqi":131,"pm10":47.1,"pm2_5":32.5,"mosquito_risk":3,"arthritis_risk":5,"migraine_risk":7,"frizz_risk":1,"updated_at":"2026-03-23T18:45:27.167069+05:30"},{"city":"Rishikesh","state":"Uttarakhand","latitude":30.0869,"longitude":78.2676,"temp":22.0,"humidity":70,"rain":0.0,"pressure":969.7,"uv_index":6.4,"wind_gusts":21.2,"aqi":117,"pm10":48.1,"pm2_5":30.6,"mosquito_risk":3,"arthritis_risk":5,"migraine_risk":7,"frizz_risk":1,"updated_at":"2026-03-23T18:45:27.167077+05:30"},{"city":"Nainital","state":"Uttarakhand","latitude":29.3919,"longitude":79.4542,"temp":14.7,"humidity":81,"rain":0.0,"pressure":805.3,"uv_index":7.0,"wind_gusts":45.0,"aqi":105,"pm10":45.5,"pm2_5":28.4,"mosquito_risk":3,"arthritis_risk":10,"migraine_risk":7,"frizz_risk":0,"updated_at":"2026-03-23T18:45:27.167084+05:30"},{"city":"Mussoorie","state":"Uttarakhand","latitude":30.4599,"longitude":78.0664,"temp":13.5,"humidity":84,"rain":0.0,"pressure":801.9,"uv_index":6.65,"wind_gusts":24.5,"aqi":124,"pm10":44.9,"pm2_5":34.2,"mosquito_risk":3,"arthritis_risk":10,"migraine_risk":7,"frizz_risk":0,"updated_at":"2026-03-23T18:45:27.167092+05:30"},{"city":"Dharamshala","state":"Himachal Pradesh","latitude":32.219,"longitude":76.3234,"temp":17.1,"humidity":74,"rain":0.0,"pressure":869.4,"uv_index":6.95,"wind_gusts":19.4,"aqi":121,"pm10":21.1,"pm2_5":15.4,"mosquito_risk":3,"arthritis_risk":5,"migraine_risk":7,"frizz_risk":0,"updated_at":"2026-03-23T18:45:27.167099+05:30"},{"city":"Dalhousie","state":"Himachal Pradesh","latitude":32.5387,"longitude":75.971,"temp":14.6,"humidity":65,"rain":0.0,"pressure":803.4,"uv_index":7.15,"wind_gusts":17.3,"aqi":113,"pm10":28.9,"pm2_5":23.3,"mosquito_risk":3,"arthritis_risk":5,"migraine_risk":7,"frizz_risk":0,"updated_at":"2026-03-23T18:45:27.167106+05:30"},{"city":"Patiala","state":"Punjab","latitude":30.3398,"longitude":76.3869,"temp":23.1,"humidity":71,"rain":0.0,"pressure":980.3,"uv_index":6.3,"wind_gusts":23.8,"aqi":148,"pm10":56.3,"pm2_5":38.0,"mosquito_risk":3,"arthritis_risk":5,"migraine_risk":7,"frizz_risk":1,"updated_at":"2026-03-23T18:45:27.167112+05:30"},{"city":"Bhatinda","state":"Punjab","latitude":30.211,"longitude":74.9455,"temp":25.3,"humidity":56,"rain":0.0,"pressure":985.5,"uv_index":7.0,"wind_gusts":18.4,"aqi":133,"pm10":65.4,"pm2_5":36.2,"mosquito_risk":4,"arthritis_risk":5,"migraine_risk":7,"frizz_risk":0,"updated_at":"2026-03-23T18:45:27.167119+05:30"},{"city":"Rohtak","state":"Haryana","latitude":28.8955,"longitude":76.6066,"temp":22.9,"humidity":80,"rain":0.0,"pressure":984.3,"uv_index":6.45,"wind_gusts":20.5,"aqi":168,"pm10":78.9,"pm2_5":33.1,"mosquito_risk":3,"arthritis_risk":5,"migraine_risk":7,"frizz_risk":1,"updated_at":"2026-03-23T18:45:27.167126+05:30"},{"city":"Panipat","state":"Haryana","latitude":29.3909,"longitude":76.9635,"temp":21.9,"humidity":85,"rain":0.0,"pressure":983.1,"uv_index":6.3,"wind_gusts":23.0,"aqi":231,"pm10":60.5,"pm2_5":33.4,"mosquito_risk":3,"arthritis_risk":5,"migraine_risk":7,"frizz_risk":1,"updated_at":"2026-03-23T18:45:27.167132+05:30"},{"city":"Mathura","state":"Uttar Pradesh","latitude":27.4924,"longitude":77.6737,"temp":24.1,"humidity":72,"rain":0.0,"pressure":989.5,"uv_index":5.9,"wind_gusts":20.2,"aqi":207,"pm10":105.2,"pm2_5":44.5,"mosquito_risk":3,"arthritis_risk":5,"migraine_risk":3,"frizz_risk":1,"updated_at":"2026-03-23T18:45:27.167152+05:30"},{"city":"Vrindavan","state":"Uttar Pradesh","latitude":27.5823,"longitude":77.7027,"temp":24.3,"humidity":73,"rain":0.0,"pressure":989.9,"uv_index":6.05,"wind_gusts":19.8,"aqi":207,"pm10":105.2,"pm2_5":44.5,"mosquito_risk":3,"arthritis_risk":5,"migraine_risk":7,"frizz_risk":1,"updated_at":"2026-03-23T18:45:27.167159+05:30"},{"city":"Ayodhya","state":"Uttar Pradesh","latitude":26.7922,"longitude":82.1998,"temp":26.5,"humidity":48,"rain":0.0,"pressure":997.6,"uv_index":7.1,"wind_gusts":29.2,"aqi":146,"pm10":65.7,"pm2_5":33.5,"mosquito_risk":4,"arthritis_risk":5,"migraine_risk":7,"frizz_risk":0,"updated_at":"2026-03-23T18:45:27.167165+05:30"},{"city":"Ratlam","state":"Madhya Pradesh","latitude":23.3315,"longitude":75.0367,"temp":28.7,"humidity":39,"rain":0.0,"pressure":955.0,"uv_index":7.95,"wind_gusts":29.2,"aqi":75,"pm10":32.1,"pm2_5":13.6,"mosquito_risk":4,"arthritis_risk":5,"migraine_risk":7,"frizz_risk":0,"updated_at":"2026-03-23T18:45:27.167170+05:30"},{"city":"Sagar","state":"Madhya Pradesh","latitude":23.8388,"longitude":78.7378,"temp":27.8,"humidity":41,"rain":0.0,"pressure":951.4,"uv_index":8.0,"wind_gusts":31.0,"aqi":81,"pm10":20.1,"pm2_5":10.7,"mosquito_risk":4,"arthritis_risk":5,"migraine_risk":7,"frizz_risk":0,"updated_at":"2026-03-23T18:45:27.167176+05:30"},{"city":"Satna","state":"Madhya Pradesh","latitude":24.6005,"longitude":80.8322,"temp":29.0,"humidity":42,"rain":0.0,"pressure":973.1,"uv_index":7.95,"wind_gusts":23.4,"aqi":97,"pm10":29.0,"pm2_5":16.6,"mosquito_risk":4,"arthritis_risk":5,"migraine_risk":7,"frizz_risk":0,"updated_at":"2026-03-23T18:45:27.167181+05:30"},{"city":"Akola","state":"Maharashtra","latitude":20.7002,"longitude":77.0082,"temp":31.7,"humidity":34,"rain":0.0,"pressure":975.5,"uv_index":8.35,"wind_gusts":16.6,"aqi":143,"pm10":21.8,"pm2_5":17.5,"mosquito_risk":0,"arthritis_risk":5,"migraine_risk":7,"frizz_risk":0,"updated_at":"2026-03-23T18:45:27.167188+05:30"},{"city":"Amravati","state":"Maharashtra","latitude":20.9374,"longitude":77.7796,"temp":31.6,"humidity":32,"rain":0.0,"pressure":967.7,"uv_index":8.35,"wind_gusts":22.0,"aqi":145,"pm10":22.5,"pm2_5":17.8,"mosquito_risk":0,"arthritis_risk":5,"migraine_risk":7,"frizz_risk":0,"updated_at":"2026-03-23T18:45:27.167194+05:30"},{"city":"Latur","state":"Maharashtra","latitude":18.4088,"longitude":76.5604,"temp":30.9,"humidity":34,"rain":0.0,"pressure":939.9,"uv_index":8.6,"wind_gusts":22.3,"aqi":113,"pm10":35.4,"pm2_5":27.6,"mosquito_risk":0,"arthritis_risk":5,"migraine_risk":7,"frizz_risk":0,"updated_at":"2026-03-23T18:45:27.167200+05:30"},{"city":"Nanded","state":"Maharashtra","latitude":19.1383,"longitude":77.3091,"temp":33.1,"humidity":28,"rain":0.0,"pressure":968.5,"uv_index":8.55,"wind_gusts":18.0,"aqi":144,"pm10":37.3,"pm2_5":28.8,"mosquito_risk":0,"arthritis_risk":5,"migraine_risk":7,"frizz_risk":0,"updated_at":"2026-03-23T18:45:27.167205+05:30"},{"city":"Gulbarga","state":"Karnataka","latitude":17.3297,"longitude":76.8343,"temp":33.0,"humidity":33,"rain":0.0,"pressure":958.6,"uv_index":8.8,"wind_gusts":29.2,"aqi":120,"pm10":41.6,"pm2_5":28.6,"mosquito_risk":0,"arthritis_risk":5,"migraine_risk":7,"frizz_risk":0,"updated_at":"2026-03-23T18:45:27.167210+05:30"},{"city":"Bidar","state":"Karnataka","latitude":17.9104,"longitude":77.5199,"temp":32.6,"humidity":31,"rain":0.0,"pressure":935.8,"uv_index":8.8,"wind_gusts":22.7,"aqi":131,"pm10":41.0,"pm2_5":30.7,"mosquito_risk":0,"arthritis_risk":5,"migraine_risk":7,"frizz_risk":0,"updated_at":"2026-03-23T18:45:27.167216+05:30"},{"city":"Hospet","state":"Karnataka","latitude":15.2689,"longitude":76.3909,"temp":32.4,"humidity":43,"rain":0.0,"pressure":955.3,"uv_index":9.05,"wind_gusts":28.8,"aqi":153,"pm10":43.9,"pm2_5":35.2,"mosquito_risk":0,"arthritis_risk":5,"migraine_risk":7,"frizz_risk":1,"updated_at":"2026-03-23T18:45:27.167221+05:30"},{"city":"Tirupur","state":"Tamil Nadu","latitude":11.1085,"longitude":77.3411,"temp":33.2,"humidity":28,"rain":0.0,"pressure":974.7,"uv_index":9.4,"wind_gusts":31.3,"aqi":102,"pm10":24.4,"pm2_5":17.5,"mosquito_risk":0,"arthritis_risk":5,"migraine_risk":7,"frizz_risk":0,"updated_at":"2026-03-23T18:45:27.167226+05:30"},{"city":"Alappuzha","state":"Kerala","latitude":9.4981,"longitude":76.3388,"temp":29.4,"humidity":76,"rain":0.0,"pressure":1007.9,"uv_index":9.15,"wind_gusts":33.1,"aqi":137,"pm10":39.0,"pm2_5":25.7,"mosquito_risk":7,"arthritis_risk":5,"migraine_risk":4,"frizz_risk":1,"updated_at":"2026-03-23T18:45:27.167231+05:30"},{"city":"Munnar","state":"Kerala","latitude":10.0889,"longitude":77.0595,"temp":26.3,"humidity":59,"rain":0.0,"pressure":858.1,"uv_index":9.65,"wind_gusts":29.5,"aqi":86,"pm10":26.7,"pm2_5":18.2,"mosquito_risk":4,"arthritis_risk":5,"migraine_risk":7,"frizz_risk":1,"updated_at":"2026-03-23T18:45:27.167237+05:30"},{"city":"Silchar","state":"Assam","latitude":24.8333,"longitude":92.7789,"temp":23.7,"humidity":69,"rain":0.0,"pressure":1008.1,"uv_index":8.05,"wind_gusts":18.7,"aqi":120,"pm10":44.6,"pm2_5":41.6,"mosquito_risk":3,"arthritis_risk":0,"migraine_risk":4,"frizz_risk":1,"updated_at":"2026-03-23T18:45:27.167243+05:30"},{"city":"Dibrugarh","state":"Assam","latitude":27.4728,"longitude":94.912,"temp":21.9,"humidity":86,"rain":0.0,"pressure":999.4,"uv_index":7.75,"wind_gusts":14.8,"aqi":69,"pm10":24.6,"pm2_5":23.7,"mosquito_risk":3,"arthritis_risk":5,"migraine_risk":7,"frizz_risk":1,"updated_at":"2026-03-23T18:45:27.167248+05:30"}]