[{"city":"Delhi","state":"Delhi","latitude":28.6139,"longitude":77.209,"temp":26.6,"humidity":59,"rain":0.0,"pressure":983.6,"uv_index":7.45,"wind_gusts":45.7,"aqi":195,"pm10":266.4,"pm2_5":54.4,"no2":19.9,"co":562.0,"o3":126.0,"so2":16.7,"mosquito_risk":4,"arthritis_risk":5,"migraine_risk":7,"frizz_risk":1,"updated_at":"2026-05-04T19:38:20.901917+05:30"},{"city":"Mumbai","state":"Maharashtra","latitude":19.076,"longitude":72.8777,"temp":29.7,"humidity":71,"rain":0.0,"pressure":1006.0,"uv_index":7.85,"wind_gusts":44.6,"aqi":61,"pm10":37.3,"pm2_5":15.5,"no2":7.7,"co":224.0,"o3":69.0,"so2":18.5,"mosquito_risk":7,"arthritis_risk":5,"migraine_risk":4,"frizz_risk":1,"updated_at":"2026-05-04T19:38:20.901960+05:30"},{"city":"Bangalore","state":"Karnataka","latitude":12.9716,"longitude":77.5946,"temp":29.6,"humidity":48,"rain":0.0,"pressure":910.9,"uv_index":9.5,"wind_gusts":32.8,"aqi":81,"pm10":83.1,"pm2_5":51.1,"no2":77.9,"co":449.0,"o3":31.0,"so2":21.9,"mosquito_risk":4,"arthritis_risk":5,"migraine_risk":7,"frizz_risk":1,"updated_at":"2026-05-04T19:38:20.901976+05:30"},{"city":"Hyderabad","state":"Telangana","latitude":17.385,"longitude":78.4867,"temp":35.8,"humidity":15,"rain":0.0,"pressure":951.1,"uv_index":9.25,"wind_gusts":35.3,"aqi":155,"pm10":65.7,"pm2_5":37.6,"no2":29.5,"co":417.0,"o3":105.0,"so2":12.0,"mosquito_risk":0,"arthritis_risk":5,"migraine_risk":10,"frizz_risk":0,"updated_at":"2026-05-04T19:38:20.901988+05:30"},{"city":"Chennai","state":"Tamil Nadu","latitude":13.0827,"longitude":80.2707,"temp":30.5,"humidity":69,"rain":0.0,"pressure":1005.9,"uv_index":9.15,"wind_gusts":42.1,"aqi":82,"pm10":27.2,"pm2_5":20.3,"no2":5.9,"co":217.0,"o3":111.0,"so2":5.5,"mosquito_risk":3,"arthritis_risk":5,"migraine_risk":4,"frizz_risk":1,"updated_at":"2026-05-04T19:38:20.902002+05:30"},{"city":"Kolkata","state":"West Bengal","latitude":22.5726,"longitude":88.3639,"temp":26.9,"humidity":85,"rain":0.0,"pressure":1007.3,"uv_index":8.9,"wind_gusts":28.1,"aqi":87,"pm10":34.1,"pm2_5":26.7,"no2":13.4,"co":471.0,"o3":60.0,"so2":9.7,"mosquito_risk":7,"arthritis_risk":5,"migraine_risk":4,"frizz_risk":1,"updated_at":"2026-05-04T19:38:20.902011+05:30"},{"city":"Pune","state":"Maharashtra","latitude":18.5204,"longitude":73.8567,"temp":28.4,"humidity":59,"rain":0.0,"pressure":946.3,"uv_index":8.45,"wind_gusts":51.8,"aqi":56,"pm10":29.6,"pm2_5":11.2,"no2":5.6,"co":197.0,"o3":78.0,"so2":4.7,"mosquito_risk":4,"arthritis_risk":5,"migraine_risk":7,"frizz_risk":1,"updated_at":"2026-05-04T19:38:20.902019+05:30"},{"city":"Ahmedabad","state":"Gujarat","latitude":23.0225,"longitude":72.5714,"temp":35.0,"humidity":46,"rain":0.0,"pressure":996.2,"uv_index":8.05,"wind_gusts":42.5,"aqi":79,"pm10":68.2,"pm2_5":25.6,"no2":19.7,"co":200.0,"o3":84.0,"so2":8.5,"mosquito_risk":0,"arthritis_risk":5,"migraine_risk":7,"frizz_risk":1,"updated_at":"2026-05-04T19:38:20.902029+05:30"},{"city":"Jaipur","state":"Rajasthan","latitude":26.9124,"longitude":75.7873,"temp":27.2,"humidity":52,"rain":0.0,"pressure":957.9,"uv_index":8.05,"wind_gusts":35.3,"aqi":189,"pm10":111.8,"pm2_5":31.5,"no2":5.8,"co":286.0,"o3":134.0,"so2":5.5,"mosquito_risk":4,"arthritis_risk":5,"migraine_risk":7,"frizz_risk":1,"updated_at":"2026-05-04T19:38:20.902037+05:30"},{"city":"Lucknow","state":"Uttar Pradesh","latitude":26.8467,"longitude":80.9462,"temp":25.6,"humidity":76,"rain":0.0,"pressure":993.9,"uv_index":8.05,"wind_gusts":45.0,"aqi":156,"pm10":47.7,"pm2_5":34.9,"no2":8.8,"co":381.0,"o3":140.0,"so2":9.7,"mosquito_risk":7,"arthritis_risk":5,"migraine_risk":7,"frizz_risk":1,"updated_at":"2026-05-04T19:38:20.902046+05:30"},{"city":"Kanpur","state":"Uttar Pradesh","latitude":26.4499,"longitude":80.3319,"temp":26.9,"humidity":73,"rain":0.0,"pressure":992.1,"uv_index":8.05,"wind_gusts":52.9,"aqi":254,"pm10":290.6,"pm2_5":58.3,"no2":6.7,"co":352.0,"o3":158.0,"so2":11.8,"mosquito_risk":7,"arthritis_risk":5,"migraine_risk":7,"frizz_risk":1,"updated_at":"2026-05-04T19:38:20.902054+05:30"},{"city":"Chandigarh","state":"Chandigarh","latitude":30.7333,"longitude":76.7794,"temp":24.6,"humidity":48,"rain":0.0,"pressure":969.9,"uv_index":7.5,"wind_gusts":45.7,"aqi":120,"pm10":55.8,"pm2_5":23.7,"no2":9.1,"co":935.0,"o3":124.0,"so2":4.0,"mosquito_risk":0,"arthritis_risk":5,"migraine_risk":7,"frizz_risk":0,"updated_at":"2026-05-04T19:38:20.902063+05:30"},{"city":"Srinagar","state":"Jammu and Kashmir","latitude":34.0837,"longitude":74.7973,"temp":13.1,"humidity":85,"rain":0.0,"pressure":841.4,"uv_index":6.3,"wind_gusts":27.4,"aqi":104,"pm10":29.0,"pm2_5":20.3,"no2":17.5,"co":726.0,"o3":91.0,"so2":4.4,"mosquito_risk":3,"arthritis_risk":10,"migraine_risk":7,"frizz_risk":0,"updated_at":"2026-05-04T19:38:20.902071+05:30"},{"city":"Jammu","state":"Jammu and Kashmir","latitude":32.7266,"longitude":74.857,"temp":25.4,"humidity":47,"rain":0.0,"pressure":973.4,"uv_index":8.2,"wind_gusts":51.8,"aqi":123,"pm10":135.0,"pm2_5":47.6,"no2":26.8,"co":543.0,"o3":103.0,"so2":7.8,"mosquito_risk":4,"arthritis_risk":5,"migraine_risk":7,"frizz_risk":0,"updated_at":"2026-05-04T19:38:20.902080+05:30"},{"city":"Amritsar","state":"Punjab","latitude":31.634,"longitude":74.8723,"temp":26.1,"humidity":47,"rain":0.0,"pressure":981.0,"uv_index":8.1,"wind_gusts":55.4,"aqi":125,"pm10":88.0,"pm2_5":30.9,"no2":3.7,"co":366.0,"o3":141.0,"so2":6.7,"mosquito_risk":4,"arthritis_risk":5,"migraine_risk":7,"frizz_risk":0,"updated_at":"2026-05-04T19:38:20.902087+05:30"},{"city":"Ludhiana","state":"Punjab","latitude":30.901,"longitude":75.8573,"temp":26.0,"humidity":52,"rain":0.0,"pressure":979.1,"uv_index":7.7,"wind_gusts":51.1,"aqi":150,"pm10":61.7,"pm2_5":30.4,"no2":8.3,"co":643.0,"o3":126.0,"so2":4.6,"mosquito_risk":4,"arthritis_risk":5,"migraine_risk":7,"frizz_risk":0,"updated_at":"2026-05-04T19:38:20.902094+05:30"},{"city":"Jalandhar","state":"Punjab","latitude":31.326,"longitude":75.5762,"temp":25.0,"humidity":56,"rain":0.0,"pressure":979.8,"uv_index":7.9,"wind_gusts":51.8,"aqi":129,"pm10":127.1,"pm2_5":33.4,"no2":6.1,"co":710.0,"o3":136.0,"so2":6.5,"mosquito_risk":4,"arthritis_risk":5,"migraine_risk":7,"frizz_risk":0,"updated_at":"2026-05-04T19:38:20.902101+05:30"},{"city":"Dehradun","state":"Uttarakhand","latitude":30.6284,"longitude":78.0322,"temp":12.1,"humidity":89,"rain":0.0,"pressure":830.7,"uv_index":7.05,"wind_gusts":35.6,"aqi":99,"pm10":46.9,"pm2_5":18.2,"no2":15.5,"co":173.0,"o3":115.0,"so2":1.5,"mosquito_risk":3,"arthritis_risk":10,"migraine_risk":7,"frizz_risk":0,"updated_at":"2026-05-04T19:38:20.902111+05:30"},{"city":"Shimla","state":"Himachal Pradesh","latitude":31.1048,"longitude":77.1734,"temp":9.1,"humidity":98,"rain":0.0,"pressure":783.1,"uv_index":7.2,"wind_gusts":33.5,"aqi":97,"pm10":57.0,"pm2_5":21.1,"no2":19.9,"co":381.0,"o3":97.0,"so2":1.7,"mosquito_risk":3,"arthritis_risk":10,"migraine_risk":7,"frizz_risk":0,"updated_at":"2026-05-04T19:38:20.902120+05:30"},{"city":"Manali","state":"Himachal Pradesh","latitude":32.2396,"longitude":77.1887,"temp":9.4,"humidity":84,"rain":0.1,"pressure":816.2,"uv_index":9.0,"wind_gusts":34.2,"aqi":134,"pm10":32.1,"pm2_5":11.3,"no2":13.2,"co":296.0,"o3":138.0,"so2":1.5,"mosquito_risk":6,"arthritis_risk":10,"migraine_risk":7,"frizz_risk":0,"updated_at":"2026-05-04T19:38:20.902129+05:30"},{"city":"Gurgaon","state":"Haryana","latitude":28.4595,"longitude":77.0266,"temp":27.0,"humidity":55,"rain":0.0,"pressure":981.9,"uv_index":7.6,"wind_gusts":45.7,"aqi":1546,"pm10":624.0,"pm2_5":102.2,"no2":17.8,"co":610.0,"o3":136.0,"so2":15.3,"mosquito_risk":4,"arthritis_risk":5,"migraine_risk":7,"frizz_risk":1,"updated_at":"2026-05-04T19:38:20.902136+05:30"},{"city":"Noida","state":"Uttar Pradesh","latitude":28.5355,"longitude":77.391,"temp":26.2,"humidity":58,"rain":0.0,"pressure":985.2,"uv_index":7.5,"wind_gusts":43.2,"aqi":1546,"pm10":624.0,"pm2_5":102.2,"no2":17.8,"co":403.0,"o3":136.0,"so2":15.3,"mosquito_risk":4,"arthritis_risk":5,"migraine_risk":7,"frizz_risk":1,"updated_at":"2026-05-04T19:38:20.902143+05:30"},{"city":"Ghaziabad","state":"Uttar Pradesh","latitude":28.6692,"longitude":77.4538,"temp":26.2,"humidity":58,"rain":0.0,"pressure":983.6,"uv_index":7.45,"wind_gusts":45.7,"aqi":140,"pm10":146.2,"pm2_5":33.8,"no2":6.5,"co":326.0,"o3":131.0,"so2":5.9,"mosquito_risk":4,"arthritis_risk":5,"migraine_risk":7,"frizz_risk":1,"updated_at":"2026-05-04T19:38:20.902150+05:30"},{"city":"Faridabad","state":"Haryana","latitude":28.4089,"longitude":77.3178,"temp":26.5,"humidity":60,"rain":0.0,"pressure":984.4,"uv_index":7.55,"wind_gusts":49.0,"aqi":1546,"pm10":624.0,"pm2_5":102.2,"no2":17.8,"co":425.0,"o3":136.0,"so2":15.3,"mosquito_risk":4,"arthritis_risk":5,"migraine_risk":7,"frizz_risk":1,"updated_at":"2026-05-04T19:38:20.902157+05:30"},{"city":"Meerut","state":"Uttar Pradesh","latitude":28.9845,"longitude":77.7064,"temp":25.5,"humidity":66,"rain":0.0,"pressure":982.5,"uv_index":7.35,"wind_gusts":58.7,"aqi":140,"pm10":146.2,"pm2_5":33.8,"no2":6.5,"co":316.0,"o3":131.0,"so2":5.9,"mosquito_risk":7,"arthritis_risk":5,"migraine_risk":7,"frizz_risk":1,"updated_at":"2026-05-04T19:38:20.902164+05:30"},{"city":"Agra","state":"Uttar Pradesh","latitude":27.1767,"longitude":78.0081,"temp":28.6,"humidity":61,"rain":0.0,"pressure":987.6,"uv_index":7.7,"wind_gusts":56.2,"aqi":1124,"pm10":769.3,"pm2_5":110.4,"no2":7.7,"co":391.0,"o3":138.0,"so2":9.5,"mosquito_risk":7,"arthritis_risk":5,"migraine_risk":7,"frizz_risk":1,"updated_at":"2026-05-04T19:38:20.902171+05:30"},{"city":"Varanasi","state":"Uttar Pradesh","latitude":25.3176,"longitude":82.9739,"temp":25.9,"humidity":78,"rain":0.0,"pressure":997.4,"uv_index":8.65,"wind_gusts":44.3,"aqi":203,"pm10":63.3,"pm2_5":53.1,"no2":8.8,"co":460.0,"o3":171.0,"so2":20.1,"mosquito_risk":7,"arthritis_risk":5,"migraine_risk":7,"frizz_risk":1,"updated_at":"2026-05-04T19:38:20.902178+05:30"},{"city":"Prayagraj","state":"Uttar Pradesh","latitude":25.4358,"longitude":81.8463,"temp":29.0,"humidity":61,"rain":0.0,"pressure":995.1,"uv_index":8.5,"wind_gusts":56.9,"aqi":196,"pm10":63.8,"pm2_5":51.8,"no2":9.2,"co":368.0,"o3":167.0,"so2":19.1,"mosquito_risk":7,"arthritis_risk":5,"migraine_risk":7,"frizz_risk":1,"updated_at":"2026-05-04T19:38:20.902187+05:30"},{"city":"Gorakhpur","state":"Uttar Pradesh","latitude":26.7606,"longitude":83.3732,"temp":24.6,"humidity":75,"rain":0.0,"pressure":997.6,"uv_index":8.45,"wind_gusts":43.9,"aqi":155,"pm10":48.4,"pm2_5":37.3,"no2":9.8,"co":359.0,"o3":129.0,"so2":7.3,"mosquito_risk":3,"arthritis_risk":5,"migraine_risk":7,"frizz_risk":1,"updated_at":"2026-05-04T19:38:20.902195+05:30"},{"city":"Bareilly","state":"Uttar Pradesh","latitude":28.367,"longitude":79.4304,"temp":24.6,"humidity":70,"rain":0.0,"pressure":988.0,"uv_index":6.85,"wind_gusts":58.3,"aqi":122,"pm10":35.9,"pm2_5":24.3,"no2":10.2,"co":312.0,"o3":109.0,"so2":3.7,"mosquito_risk":3,"arthritis_risk":5,"migraine_risk":7,"frizz_risk":1,"updated_at":"2026-05-04T19:38:20.902202+05:30"},{"city":"Aligarh","state":"Uttar Pradesh","latitude":27.8974,"longitude":78.088,"temp":27.5,"humidity":57,"rain":0.0,"pressure":985.9,"uv_index":7.7,"wind_gusts":54.0,"aqi":548,"pm10":657.5,"pm2_5":86.6,"no2":6.5,"co":311.0,"o3":151.0,"so2":11.7,"mosquito_risk":4,"arthritis_risk":5,"migraine_risk":7,"frizz_risk":1,"updated_at":"2026-05-04T19:38:20.902209+05:30"},{"city":"Moradabad","state":"Uttar Pradesh","latitude":28.8386,"longitude":78.7733,"temp":25.0,"humidity":70,"rain":0.0,"pressure":985.0,"uv_index":7.25,"wind_gusts":51.1,"aqi":123,"pm10":39.0,"pm2_5":25.7,"no2":12.7,"co":296.0,"o3":112.0,"so2":6.9,"mosquito_risk":7,"arthritis_risk":5,"migraine_risk":7,"frizz_risk":1,"updated_at":"2026-05-04T19:38:20.902216+05:30"},{"city":"Saharanpur","state":"Uttar Pradesh","latitude":29.9637,"longitude":77.546,"temp":24.6,"humidity":60,"rain":0.0,"pressure":976.9,"uv_index":7.1,"wind_gusts":56.9,"aqi":120,"pm10":55.4,"pm2_5":33.3,"no2":19.7,"co":271.0,"o3":91.0,"so2":8.7,"mosquito_risk":0,"arthritis_risk":5,"migraine_risk":7,"frizz_risk":1,"updated_at":"2026-05-04T19:38:20.902223+05:30"},{"city":"Jhansi","state":"Uttar Pradesh","latitude":25.4484,"longitude":78.5685,"temp":28.9,"humidity":51,"rain":0.0,"pressure":977.1,"uv_index":8.3,"wind_gusts":50.8,"aqi":166,"pm10":38.3,"pm2_5":28.9,"no2":2.8,"co":256.0,"o3":153.0,"so2":10.7,"mosquito_risk":4,"arthritis_risk":5,"migraine_risk":7,"frizz_risk":1,"updated_at":"2026-05-04T19:38:24.162700+05:30"},{"city":"Surat","state":"Gujarat","latitude":21.1702,"longitude":72.8311,"temp":29.5,"humidity":75,"rain":0.0,"pressure":1003.0,"uv_index":7.7,"wind_gusts":50.0,"aqi":61,"pm10":39.5,"pm2_5":18.3,"no2":16.6,"co":234.0,"o3":56.0,"so2":29.8,"mosquito_risk":7,"arthritis_risk":5,"migraine_risk":4,"frizz_risk":1,"updated_at":"2026-05-04T19:38:24.162731+05:30"},{"city":"Vadodara","state":"Gujarat","latitude":22.3072,"longitude":73.1812,"temp":32.8,"humidity":55,"rain":0.0,"pressure":999.8,"uv_index":8.05,"wind_gusts":43.2,"aqi":71,"pm10":33.9,"pm2_5":18.2,"no2":10.6,"co":238.0,"o3":89.0,"so2":16.3,"mosquito_risk":0,"arthritis_risk":5,"migraine_risk":7,"frizz_risk":1,"updated_at":"2026-05-04T19:38:24.162742+05:30"},{"city":"Rajkot","state":"Gujarat","latitude":22.3039,"longitude":70.8022,"temp":34.1,"humidity":44,"rain":0.0,"pressure":989.0,"uv_index":7.7,"wind_gusts":40.3,"aqi":62,"pm10":37.5,"pm2_5":15.8,"no2":3.2,"co":156.0,"o3":90.0,"so2":4.1,"mosquito_risk":0,"arthritis_risk":5,"migraine_risk":7,"frizz_risk":1,"updated_at":"2026-05-04T19:38:24.162750+05:30"},{"city":"Thane","state":"Maharashtra","latitude":19.2183,"longitude":72.9781,"temp":30.1,"humidity":66,"rain":0.0,"pressure":1005.4,"uv_index":7.85,"wind_gusts":41.4,"aqi":61,"pm10":37.3,"pm2_5":15.5,"no2":7.7,"co":226.0,"o3":69.0,"so2":18.5,"mosquito_risk":3,"arthritis_risk":5,"migraine_risk":4,"frizz_risk":1,"updated_at":"2026-05-04T19:38:24.162757+05:30"},{"city":"Nagpur","state":"Maharashtra","latitude":21.1458,"longitude":79.0882,"temp":36.9,"humidity":13,"rain":0.0,"pressure":969.7,"uv_index":8.9,"wind_gusts":49.7,"aqi":109,"pm10":49.5,"pm2_5":25.1,"no2":20.7,"co":224.0,"o3":93.0,"so2":16.8,"mosquito_risk":0,"arthritis_risk":5,"migraine_risk":10,"frizz_risk":0,"updated_at":"2026-05-04T19:38:24.162765+05:30"},{"city":"Nashik","state":"Maharashtra","latitude":19.9975,"longitude":73.7898,"temp":28.2,"humidity":58,"rain":0.0,"pressure":943.5,"uv_index":8.15,"wind_gusts":48.2,"aqi":58,"pm10":37.6,"pm2_5":14.6,"no2":4.1,"co":174.0,"o3":85.0,"so2":4.8,"mosquito_risk":4,"arthritis_risk":5,"migraine_risk":7,"frizz_risk":1,"updated_at":"2026-05-04T19:38:24.162776+05:30"},{"city":"Aurangabad","state":"Maharashtra","latitude":19.8762,"longitude":75.3433,"temp":33.9,"humidity":22,"rain":0.0,"pressure":941.2,"uv_index":9.05,"wind_gusts":38.9,"aqi":85,"pm10":44.2,"pm2_5":15.2,"no2":4.1,"co":174.0,"o3":104.0,"so2":3.1,"mosquito_risk":0,"arthritis_risk":5,"migraine_risk":7,"frizz_risk":0,"updated_at":"2026-05-04T19:38:24.162783+05:30"},{"city":"Solapur","state":"Maharashtra","latitude":17.6599,"longitude":75.9064,"temp":35.1,"humidity":14,"rain":0.0,"pressure":953.7,"uv_index":9.05,"wind_gusts":38.2,"aqi":76,"pm10":60.5,"pm2_5":19.3,"no2":12.2,"co":310.0,"o3":94.0,"so2":3.7,"mosquito_risk":0,"arthritis_risk":5,"migraine_risk":10,"frizz_risk":0,"updated_at":"2026-05-04T19:38:24.162790+05:30"},{"city":"Kolhapur","state":"Maharashtra","latitude":16.705,"longitude":74.2433,"temp":27.6,"humidity":59,"rain":0.0,"pressure":946.2,"uv_index":8.9,"wind_gusts":46.1,"aqi":57,"pm10":27.2,"pm2_5":13.1,"no2":6.3,"co":189.0,"o3":71.0,"so2":2.3,"mosquito_risk":4,"arthritis_risk":5,"migraine_risk":7,"frizz_risk":1,"updated_at":"2026-05-04T19:38:24.162797+05:30"},{"city":"Goa","state":"Goa","latitude":15.2993,"longitude":74.124,"temp":29.9,"humidity":72,"rain":0.0,"pressure":996.5,"uv_index":8.9,"wind_gusts":35.3,"aqi":65,"pm10":40.9,"pm2_5":16.5,"no2":2.8,"co":180.0,"o3":63.0,"so2":1.1,"mosquito_risk":7,"arthritis_risk":5,"migraine_risk":7,"frizz_risk":1,"updated_at":"2026-05-04T19:38:24.162804+05:30"},{"city":"Jodhpur","state":"Rajasthan","latitude":26.2389,"longitude":73.0243,"temp":32.8,"humidity":29,"rain":0.0,"pressure":978.1,"uv_index":8.25,"wind_gusts":54.4,"aqi":105,"pm10":181.1,"pm2_5":31.9,"no2":12.9,"co":213.0,"o3":102.0,"so2":4.0,"mosquito_risk":0,"arthritis_risk":5,"migraine_risk":7,"frizz_risk":0,"updated_at":"2026-05-04T19:38:24.162811+05:30"},{"city":"Udaipur","state":"Rajasthan","latitude":24.5854,"longitude":73.7125,"temp":24.1,"humidity":73,"rain":0.0,"pressure":943.1,"uv_index":8.75,"wind_gusts":44.6,"aqi":85,"pm10":59.8,"pm2_5":21.1,"no2":3.2,"co":233.0,"o3":122.0,"so2":5.8,"mosquito_risk":3,"arthritis_risk":5,"migraine_risk":7,"frizz_risk":1,"updated_at":"2026-05-04T19:38:24.162818+05:30"},{"city":"Kota","state":"Rajasthan","latitude":25.2138,"longitude":75.8648,"temp":31.0,"humidity":38,"rain":0.0,"pressure":976.3,"uv_index":8.25,"wind_gusts":36.7,"aqi":132,"pm10":60.3,"pm2_5":24.2,"no2":4.5,"co":210.0,"o3":119.0,"so2":5.2,"mosquito_risk":0,"arthritis_risk":5,"migraine_risk":7,"frizz_risk":0,"updated_at":"2026-05-04T19:38:24.162825+05:30"},{"city":"Bikaner","state":"Rajasthan","latitude":28.0229,"longitude":73.3119,"temp":35.0,"humidity":21,"rain":0.0,"pressure":977.3,"uv_index":8.1,"wind_gusts":55.1,"aqi":133,"pm10":104.3,"pm2_5":42.0,"no2":2.4,"co":196.0,"o3":153.0,"so2":10.4,"mosquito_risk":0,"arthritis_risk":5,"migraine_risk":7,"frizz_risk":0,"updated_at":"2026-05-04T19:38:24.162832+05:30"},{"city":"Ajmer","state":"Rajasthan","latitude":26.4499,"longitude":74.6399,"temp":27.5,"humidity":49,"rain":0.0,"pressure":952.5,"uv_index":8.2,"wind_gusts":45.7,"aqi":105,"pm10":51.0,"pm2_5":20.1,"no2":4.8,"co":218.0,"o3":108.0,"so2":3.5,"mosquito_risk":4,"arthritis_risk":5,"migraine_risk":7,"frizz_risk":0,"updated_at":"2026-05-04T19:38:24.162839+05:30"},{"city":"Gwalior","state":"Madhya Pradesh","latitude":26.2183,"longitude":78.1828,"temp":31.4,"humidity":38,"rain":0.0,"pressure":982.4,"uv_index":8.1,"wind_gusts":52.9,"aqi":151,"pm10":185.8,"pm2_5":48.5,"no2":3.1,"co":249.0,"o3":146.0,"so2":6.8,"mosquito_risk":0,"arthritis_risk":5,"migraine_risk":7,"frizz_risk":0,"updated_at":"2026-05-04T19:38:24.162845+05:30"},{"city":"Indore","state":"Madhya Pradesh","latitude":22.7196,"longitude":75.8577,"temp":29.8,"humidity":39,"rain":0.0,"pressure":945.7,"uv_index":8.6,"wind_gusts":37.1,"aqi":71,"pm10":45.4,"pm2_5":20.4,"no2":14.1,"co":233.0,"o3":92.0,"so2":6.2,"mosquito_risk":4,"arthritis_risk":5,"migraine_risk":7,"frizz_risk":0,"updated_at":"2026-05-04T19:38:24.162852+05:30"},{"city":"Bhopal","state":"Madhya Pradesh","latitude":23.2599,"longitude":77.4126,"temp":27.4,"humidity":50,"rain":0.0,"pressure":952.1,"uv_index":8.65,"wind_gusts":62.6,"aqi":68,"pm10":25.0,"pm2_5":12.6,"no2":5.8,"co":384.0,"o3":89.0,"so2":3.4,"mosquito_risk":4,"arthritis_risk":5,"migraine_risk":7,"frizz_risk":0,"updated_at":"2026-05-04T19:38:24.162860+05:30"},{"city":"Jabalpur","state":"Madhya Pradesh","latitude":23.1815,"longitude":79.9864,"temp":32.5,"humidity":29,"rain":0.0,"pressure":958.6,"uv_index":8.85,"wind_gusts":32.4,"aqi":97,"pm10":23.5,"pm2_5":15.1,"no2":16.2,"co":240.0,"o3":88.0,"so2":5.4,"mosquito_risk":0,"arthritis_risk":5,"migraine_risk":7,"frizz_risk":0,"updated_at":"2026-05-04T19:38:24.162866+05:30"},{"city":"Ujjain","state":"Madhya Pradesh","latitude":23.1765,"longitude":75.7885,"temp":29.8,"humidity":42,"rain":0.0,"pressure":951.2,"uv_index":8.55,"wind_gusts":54.0,"aqi":64,"pm10":55.5,"pm2_5":23.7,"no2":8.5,"co":240.0,"o3":93.0,"so2":4.9,"mosquito_risk":4,"arthritis_risk":5,"migraine_risk":7,"frizz_risk":0,"updated_at":"2026-05-04T19:38:24.162873+05:30"},{"city":"Visakhapatnam","state":"Andhra Pradesh","latitude":17.6868,"longitude":83.2185,"temp":27.6,"humidity":87,"rain":0.0,"pressure":1003.2,"uv_index":8.05,"wind_gusts":32.4,"aqi":95,"pm10":37.7,"pm2_5":28.6,"no2":21.4,"co":445.0,"o3":89.0,"so2":7.3,"mosquito_risk":7,"arthritis_risk":5,"migraine_risk":4,"frizz_risk":1,"updated_at":"2026-05-04T19:38:24.162880+05:30"},{"city":"Vijayawada","state":"Andhra Pradesh","latitude":16.5062,"longitude":80.648,"temp":31.5,"humidity":68,"rain":0.0,"pressure":1000.6,"uv_index":9.1,"wind_gusts":34.9,"aqi":127,"pm10":39.7,"pm2_5":29.3,"no2":6.2,"co":253.0,"o3":117.0,"so2":8.3,"mosquito_risk":3,"arthritis_risk":5,"migraine_risk":4,"frizz_risk":1,"updated_at":"2026-05-04T19:38:24.162887+05:30"},{"city":"Guntur","state":"Andhra Pradesh","latitude":16.3067,"longitude":80.4365,"temp":31.6,"humidity":64,"rain":0.0,"pressure":1001.8,"uv_index":9.15,"wind_gusts":41.4,"aqi":131,"pm10":42.3,"pm2_5":30.5,"no2":5.9,"co":264.0,"o3":122.0,"so2":7.0,"mosquito_risk":3,"arthritis_risk":5,"migraine_risk":4,"frizz_risk":1,"updated_at":"2026-05-04T19:38:24.162894+05:30"},{"city":"Nellore","state":"Andhra Pradesh","latitude":14.4426,"longitude":79.9865,"temp":30.8,"humidity":70,"rain":0.0,"pressure":1004.2,"uv_index":9.15,"wind_gusts":36.0,"aqi":143,"pm10":27.4,"pm2_5":20.9,"no2":2.6,"co":231.0,"o3":116.0,"so2":4.4,"mosquito_risk":3,"arthritis_risk":5,"migraine_risk":4,"frizz_risk":1,"updated_at":"2026-05-04T19:38:24.162902+05:30"},{"city":"Kurnool","state":"Andhra Pradesh","latitude":15.8281,"longitude":78.0373,"temp":35.3,"humidity":19,"rain":0.0,"pressure":973.6,"uv_index":9.15,"wind_gusts":31.3,"aqi":121,"pm10":63.3,"pm2_5":28.9,"no2":15.2,"co":362.0,"o3":101.0,"so2":7.2,"mosquito_risk":0,"arthritis_risk":5,"migraine_risk":10,"frizz_risk":0,"updated_at":"2026-05-04T19:38:24.162909+05:30"},{"city":"Kakinada","state":"Andhra Pradesh","latitude":16.9891,"longitude":82.2475,"temp":28.1,"humidity":89,"rain":0.0,"pressure":1006.4,"uv_index":9.1,"wind_gusts":32.8,"aqi":105,"pm10":35.7,"pm2_5":25.6,"no2":1.9,"co":324.0,"o3":115.0,"so2":2.3,"mosquito_risk":7,"arthritis_risk":5,"migraine_risk":4,"frizz_risk":1,"updated_at":"2026-05-04T19:38:24.162916+05:30"},{"city":"Tirupati","state":"Andhra Pradesh","latitude":13.6288,"longitude":79.4192,"temp":31.4,"humidity":52,"rain":0.0,"pressure":989.4,"uv_index":9.3,"wind_gusts":49.0,"aqi":155,"pm10":50.4,"pm2_5":38.9,"no2":17.7,"co":279.0,"o3":118.0,"so2":8.5,"mosquito_risk":0,"arthritis_risk":5,"migraine_risk":7,"frizz_risk":1,"updated_at":"2026-05-04T19:38:24.162923+05:30"},{"city":"Warangal","state":"Telangana","latitude":17.9689,"longitude":79.5941,"temp":34.0,"humidity":29,"rain":0.0,"pressure":975.9,"uv_index":9.15,"wind_gusts":34.6,"aqi":133,"pm10":52.7,"pm2_5":33.3,"no2":9.8,"co":258.0,"o3":121.0,"so2":8.2,"mosquito_risk":0,"arthritis_risk":5,"migraine_risk":7,"frizz_risk":0,"updated_at":"2026-05-04T19:38:24.162930+05:30"},{"city":"Nizamabad","state":"Telangana","latitude":18.6725,"longitude":78.0941,"temp":33.8,"humidity":15,"rain":0.0,"pressure":960.7,"uv_index":9.1,"wind_gusts":32.4,"aqi":89,"pm10":72.2,"pm2_5":37.5,"no2":23.8,"co":367.0,"o3":88.0,"so2":7.8,"mosquito_risk":0,"arthritis_risk":5,"migraine_risk":7,"frizz_risk":0,"updated_at":"2026-05-04T19:38:24.162936+05:30"},{"city":"Mysore","state":"Karnataka","latitude":12.2958,"longitude":76.6396,"temp":27.0,"humidity":60,"rain":0.0,"pressure":927.6,"uv_index":9.4,"wind_gusts":37.1,"aqi":72,"pm10":40.4,"pm2_5":20.1,"no2":12.9,"co":243.0,"o3":88.0,"so2":2.4,"mosquito_risk":4,"arthritis_risk":5,"migraine_risk":7,"frizz_risk":1,"updated_at":"2026-05-04T19:38:24.162943+05:30"},{"city":"Mangalore","state":"Karnataka","latitude":12.9141,"longitude":74.856,"temp":30.0,"humidity":69,"rain":0.0,"pressure":1005.5,"uv_index":9.05,"wind_gusts":45.4,"aqi":69,"pm10":44.5,"pm2_5":15.9,"no2":2.4,"co":157.0,"o3":65.0,"so2":1.2,"mosquito_risk":7,"arthritis_risk":5,"migraine_risk":4,"frizz_risk":1,"updated_at":"2026-05-04T19:38:24.162950+05:30"},{"city":"Hubli-Dharwad","state":"Karnataka","latitude":15.3647,"longitude":75.124,"temp":27.5,"humidity":63,"rain":0.0,"pressure":939.1,"uv_index":9.15,"wind_gusts":53.6,"aqi":57,"pm10":31.3,"pm2_5":14.9,"no2":6.1,"co":186.0,"o3":85.0,"so2":2.0,"mosquito_risk":7,"arthritis_risk":5,"migraine_risk":7,"frizz_risk":1,"updated_at":"2026-05-04T19:38:24.162957+05:30"},{"city":"Belgaum","state":"Karnataka","latitude":15.8497,"longitude":74.4977,"temp":26.1,"humidity":69,"rain":0.0,"pressure":924.3,"uv_index":9.15,"wind_gusts":49.0,"aqi":56,"pm10":26.3,"pm2_5":13.3,"no2":6.1,"co":175.0,"o3":63.0,"so2":2.0,"mosquito_risk":7,"arthritis_risk":5,"migraine_risk":7,"frizz_risk":1,"updated_at":"2026-05-04T19:38:27.417540+05:30"},{"city":"Coimbatore","state":"Tamil Nadu","latitude":11.0168,"longitude":76.9558,"temp":26.5,"humidity":77,"rain":0.0,"pressure":961.1,"uv_index":9.35,"wind_gusts":47.2,"aqi":69,"pm10":27.8,"pm2_5":14.6,"no2":7.6,"co":231.0,"o3":85.0,"so2":3.1,"mosquito_risk":7,"arthritis_risk":5,"migraine_risk":7,"frizz_risk":1,"updated_at":"2026-05-04T19:38:27.417570+05:30"},{"city":"Madurai","state":"Tamil Nadu","latitude":9.9252,"longitude":78.1198,"temp":28.9,"humidity":68,"rain":0.0,"pressure":992.5,"uv_index":7.9,"wind_gusts":44.3,"aqi":162,"pm10":40.2,"pm2_5":28.9,"no2":10.7,"co":326.0,"o3":125.0,"so2":4.5,"mosquito_risk":7,"arthritis_risk":5,"migraine_risk":7,"frizz_risk":1,"updated_at":"2026-05-04T19:38:27.417581+05:30"},{"city":"Trichy","state":"Tamil Nadu","latitude":10.7905,"longitude":78.7047,"temp":30.1,"humidity":59,"rain":0.0,"pressure":998.7,"uv_index":9.25,"wind_gusts":43.6,"aqi":139,"pm10":39.8,"pm2_5":28.2,"no2":7.4,"co":260.0,"o3":113.0,"so2":5.1,"mosquito_risk":0,"arthritis_risk":5,"migraine_risk":7,"frizz_risk":1,"updated_at":"2026-05-04T19:38:27.417589+05:30"},{"city":"Salem","state":"Tamil Nadu","latitude":11.6643,"longitude":78.146,"temp":32.2,"humidity":44,"rain":0.0,"pressure":975.7,"uv_index":9.25,"wind_gusts":55.4,"aqi":150,"pm10":43.2,"pm2_5":27.6,"no2":8.7,"co":377.0,"o3":134.0,"so2":8.6,"mosquito_risk":0,"arthritis_risk":5,"migraine_risk":7,"frizz_risk":1,"updated_at":"2026-05-04T19:38:27.417597+05:30"},{"city":"Tirunelveli","state":"Tamil Nadu","latitude":8.7139,"longitude":77.7567,"temp":29.5,"humidity":61,"rain":0.0,"pressure":1002.1,"uv_index":8.15,"wind_gusts":36.4,"aqi":75,"pm10":47.5,"pm2_5":22.5,"no2":5.5,"co":193.0,"o3":80.0,"so2":1.7,"mosquito_risk":7,"arthritis_risk":5,"migraine_risk":4,"frizz_risk":1,"updated_at":"2026-05-04T19:38:27.417605+05:30"},{"city":"Vellore","state":"Tamil Nadu","latitude":12.9165,"longitude":79.1325,"temp":29.8,"humidity":57,"rain":0.0,"pressure":983.1,"uv_index":9.0,"wind_gusts":50.8,"aqi":158,"pm10":60.1,"pm2_5":42.1,"no2":14.7,"co":271.0,"o3":128.0,"so2":9.0,"mosquito_risk":4,"arthritis_risk":5,"migraine_risk":7,"frizz_risk":1,"updated_at":"2026-05-04T19:38:27.417612+05:30"},{"city":"Erode","state":"Tamil Nadu","latitude":11.341,"longitude":77.7172,"temp":30.4,"humidity":51,"rain":0.0,"pressure":988.2,"uv_index":9.25,"wind_gusts":51.1,"aqi":102,"pm10":53.6,"pm2_5":29.5,"no2":11.8,"co":467.0,"o3":102.0,"so2":2.0,"mosquito_risk":0,"arthritis_risk":5,"migraine_risk":7,"frizz_risk":1,"updated_at":"2026-05-04T19:38:27.417619+05:30"},{"city":"Kochi","state":"Kerala","latitude":9.9312,"longitude":76.2673,"temp":26.0,"humidity":89,"rain":0.0,"pressure":1008.9,"uv_index":9.05,"wind_gusts":29.9,"aqi":105,"pm10":46.2,"pm2_5":23.9,"no2":14.1,"co":230.0,"o3":61.0,"so2":3.1,"mosquito_risk":7,"arthritis_risk":0,"migraine_risk":4,"frizz_risk":1,"updated_at":"2026-05-04T19:38:27.417626+05:30"},{"city":"Thiruvananthapuram","state":"Kerala","latitude":8.5241,"longitude":76.9366,"temp":25.5,"humidity":89,"rain":0.0,"pressure":1008.4,"uv_index":7.95,"wind_gusts":43.6,"aqi":72,"pm10":65.9,"pm2_5":19.9,"no2":1.4,"co":242.0,"o3":67.0,"so2":0.5,"mosquito_risk":7,"arthritis_risk":0,"migraine_risk":4,"frizz_risk":1,"updated_at":"2026-05-04T19:38:27.417634+05:30"},{"city":"Kozhikode","state":"Kerala","latitude":11.2588,"longitude":75.7804,"temp":26.5,"humidity":89,"rain":0.0,"pressure":1007.2,"uv_index":9.0,"wind_gusts":38.5,"aqi":68,"pm10":48.4,"pm2_5":17.1,"no2":1.8,"co":430.0,"o3":70.0,"so2":0.8,"mosquito_risk":7,"arthritis_risk":5,"migraine_risk":4,"frizz_risk":1,"updated_at":"2026-05-04T19:38:27.417641+05:30"},{"city":"Thrissur","state":"Kerala","latitude":10.5276,"longitude":76.2144,"temp":26.5,"humidity":97,"rain":0.0,"pressure":1006.6,"uv_index":8.75,"wind_gusts":37.1,"aqi":93,"pm10":39.0,"pm2_5":21.2,"no2":11.9,"co":222.0,"o3":59.0,"so2":2.2,"mosquito_risk":7,"arthritis_risk":5,"migraine_risk":4,"frizz_risk":1,"updated_at":"2026-05-04T19:38:27.417649+05:30"},{"city":"Kannur","state":"Kerala","latitude":11.8745,"longitude":75.3704,"temp":30.1,"humidity":71,"rain":0.0,"pressure":1006.2,"uv_index":9.0,"wind_gusts":46.8,"aqi":68,"pm10":52.4,"pm2_5":18.6,"no2":3.5,"co":167.0,"o3":62.0,"so2":1.0,"mosquito_risk":3,"arthritis_risk":5,"migraine_risk":4,"frizz_risk":1,"updated_at":"2026-05-04T19:38:27.417656+05:30"},{"city":"Patna","state":"Bihar","latitude":25.5941,"longitude":85.1376,"temp":23.9,"humidity":92,"rain":0.6,"pressure":1001.6,"uv_index":8.7,"wind_gusts":45.4,"aqi":184,"pm10":62.4,"pm2_5":51.2,"no2":11.0,"co":365.0,"o3":152.0,"so2":14.7,"mosquito_risk":6,"arthritis_risk":5,"migraine_risk":4,"frizz_risk":1,"updated_at":"2026-05-04T19:38:27.417663+05:30"},{"city":"Gaya","state":"Bihar","latitude":24.7914,"longitude":85.0002,"temp":25.2,"humidity":79,"rain":0.0,"pressure":995.1,"uv_index":8.8,"wind_gusts":46.4,"aqi":189,"pm10":61.0,"pm2_5":54.1,"no2":7.2,"co":356.0,"o3":172.0,"so2":15.1,"mosquito_risk":7,"arthritis_risk":5,"migraine_risk":7,"frizz_risk":1,"updated_at":"2026-05-04T19:38:27.417690+05:30"},{"city":"Muzaffarpur","state":"Bihar","latitude":26.1209,"longitude":85.3647,"temp":23.5,"humidity":93,"rain":0.4,"pressure":1002.3,"uv_index":8.7,"wind_gusts":47.5,"aqi":161,"pm10":58.3,"pm2_5":44.9,"no2":13.4,"co":388.0,"o3":125.0,"so2":11.7,"mosquito_risk":6,"arthritis_risk":5,"migraine_risk":4,"frizz_risk":1,"updated_at":"2026-05-04T19:38:27.417699+05:30"},{"city":"Bhagalpur","state":"Bihar","latitude":25.2425,"longitude":87.0117,"temp":26.4,"humidity":76,"rain":0.0,"pressure":1003.4,"uv_index":8.7,"wind_gusts":36.7,"aqi":156,"pm10":61.7,"pm2_5":50.9,"no2":15.5,"co":317.0,"o3":119.0,"so2":10.7,"mosquito_risk":7,"arthritis_risk":5,"migraine_risk":4,"frizz_risk":1,"updated_at":"2026-05-04T19:38:27.417706+05:30"},{"city":"Ranchi","state":"Jharkhand","latitude":23.3441,"longitude":85.3096,"temp":22.1,"humidity":85,"rain":0.0,"pressure":938.5,"uv_index":9.25,"wind_gusts":34.6,"aqi":183,"pm10":58.1,"pm2_5":44.4,"no2":7.1,"co":301.0,"o3":168.0,"so2":18.4,"mosquito_risk":3,"arthritis_risk":5,"migraine_risk":7,"frizz_risk":1,"updated_at":"2026-05-04T19:38:27.417713+05:30"},{"city":"Jamshedpur","state":"Jharkhand","latitude":22.8046,"longitude":86.2029,"temp":24.9,"humidity":85,"rain":0.3,"pressure":992.3,"uv_index":9.05,"wind_gusts":44.6,"aqi":174,"pm10":38.9,"pm2_5":31.2,"no2":14.7,"co":332.0,"o3":102.0,"so2":21.5,"mosquito_risk":6,"arthritis_risk":5,"migraine_risk":7,"frizz_risk":1,"updated_at":"2026-05-04T19:38:27.417720+05:30"},{"city":"Dhanbad","state":"Jharkhand","latitude":23.7957,"longitude":86.4304,"temp":24.5,"humidity":92,"rain":0.1,"pressure":981.4,"uv_index":9.0,"wind_gusts":38.5,"aqi":192,"pm10":70.1,"pm2_5":58.6,"no2":36.3,"co":334.0,"o3":107.0,"so2":59.9,"mosquito_risk":6,"arthritis_risk":5,"migraine_risk":7,"frizz_risk":1,"updated_at":"2026-05-04T19:38:27.417728+05:30"},{"city":"Bokaro","state":"Jharkhand","latitude":23.6693,"longitude":86.1511,"temp":24.0,"humidity":90,"rain":0.3,"pressure":985.5,"uv_index":9.0,"wind_gusts":37.4,"aqi":212,"pm10":73.1,"pm2_5":64.3,"no2":31.7,"co":945.0,"o3":141.0,"so2":63.3,"mosquito_risk":6,"arthritis_risk":5,"migraine_risk":7,"frizz_risk":1,"updated_at":"2026-05-04T19:38:27.417735+05:30"},{"city":"Bhubaneswar","state":"Odisha","latitude":20.2961,"longitude":85.8245,"temp":26.8,"humidity":88,"rain":0.0,"pressure":1002.8,"uv_index":9.1,"wind_gusts":39.6,"aqi":70,"pm10":21.7,"pm2_5":17.7,"no2":6.2,"co":257.0,"o3":82.0,"so2":3.2,"mosquito_risk":7,"arthritis_risk":5,"migraine_risk":4,"frizz_risk":1,"updated_at":"2026-05-04T19:38:27.417742+05:30"},{"city":"Cuttack","state":"Odisha","latitude":20.4625,"longitude":85.8828,"temp":27.6,"humidity":83,"rain":0.0,"pressure":1004.7,"uv_index":9.15,"wind_gusts":38.5,"aqi":70,"pm10":21.7,"pm2_5":17.7,"no2":6.2,"co":283.0,"o3":82.0,"so2":3.2,"mosquito_risk":7,"arthritis_risk":5,"migraine_risk":4,"frizz_risk":1,"updated_at":"2026-05-04T19:38:27.417749+05:30"},{"city":"Rourkela","state":"Odisha","latitude":22.2604,"longitude":84.8536,"temp":24.8,"humidity":83,"rain":0.1,"pressure":985.8,"uv_index":8.95,"wind_gusts":34.6,"aqi":167,"pm10":57.7,"pm2_5":41.8,"no2":8.7,"co":287.0,"o3":139.0,"so2":34.2,"mosquito_risk":6,"arthritis_risk":5,"migraine_risk":7,"frizz_risk":1,"updated_at":"2026-05-04T19:38:27.417755+05:30"},{"city":"Raipur","state":"Chhattisgarh","latitude":21.2514,"longitude":81.6296,"temp":33.6,"humidity":34,"rain":0.0,"pressure":972.2,"uv_index":9.0,"wind_gusts":53.6,"aqi":159,"pm10":69.4,"pm2_5":42.0,"no2":18.5,"co":256.0,"o3":114.0,"so2":8.5,"mosquito_risk":0,"arthritis_risk":5,"migraine_risk":7,"frizz_risk":0,"updated_at":"2026-05-04T19:38:27.417762+05:30"},{"city":"Bhilai","state":"Chhattisgarh","latitude":21.1938,"longitude":81.3509,"temp":32.5,"humidity":40,"rain":0.0,"pressure":972.4,"uv_index":9.0,"wind_gusts":49.3,"aqi":149,"pm10":72.2,"pm2_5":43.2,"no2":31.5,"co":295.0,"o3":94.0,"so2":10.1,"mosquito_risk":0,"arthritis_risk":5,"migraine_risk":7,"frizz_risk":1,"updated_at":"2026-05-04T19:38:27.417769+05:30"},{"city":"Guwahati","state":"Assam","latitude":26.1158,"longitude":91.7086,"temp":23.2,"humidity":89,"rain":0.0,"pressure":1004.3,"uv_index":8.65,"wind_gusts":34.9,"aqi":87,"pm10":26.3,"pm2_5":21.5,"no2":6.7,"co":351.0,"o3":86.0,"so2":1.7,"mosquito_risk":3,"arthritis_risk":5,"migraine_risk":4,"frizz_risk":1,"updated_at":"2026-05-04T19:38:27.417776+05:30"},{"city":"Agartala","state":"Tripura","latitude":23.8315,"longitude":91.2868,"temp":25.6,"humidity":84,"rain":0.0,"pressure":1008.1,"uv_index":8.85,"wind_gusts":33.1,"aqi":80,"pm10":49.7,"pm2_5":39.6,"no2":22.2,"co":309.0,"o3":82.0,"so2":4.4,"mosquito_risk":7,"arthritis_risk":0,"migraine_risk":4,"frizz_risk":1,"updated_at":"2026-05-04T19:38:27.417783+05:30"},{"city":"Shillong","state":"Meghalaya","latitude":25.5788,"longitude":91.8933,"temp":15.5,"humidity":89,"rain":0.0,"pressure":858.2,"uv_index":9.05,"wind_gusts":31.7,"aqi":64,"pm10":13.2,"pm2_5":10.9,"no2":8.7,"co":423.0,"o3":91.0,"so2":1.4,"mosquito_risk":3,"arthritis_risk":10,"migraine_risk":7,"frizz_risk":0,"updated_at":"2026-05-04T19:38:27.417791+05:30"},{"city":"Imphal","state":"Manipur","latitude":24.817,"longitude":93.9368,"temp":19.5,"humidity":85,"rain":0.0,"pressure":925.2,"uv_index":6.85,"wind_gusts":27.0,"aqi":92,"pm10":40.9,"pm2_5":33.4,"no2":28.1,"co":714.0,"o3":63.0,"so2":5.9,"mosquito_risk":3,"arthritis_risk":10,"migraine_risk":7,"frizz_risk":1,"updated_at":"2026-05-04T19:38:27.417799+05:30"},{"city":"Aizawl","state":"Mizoram","latitude":23.7271,"longitude":92.7176,"temp":19.3,"humidity":82,"rain":0.0,"pressure":894.1,"uv_index":8.45,"wind_gusts":27.0,"aqi":46,"pm10":24.7,"pm2_5":15.9,"no2":7.4,"co":247.0,"o3":58.0,"so2":1.0,"mosquito_risk":3,"arthritis_risk":10,"migraine_risk":7,"frizz_risk":1,"updated_at":"2026-05-04T19:38:27.417806+05:30"},{"city":"Kohima","state":"Nagaland","latitude":25.6701,"longitude":94.1077,"temp":16.4,"humidity":86,"rain":0.0,"pressure":856.9,"uv_index":8.9,"wind_gusts":26.6,"aqi":72,"pm10":28.5,"pm2_5":21.0,"no2":16.5,"co":395.0,"o3":56.0,"so2":2.2,"mosquito_risk":3,"arthritis_risk":10,"migraine_risk":7,"frizz_risk":0,"updated_at":"2026-05-04T19:38:27.417813+05:30"},{"city":"Gangtok","state":"Sikkim","latitude":27.3314,"longitude":88.6138,"temp":12.7,"humidity":98,"rain":0.0,"pressure":838.1,"uv_index":7.8,"wind_gusts":44.6,"aqi":77,"pm10":25.8,"pm2_5":20.1,"no2":16.0,"co":333.0,"o3":94.0,"so2":1.2,"mosquito_risk":3,"arthritis_risk":10,"migraine_risk":7,"frizz_risk":0,"updated_at":"2026-05-04T19:38:27.417820+05:30"},{"city":"Siliguri","state":"West Bengal","latitude":26.7271,"longitude":88.3953,"temp":23.6,"humidity":80,"rain":0.0,"pressure":995.6,"uv_index":8.55,"wind_gusts":31.7,"aqi":87,"pm10":41.6,"pm2_5":32.2,"no2":11.7,"co":860.0,"o3":112.0,"so2":3.1,"mosquito_risk":3,"arthritis_risk":5,"migraine_risk":7,"frizz_risk":1,"updated_at":"2026-05-04T19:38:30.679634+05:30"},{"city":"Durgapur","state":"West Bengal","latitude":23.5204,"longitude":87.3119,"temp":25.0,"humidity":84,"rain":0.0,"pressure":996.5,"uv_index":8.95,"wind_gusts":40.7,"aqi":127,"pm10":57.6,"pm2_5":49.8,"no2":31.1,"co":419.0,"o3":94.0,"so2":37.9,"mosquito_risk":7,"arthritis_risk":5,"migraine_risk":7,"frizz_risk":1,"updated_at":"2026-05-04T19:38:30.679666+05:30"},{"city":"Asansol","state":"West Bengal","latitude":23.6739,"longitude":86.9524,"temp":24.4,"humidity":87,"rain":0.0,"pressure":995.5,"uv_index":8.95,"wind_gusts":33.5,"aqi":153,"pm10":60.5,"pm2_5":50.2,"no2":29.0,"co":366.0,"o3":101.0,"so2":45.0,"mosquito_risk":3,"arthritis_risk":5,"migraine_risk":7,"frizz_risk":1,"updated_at":"2026-05-04T19:38:30.679697+05:30"},{"city":"Pondicherry","state":"Puducherry","latitude":11.9139,"longitude":79.8145,"temp":29.5,"humidity":89,"rain":0.0,"pressure":1006.6,"uv_index":8.4,"wind_gusts":43.6,"aqi":101,"pm10":32.0,"pm2_5":22.9,"no2":2.9,"co":177.0,"o3":125.0,"so2":1.7,"mosquito_risk":7,"arthritis_risk":5,"migraine_risk":4,"frizz_risk":1,"updated_at":"2026-05-04T19:38:30.679707+05:30"},{"city":"Port Blair","state":"Andaman and Nicobar Islands","latitude":11.6234,"longitude":92.7265,"temp":29.9,"humidity":66,"rain":0.0,"pressure":1007.7,"uv_index":9.1,"wind_gusts":34.2,"aqi":24,"pm10":8.0,"pm2_5":5.9,"no2":0.5,"co":231.0,"o3":51.0,"so2":0.5,"mosquito_risk":7,"arthritis_risk":5,"migraine_risk":4,"frizz_risk":1,"updated_at":"2026-05-04T19:38:30.679715+05:30"},{"city":"Haridwar","state":"Uttarakhand","latitude":29.9457,"longitude":78.1642,"temp":21.1,"humidity":74,"rain":0.0,"pressure":976.6,"uv_index":6.25,"wind_gusts":43.9,"aqi":117,"pm10":61.9,"pm2_5":30.0,"no2":16.8,"co":244.0,"o3":101.0,"so2":6.0,"mosquito_risk":3,"arthritis_risk":5,"migraine_risk":7,"frizz_risk":1,"updated_at":"2026-05-04T19:38:30.679722+05:30"},{"city":"Rishikesh","state":"Uttarakhand","latitude":30.0869,"longitude":78.2676,"temp":20.6,"humidity":68,"rain":0.0,"pressure":969.3,"uv_index":6.2,"wind_gusts":41.8,"aqi":112,"pm10":57.3,"pm2_5":20.9,"no2":9.1,"co":262.0,"o3":117.0,"so2":2.0,"mosquito_risk":3,"arthritis_risk":5,"migraine_risk":7,"frizz_risk":0,"updated_at":"2026-05-04T19:38:30.679729+05:30"},{"city":"Nainital","state":"Uttarakhand","latitude":29.3919,"longitude":79.4542,"temp":10.9,"humidity":86,"rain":0.0,"pressure":804.0,"uv_index":7.8,"wind_gusts":43.9,"aqi":105,"pm10":36.7,"pm2_5":18.4,"no2":9.1,"co":250.0,"o3":99.0,"so2":2.4,"mosquito_risk":3,"arthritis_risk":10,"migraine_risk":7,"frizz_risk":0,"updated_at":"2026-05-04T19:38:30.679737+05:30"},{"city":"Mussoorie","state":"Uttarakhand","latitude":30.4599,"longitude":78.0664,"temp":9.5,"humidity":97,"rain":0.0,"pressure":802.1,"uv_index":6.75,"wind_gusts":42.8,"aqi":112,"pm10":79.2,"pm2_5":29.1,"no2":15.1,"co":212.0,"o3":120.0,"so2":8.1,"mosquito_risk":3,"arthritis_risk":10,"migraine_risk":7,"frizz_risk":0,"updated_at":"2026-05-04T19:38:30.679744+05:30"},{"city":"Dharamshala","state":"Himachal Pradesh","latitude":32.219,"longitude":76.3234,"temp":16.1,"humidity":61,"rain":0.0,"pressure":868.5,"uv_index":8.1,"wind_gusts":39.2,"aqi":103,"pm10":56.0,"pm2_5":16.5,"no2":7.8,"co":223.0,"o3":119.0,"so2":1.2,"mosquito_risk":3,"arthritis_risk":5,"migraine_risk":7,"frizz_risk":0,"updated_at":"2026-05-04T19:38:30.679751+05:30"},{"city":"Dalhousie","state":"Himachal Pradesh","latitude":32.5387,"longitude":75.971,"temp":10.7,"humidity":88,"rain":0.0,"pressure":802.7,"uv_index":8.25,"wind_gusts":38.2,"aqi":121,"pm10":115.5,"pm2_5":33.1,"no2":21.2,"co":491.0,"o3":117.0,"so2":3.8,"mosquito_risk":3,"arthritis_risk":10,"migraine_risk":7,"frizz_risk":0,"updated_at":"2026-05-04T19:38:30.679759+05:30"},{"city":"Patiala","state":"Punjab","latitude":30.3398,"longitude":76.3869,"temp":25.5,"humidity":52,"rain":0.0,"pressure":979.1,"uv_index":7.4,"wind_gusts":52.6,"aqi":322,"pm10":43.7,"pm2_5":26.9,"no2":6.2,"co":295.0,"o3":131.0,"so2":4.7,"mosquito_risk":4,"arthritis_risk":5,"migraine_risk":7,"frizz_risk":0,"updated_at":"2026-05-04T19:38:30.679766+05:30"},{"city":"Bhatinda","state":"Punjab","latitude":30.211,"longitude":74.9455,"temp":26.2,"humidity":50,"rain":0.0,"pressure":983.2,"uv_index":8.0,"wind_gusts":47.5,"aqi":610,"pm10":453.6,"pm2_5":82.2,"no2":6.7,"co":315.0,"o3":131.0,"so2":10.2,"mosquito_risk":4,"arthritis_risk":5,"migraine_risk":7,"frizz_risk":0,"updated_at":"2026-05-04T19:38:30.679773+05:30"},{"city":"Rohtak","state":"Haryana","latitude":28.8955,"longitude":76.6066,"temp":27.8,"humidity":44,"rain":0.0,"pressure":982.1,"uv_index":7.5,"wind_gusts":51.1,"aqi":691,"pm10":782.3,"pm2_5":105.7,"no2":18.7,"co":385.0,"o3":132.0,"so2":20.6,"mosquito_risk":4,"arthritis_risk":5,"migraine_risk":7,"frizz_risk":0,"updated_at":"2026-05-04T19:38:30.679780+05:30"},{"city":"Panipat","state":"Haryana","latitude":29.3909,"longitude":76.9635,"temp":25.6,"humidity":50,"rain":0.0,"pressure":981.1,"uv_index":7.35,"wind_gusts":46.1,"aqi":1243,"pm10":545.8,"pm2_5":78.0,"no2":8.3,"co":297.0,"o3":141.0,"so2":10.9,"mosquito_risk":4,"arthritis_risk":5,"migraine_risk":7,"frizz_risk":0,"updated_at":"2026-05-04T19:38:30.679787+05:30"},{"city":"Mathura","state":"Uttar Pradesh","latitude":27.4924,"longitude":77.6737,"temp":27.1,"humidity":53,"rain":0.0,"pressure":986.6,"uv_index":7.8,"wind_gusts":52.2,"aqi":980,"pm10":570.0,"pm2_5":83.4,"no2":8.0,"co":315.0,"o3":145.0,"so2":8.9,"mosquito_risk":4,"arthritis_risk":5,"migraine_risk":7,"frizz_risk":1,"updated_at":"2026-05-04T19:38:30.679794+05:30"},{"city":"Vrindavan","state":"Uttar Pradesh","latitude":27.5823,"longitude":77.7027,"temp":27.5,"humidity":50,"rain":0.0,"pressure":987.2,"uv_index":7.8,"wind_gusts":51.1,"aqi":980,"pm10":570.0,"pm2_5":83.4,"no2":8.0,"co":289.0,"o3":145.0,"so2":8.9,"mosquito_risk":4,"arthritis_risk":5,"migraine_risk":7,"frizz_risk":0,"updated_at":"2026-05-04T19:38:30.679801+05:30"},{"city":"Ayodhya","state":"Uttar Pradesh","latitude":26.7922,"longitude":82.1998,"temp":25.5,"humidity":70,"rain":0.0,"pressure":995.6,"uv_index":7.55,"wind_gusts":48.2,"aqi":152,"pm10":48.8,"pm2_5":37.6,"no2":10.1,"co":341.0,"o3":130.0,"so2":7.3,"mosquito_risk":7,"arthritis_risk":5,"migraine_risk":7,"frizz_risk":1,"updated_at":"2026-05-04T19:38:30.679808+05:30"},{"city":"Ratlam","state":"Madhya Pradesh","latitude":23.3315,"longitude":75.0367,"temp":32.8,"humidity":28,"rain":0.0,"pressure":951.6,"uv_index":8.45,"wind_gusts":34.6,"aqi":62,"pm10":49.5,"pm2_5":19.1,"no2":2.5,"co":189.0,"o3":106.0,"so2":3.8,"mosquito_risk":0,"arthritis_risk":5,"migraine_risk":7,"frizz_risk":0,"updated_at":"2026-05-04T19:38:30.679815+05:30"},{"city":"Sagar","state":"Madhya Pradesh","latitude":23.8388,"longitude":78.7378,"temp":30.9,"humidity":36,"rain":0.0,"pressure":948.0,"uv_index":8.65,"wind_gusts":36.4,"aqi":124,"pm10":22.3,"pm2_5":15.3,"no2":5.9,"co":246.0,"o3":116.0,"so2":5.0,"mosquito_risk":0,"arthritis_risk":5,"migraine_risk":7,"frizz_risk":0,"updated_at":"2026-05-04T19:38:30.679822+05:30"},{"city":"Satna","state":"Madhya Pradesh","latitude":24.6005,"longitude":80.8322,"temp":29.4,"humidity":53,"rain":0.0,"pressure":969.7,"uv_index":8.2,"wind_gusts":40.7,"aqi":164,"pm10":52.7,"pm2_5":30.4,"no2":6.0,"co":303.0,"o3":153.0,"so2":11.5,"mosquito_risk":4,"arthritis_risk":5,"migraine_risk":7,"frizz_risk":1,"updated_at":"2026-05-04T19:38:30.679829+05:30"},{"city":"Akola","state":"Maharashtra","latitude":20.7002,"longitude":77.0082,"temp":35.5,"humidity":15,"rain":0.0,"pressure":970.8,"uv_index":8.85,"wind_gusts":34.6,"aqi":93,"pm10":29.0,"pm2_5":14.7,"no2":5.0,"co":181.0,"o3":116.0,"so2":10.5,"mosquito_risk":0,"arthritis_risk":5,"migraine_risk":10,"frizz_risk":0,"updated_at":"2026-05-04T19:38:30.679837+05:30"},{"city":"Amravati","state":"Maharashtra","latitude":20.9374,"longitude":77.7796,"temp":35.2,"humidity":15,"rain":0.0,"pressure":963.4,"uv_index":8.9,"wind_gusts":36.4,"aqi":96,"pm10":37.0,"pm2_5":17.0,"no2":11.0,"co":258.0,"o3":104.0,"so2":7.9,"mosquito_risk":0,"arthritis_risk":5,"migraine_risk":10,"frizz_risk":0,"updated_at":"2026-05-04T19:38:30.679844+05:30"},{"city":"Latur","state":"Maharashtra","latitude":18.4088,"longitude":76.5604,"temp":33.2,"humidity":12,"rain":0.0,"pressure":936.4,"uv_index":9.1,"wind_gusts":39.2,"aqi":66,"pm10":52.3,"pm2_5":19.7,"no2":13.2,"co":188.0,"o3":91.0,"so2":3.6,"mosquito_risk":0,"arthritis_risk":5,"migraine_risk":7,"frizz_risk":1,"updated_at":"2026-05-04T19:38:30.679852+05:30"},{"city":"Nanded","state":"Maharashtra","latitude":19.1383,"longitude":77.3091,"temp":34.5,"humidity":15,"rain":0.0,"pressure":964.3,"uv_index":9.0,"wind_gusts":29.9,"aqi":81,"pm10":51.7,"pm2_5":22.8,"no2":12.9,"co":237.0,"o3":94.0,"so2":6.0,"mosquito_risk":0,"arthritis_risk":5,"migraine_risk":7,"frizz_risk":0,"updated_at":"2026-05-04T19:38:30.679859+05:30"},{"city":"Gulbarga","state":"Karnataka","latitude":17.3297,"longitude":76.8343,"temp":34.4,"humidity":14,"rain":0.0,"pressure":955.3,"uv_index":9.1,"wind_gusts":40.0,"aqi":75,"pm10":51.2,"pm2_5":20.6,"no2":28.3,"co":194.0,"o3":76.0,"so2":4.6,"mosquito_risk":0,"arthritis_risk":5,"migraine_risk":7,"frizz_risk":0,"updated_at":"2026-05-04T19:38:30.679865+05:30"},{"city":"Bidar","state":"Karnataka","latitude":17.9104,"longitude":77.5199,"temp":33.8,"humidity":15,"rain":0.0,"pressure":932.6,"uv_index":9.1,"wind_gusts":33.1,"aqi":87,"pm10":49.4,"pm2_5":23.2,"no2":14.0,"co":318.0,"o3":95.0,"so2":3.4,"mosquito_risk":0,"arthritis_risk":5,"migraine_risk":7,"frizz_risk":0,"updated_at":"2026-05-04T19:38:30.679873+05:30"},{"city":"Hospet","state":"Karnataka","latitude":15.2689,"longitude":76.3909,"temp":30.2,"humidity":32,"rain":0.0,"pressure":952.4,"uv_index":9.15,"wind_gusts":36.7,"aqi":64,"pm10":43.0,"pm2_5":22.4,"no2":21.1,"co":346.0,"o3":81.0,"so2":3.2,"mosquito_risk":0,"arthritis_risk":5,"migraine_risk":7,"frizz_risk":0,"updated_at":"2026-05-04T19:38:30.679879+05:30"},{"city":"Tirupur","state":"Tamil Nadu","latitude":11.1085,"longitude":77.3411,"temp":28.5,"humidity":67,"rain":0.0,"pressure":974.0,"uv_index":9.35,"wind_gusts":40.7,"aqi":87,"pm10":36.1,"pm2_5":20.4,"no2":12.6,"co":250.0,"o3":87.0,"so2":4.1,"mosquito_risk":7,"arthritis_risk":5,"migraine_risk":7,"frizz_risk":1,"updated_at":"2026-05-04T19:38:30.679887+05:30"},{"city":"Alappuzha","state":"Kerala","latitude":9.4981,"longitude":76.3388,"temp":25.4,"humidity":94,"rain":0.1,"pressure":1009.2,"uv_index":8.95,"wind_gusts":30.6,"aqi":87,"pm10":50.9,"pm2_5":21.8,"no2":9.4,"co":145.0,"o3":72.0,"so2":3.4,"mosquito_risk":10,"arthritis_risk":0,"migraine_risk":4,"frizz_risk":1,"updated_at":"2026-05-04T19:38:30.679893+05:30"},{"city":"Munnar","state":"Kerala","latitude":10.0889,"longitude":77.0595,"temp":18.1,"humidity":92,"rain":0.0,"pressure":856.8,"uv_index":7.7,"wind_gusts":25.2,"aqi":78,"pm10":30.6,"pm2_5":18.5,"no2":7.8,"co":241.0,"o3":79.0,"so2":1.7,"mosquito_risk":3,"arthritis_risk":10,"migraine_risk":7,"frizz_risk":1,"updated_at":"2026-05-04T19:38:30.679900+05:30"},{"city":"Silchar","state":"Assam","latitude":24.8333,"longitude":92.7789,"temp":24.6,"humidity":86,"rain":0.0,"pressure":1007.7,"uv_index":6.1,"wind_gusts":22.0,"aqi":94,"pm10":53.1,"pm2_5":46.2,"no2":18.7,"co":304.0,"o3":68.0,"so2":9.6,"mosquito_risk":3,"arthritis_risk":5,"migraine_risk":4,"frizz_risk":1,"updated_at":"2026-05-04T19:38:30.679907+05:30"},{"city":"Dibrugarh","state":"Assam","latitude":27.4728,"longitude":94.912,"temp":23.4,"humidity":87,"rain":0.0,"pressure":998.9,"uv_index":8.7,"wind_gusts":23.4,"aqi":89,"pm10":29.9,"pm2_5":27.3,"no2":15.6,"co":558.0,"o3":51.0,"so2":2.0,"mosquito_risk":3,"arthritis_risk":5,"migraine_risk":7,"frizz_risk":1,"updated_at":"2026-05-04T19:38:30.679913+05:30"}]