[{"city":"Delhi","state":"Delhi","latitude":28.6139,"longitude":77.209,"temp":21.9,"humidity":90,"rain":0.0,"pressure":987.3,"uv_index":6.1,"wind_gusts":19.1,"aqi":190,"pm10":594.2,"pm2_5":147.1,"mosquito_risk":3,"arthritis_risk":5,"migraine_risk":7,"frizz_risk":1,"updated_at":"2026-03-10T03:06:29.790384+05:30"},{"city":"Mumbai","state":"Maharashtra","latitude":19.076,"longitude":72.8777,"temp":29.0,"humidity":60,"rain":0.0,"pressure":1008.3,"uv_index":7.55,"wind_gusts":17.6,"aqi":106,"pm10":28.3,"pm2_5":27.5,"mosquito_risk":4,"arthritis_risk":0,"migraine_risk":4,"frizz_risk":1,"updated_at":"2026-03-10T03:06:29.790422+05:30"},{"city":"Bangalore","state":"Karnataka","latitude":12.9716,"longitude":77.5946,"temp":20.0,"humidity":86,"rain":0.0,"pressure":912.3,"uv_index":9.25,"wind_gusts":32.4,"aqi":102,"pm10":44.6,"pm2_5":38.4,"mosquito_risk":3,"arthritis_risk":5,"migraine_risk":7,"frizz_risk":1,"updated_at":"2026-03-10T03:06:29.790437+05:30"},{"city":"Hyderabad","state":"Telangana","latitude":17.385,"longitude":78.4867,"temp":22.1,"humidity":89,"rain":0.0,"pressure":955.3,"uv_index":8.6,"wind_gusts":28.8,"aqi":105,"pm10":42.3,"pm2_5":36.9,"mosquito_risk":3,"arthritis_risk":5,"migraine_risk":7,"frizz_risk":1,"updated_at":"2026-03-10T03:06:29.790446+05:30"},{"city":"Chennai","state":"Tamil Nadu","latitude":13.0827,"longitude":80.2707,"temp":25.3,"humidity":75,"rain":0.0,"pressure":1010.0,"uv_index":9.0,"wind_gusts":33.8,"aqi":90,"pm10":34.3,"pm2_5":26.1,"mosquito_risk":7,"arthritis_risk":0,"migraine_risk":4,"frizz_risk":1,"updated_at":"2026-03-10T03:06:29.790455+05:30"},{"city":"Kolkata","state":"West Bengal","latitude":22.5726,"longitude":88.3639,"temp":23.9,"humidity":95,"rain":0.0,"pressure":1011.5,"uv_index":7.75,"wind_gusts":15.8,"aqi":129,"pm10":47.8,"pm2_5":41.2,"mosquito_risk":3,"arthritis_risk":0,"migraine_risk":4,"frizz_risk":1,"updated_at":"2026-03-10T03:06:29.790463+05:30"},{"city":"Pune","state":"Maharashtra","latitude":18.5204,"longitude":73.8567,"temp":21.3,"humidity":56,"rain":0.0,"pressure":949.3,"uv_index":8.1,"wind_gusts":33.1,"aqi":64,"pm10":25.4,"pm2_5":21.6,"mosquito_risk":0,"arthritis_risk":5,"migraine_risk":7,"frizz_risk":0,"updated_at":"2026-03-10T03:06:29.790490+05:30"},{"city":"Ahmedabad","state":"Gujarat","latitude":23.0225,"longitude":72.5714,"temp":23.8,"humidity":39,"rain":0.0,"pressure":1004.9,"uv_index":7.4,"wind_gusts":18.7,"aqi":55,"pm10":16.3,"pm2_5":15.3,"mosquito_risk":0,"arthritis_risk":5,"migraine_risk":4,"frizz_risk":0,"updated_at":"2026-03-10T03:06:29.790499+05:30"},{"city":"Jaipur","state":"Rajasthan","latitude":26.9124,"longitude":75.7873,"temp":23.4,"humidity":39,"rain":0.0,"pressure":963.8,"uv_index":6.85,"wind_gusts":19.4,"aqi":77,"pm10":147.6,"pm2_5":28.5,"mosquito_risk":0,"arthritis_risk":5,"migraine_risk":7,"frizz_risk":0,"updated_at":"2026-03-10T03:06:29.790506+05:30"},{"city":"Lucknow","state":"Uttar Pradesh","latitude":26.8467,"longitude":80.9462,"temp":23.5,"humidity":89,"rain":0.0,"pressure":998.6,"uv_index":6.55,"wind_gusts":22.0,"aqi":173,"pm10":136.0,"pm2_5":128.1,"mosquito_risk":3,"arthritis_risk":5,"migraine_risk":7,"frizz_risk":1,"updated_at":"2026-03-10T03:06:29.790513+05:30"},{"city":"Kanpur","state":"Uttar Pradesh","latitude":26.4499,"longitude":80.3319,"temp":22.0,"humidity":89,"rain":0.0,"pressure":996.5,"uv_index":6.6,"wind_gusts":18.0,"aqi":161,"pm10":183.5,"pm2_5":98.3,"mosquito_risk":3,"arthritis_risk":5,"migraine_risk":7,"frizz_risk":1,"updated_at":"2026-03-10T03:06:29.790520+05:30"},{"city":"Chandigarh","state":"Chandigarh","latitude":30.7333,"longitude":76.7794,"temp":22.1,"humidity":76,"rain":0.0,"pressure":973.0,"uv_index":6.0,"wind_gusts":24.1,"aqi":106,"pm10":53.2,"pm2_5":46.1,"mosquito_risk":3,"arthritis_risk":5,"migraine_risk":3,"frizz_risk":1,"updated_at":"2026-03-10T03:06:29.790528+05:30"},{"city":"Srinagar","state":"Jammu and Kashmir","latitude":34.0837,"longitude":74.7973,"temp":9.9,"humidity":89,"rain":0.2,"pressure":844.7,"uv_index":3.55,"wind_gusts":18.0,"aqi":137,"pm10":79.4,"pm2_5":54.9,"mosquito_risk":6,"arthritis_risk":10,"migraine_risk":3,"frizz_risk":0,"updated_at":"2026-03-10T03:06:29.790535+05:30"},{"city":"Jammu","state":"Jammu and Kashmir","latitude":32.7266,"longitude":74.857,"temp":20.7,"humidity":82,"rain":0.0,"pressure":977.3,"uv_index":6.3,"wind_gusts":28.8,"aqi":93,"pm10":31.3,"pm2_5":26.1,"mosquito_risk":3,"arthritis_risk":5,"migraine_risk":7,"frizz_risk":1,"updated_at":"2026-03-10T03:06:29.790543+05:30"},{"city":"Amritsar","state":"Punjab","latitude":31.634,"longitude":74.8723,"temp":21.9,"humidity":84,"rain":0.0,"pressure":984.8,"uv_index":6.4,"wind_gusts":18.7,"aqi":167,"pm10":138.3,"pm2_5":119.7,"mosquito_risk":3,"arthritis_risk":5,"migraine_risk":7,"frizz_risk":1,"updated_at":"2026-03-10T03:06:29.790549+05:30"},{"city":"Ludhiana","state":"Punjab","latitude":30.901,"longitude":75.8573,"temp":22.0,"humidity":83,"rain":0.0,"pressure":983.0,"uv_index":5.95,"wind_gusts":16.2,"aqi":163,"pm10":187.2,"pm2_5":135.5,"mosquito_risk":3,"arthritis_risk":5,"migraine_risk":3,"frizz_risk":1,"updated_at":"2026-03-10T03:06:29.790556+05:30"},{"city":"Jalandhar","state":"Punjab","latitude":31.326,"longitude":75.5762,"temp":21.0,"humidity":93,"rain":0.0,"pressure":984.0,"uv_index":5.7,"wind_gusts":15.8,"aqi":162,"pm10":151.3,"pm2_5":120.6,"mosquito_risk":3,"arthritis_risk":5,"migraine_risk":3,"frizz_risk":1,"updated_at":"2026-03-10T03:06:29.790565+05:30"},{"city":"Dehradun","state":"Uttarakhand","latitude":30.6284,"longitude":78.0322,"temp":12.8,"humidity":60,"rain":0.0,"pressure":832.3,"uv_index":6.35,"wind_gusts":25.9,"aqi":69,"pm10":28.9,"pm2_5":22.1,"mosquito_risk":0,"arthritis_risk":5,"migraine_risk":7,"frizz_risk":0,"updated_at":"2026-03-10T03:06:29.790572+05:30"},{"city":"Shimla","state":"Himachal Pradesh","latitude":31.1048,"longitude":77.1734,"temp":12.5,"humidity":69,"rain":0.0,"pressure":786.9,"uv_index":6.3,"wind_gusts":37.1,"aqi":69,"pm10":44.8,"pm2_5":29.9,"mosquito_risk":3,"arthritis_risk":5,"migraine_risk":7,"frizz_risk":0,"updated_at":"2026-03-10T03:06:29.790578+05:30"},{"city":"Manali","state":"Himachal Pradesh","latitude":32.2396,"longitude":77.1887,"temp":16.7,"humidity":37,"rain":0.0,"pressure":824.5,"uv_index":6.85,"wind_gusts":38.2,"aqi":39,"pm10":33.9,"pm2_5":20.0,"mosquito_risk":0,"arthritis_risk":5,"migraine_risk":7,"frizz_risk":0,"updated_at":"2026-03-10T03:06:29.790584+05:30"},{"city":"Gurgaon","state":"Haryana","latitude":28.4595,"longitude":77.0266,"temp":19.2,"humidity":95,"rain":0.0,"pressure":985.7,"uv_index":6.1,"wind_gusts":16.2,"aqi":458,"pm10":499.2,"pm2_5":127.6,"mosquito_risk":3,"arthritis_risk":10,"migraine_risk":7,"frizz_risk":1,"updated_at":"2026-03-10T03:06:29.790591+05:30"},{"city":"Noida","state":"Uttar Pradesh","latitude":28.5355,"longitude":77.391,"temp":21.4,"humidity":92,"rain":0.0,"pressure":988.8,"uv_index":6.05,"wind_gusts":18.7,"aqi":458,"pm10":499.2,"pm2_5":127.6,"mosquito_risk":3,"arthritis_risk":5,"migraine_risk":7,"frizz_risk":1,"updated_at":"2026-03-10T03:06:29.790597+05:30"},{"city":"Ghaziabad","state":"Uttar Pradesh","latitude":28.6692,"longitude":77.4538,"temp":20.8,"humidity":93,"rain":0.0,"pressure":986.9,"uv_index":5.95,"wind_gusts":15.5,"aqi":165,"pm10":474.0,"pm2_5":132.7,"mosquito_risk":3,"arthritis_risk":5,"migraine_risk":3,"frizz_risk":1,"updated_at":"2026-03-10T03:06:29.790602+05:30"},{"city":"Faridabad","state":"Haryana","latitude":28.4089,"longitude":77.3178,"temp":18.7,"humidity":96,"rain":0.0,"pressure":988.1,"uv_index":6.1,"wind_gusts":17.3,"aqi":458,"pm10":499.2,"pm2_5":127.6,"mosquito_risk":3,"arthritis_risk":10,"migraine_risk":7,"frizz_risk":1,"updated_at":"2026-03-10T03:06:29.790608+05:30"},{"city":"Meerut","state":"Uttar Pradesh","latitude":28.9845,"longitude":77.7064,"temp":20.9,"humidity":92,"rain":0.0,"pressure":985.8,"uv_index":5.95,"wind_gusts":17.3,"aqi":165,"pm10":474.0,"pm2_5":132.7,"mosquito_risk":3,"arthritis_risk":5,"migraine_risk":3,"frizz_risk":1,"updated_at":"2026-03-10T03:06:29.790614+05:30"},{"city":"Agra","state":"Uttar Pradesh","latitude":27.1767,"longitude":78.0081,"temp":20.8,"humidity":86,"rain":0.0,"pressure":992.0,"uv_index":6.45,"wind_gusts":16.6,"aqi":176,"pm10":233.8,"pm2_5":98.7,"mosquito_risk":3,"arthritis_risk":5,"migraine_risk":7,"frizz_risk":1,"updated_at":"2026-03-10T03:06:29.790620+05:30"},{"city":"Varanasi","state":"Uttar Pradesh","latitude":25.3176,"longitude":82.9739,"temp":22.3,"humidity":95,"rain":0.0,"pressure":1002.7,"uv_index":7.25,"wind_gusts":15.5,"aqi":184,"pm10":145.3,"pm2_5":140.2,"mosquito_risk":3,"arthritis_risk":5,"migraine_risk":4,"frizz_risk":1,"updated_at":"2026-03-10T03:06:29.790629+05:30"},{"city":"Prayagraj","state":"Uttar Pradesh","latitude":25.4358,"longitude":81.8463,"temp":21.9,"humidity":93,"rain":0.0,"pressure":1000.9,"uv_index":7.1,"wind_gusts":15.1,"aqi":185,"pm10":142.5,"pm2_5":137.8,"mosquito_risk":3,"arthritis_risk":5,"migraine_risk":4,"frizz_risk":1,"updated_at":"2026-03-10T03:06:29.790635+05:30"},{"city":"Gorakhpur","state":"Uttar Pradesh","latitude":26.7606,"longitude":83.3732,"temp":21.5,"humidity":92,"rain":0.0,"pressure":1002.8,"uv_index":6.95,"wind_gusts":19.1,"aqi":198,"pm10":132.2,"pm2_5":120.6,"mosquito_risk":3,"arthritis_risk":5,"migraine_risk":4,"frizz_risk":1,"updated_at":"2026-03-10T03:06:29.790641+05:30"},{"city":"Bareilly","state":"Uttar Pradesh","latitude":28.367,"longitude":79.4304,"temp":21.0,"humidity":97,"rain":0.0,"pressure":991.6,"uv_index":5.5,"wind_gusts":23.4,"aqi":168,"pm10":104.3,"pm2_5":84.8,"mosquito_risk":3,"arthritis_risk":5,"migraine_risk":3,"frizz_risk":1,"updated_at":"2026-03-10T03:06:29.790647+05:30"},{"city":"Aligarh","state":"Uttar Pradesh","latitude":27.8974,"longitude":78.088,"temp":19.5,"humidity":93,"rain":0.0,"pressure":989.9,"uv_index":6.1,"wind_gusts":17.3,"aqi":173,"pm10":266.4,"pm2_5":140.2,"mosquito_risk":3,"arthritis_risk":10,"migraine_risk":7,"frizz_risk":1,"updated_at":"2026-03-10T03:06:29.790653+05:30"},{"city":"Moradabad","state":"Uttar Pradesh","latitude":28.8386,"longitude":78.7733,"temp":20.9,"humidity":92,"rain":0.0,"pressure":988.3,"uv_index":6.1,"wind_gusts":25.6,"aqi":175,"pm10":120.6,"pm2_5":92.9,"mosquito_risk":3,"arthritis_risk":5,"migraine_risk":7,"frizz_risk":1,"updated_at":"2026-03-10T03:06:29.790658+05:30"},{"city":"Saharanpur","state":"Uttar Pradesh","latitude":29.9637,"longitude":77.546,"temp":19.1,"humidity":99,"rain":0.0,"pressure":980.2,"uv_index":5.75,"wind_gusts":21.2,"aqi":163,"pm10":138.3,"pm2_5":96.6,"mosquito_risk":3,"arthritis_risk":10,"migraine_risk":3,"frizz_risk":1,"updated_at":"2026-03-10T03:06:29.790663+05:30"},{"city":"Jhansi","state":"Uttar Pradesh","latitude":25.4484,"longitude":78.5685,"temp":21.1,"humidity":64,"rain":0.0,"pressure":981.8,"uv_index":7.05,"wind_gusts":23.0,"aqi":71,"pm10":52.0,"pm2_5":28.6,"mosquito_risk":3,"arthritis_risk":5,"migraine_risk":7,"frizz_risk":0,"updated_at":"2026-03-10T03:06:33.015730+05:30"},{"city":"Surat","state":"Gujarat","latitude":21.1702,"longitude":72.8311,"temp":26.2,"humidity":50,"rain":0.0,"pressure":1008.3,"uv_index":7.3,"wind_gusts":25.9,"aqi":99,"pm10":33.9,"pm2_5":33.1,"mosquito_risk":4,"arthritis_risk":0,"migraine_risk":4,"frizz_risk":0,"updated_at":"2026-03-10T03:06:33.015755+05:30"},{"city":"Vadodara","state":"Gujarat","latitude":22.3072,"longitude":73.1812,"temp":24.7,"humidity":48,"rain":0.0,"pressure":1006.6,"uv_index":7.4,"wind_gusts":18.4,"aqi":69,"pm10":16.6,"pm2_5":15.7,"mosquito_risk":0,"arthritis_risk":5,"migraine_risk":4,"frizz_risk":0,"updated_at":"2026-03-10T03:06:33.015764+05:30"},{"city":"Rajkot","state":"Gujarat","latitude":22.3039,"longitude":70.8022,"temp":24.0,"humidity":63,"rain":0.0,"pressure":997.2,"uv_index":7.25,"wind_gusts":32.8,"aqi":59,"pm10":27.5,"pm2_5":25.1,"mosquito_risk":3,"arthritis_risk":5,"migraine_risk":7,"frizz_risk":1,"updated_at":"2026-03-10T03:06:33.015771+05:30"},{"city":"Thane","state":"Maharashtra","latitude":19.2183,"longitude":72.9781,"temp":26.7,"humidity":46,"rain":0.0,"pressure":1007.9,"uv_index":7.55,"wind_gusts":36.0,"aqi":106,"pm10":28.3,"pm2_5":27.5,"mosquito_risk":4,"arthritis_risk":5,"migraine_risk":4,"frizz_risk":0,"updated_at":"2026-03-10T03:06:33.015777+05:30"},{"city":"Nagpur","state":"Maharashtra","latitude":21.1458,"longitude":79.0882,"temp":18.1,"humidity":66,"rain":0.0,"pressure":975.2,"uv_index":7.95,"wind_gusts":24.1,"aqi":92,"pm10":33.6,"pm2_5":23.9,"mosquito_risk":3,"arthritis_risk":5,"migraine_risk":7,"frizz_risk":0,"updated_at":"2026-03-10T03:06:33.015784+05:30"},{"city":"Nashik","state":"Maharashtra","latitude":19.9975,"longitude":73.7898,"temp":23.6,"humidity":40,"rain":0.0,"pressure":947.1,"uv_index":7.75,"wind_gusts":25.6,"aqi":70,"pm10":17.5,"pm2_5":15.9,"mosquito_risk":0,"arthritis_risk":5,"migraine_risk":7,"frizz_risk":0,"updated_at":"2026-03-10T03:06:33.015790+05:30"},{"city":"Aurangabad","state":"Maharashtra","latitude":19.8762,"longitude":75.3433,"temp":22.2,"humidity":50,"rain":0.0,"pressure":945.6,"uv_index":8.25,"wind_gusts":26.6,"aqi":66,"pm10":35.6,"pm2_5":32.0,"mosquito_risk":0,"arthritis_risk":5,"migraine_risk":7,"frizz_risk":0,"updated_at":"2026-03-10T03:06:33.015796+05:30"},{"city":"Solapur","state":"Maharashtra","latitude":17.6599,"longitude":75.9064,"temp":22.3,"humidity":60,"rain":0.0,"pressure":958.7,"uv_index":8.5,"wind_gusts":22.3,"aqi":75,"pm10":34.8,"pm2_5":31.9,"mosquito_risk":0,"arthritis_risk":5,"migraine_risk":7,"frizz_risk":0,"updated_at":"2026-03-10T03:06:33.015802+05:30"},{"city":"Kolhapur","state":"Maharashtra","latitude":16.705,"longitude":74.2433,"temp":22.9,"humidity":45,"rain":0.0,"pressure":948.5,"uv_index":8.6,"wind_gusts":38.5,"aqi":123,"pm10":49.7,"pm2_5":46.7,"mosquito_risk":0,"arthritis_risk":5,"migraine_risk":7,"frizz_risk":0,"updated_at":"2026-03-10T03:06:33.015808+05:30"},{"city":"Goa","state":"Goa","latitude":15.2993,"longitude":74.124,"temp":25.3,"humidity":96,"rain":0.0,"pressure":998.3,"uv_index":8.65,"wind_gusts":37.1,"aqi":134,"pm10":59.6,"pm2_5":54.8,"mosquito_risk":7,"arthritis_risk":5,"migraine_risk":7,"frizz_risk":1,"updated_at":"2026-03-10T03:06:33.015815+05:30"},{"city":"Jodhpur","state":"Rajasthan","latitude":26.2389,"longitude":73.0243,"temp":23.8,"humidity":34,"rain":0.0,"pressure":987.2,"uv_index":7.15,"wind_gusts":20.5,"aqi":64,"pm10":126.2,"pm2_5":29.2,"mosquito_risk":0,"arthritis_risk":5,"migraine_risk":7,"frizz_risk":0,"updated_at":"2026-03-10T03:06:33.015821+05:30"},{"city":"Udaipur","state":"Rajasthan","latitude":24.5854,"longitude":73.7125,"temp":18.4,"humidity":37,"rain":0.0,"pressure":950.1,"uv_index":7.75,"wind_gusts":20.2,"aqi":38,"pm10":10.0,"pm2_5":8.5,"mosquito_risk":0,"arthritis_risk":5,"migraine_risk":7,"frizz_risk":0,"updated_at":"2026-03-10T03:06:33.015826+05:30"},{"city":"Kota","state":"Rajasthan","latitude":25.2138,"longitude":75.8648,"temp":19.4,"humidity":62,"rain":0.0,"pressure":982.3,"uv_index":7.15,"wind_gusts":19.1,"aqi":68,"pm10":34.0,"pm2_5":27.6,"mosquito_risk":3,"arthritis_risk":5,"migraine_risk":7,"frizz_risk":0,"updated_at":"2026-03-10T03:06:33.015832+05:30"},{"city":"Bikaner","state":"Rajasthan","latitude":28.0229,"longitude":73.3119,"temp":23.5,"humidity":41,"rain":0.0,"pressure":986.0,"uv_index":6.85,"wind_gusts":20.9,"aqi":52,"pm10":122.5,"pm2_5":25.0,"mosquito_risk":0,"arthritis_risk":5,"migraine_risk":7,"frizz_risk":0,"updated_at":"2026-03-10T03:06:33.015838+05:30"},{"city":"Ajmer","state":"Rajasthan","latitude":26.4499,"longitude":74.6399,"temp":22.4,"humidity":33,"rain":0.0,"pressure":958.5,"uv_index":7.15,"wind_gusts":23.0,"aqi":52,"pm10":34.0,"pm2_5":15.3,"mosquito_risk":0,"arthritis_risk":5,"migraine_risk":7,"frizz_risk":0,"updated_at":"2026-03-10T03:06:33.015843+05:30"},{"city":"Gwalior","state":"Madhya Pradesh","latitude":26.2183,"longitude":78.1828,"temp":21.9,"humidity":73,"rain":0.0,"pressure":987.3,"uv_index":6.75,"wind_gusts":22.3,"aqi":80,"pm10":119.7,"pm2_5":39.8,"mosquito_risk":3,"arthritis_risk":5,"migraine_risk":7,"frizz_risk":1,"updated_at":"2026-03-10T03:06:33.015849+05:30"},{"city":"Indore","state":"Madhya Pradesh","latitude":22.7196,"longitude":75.8577,"temp":19.5,"humidity":50,"rain":0.0,"pressure":950.3,"uv_index":7.7,"wind_gusts":21.6,"aqi":75,"pm10":39.3,"pm2_5":29.6,"mosquito_risk":0,"arthritis_risk":5,"migraine_risk":7,"frizz_risk":0,"updated_at":"2026-03-10T03:06:33.015855+05:30"},{"city":"Bhopal","state":"Madhya Pradesh","latitude":23.2599,"longitude":77.4126,"temp":20.9,"humidity":47,"rain":0.0,"pressure":956.2,"uv_index":7.55,"wind_gusts":19.4,"aqi":71,"pm10":53.1,"pm2_5":35.5,"mosquito_risk":0,"arthritis_risk":5,"migraine_risk":7,"frizz_risk":0,"updated_at":"2026-03-10T03:06:33.015860+05:30"},{"city":"Jabalpur","state":"Madhya Pradesh","latitude":23.1815,"longitude":79.9864,"temp":21.0,"humidity":66,"rain":0.0,"pressure":964.5,"uv_index":7.65,"wind_gusts":23.4,"aqi":94,"pm10":57.5,"pm2_5":37.3,"mosquito_risk":3,"arthritis_risk":5,"migraine_risk":7,"frizz_risk":0,"updated_at":"2026-03-10T03:06:33.015866+05:30"},{"city":"Ujjain","state":"Madhya Pradesh","latitude":23.1765,"longitude":75.7885,"temp":21.5,"humidity":46,"rain":0.0,"pressure":956.4,"uv_index":7.55,"wind_gusts":20.2,"aqi":92,"pm10":56.5,"pm2_5":49.6,"mosquito_risk":0,"arthritis_risk":5,"migraine_risk":7,"frizz_risk":0,"updated_at":"2026-03-10T03:06:33.015873+05:30"},{"city":"Visakhapatnam","state":"Andhra Pradesh","latitude":17.6868,"longitude":83.2185,"temp":24.3,"humidity":89,"rain":0.0,"pressure":1008.0,"uv_index":8.55,"wind_gusts":34.6,"aqi":111,"pm10":59.0,"pm2_5":47.3,"mosquito_risk":3,"arthritis_risk":0,"migraine_risk":4,"frizz_risk":1,"updated_at":"2026-03-10T03:06:33.015879+05:30"},{"city":"Vijayawada","state":"Andhra Pradesh","latitude":16.5062,"longitude":80.648,"temp":23.9,"humidity":88,"rain":0.0,"pressure":1006.4,"uv_index":8.6,"wind_gusts":22.3,"aqi":107,"pm10":52.5,"pm2_5":44.0,"mosquito_risk":3,"arthritis_risk":5,"migraine_risk":4,"frizz_risk":1,"updated_at":"2026-03-10T03:06:33.015885+05:30"},{"city":"Guntur","state":"Andhra Pradesh","latitude":16.3067,"longitude":80.4365,"temp":23.4,"humidity":91,"rain":0.0,"pressure":1007.5,"uv_index":8.6,"wind_gusts":24.1,"aqi":101,"pm10":47.8,"pm2_5":40.7,"mosquito_risk":3,"arthritis_risk":5,"migraine_risk":4,"frizz_risk":1,"updated_at":"2026-03-10T03:06:33.015891+05:30"},{"city":"Nellore","state":"Andhra Pradesh","latitude":14.4426,"longitude":79.9865,"temp":24.3,"humidity":86,"rain":0.0,"pressure":1009.2,"uv_index":8.85,"wind_gusts":28.1,"aqi":85,"pm10":34.6,"pm2_5":25.8,"mosquito_risk":3,"arthritis_risk":0,"migraine_risk":4,"frizz_risk":1,"updated_at":"2026-03-10T03:06:33.015898+05:30"},{"city":"Kurnool","state":"Andhra Pradesh","latitude":15.8281,"longitude":78.0373,"temp":24.7,"humidity":78,"rain":0.0,"pressure":979.1,"uv_index":8.65,"wind_gusts":31.3,"aqi":94,"pm10":38.2,"pm2_5":33.3,"mosquito_risk":3,"arthritis_risk":5,"migraine_risk":7,"frizz_risk":1,"updated_at":"2026-03-10T03:06:33.015905+05:30"},{"city":"Kakinada","state":"Andhra Pradesh","latitude":16.9891,"longitude":82.2475,"temp":22.4,"humidity":92,"rain":0.0,"pressure":1011.6,"uv_index":8.55,"wind_gusts":25.6,"aqi":100,"pm10":54.4,"pm2_5":40.0,"mosquito_risk":3,"arthritis_risk":0,"migraine_risk":4,"frizz_risk":1,"updated_at":"2026-03-10T03:06:33.015911+05:30"},{"city":"Tirupati","state":"Andhra Pradesh","latitude":13.6288,"longitude":79.4192,"temp":21.4,"humidity":86,"rain":0.0,"pressure":994.7,"uv_index":8.95,"wind_gusts":31.0,"aqi":109,"pm10":68.9,"pm2_5":57.7,"mosquito_risk":3,"arthritis_risk":5,"migraine_risk":7,"frizz_risk":1,"updated_at":"2026-03-10T03:06:33.015916+05:30"},{"city":"Warangal","state":"Telangana","latitude":17.9689,"longitude":79.5941,"temp":24.0,"humidity":92,"rain":0.0,"pressure":981.5,"uv_index":8.45,"wind_gusts":27.0,"aqi":111,"pm10":42.3,"pm2_5":39.1,"mosquito_risk":3,"arthritis_risk":5,"migraine_risk":7,"frizz_risk":1,"updated_at":"2026-03-10T03:06:33.015922+05:30"},{"city":"Nizamabad","state":"Telangana","latitude":18.6725,"longitude":78.0941,"temp":23.4,"humidity":74,"rain":0.0,"pressure":966.6,"uv_index":8.3,"wind_gusts":28.4,"aqi":122,"pm10":45.2,"pm2_5":41.7,"mosquito_risk":3,"arthritis_risk":5,"migraine_risk":7,"frizz_risk":1,"updated_at":"2026-03-10T03:06:33.015928+05:30"},{"city":"Mysore","state":"Karnataka","latitude":12.2958,"longitude":76.6396,"temp":21.4,"humidity":75,"rain":0.0,"pressure":928.7,"uv_index":9.25,"wind_gusts":35.6,"aqi":116,"pm10":41.0,"pm2_5":36.4,"mosquito_risk":3,"arthritis_risk":5,"migraine_risk":7,"frizz_risk":1,"updated_at":"2026-03-10T03:06:33.015934+05:30"},{"city":"Mangalore","state":"Karnataka","latitude":12.9141,"longitude":74.856,"temp":28.8,"humidity":83,"rain":0.0,"pressure":1006.8,"uv_index":8.9,"wind_gusts":27.7,"aqi":115,"pm10":37.0,"pm2_5":33.1,"mosquito_risk":7,"arthritis_risk":5,"migraine_risk":4,"frizz_risk":1,"updated_at":"2026-03-10T03:06:33.015940+05:30"},{"city":"Hubli-Dharwad","state":"Karnataka","latitude":15.3647,"longitude":75.124,"temp":24.1,"humidity":56,"rain":0.0,"pressure":941.3,"uv_index":8.8,"wind_gusts":46.4,"aqi":90,"pm10":41.6,"pm2_5":36.7,"mosquito_risk":0,"arthritis_risk":5,"migraine_risk":7,"frizz_risk":0,"updated_at":"2026-03-10T03:06:33.015945+05:30"},{"city":"Belgaum","state":"Karnataka","latitude":15.8497,"longitude":74.4977,"temp":21.8,"humidity":48,"rain":0.0,"pressure":925.9,"uv_index":8.85,"wind_gusts":44.6,"aqi":101,"pm10":44.5,"pm2_5":37.4,"mosquito_risk":0,"arthritis_risk":5,"migraine_risk":7,"frizz_risk":0,"updated_at":"2026-03-10T03:06:36.242026+05:30"},{"city":"Coimbatore","state":"Tamil Nadu","latitude":11.0168,"longitude":76.9558,"temp":22.8,"humidity":68,"rain":0.0,"pressure":963.2,"uv_index":9.25,"wind_gusts":43.9,"aqi":106,"pm10":46.7,"pm2_5":41.8,"mosquito_risk":3,"arthritis_risk":5,"migraine_risk":7,"frizz_risk":1,"updated_at":"2026-03-10T03:06:36.242052+05:30"},{"city":"Madurai","state":"Tamil Nadu","latitude":9.9252,"longitude":78.1198,"temp":23.4,"humidity":79,"rain":0.0,"pressure":995.0,"uv_index":9.2,"wind_gusts":35.3,"aqi":101,"pm10":53.7,"pm2_5":45.8,"mosquito_risk":3,"arthritis_risk":5,"migraine_risk":7,"frizz_risk":1,"updated_at":"2026-03-10T03:06:36.242061+05:30"},{"city":"Trichy","state":"Tamil Nadu","latitude":10.7905,"longitude":78.7047,"temp":23.0,"humidity":90,"rain":0.0,"pressure":1002.1,"uv_index":9.1,"wind_gusts":35.6,"aqi":97,"pm10":43.5,"pm2_5":36.3,"mosquito_risk":3,"arthritis_risk":5,"migraine_risk":4,"frizz_risk":1,"updated_at":"2026-03-10T03:06:36.242068+05:30"},{"city":"Salem","state":"Tamil Nadu","latitude":11.6643,"longitude":78.146,"temp":22.5,"humidity":83,"rain":0.0,"pressure":979.3,"uv_index":9.15,"wind_gusts":32.8,"aqi":117,"pm10":64.0,"pm2_5":55.6,"mosquito_risk":3,"arthritis_risk":5,"migraine_risk":7,"frizz_risk":1,"updated_at":"2026-03-10T03:06:36.242074+05:30"},{"city":"Tirunelveli","state":"Tamil Nadu","latitude":8.7139,"longitude":77.7567,"temp":24.8,"humidity":75,"rain":0.0,"pressure":1005.1,"uv_index":9.2,"wind_gusts":43.2,"aqi":94,"pm10":43.7,"pm2_5":35.2,"mosquito_risk":3,"arthritis_risk":5,"migraine_risk":4,"frizz_risk":1,"updated_at":"2026-03-10T03:06:36.242080+05:30"},{"city":"Vellore","state":"Tamil Nadu","latitude":12.9165,"longitude":79.1325,"temp":21.7,"humidity":87,"rain":0.0,"pressure":987.5,"uv_index":9.05,"wind_gusts":34.6,"aqi":120,"pm10":75.7,"pm2_5":64.7,"mosquito_risk":3,"arthritis_risk":5,"migraine_risk":7,"frizz_risk":1,"updated_at":"2026-03-10T03:06:36.242086+05:30"},{"city":"Erode","state":"Tamil Nadu","latitude":11.341,"longitude":77.7172,"temp":23.6,"humidity":82,"rain":0.0,"pressure":991.1,"uv_index":9.15,"wind_gusts":27.4,"aqi":92,"pm10":48.8,"pm2_5":42.3,"mosquito_risk":3,"arthritis_risk":5,"migraine_risk":7,"frizz_risk":1,"updated_at":"2026-03-10T03:06:36.242092+05:30"},{"city":"Kochi","state":"Kerala","latitude":9.9312,"longitude":76.2673,"temp":26.6,"humidity":84,"rain":0.0,"pressure":1009.3,"uv_index":9.05,"wind_gusts":38.9,"aqi":124,"pm10":53.4,"pm2_5":51.5,"mosquito_risk":7,"arthritis_risk":0,"migraine_risk":4,"frizz_risk":1,"updated_at":"2026-03-10T03:06:36.242098+05:30"},{"city":"Thiruvananthapuram","state":"Kerala","latitude":8.5241,"longitude":76.9366,"temp":27.9,"humidity":79,"rain":0.0,"pressure":1008.0,"uv_index":9.1,"wind_gusts":27.0,"aqi":104,"pm10":39.8,"pm2_5":31.4,"mosquito_risk":7,"arthritis_risk":0,"migraine_risk":4,"frizz_risk":1,"updated_at":"2026-03-10T03:06:36.242104+05:30"},{"city":"Kozhikode","state":"Kerala","latitude":11.2588,"longitude":75.7804,"temp":26.1,"humidity":86,"rain":0.0,"pressure":1008.4,"uv_index":8.95,"wind_gusts":24.8,"aqi":95,"pm10":31.1,"pm2_5":28.7,"mosquito_risk":7,"arthritis_risk":0,"migraine_risk":4,"frizz_risk":1,"updated_at":"2026-03-10T03:06:36.242110+05:30"},{"city":"Thrissur","state":"Kerala","latitude":10.5276,"longitude":76.2144,"temp":24.8,"humidity":87,"rain":0.0,"pressure":1007.7,"uv_index":9.0,"wind_gusts":35.6,"aqi":121,"pm10":52.5,"pm2_5":50.2,"mosquito_risk":3,"arthritis_risk":5,"migraine_risk":4,"frizz_risk":1,"updated_at":"2026-03-10T03:06:36.242116+05:30"},{"city":"Kannur","state":"Kerala","latitude":11.8745,"longitude":75.3704,"temp":26.1,"humidity":84,"rain":0.0,"pressure":1007.6,"uv_index":8.95,"wind_gusts":34.6,"aqi":110,"pm10":32.6,"pm2_5":30.7,"mosquito_risk":7,"arthritis_risk":5,"migraine_risk":4,"frizz_risk":1,"updated_at":"2026-03-10T03:06:36.242122+05:30"},{"city":"Patna","state":"Bihar","latitude":25.5941,"longitude":85.1376,"temp":23.6,"humidity":86,"rain":0.0,"pressure":1006.1,"uv_index":7.4,"wind_gusts":26.3,"aqi":185,"pm10":115.7,"pm2_5":110.8,"mosquito_risk":3,"arthritis_risk":5,"migraine_risk":4,"frizz_risk":1,"updated_at":"2026-03-10T03:06:36.242128+05:30"},{"city":"Gaya","state":"Bihar","latitude":24.7914,"longitude":85.0002,"temp":22.2,"humidity":94,"rain":0.0,"pressure":998.9,"uv_index":7.5,"wind_gusts":17.6,"aqi":183,"pm10":112.7,"pm2_5":105.7,"mosquito_risk":3,"arthritis_risk":5,"migraine_risk":7,"frizz_risk":1,"updated_at":"2026-03-10T03:06:36.242134+05:30"},{"city":"Muzaffarpur","state":"Bihar","latitude":26.1209,"longitude":85.3647,"temp":22.2,"humidity":93,"rain":0.0,"pressure":1006.1,"uv_index":7.35,"wind_gusts":22.0,"aqi":186,"pm10":116.6,"pm2_5":111.1,"mosquito_risk":3,"arthritis_risk":5,"migraine_risk":4,"frizz_risk":1,"updated_at":"2026-03-10T03:06:36.242139+05:30"},{"city":"Bhagalpur","state":"Bihar","latitude":25.2425,"longitude":87.0117,"temp":23.6,"humidity":86,"rain":0.0,"pressure":1006.8,"uv_index":7.4,"wind_gusts":20.2,"aqi":174,"pm10":106.9,"pm2_5":97.3,"mosquito_risk":3,"arthritis_risk":5,"migraine_risk":4,"frizz_risk":1,"updated_at":"2026-03-10T03:06:36.242145+05:30"},{"city":"Ranchi","state":"Jharkhand","latitude":23.3441,"longitude":85.3096,"temp":19.9,"humidity":96,"rain":0.0,"pressure":941.8,"uv_index":8.15,"wind_gusts":20.9,"aqi":166,"pm10":71.0,"pm2_5":64.7,"mosquito_risk":3,"arthritis_risk":10,"migraine_risk":7,"frizz_risk":1,"updated_at":"2026-03-10T03:06:36.242150+05:30"},{"city":"Jamshedpur","state":"Jharkhand","latitude":22.8046,"longitude":86.2029,"temp":23.1,"humidity":88,"rain":0.0,"pressure":996.2,"uv_index":8.05,"wind_gusts":16.9,"aqi":157,"pm10":33.9,"pm2_5":30.7,"mosquito_risk":3,"arthritis_risk":5,"migraine_risk":7,"frizz_risk":1,"updated_at":"2026-03-10T03:06:36.242156+05:30"},{"city":"Dhanbad","state":"Jharkhand","latitude":23.7957,"longitude":86.4304,"temp":21.8,"humidity":83,"rain":0.0,"pressure":984.7,"uv_index":7.9,"wind_gusts":17.6,"aqi":174,"pm10":80.3,"pm2_5":73.6,"mosquito_risk":3,"arthritis_risk":5,"migraine_risk":7,"frizz_risk":1,"updated_at":"2026-03-10T03:06:36.242161+05:30"},{"city":"Bokaro","state":"Jharkhand","latitude":23.6693,"longitude":86.1511,"temp":21.1,"humidity":90,"rain":0.0,"pressure":989.0,"uv_index":7.95,"wind_gusts":19.8,"aqi":178,"pm10":106.4,"pm2_5":96.9,"mosquito_risk":3,"arthritis_risk":5,"migraine_risk":7,"frizz_risk":1,"updated_at":"2026-03-10T03:06:36.242166+05:30"},{"city":"Bhubaneswar","state":"Odisha","latitude":20.2961,"longitude":85.8245,"temp":24.5,"humidity":87,"rain":0.0,"pressure":1006.9,"uv_index":8.35,"wind_gusts":30.2,"aqi":92,"pm10":41.3,"pm2_5":36.0,"mosquito_risk":3,"arthritis_risk":5,"migraine_risk":4,"frizz_risk":1,"updated_at":"2026-03-10T03:06:36.242172+05:30"},{"city":"Cuttack","state":"Odisha","latitude":20.4625,"longitude":85.8828,"temp":24.8,"humidity":86,"rain":0.0,"pressure":1008.8,"uv_index":8.4,"wind_gusts":27.7,"aqi":92,"pm10":41.3,"pm2_5":36.0,"mosquito_risk":3,"arthritis_risk":0,"migraine_risk":4,"frizz_risk":1,"updated_at":"2026-03-10T03:06:36.242177+05:30"},{"city":"Rourkela","state":"Odisha","latitude":22.2604,"longitude":84.8536,"temp":24.2,"humidity":78,"rain":0.0,"pressure":989.5,"uv_index":7.95,"wind_gusts":27.0,"aqi":163,"pm10":84.5,"pm2_5":77.5,"mosquito_risk":3,"arthritis_risk":5,"migraine_risk":7,"frizz_risk":1,"updated_at":"2026-03-10T03:06:36.242183+05:30"},{"city":"Raipur","state":"Chhattisgarh","latitude":21.2514,"longitude":81.6296,"temp":23.5,"humidity":56,"rain":0.0,"pressure":977.1,"uv_index":8.05,"wind_gusts":18.4,"aqi":164,"pm10":108.5,"pm2_5":92.0,"mosquito_risk":0,"arthritis_risk":5,"migraine_risk":7,"frizz_risk":0,"updated_at":"2026-03-10T03:06:36.242188+05:30"},{"city":"Bhilai","state":"Chhattisgarh","latitude":21.1938,"longitude":81.3509,"temp":22.0,"humidity":64,"rain":0.0,"pressure":977.3,"uv_index":8.05,"wind_gusts":16.6,"aqi":157,"pm10":95.0,"pm2_5":78.5,"mosquito_risk":3,"arthritis_risk":5,"migraine_risk":7,"frizz_risk":0,"updated_at":"2026-03-10T03:06:36.242194+05:30"},{"city":"Guwahati","state":"Assam","latitude":26.1158,"longitude":91.7086,"temp":23.4,"humidity":78,"rain":0.0,"pressure":1007.5,"uv_index":7.3,"wind_gusts":11.5,"aqi":154,"pm10":70.3,"pm2_5":65.0,"mosquito_risk":3,"arthritis_risk":5,"migraine_risk":4,"frizz_risk":1,"updated_at":"2026-03-10T03:06:36.242199+05:30"},{"city":"Agartala","state":"Tripura","latitude":23.8315,"longitude":91.2868,"temp":22.2,"humidity":85,"rain":0.0,"pressure":1011.6,"uv_index":7.7,"wind_gusts":16.2,"aqi":163,"pm10":109.9,"pm2_5":101.0,"mosquito_risk":3,"arthritis_risk":0,"migraine_risk":4,"frizz_risk":1,"updated_at":"2026-03-10T03:06:36.242205+05:30"},{"city":"Shillong","state":"Meghalaya","latitude":25.5788,"longitude":91.8933,"temp":11.1,"humidity":84,"rain":0.0,"pressure":858.8,"uv_index":5.25,"wind_gusts":20.2,"aqi":155,"pm10":77.3,"pm2_5":70.3,"mosquito_risk":3,"arthritis_risk":10,"migraine_risk":3,"frizz_risk":0,"updated_at":"2026-03-10T03:06:36.242210+05:30"},{"city":"Imphal","state":"Manipur","latitude":24.817,"longitude":93.9368,"temp":15.1,"humidity":91,"rain":0.0,"pressure":927.5,"uv_index":7.95,"wind_gusts":34.2,"aqi":163,"pm10":118.7,"pm2_5":114.1,"mosquito_risk":3,"arthritis_risk":10,"migraine_risk":7,"frizz_risk":0,"updated_at":"2026-03-10T03:06:36.242216+05:30"},{"city":"Aizawl","state":"Mizoram","latitude":23.7271,"longitude":92.7176,"temp":15.0,"humidity":87,"rain":0.0,"pressure":895.4,"uv_index":7.6,"wind_gusts":28.4,"aqi":165,"pm10":86.8,"pm2_5":81.3,"mosquito_risk":3,"arthritis_risk":10,"migraine_risk":7,"frizz_risk":0,"updated_at":"2026-03-10T03:06:36.242221+05:30"},{"city":"Kohima","state":"Nagaland","latitude":25.6701,"longitude":94.1077,"temp":14.2,"humidity":76,"rain":0.0,"pressure":858.4,"uv_index":7.05,"wind_gusts":42.1,"aqi":155,"pm10":65.4,"pm2_5":61.2,"mosquito_risk":3,"arthritis_risk":5,"migraine_risk":7,"frizz_risk":0,"updated_at":"2026-03-10T03:06:36.242227+05:30"},{"city":"Gangtok","state":"Sikkim","latitude":27.3314,"longitude":88.6138,"temp":13.1,"humidity":69,"rain":0.0,"pressure":840.7,"uv_index":5.2,"wind_gusts":18.0,"aqi":158,"pm10":49.4,"pm2_5":40.3,"mosquito_risk":3,"arthritis_risk":5,"migraine_risk":3,"frizz_risk":0,"updated_at":"2026-03-10T03:06:36.242232+05:30"},{"city":"Siliguri","state":"West Bengal","latitude":26.7271,"longitude":88.3953,"temp":20.6,"humidity":61,"rain":0.0,"pressure":1000.3,"uv_index":7.35,"wind_gusts":23.8,"aqi":166,"pm10":130.4,"pm2_5":105.5,"mosquito_risk":3,"arthritis_risk":5,"migraine_risk":4,"frizz_risk":0,"updated_at":"2026-03-10T03:06:39.473763+05:30"},{"city":"Durgapur","state":"West Bengal","latitude":23.5204,"longitude":87.3119,"temp":22.6,"humidity":92,"rain":0.0,"pressure":1000.6,"uv_index":7.85,"wind_gusts":15.5,"aqi":164,"pm10":78.7,"pm2_5":71.0,"mosquito_risk":3,"arthritis_risk":5,"migraine_risk":4,"frizz_risk":1,"updated_at":"2026-03-10T03:06:39.473788+05:30"},{"city":"Asansol","state":"West Bengal","latitude":23.6739,"longitude":86.9524,"temp":23.0,"humidity":90,"rain":0.0,"pressure":999.1,"uv_index":7.9,"wind_gusts":16.6,"aqi":165,"pm10":68.5,"pm2_5":61.7,"mosquito_risk":3,"arthritis_risk":5,"migraine_risk":7,"frizz_risk":1,"updated_at":"2026-03-10T03:06:39.473797+05:30"},{"city":"Pondicherry","state":"Puducherry","latitude":11.9139,"longitude":79.8145,"temp":23.7,"humidity":87,"rain":0.0,"pressure":1011.0,"uv_index":8.95,"wind_gusts":36.0,"aqi":86,"pm10":30.6,"pm2_5":22.9,"mosquito_risk":3,"arthritis_risk":0,"migraine_risk":4,"frizz_risk":1,"updated_at":"2026-03-10T03:06:39.473804+05:30"},{"city":"Port Blair","state":"Andaman and Nicobar Islands","latitude":11.6234,"longitude":92.7265,"temp":27.6,"humidity":80,"rain":0.0,"pressure":1008.3,"uv_index":8.9,"wind_gusts":34.2,"aqi":85,"pm10":31.0,"pm2_5":26.6,"mosquito_risk":7,"arthritis_risk":0,"migraine_risk":4,"frizz_risk":1,"updated_at":"2026-03-10T03:06:39.473810+05:30"},{"city":"Haridwar","state":"Uttarakhand","latitude":29.9457,"longitude":78.1642,"temp":21.3,"humidity":93,"rain":0.0,"pressure":979.0,"uv_index":5.85,"wind_gusts":20.5,"aqi":154,"pm10":61.5,"pm2_5":55.2,"mosquito_risk":3,"arthritis_risk":5,"migraine_risk":3,"frizz_risk":1,"updated_at":"2026-03-10T03:06:39.473816+05:30"},{"city":"Rishikesh","state":"Uttarakhand","latitude":30.0869,"longitude":78.2676,"temp":21.0,"humidity":83,"rain":0.0,"pressure":971.8,"uv_index":5.9,"wind_gusts":22.3,"aqi":150,"pm10":77.1,"pm2_5":58.6,"mosquito_risk":3,"arthritis_risk":5,"migraine_risk":3,"frizz_risk":1,"updated_at":"2026-03-10T03:06:39.473822+05:30"},{"city":"Nainital","state":"Uttarakhand","latitude":29.3919,"longitude":79.4542,"temp":16.8,"humidity":86,"rain":0.0,"pressure":809.2,"uv_index":6.75,"wind_gusts":50.0,"aqi":161,"pm10":113.2,"pm2_5":80.1,"mosquito_risk":3,"arthritis_risk":10,"migraine_risk":7,"frizz_risk":0,"updated_at":"2026-03-10T03:06:39.473828+05:30"},{"city":"Mussoorie","state":"Uttarakhand","latitude":30.4599,"longitude":78.0664,"temp":15.5,"humidity":82,"rain":0.0,"pressure":805.7,"uv_index":6.25,"wind_gusts":34.6,"aqi":138,"pm10":66.1,"pm2_5":54.4,"mosquito_risk":3,"arthritis_risk":10,"migraine_risk":7,"frizz_risk":0,"updated_at":"2026-03-10T03:06:39.473834+05:30"},{"city":"Dharamshala","state":"Himachal Pradesh","latitude":32.219,"longitude":76.3234,"temp":21.3,"humidity":37,"rain":0.0,"pressure":873.3,"uv_index":5.9,"wind_gusts":22.0,"aqi":48,"pm10":28.3,"pm2_5":13.3,"mosquito_risk":0,"arthritis_risk":5,"migraine_risk":3,"frizz_risk":0,"updated_at":"2026-03-10T03:06:39.473840+05:30"},{"city":"Dalhousie","state":"Himachal Pradesh","latitude":32.5387,"longitude":75.971,"temp":17.9,"humidity":41,"rain":0.0,"pressure":807.3,"uv_index":5.8,"wind_gusts":21.6,"aqi":77,"pm10":39.7,"pm2_5":31.5,"mosquito_risk":0,"arthritis_risk":5,"migraine_risk":3,"frizz_risk":0,"updated_at":"2026-03-10T03:06:39.473846+05:30"},{"city":"Patiala","state":"Punjab","latitude":30.3398,"longitude":76.3869,"temp":20.4,"humidity":89,"rain":0.0,"pressure":982.5,"uv_index":5.9,"wind_gusts":14.4,"aqi":165,"pm10":183.5,"pm2_5":118.7,"mosquito_risk":3,"arthritis_risk":5,"migraine_risk":3,"frizz_risk":1,"updated_at":"2026-03-10T03:06:39.473852+05:30"},{"city":"Bhatinda","state":"Punjab","latitude":30.211,"longitude":74.9455,"temp":21.5,"humidity":81,"rain":0.0,"pressure":987.6,"uv_index":6.5,"wind_gusts":15.8,"aqi":157,"pm10":126.2,"pm2_5":104.5,"mosquito_risk":3,"arthritis_risk":5,"migraine_risk":7,"frizz_risk":1,"updated_at":"2026-03-10T03:06:39.473857+05:30"},{"city":"Rohtak","state":"Haryana","latitude":28.8955,"longitude":76.6066,"temp":19.7,"humidity":91,"rain":0.0,"pressure":986.0,"uv_index":6.05,"wind_gusts":16.2,"aqi":204,"pm10":603.5,"pm2_5":148.1,"mosquito_risk":3,"arthritis_risk":10,"migraine_risk":7,"frizz_risk":1,"updated_at":"2026-03-10T03:06:39.473863+05:30"},{"city":"Panipat","state":"Haryana","latitude":29.3909,"longitude":76.9635,"temp":19.3,"humidity":100,"rain":0.0,"pressure":984.5,"uv_index":5.9,"wind_gusts":16.6,"aqi":520,"pm10":529.0,"pm2_5":152.3,"mosquito_risk":3,"arthritis_risk":10,"migraine_risk":3,"frizz_risk":1,"updated_at":"2026-03-10T03:06:39.473869+05:30"},{"city":"Mathura","state":"Uttar Pradesh","latitude":27.4924,"longitude":77.6737,"temp":19.6,"humidity":86,"rain":0.0,"pressure":991.1,"uv_index":6.35,"wind_gusts":19.1,"aqi":159,"pm10":239.3,"pm2_5":95.9,"mosquito_risk":3,"arthritis_risk":10,"migraine_risk":7,"frizz_risk":1,"updated_at":"2026-03-10T03:06:39.473874+05:30"},{"city":"Vrindavan","state":"Uttar Pradesh","latitude":27.5823,"longitude":77.7027,"temp":18.4,"humidity":93,"rain":0.0,"pressure":991.6,"uv_index":6.3,"wind_gusts":19.4,"aqi":159,"pm10":239.3,"pm2_5":95.9,"mosquito_risk":3,"arthritis_risk":10,"migraine_risk":7,"frizz_risk":1,"updated_at":"2026-03-10T03:06:39.473880+05:30"},{"city":"Ayodhya","state":"Uttar Pradesh","latitude":26.7922,"longitude":82.1998,"temp":22.8,"humidity":91,"rain":0.0,"pressure":1000.7,"uv_index":6.75,"wind_gusts":21.2,"aqi":196,"pm10":142.5,"pm2_5":134.1,"mosquito_risk":3,"arthritis_risk":5,"migraine_risk":4,"frizz_risk":1,"updated_at":"2026-03-10T03:06:39.473885+05:30"},{"city":"Ratlam","state":"Madhya Pradesh","latitude":23.3315,"longitude":75.0367,"temp":17.4,"humidity":80,"rain":0.0,"pressure":957.0,"uv_index":7.55,"wind_gusts":17.3,"aqi":77,"pm10":41.2,"pm2_5":38.0,"mosquito_risk":3,"arthritis_risk":5,"migraine_risk":7,"frizz_risk":0,"updated_at":"2026-03-10T03:06:39.473892+05:30"},{"city":"Sagar","state":"Madhya Pradesh","latitude":23.8388,"longitude":78.7378,"temp":20.8,"humidity":53,"rain":0.0,"pressure":952.9,"uv_index":7.5,"wind_gusts":18.4,"aqi":59,"pm10":34.2,"pm2_5":18.2,"mosquito_risk":0,"arthritis_risk":5,"migraine_risk":7,"frizz_risk":0,"updated_at":"2026-03-10T03:06:39.473897+05:30"},{"city":"Satna","state":"Madhya Pradesh","latitude":24.6005,"longitude":80.8322,"temp":21.8,"humidity":77,"rain":0.0,"pressure":975.3,"uv_index":7.5,"wind_gusts":25.9,"aqi":119,"pm10":103.4,"pm2_5":46.0,"mosquito_risk":3,"arthritis_risk":5,"migraine_risk":7,"frizz_risk":1,"updated_at":"2026-03-10T03:06:39.473903+05:30"},{"city":"Akola","state":"Maharashtra","latitude":20.7002,"longitude":77.0082,"temp":22.7,"humidity":67,"rain":0.0,"pressure":977.0,"uv_index":8.0,"wind_gusts":19.8,"aqi":65,"pm10":35.6,"pm2_5":30.7,"mosquito_risk":3,"arthritis_risk":5,"migraine_risk":7,"frizz_risk":1,"updated_at":"2026-03-10T03:06:39.473909+05:30"},{"city":"Amravati","state":"Maharashtra","latitude":20.9374,"longitude":77.7796,"temp":20.6,"humidity":71,"rain":0.0,"pressure":969.1,"uv_index":7.95,"wind_gusts":19.8,"aqi":65,"pm10":38.9,"pm2_5":32.9,"mosquito_risk":3,"arthritis_risk":5,"migraine_risk":7,"frizz_risk":0,"updated_at":"2026-03-10T03:06:39.473916+05:30"},{"city":"Latur","state":"Maharashtra","latitude":18.4088,"longitude":76.5604,"temp":21.5,"humidity":60,"rain":0.0,"pressure":941.1,"uv_index":8.4,"wind_gusts":27.4,"aqi":90,"pm10":47.8,"pm2_5":39.2,"mosquito_risk":0,"arthritis_risk":5,"migraine_risk":7,"frizz_risk":0,"updated_at":"2026-03-10T03:06:39.473922+05:30"},{"city":"Nanded","state":"Maharashtra","latitude":19.1383,"longitude":77.3091,"temp":23.6,"humidity":56,"rain":0.0,"pressure":970.1,"uv_index":8.2,"wind_gusts":20.5,"aqi":86,"pm10":62.4,"pm2_5":51.2,"mosquito_risk":0,"arthritis_risk":5,"migraine_risk":7,"frizz_risk":0,"updated_at":"2026-03-10T03:06:39.473928+05:30"},{"city":"Gulbarga","state":"Karnataka","latitude":17.3297,"longitude":76.8343,"temp":24.0,"humidity":63,"rain":0.0,"pressure":960.7,"uv_index":8.5,"wind_gusts":31.0,"aqi":89,"pm10":38.8,"pm2_5":35.5,"mosquito_risk":3,"arthritis_risk":5,"migraine_risk":7,"frizz_risk":1,"updated_at":"2026-03-10T03:06:39.473934+05:30"},{"city":"Bidar","state":"Karnataka","latitude":17.9104,"longitude":77.5199,"temp":21.6,"humidity":76,"rain":0.0,"pressure":937.0,"uv_index":8.45,"wind_gusts":31.7,"aqi":108,"pm10":45.1,"pm2_5":41.2,"mosquito_risk":3,"arthritis_risk":5,"migraine_risk":7,"frizz_risk":1,"updated_at":"2026-03-10T03:06:39.473939+05:30"},{"city":"Hospet","state":"Karnataka","latitude":15.2689,"longitude":76.3909,"temp":25.3,"humidity":67,"rain":0.0,"pressure":957.1,"uv_index":8.8,"wind_gusts":36.4,"aqi":95,"pm10":41.9,"pm2_5":38.3,"mosquito_risk":7,"arthritis_risk":5,"migraine_risk":7,"frizz_risk":1,"updated_at":"2026-03-10T03:06:39.473945+05:30"},{"city":"Tirupur","state":"Tamil Nadu","latitude":11.1085,"longitude":77.3411,"temp":23.4,"humidity":74,"rain":0.0,"pressure":977.2,"uv_index":9.25,"wind_gusts":38.9,"aqi":98,"pm10":52.3,"pm2_5":45.9,"mosquito_risk":3,"arthritis_risk":5,"migraine_risk":7,"frizz_risk":1,"updated_at":"2026-03-10T03:06:39.473950+05:30"},{"city":"Alappuzha","state":"Kerala","latitude":9.4981,"longitude":76.3388,"temp":27.1,"humidity":82,"rain":0.0,"pressure":1009.2,"uv_index":9.05,"wind_gusts":32.4,"aqi":118,"pm10":43.1,"pm2_5":39.8,"mosquito_risk":7,"arthritis_risk":0,"migraine_risk":4,"frizz_risk":1,"updated_at":"2026-03-10T03:06:39.473956+05:30"},{"city":"Munnar","state":"Kerala","latitude":10.0889,"longitude":77.0595,"temp":17.4,"humidity":78,"rain":0.0,"pressure":855.1,"uv_index":9.55,"wind_gusts":29.2,"aqi":95,"pm10":46.3,"pm2_5":40.3,"mosquito_risk":3,"arthritis_risk":5,"migraine_risk":7,"frizz_risk":0,"updated_at":"2026-03-10T03:06:39.473962+05:30"},{"city":"Silchar","state":"Assam","latitude":24.8333,"longitude":92.7789,"temp":21.9,"humidity":89,"rain":0.0,"pressure":1010.6,"uv_index":7.65,"wind_gusts":11.5,"aqi":173,"pm10":146.7,"pm2_5":137.4,"mosquito_risk":3,"arthritis_risk":0,"migraine_risk":4,"frizz_risk":1,"updated_at":"2026-03-10T03:06:39.473967+05:30"},{"city":"Dibrugarh","state":"Assam","latitude":27.4728,"longitude":94.912,"temp":23.0,"humidity":85,"rain":0.0,"pressure":1001.4,"uv_index":7.4,"wind_gusts":18.4,"aqi":162,"pm10":67.3,"pm2_5":60.8,"mosquito_risk":3,"arthritis_risk":5,"migraine_risk":4,"frizz_risk":1,"updated_at":"2026-03-10T03:06:39.473973+05:30"}]