[{"city":"Delhi","state":"Delhi","latitude":28.6139,"longitude":77.209,"temp":30.0,"humidity":49,"rain":0.0,"pressure":986.8,"uv_index":7.15,"wind_gusts":56.9,"aqi":117,"pm10":226.3,"pm2_5":51.9,"no2":7.6,"co":468.0,"o3":208.0,"so2":30.4,"mosquito_risk":4,"arthritis_risk":5,"migraine_risk":7,"frizz_risk":1,"updated_at":"2026-05-05T11:49:14.603134+05:30"},{"city":"Mumbai","state":"Maharashtra","latitude":19.076,"longitude":72.8777,"temp":32.8,"humidity":55,"rain":0.0,"pressure":1009.2,"uv_index":7.85,"wind_gusts":40.7,"aqi":65,"pm10":84.3,"pm2_5":32.0,"no2":4.6,"co":209.0,"o3":118.0,"so2":25.1,"mosquito_risk":0,"arthritis_risk":0,"migraine_risk":4,"frizz_risk":1,"updated_at":"2026-05-05T11:49:14.603175+05:30"},{"city":"Bangalore","state":"Karnataka","latitude":12.9716,"longitude":77.5946,"temp":32.3,"humidity":33,"rain":0.0,"pressure":913.2,"uv_index":9.05,"wind_gusts":37.1,"aqi":80,"pm10":41.1,"pm2_5":20.3,"no2":3.7,"co":259.0,"o3":160.0,"so2":6.0,"mosquito_risk":0,"arthritis_risk":5,"migraine_risk":7,"frizz_risk":0,"updated_at":"2026-05-05T11:49:14.603191+05:30"},{"city":"Hyderabad","state":"Telangana","latitude":17.385,"longitude":78.4867,"temp":36.0,"humidity":24,"rain":0.0,"pressure":953.5,"uv_index":9.25,"wind_gusts":39.2,"aqi":84,"pm10":47.8,"pm2_5":23.3,"no2":3.5,"co":342.0,"o3":191.0,"so2":10.0,"mosquito_risk":0,"arthritis_risk":5,"migraine_risk":10,"frizz_risk":0,"updated_at":"2026-05-05T11:49:14.603201+05:30"},{"city":"Chennai","state":"Tamil Nadu","latitude":13.0827,"longitude":80.2707,"temp":34.4,"humidity":57,"rain":0.0,"pressure":1006.6,"uv_index":8.7,"wind_gusts":44.6,"aqi":73,"pm10":39.7,"pm2_5":27.2,"no2":3.4,"co":316.0,"o3":140.0,"so2":11.9,"mosquito_risk":0,"arthritis_risk":5,"migraine_risk":4,"frizz_risk":1,"updated_at":"2026-05-05T11:49:14.603214+05:30"},{"city":"Kolkata","state":"West Bengal","latitude":22.5726,"longitude":88.3639,"temp":29.5,"humidity":71,"rain":0.0,"pressure":1008.7,"uv_index":8.65,"wind_gusts":45.7,"aqi":70,"pm10":16.9,"pm2_5":12.9,"no2":2.6,"co":251.0,"o3":104.0,"so2":7.8,"mosquito_risk":7,"arthritis_risk":0,"migraine_risk":4,"frizz_risk":1,"updated_at":"2026-05-05T11:49:14.603223+05:30"},{"city":"Pune","state":"Maharashtra","latitude":18.5204,"longitude":73.8567,"temp":35.1,"humidity":24,"rain":0.0,"pressure":949.2,"uv_index":8.45,"wind_gusts":46.8,"aqi":53,"pm10":64.5,"pm2_5":19.4,"no2":2.1,"co":170.0,"o3":112.0,"so2":5.3,"mosquito_risk":0,"arthritis_risk":5,"migraine_risk":10,"frizz_risk":0,"updated_at":"2026-05-05T11:49:14.603231+05:30"},{"city":"Ahmedabad","state":"Gujarat","latitude":23.0225,"longitude":72.5714,"temp":36.0,"humidity":32,"rain":0.0,"pressure":1002.3,"uv_index":8.1,"wind_gusts":29.5,"aqi":69,"pm10":105.7,"pm2_5":28.3,"no2":2.5,"co":198.0,"o3":120.0,"so2":9.0,"mosquito_risk":0,"arthritis_risk":5,"migraine_risk":7,"frizz_risk":1,"updated_at":"2026-05-05T11:49:14.603242+05:30"},{"city":"Jaipur","state":"Rajasthan","latitude":26.9124,"longitude":75.7873,"temp":31.4,"humidity":36,"rain":0.0,"pressure":962.4,"uv_index":8.05,"wind_gusts":36.4,"aqi":159,"pm10":236.6,"pm2_5":46.0,"no2":1.3,"co":222.0,"o3":156.0,"so2":8.6,"mosquito_risk":0,"arthritis_risk":5,"migraine_risk":7,"frizz_risk":0,"updated_at":"2026-05-05T11:49:14.603251+05:30"},{"city":"Lucknow","state":"Uttar Pradesh","latitude":26.8467,"longitude":80.9462,"temp":27.5,"humidity":63,"rain":0.0,"pressure":997.1,"uv_index":5.25,"wind_gusts":28.4,"aqi":91,"pm10":41.1,"pm2_5":33.2,"no2":5.8,"co":373.0,"o3":126.0,"so2":9.1,"mosquito_risk":7,"arthritis_risk":5,"migraine_risk":3,"frizz_risk":1,"updated_at":"2026-05-05T11:49:14.603259+05:30"},{"city":"Kanpur","state":"Uttar Pradesh","latitude":26.4499,"longitude":80.3319,"temp":28.5,"humidity":63,"rain":0.0,"pressure":994.9,"uv_index":8.05,"wind_gusts":33.8,"aqi":175,"pm10":32.2,"pm2_5":22.6,"no2":3.6,"co":363.0,"o3":150.0,"so2":6.6,"mosquito_risk":7,"arthritis_risk":5,"migraine_risk":7,"frizz_risk":1,"updated_at":"2026-05-05T11:49:14.603267+05:30"},{"city":"Chandigarh","state":"Chandigarh","latitude":30.7333,"longitude":76.7794,"temp":25.5,"humidity":50,"rain":0.1,"pressure":973.5,"uv_index":7.4,"wind_gusts":42.1,"aqi":75,"pm10":54.2,"pm2_5":15.5,"no2":1.8,"co":269.0,"o3":163.0,"so2":6.9,"mosquito_risk":7,"arthritis_risk":5,"migraine_risk":7,"frizz_risk":0,"updated_at":"2026-05-05T11:49:14.603275+05:30"},{"city":"Srinagar","state":"Jammu and Kashmir","latitude":34.0837,"longitude":74.7973,"temp":17.9,"humidity":55,"rain":0.0,"pressure":846.7,"uv_index":8.7,"wind_gusts":26.6,"aqi":72,"pm10":8.8,"pm2_5":4.9,"no2":1.2,"co":264.0,"o3":155.0,"so2":1.4,"mosquito_risk":0,"arthritis_risk":5,"migraine_risk":7,"frizz_risk":0,"updated_at":"2026-05-05T11:49:14.603283+05:30"},{"city":"Jammu","state":"Jammu and Kashmir","latitude":32.7266,"longitude":74.857,"temp":30.5,"humidity":32,"rain":0.0,"pressure":977.1,"uv_index":8.3,"wind_gusts":31.3,"aqi":95,"pm10":87.1,"pm2_5":20.0,"no2":1.2,"co":232.0,"o3":162.0,"so2":2.1,"mosquito_risk":0,"arthritis_risk":5,"migraine_risk":7,"frizz_risk":0,"updated_at":"2026-05-05T11:49:14.603290+05:30"},{"city":"Amritsar","state":"Punjab","latitude":31.634,"longitude":74.8723,"temp":31.1,"humidity":35,"rain":0.0,"pressure":985.2,"uv_index":8.2,"wind_gusts":33.1,"aqi":95,"pm10":55.5,"pm2_5":20.1,"no2":1.4,"co":264.0,"o3":164.0,"so2":8.4,"mosquito_risk":0,"arthritis_risk":5,"migraine_risk":7,"frizz_risk":0,"updated_at":"2026-05-05T11:49:14.603299+05:30"},{"city":"Ludhiana","state":"Punjab","latitude":30.901,"longitude":75.8573,"temp":25.7,"humidity":55,"rain":0.0,"pressure":983.6,"uv_index":7.8,"wind_gusts":37.4,"aqi":101,"pm10":62.2,"pm2_5":22.6,"no2":2.4,"co":254.0,"o3":173.0,"so2":15.5,"mosquito_risk":4,"arthritis_risk":5,"migraine_risk":7,"frizz_risk":0,"updated_at":"2026-05-05T11:49:14.603307+05:30"},{"city":"Jalandhar","state":"Punjab","latitude":31.326,"longitude":75.5762,"temp":29.9,"humidity":37,"rain":0.0,"pressure":984.3,"uv_index":7.95,"wind_gusts":41.8,"aqi":96,"pm10":68.2,"pm2_5":22.2,"no2":1.8,"co":277.0,"o3":169.0,"so2":12.6,"mosquito_risk":4,"arthritis_risk":5,"migraine_risk":7,"frizz_risk":0,"updated_at":"2026-05-05T11:49:14.603314+05:30"},{"city":"Dehradun","state":"Uttarakhand","latitude":30.6284,"longitude":78.0322,"temp":16.8,"humidity":59,"rain":0.0,"pressure":834.6,"uv_index":7.05,"wind_gusts":30.6,"aqi":54,"pm10":35.0,"pm2_5":8.6,"no2":0.6,"co":179.0,"o3":144.0,"so2":1.0,"mosquito_risk":0,"arthritis_risk":5,"migraine_risk":7,"frizz_risk":0,"updated_at":"2026-05-05T11:49:14.603322+05:30"},{"city":"Shimla","state":"Himachal Pradesh","latitude":31.1048,"longitude":77.1734,"temp":14.2,"humidity":53,"rain":0.1,"pressure":787.6,"uv_index":5.0,"wind_gusts":33.5,"aqi":62,"pm10":29.3,"pm2_5":7.5,"no2":0.7,"co":187.0,"o3":150.0,"so2":1.5,"mosquito_risk":3,"arthritis_risk":5,"migraine_risk":3,"frizz_risk":0,"updated_at":"2026-05-05T11:49:14.603330+05:30"},{"city":"Manali","state":"Himachal Pradesh","latitude":32.2396,"longitude":77.1887,"temp":17.7,"humidity":36,"rain":0.0,"pressure":820.3,"uv_index":9.7,"wind_gusts":41.8,"aqi":120,"pm10":16.6,"pm2_5":4.4,"no2":0.6,"co":168.0,"o3":169.0,"so2":0.3,"mosquito_risk":0,"arthritis_risk":5,"migraine_risk":7,"frizz_risk":0,"updated_at":"2026-05-05T11:49:14.603336+05:30"},{"city":"Gurgaon","state":"Haryana","latitude":28.4595,"longitude":77.0266,"temp":31.2,"humidity":40,"rain":0.0,"pressure":985.0,"uv_index":7.6,"wind_gusts":49.7,"aqi":536,"pm10":313.9,"pm2_5":59.0,"no2":4.6,"co":378.0,"o3":184.0,"so2":16.8,"mosquito_risk":0,"arthritis_risk":5,"migraine_risk":7,"frizz_risk":1,"updated_at":"2026-05-05T11:49:14.603343+05:30"},{"city":"Noida","state":"Uttar Pradesh","latitude":28.5355,"longitude":77.391,"temp":30.9,"humidity":47,"rain":0.0,"pressure":988.3,"uv_index":7.3,"wind_gusts":54.0,"aqi":536,"pm10":313.9,"pm2_5":59.0,"no2":4.6,"co":390.0,"o3":184.0,"so2":16.8,"mosquito_risk":0,"arthritis_risk":5,"migraine_risk":7,"frizz_risk":1,"updated_at":"2026-05-05T11:49:14.603350+05:30"},{"city":"Ghaziabad","state":"Uttar Pradesh","latitude":28.6692,"longitude":77.4538,"temp":30.9,"humidity":47,"rain":0.0,"pressure":986.5,"uv_index":7.0,"wind_gusts":61.6,"aqi":98,"pm10":171.4,"pm2_5":40.5,"no2":3.3,"co":319.0,"o3":187.0,"so2":15.0,"mosquito_risk":0,"arthritis_risk":5,"migraine_risk":7,"frizz_risk":1,"updated_at":"2026-05-05T11:49:14.603358+05:30"},{"city":"Faridabad","state":"Haryana","latitude":28.4089,"longitude":77.3178,"temp":30.3,"humidity":48,"rain":0.0,"pressure":987.4,"uv_index":7.25,"wind_gusts":54.4,"aqi":536,"pm10":313.9,"pm2_5":59.0,"no2":4.6,"co":358.0,"o3":184.0,"so2":16.8,"mosquito_risk":0,"arthritis_risk":5,"migraine_risk":7,"frizz_risk":1,"updated_at":"2026-05-05T11:49:14.603364+05:30"},{"city":"Meerut","state":"Uttar Pradesh","latitude":28.9845,"longitude":77.7064,"temp":28.8,"humidity":56,"rain":0.0,"pressure":985.5,"uv_index":3.4,"wind_gusts":43.2,"aqi":98,"pm10":171.4,"pm2_5":40.5,"no2":3.3,"co":336.0,"o3":187.0,"so2":15.0,"mosquito_risk":4,"arthritis_risk":5,"migraine_risk":3,"frizz_risk":1,"updated_at":"2026-05-05T11:49:14.603370+05:30"},{"city":"Agra","state":"Uttar Pradesh","latitude":27.1767,"longitude":78.0081,"temp":30.2,"humidity":53,"rain":0.0,"pressure":991.3,"uv_index":7.9,"wind_gusts":73.4,"aqi":470,"pm10":466.6,"pm2_5":64.3,"no2":2.3,"co":338.0,"o3":173.0,"so2":9.9,"mosquito_risk":0,"arthritis_risk":5,"migraine_risk":7,"frizz_risk":1,"updated_at":"2026-05-05T11:49:14.603377+05:30"},{"city":"Varanasi","state":"Uttar Pradesh","latitude":25.3176,"longitude":82.9739,"temp":28.6,"humidity":63,"rain":0.0,"pressure":1001.4,"uv_index":8.25,"wind_gusts":25.6,"aqi":143,"pm10":64.5,"pm2_5":46.8,"no2":3.6,"co":376.0,"o3":175.0,"so2":12.4,"mosquito_risk":7,"arthritis_risk":5,"migraine_risk":4,"frizz_risk":1,"updated_at":"2026-05-05T11:49:14.603402+05:30"},{"city":"Prayagraj","state":"Uttar Pradesh","latitude":25.4358,"longitude":81.8463,"temp":29.3,"humidity":57,"rain":0.0,"pressure":999.5,"uv_index":8.45,"wind_gusts":35.6,"aqi":129,"pm10":68.5,"pm2_5":48.8,"no2":2.9,"co":360.0,"o3":155.0,"so2":6.8,"mosquito_risk":4,"arthritis_risk":5,"migraine_risk":7,"frizz_risk":1,"updated_at":"2026-05-05T11:49:14.603415+05:30"},{"city":"Gorakhpur","state":"Uttar Pradesh","latitude":26.7606,"longitude":83.3732,"temp":27.4,"humidity":64,"rain":0.0,"pressure":1001.5,"uv_index":7.8,"wind_gusts":23.4,"aqi":74,"pm10":44.7,"pm2_5":38.3,"no2":2.7,"co":332.0,"o3":159.0,"so2":6.3,"mosquito_risk":7,"arthritis_risk":5,"migraine_risk":4,"frizz_risk":1,"updated_at":"2026-05-05T11:49:14.603423+05:30"},{"city":"Bareilly","state":"Uttar Pradesh","latitude":28.367,"longitude":79.4304,"temp":27.9,"humidity":54,"rain":0.0,"pressure":991.7,"uv_index":7.5,"wind_gusts":37.4,"aqi":93,"pm10":131.3,"pm2_5":31.0,"no2":3.6,"co":327.0,"o3":167.0,"so2":13.3,"mosquito_risk":4,"arthritis_risk":5,"migraine_risk":7,"frizz_risk":1,"updated_at":"2026-05-05T11:49:14.603429+05:30"},{"city":"Aligarh","state":"Uttar Pradesh","latitude":27.8974,"longitude":78.088,"temp":30.6,"humidity":50,"rain":0.0,"pressure":989.4,"uv_index":7.65,"wind_gusts":60.5,"aqi":344,"pm10":268.2,"pm2_5":50.3,"no2":2.2,"co":311.0,"o3":174.0,"so2":11.4,"mosquito_risk":0,"arthritis_risk":5,"migraine_risk":7,"frizz_risk":1,"updated_at":"2026-05-05T11:49:14.603436+05:30"},{"city":"Moradabad","state":"Uttar Pradesh","latitude":28.8386,"longitude":78.7733,"temp":27.0,"humidity":58,"rain":0.0,"pressure":988.4,"uv_index":6.8,"wind_gusts":37.1,"aqi":101,"pm10":61.9,"pm2_5":25.6,"no2":3.0,"co":328.0,"o3":182.0,"so2":14.3,"mosquito_risk":4,"arthritis_risk":5,"migraine_risk":7,"frizz_risk":1,"updated_at":"2026-05-05T11:49:14.603443+05:30"},{"city":"Saharanpur","state":"Uttar Pradesh","latitude":29.9637,"longitude":77.546,"temp":26.4,"humidity":59,"rain":0.0,"pressure":980.3,"uv_index":6.3,"wind_gusts":33.5,"aqi":84,"pm10":42.0,"pm2_5":15.6,"no2":2.2,"co":237.0,"o3":177.0,"so2":9.7,"mosquito_risk":4,"arthritis_risk":5,"migraine_risk":7,"frizz_risk":1,"updated_at":"2026-05-05T11:49:14.603449+05:30"},{"city":"Jhansi","state":"Uttar Pradesh","latitude":25.4484,"longitude":78.5685,"temp":32.2,"humidity":47,"rain":0.0,"pressure":980.4,"uv_index":8.35,"wind_gusts":42.5,"aqi":107,"pm10":62.6,"pm2_5":40.2,"no2":2.2,"co":309.0,"o3":166.0,"so2":17.7,"mosquito_risk":0,"arthritis_risk":5,"migraine_risk":7,"frizz_risk":1,"updated_at":"2026-05-05T11:49:17.851095+05:30"},{"city":"Surat","state":"Gujarat","latitude":21.1702,"longitude":72.8311,"temp":34.0,"humidity":50,"rain":0.0,"pressure":1007.3,"uv_index":7.7,"wind_gusts":42.1,"aqi":71,"pm10":77.1,"pm2_5":29.4,"no2":11.1,"co":279.0,"o3":79.0,"so2":32.7,"mosquito_risk":0,"arthritis_risk":5,"migraine_risk":4,"frizz_risk":1,"updated_at":"2026-05-05T11:49:17.851123+05:30"},{"city":"Vadodara","state":"Gujarat","latitude":22.3072,"longitude":73.1812,"temp":36.2,"humidity":39,"rain":0.0,"pressure":1004.4,"uv_index":8.05,"wind_gusts":38.2,"aqi":64,"pm10":65.7,"pm2_5":24.7,"no2":2.0,"co":163.0,"o3":111.0,"so2":5.6,"mosquito_risk":0,"arthritis_risk":5,"migraine_risk":7,"frizz_risk":1,"updated_at":"2026-05-05T11:49:17.851133+05:30"},{"city":"Rajkot","state":"Gujarat","latitude":22.3039,"longitude":70.8022,"temp":36.9,"humidity":31,"rain":0.0,"pressure":994.3,"uv_index":7.7,"wind_gusts":51.8,"aqi":60,"pm10":102.7,"pm2_5":24.4,"no2":1.2,"co":148.0,"o3":118.0,"so2":5.2,"mosquito_risk":0,"arthritis_risk":5,"migraine_risk":10,"frizz_risk":1,"updated_at":"2026-05-05T11:49:17.851141+05:30"},{"city":"Thane","state":"Maharashtra","latitude":19.2183,"longitude":72.9781,"temp":35.0,"humidity":46,"rain":0.0,"pressure":1008.1,"uv_index":7.85,"wind_gusts":38.5,"aqi":65,"pm10":84.3,"pm2_5":32.0,"no2":4.6,"co":246.0,"o3":118.0,"so2":25.1,"mosquito_risk":0,"arthritis_risk":0,"migraine_risk":4,"frizz_risk":1,"updated_at":"2026-05-05T11:49:17.851149+05:30"},{"city":"Nagpur","state":"Maharashtra","latitude":21.1458,"longitude":79.0882,"temp":39.8,"humidity":14,"rain":0.0,"pressure":972.8,"uv_index":8.9,"wind_gusts":41.8,"aqi":86,"pm10":37.3,"pm2_5":24.0,"no2":8.8,"co":266.0,"o3":178.0,"so2":35.6,"mosquito_risk":0,"arthritis_risk":5,"migraine_risk":10,"frizz_risk":0,"updated_at":"2026-05-05T11:49:17.851156+05:30"},{"city":"Nashik","state":"Maharashtra","latitude":19.9975,"longitude":73.7898,"temp":33.8,"humidity":36,"rain":0.0,"pressure":946.8,"uv_index":8.2,"wind_gusts":44.6,"aqi":59,"pm10":57.5,"pm2_5":22.3,"no2":1.7,"co":172.0,"o3":114.0,"so2":4.3,"mosquito_risk":0,"arthritis_risk":5,"migraine_risk":7,"frizz_risk":1,"updated_at":"2026-05-05T11:49:17.851163+05:30"},{"city":"Aurangabad","state":"Maharashtra","latitude":19.8762,"longitude":75.3433,"temp":36.0,"humidity":21,"rain":0.0,"pressure":945.3,"uv_index":9.0,"wind_gusts":31.7,"aqi":60,"pm10":65.4,"pm2_5":20.2,"no2":1.3,"co":165.0,"o3":119.0,"so2":4.4,"mosquito_risk":0,"arthritis_risk":5,"migraine_risk":10,"frizz_risk":0,"updated_at":"2026-05-05T11:49:17.851170+05:30"},{"city":"Solapur","state":"Maharashtra","latitude":17.6599,"longitude":75.9064,"temp":37.4,"humidity":18,"rain":0.0,"pressure":957.7,"uv_index":9.1,"wind_gusts":42.8,"aqi":52,"pm10":71.2,"pm2_5":18.2,"no2":1.4,"co":163.0,"o3":121.0,"so2":3.3,"mosquito_risk":0,"arthritis_risk":5,"migraine_risk":10,"frizz_risk":0,"updated_at":"2026-05-05T11:49:17.851177+05:30"},{"city":"Kolhapur","state":"Maharashtra","latitude":16.705,"longitude":74.2433,"temp":34.7,"humidity":30,"rain":0.0,"pressure":949.0,"uv_index":8.95,"wind_gusts":45.7,"aqi":58,"pm10":57.7,"pm2_5":18.6,"no2":1.7,"co":156.0,"o3":103.0,"so2":1.6,"mosquito_risk":0,"arthritis_risk":5,"migraine_risk":7,"frizz_risk":0,"updated_at":"2026-05-05T11:49:17.851183+05:30"},{"city":"Goa","state":"Goa","latitude":15.2993,"longitude":74.124,"temp":35.8,"humidity":44,"rain":0.0,"pressure":998.1,"uv_index":8.95,"wind_gusts":34.6,"aqi":68,"pm10":46.2,"pm2_5":19.0,"no2":0.9,"co":161.0,"o3":81.0,"so2":1.6,"mosquito_risk":0,"arthritis_risk":5,"migraine_risk":10,"frizz_risk":1,"updated_at":"2026-05-05T11:49:17.851190+05:30"},{"city":"Jodhpur","state":"Rajasthan","latitude":26.2389,"longitude":73.0243,"temp":35.1,"humidity":35,"rain":0.0,"pressure":983.9,"uv_index":8.3,"wind_gusts":47.5,"aqi":93,"pm10":138.8,"pm2_5":31.0,"no2":1.3,"co":178.0,"o3":141.0,"so2":7.5,"mosquito_risk":0,"arthritis_risk":5,"migraine_risk":10,"frizz_risk":1,"updated_at":"2026-05-05T11:49:17.851197+05:30"},{"city":"Udaipur","state":"Rajasthan","latitude":24.5854,"longitude":73.7125,"temp":31.9,"humidity":46,"rain":0.0,"pressure":947.4,"uv_index":8.75,"wind_gusts":52.6,"aqi":69,"pm10":66.6,"pm2_5":23.5,"no2":1.3,"co":195.0,"o3":121.0,"so2":7.3,"mosquito_risk":0,"arthritis_risk":5,"migraine_risk":7,"frizz_risk":1,"updated_at":"2026-05-05T11:49:17.851204+05:30"},{"city":"Kota","state":"Rajasthan","latitude":25.2138,"longitude":75.8648,"temp":34.5,"humidity":31,"rain":0.0,"pressure":980.3,"uv_index":8.3,"wind_gusts":48.6,"aqi":82,"pm10":86.4,"pm2_5":39.9,"no2":3.9,"co":290.0,"o3":174.0,"so2":40.8,"mosquito_risk":0,"arthritis_risk":5,"migraine_risk":7,"frizz_risk":0,"updated_at":"2026-05-05T11:49:17.851211+05:30"},{"city":"Bikaner","state":"Rajasthan","latitude":28.0229,"longitude":73.3119,"temp":33.8,"humidity":27,"rain":0.0,"pressure":984.3,"uv_index":8.2,"wind_gusts":26.3,"aqi":82,"pm10":62.2,"pm2_5":18.1,"no2":0.9,"co":212.0,"o3":142.0,"so2":9.3,"mosquito_risk":0,"arthritis_risk":5,"migraine_risk":7,"frizz_risk":0,"updated_at":"2026-05-05T11:49:17.851218+05:30"},{"city":"Ajmer","state":"Rajasthan","latitude":26.4499,"longitude":74.6399,"temp":32.8,"humidity":33,"rain":0.0,"pressure":956.9,"uv_index":8.2,"wind_gusts":34.6,"aqi":64,"pm10":67.5,"pm2_5":24.1,"no2":1.1,"co":219.0,"o3":149.0,"so2":9.2,"mosquito_risk":0,"arthritis_risk":5,"migraine_risk":7,"frizz_risk":0,"updated_at":"2026-05-05T11:49:17.851225+05:30"},{"city":"Gwalior","state":"Madhya Pradesh","latitude":26.2183,"longitude":78.1828,"temp":32.7,"humidity":40,"rain":0.0,"pressure":985.7,"uv_index":8.1,"wind_gusts":47.5,"aqi":110,"pm10":62.9,"pm2_5":38.5,"no2":1.6,"co":298.0,"o3":153.0,"so2":8.9,"mosquito_risk":0,"arthritis_risk":5,"migraine_risk":7,"frizz_risk":1,"updated_at":"2026-05-05T11:49:17.851231+05:30"},{"city":"Indore","state":"Madhya Pradesh","latitude":22.7196,"longitude":75.8577,"temp":34.6,"humidity":32,"rain":0.0,"pressure":949.4,"uv_index":8.6,"wind_gusts":43.9,"aqi":73,"pm10":54.4,"pm2_5":19.8,"no2":1.3,"co":200.0,"o3":135.0,"so2":3.8,"mosquito_risk":0,"arthritis_risk":5,"migraine_risk":7,"frizz_risk":0,"updated_at":"2026-05-05T11:49:17.851237+05:30"},{"city":"Bhopal","state":"Madhya Pradesh","latitude":23.2599,"longitude":77.4126,"temp":35.8,"humidity":25,"rain":0.0,"pressure":954.8,"uv_index":8.6,"wind_gusts":41.4,"aqi":80,"pm10":61.7,"pm2_5":27.4,"no2":1.0,"co":253.0,"o3":149.0,"so2":7.0,"mosquito_risk":0,"arthritis_risk":5,"migraine_risk":10,"frizz_risk":0,"updated_at":"2026-05-05T11:49:17.851244+05:30"},{"city":"Jabalpur","state":"Madhya Pradesh","latitude":23.1815,"longitude":79.9864,"temp":36.5,"humidity":26,"rain":0.0,"pressure":962.0,"uv_index":8.3,"wind_gusts":43.2,"aqi":85,"pm10":56.0,"pm2_5":38.0,"no2":2.4,"co":243.0,"o3":191.0,"so2":11.6,"mosquito_risk":0,"arthritis_risk":5,"migraine_risk":10,"frizz_risk":0,"updated_at":"2026-05-05T11:49:17.851251+05:30"},{"city":"Ujjain","state":"Madhya Pradesh","latitude":23.1765,"longitude":75.7885,"temp":34.8,"humidity":32,"rain":0.0,"pressure":955.0,"uv_index":8.55,"wind_gusts":61.6,"aqi":77,"pm10":41.9,"pm2_5":18.1,"no2":1.1,"co":191.0,"o3":124.0,"so2":4.4,"mosquito_risk":0,"arthritis_risk":5,"migraine_risk":7,"frizz_risk":0,"updated_at":"2026-05-05T11:49:17.851257+05:30"},{"city":"Visakhapatnam","state":"Andhra Pradesh","latitude":17.6868,"longitude":83.2185,"temp":33.5,"humidity":55,"rain":0.0,"pressure":1004.5,"uv_index":9.2,"wind_gusts":34.2,"aqi":83,"pm10":30.6,"pm2_5":22.4,"no2":15.5,"co":373.0,"o3":75.0,"so2":18.2,"mosquito_risk":0,"arthritis_risk":5,"migraine_risk":4,"frizz_risk":1,"updated_at":"2026-05-05T11:49:17.851264+05:30"},{"city":"Vijayawada","state":"Andhra Pradesh","latitude":16.5062,"longitude":80.648,"temp":36.2,"humidity":45,"rain":0.0,"pressure":1002.5,"uv_index":9.2,"wind_gusts":36.4,"aqi":77,"pm10":36.2,"pm2_5":23.2,"no2":1.6,"co":198.0,"o3":121.0,"so2":5.7,"mosquito_risk":0,"arthritis_risk":5,"migraine_risk":7,"frizz_risk":1,"updated_at":"2026-05-05T11:49:17.851271+05:30"},{"city":"Guntur","state":"Andhra Pradesh","latitude":16.3067,"longitude":80.4365,"temp":35.8,"humidity":44,"rain":0.0,"pressure":1003.7,"uv_index":9.2,"wind_gusts":38.5,"aqi":77,"pm10":39.7,"pm2_5":25.5,"no2":1.2,"co":203.0,"o3":124.0,"so2":3.3,"mosquito_risk":0,"arthritis_risk":5,"migraine_risk":7,"frizz_risk":1,"updated_at":"2026-05-05T11:49:17.851278+05:30"},{"city":"Nellore","state":"Andhra Pradesh","latitude":14.4426,"longitude":79.9865,"temp":37.2,"humidity":38,"rain":0.0,"pressure":1004.9,"uv_index":8.9,"wind_gusts":38.2,"aqi":75,"pm10":51.2,"pm2_5":37.3,"no2":2.5,"co":235.0,"o3":176.0,"so2":15.0,"mosquito_risk":0,"arthritis_risk":5,"migraine_risk":7,"frizz_risk":1,"updated_at":"2026-05-05T11:49:17.851285+05:30"},{"city":"Kurnool","state":"Andhra Pradesh","latitude":15.8281,"longitude":78.0373,"temp":39.2,"humidity":16,"rain":0.0,"pressure":976.2,"uv_index":9.2,"wind_gusts":41.4,"aqi":77,"pm10":49.5,"pm2_5":19.0,"no2":2.0,"co":224.0,"o3":143.0,"so2":7.5,"mosquito_risk":0,"arthritis_risk":5,"migraine_risk":10,"frizz_risk":0,"updated_at":"2026-05-05T11:49:17.851293+05:30"},{"city":"Kakinada","state":"Andhra Pradesh","latitude":16.9891,"longitude":82.2475,"temp":34.0,"humidity":58,"rain":0.0,"pressure":1007.6,"uv_index":9.15,"wind_gusts":34.6,"aqi":72,"pm10":28.5,"pm2_5":18.9,"no2":0.7,"co":183.0,"o3":94.0,"so2":1.1,"mosquito_risk":0,"arthritis_risk":5,"migraine_risk":4,"frizz_risk":1,"updated_at":"2026-05-05T11:49:17.851301+05:30"},{"city":"Tirupati","state":"Andhra Pradesh","latitude":13.6288,"longitude":79.4192,"temp":37.6,"humidity":29,"rain":0.0,"pressure":990.3,"uv_index":9.25,"wind_gusts":33.8,"aqi":102,"pm10":60.5,"pm2_5":37.4,"no2":1.9,"co":241.0,"o3":178.0,"so2":8.0,"mosquito_risk":0,"arthritis_risk":5,"migraine_risk":10,"frizz_risk":1,"updated_at":"2026-05-05T11:49:17.851308+05:30"},{"city":"Warangal","state":"Telangana","latitude":17.9689,"longitude":79.5941,"temp":37.0,"humidity":37,"rain":0.0,"pressure":978.7,"uv_index":9.15,"wind_gusts":47.5,"aqi":85,"pm10":42.4,"pm2_5":30.2,"no2":1.6,"co":222.0,"o3":148.0,"so2":6.5,"mosquito_risk":0,"arthritis_risk":5,"migraine_risk":10,"frizz_risk":1,"updated_at":"2026-05-05T11:49:17.851315+05:30"},{"city":"Nizamabad","state":"Telangana","latitude":18.6725,"longitude":78.0941,"temp":37.3,"humidity":21,"rain":0.0,"pressure":965.0,"uv_index":9.1,"wind_gusts":36.4,"aqi":92,"pm10":42.4,"pm2_5":21.2,"no2":2.2,"co":235.0,"o3":168.0,"so2":11.7,"mosquito_risk":0,"arthritis_risk":5,"migraine_risk":10,"frizz_risk":0,"updated_at":"2026-05-05T11:49:17.851321+05:30"},{"city":"Mysore","state":"Karnataka","latitude":12.2958,"longitude":76.6396,"temp":31.4,"humidity":46,"rain":0.0,"pressure":929.7,"uv_index":9.35,"wind_gusts":34.9,"aqi":68,"pm10":35.2,"pm2_5":15.9,"no2":2.0,"co":197.0,"o3":128.0,"so2":1.7,"mosquito_risk":0,"arthritis_risk":5,"migraine_risk":7,"frizz_risk":1,"updated_at":"2026-05-05T11:49:17.851328+05:30"},{"city":"Mangalore","state":"Karnataka","latitude":12.9141,"longitude":74.856,"temp":33.3,"humidity":56,"rain":0.0,"pressure":1006.9,"uv_index":8.6,"wind_gusts":47.5,"aqi":62,"pm10":43.4,"pm2_5":17.2,"no2":1.2,"co":161.0,"o3":83.0,"so2":1.4,"mosquito_risk":0,"arthritis_risk":5,"migraine_risk":4,"frizz_risk":1,"updated_at":"2026-05-05T11:49:17.851335+05:30"},{"city":"Hubli-Dharwad","state":"Karnataka","latitude":15.3647,"longitude":75.124,"temp":34.4,"humidity":28,"rain":0.0,"pressure":942.0,"uv_index":9.2,"wind_gusts":50.0,"aqi":56,"pm10":60.8,"pm2_5":17.5,"no2":1.5,"co":173.0,"o3":103.0,"so2":1.3,"mosquito_risk":0,"arthritis_risk":5,"migraine_risk":7,"frizz_risk":0,"updated_at":"2026-05-05T11:49:17.851342+05:30"},{"city":"Belgaum","state":"Karnataka","latitude":15.8497,"longitude":74.4977,"temp":33.2,"humidity":26,"rain":0.0,"pressure":927.6,"uv_index":9.2,"wind_gusts":46.8,"aqi":58,"pm10":61.0,"pm2_5":16.6,"no2":1.4,"co":151.0,"o3":93.0,"so2":2.1,"mosquito_risk":0,"arthritis_risk":5,"migraine_risk":7,"frizz_risk":0,"updated_at":"2026-05-05T11:49:21.095945+05:30"},{"city":"Coimbatore","state":"Tamil Nadu","latitude":11.0168,"longitude":76.9558,"temp":30.8,"humidity":53,"rain":0.0,"pressure":962.2,"uv_index":9.25,"wind_gusts":46.1,"aqi":58,"pm10":29.5,"pm2_5":12.3,"no2":1.4,"co":218.0,"o3":115.0,"so2":2.3,"mosquito_risk":0,"arthritis_risk":5,"migraine_risk":7,"frizz_risk":1,"updated_at":"2026-05-05T11:49:21.095975+05:30"},{"city":"Madurai","state":"Tamil Nadu","latitude":9.9252,"longitude":78.1198,"temp":38.0,"humidity":30,"rain":0.0,"pressure":992.0,"uv_index":4.45,"wind_gusts":29.2,"aqi":86,"pm10":54.4,"pm2_5":32.1,"no2":2.5,"co":241.0,"o3":187.0,"so2":4.5,"mosquito_risk":0,"arthritis_risk":5,"migraine_risk":6,"frizz_risk":1,"updated_at":"2026-05-05T11:49:21.095985+05:30"},{"city":"Trichy","state":"Tamil Nadu","latitude":10.7905,"longitude":78.7047,"temp":36.5,"humidity":36,"rain":0.0,"pressure":998.7,"uv_index":8.65,"wind_gusts":42.5,"aqi":85,"pm10":37.6,"pm2_5":18.6,"no2":2.1,"co":194.0,"o3":145.0,"so2":4.8,"mosquito_risk":0,"arthritis_risk":5,"migraine_risk":10,"frizz_risk":1,"updated_at":"2026-05-05T11:49:21.095993+05:30"},{"city":"Salem","state":"Tamil Nadu","latitude":11.6643,"longitude":78.146,"temp":34.0,"humidity":42,"rain":0.0,"pressure":977.2,"uv_index":9.0,"wind_gusts":35.3,"aqi":88,"pm10":57.4,"pm2_5":25.3,"no2":3.4,"co":193.0,"o3":173.0,"so2":13.4,"mosquito_risk":0,"arthritis_risk":5,"migraine_risk":7,"frizz_risk":1,"updated_at":"2026-05-05T11:49:21.096000+05:30"},{"city":"Tirunelveli","state":"Tamil Nadu","latitude":8.7139,"longitude":77.7567,"temp":38.5,"humidity":32,"rain":0.0,"pressure":1001.8,"uv_index":8.75,"wind_gusts":41.4,"aqi":79,"pm10":48.1,"pm2_5":16.9,"no2":1.3,"co":190.0,"o3":88.0,"so2":0.7,"mosquito_risk":0,"arthritis_risk":5,"migraine_risk":7,"frizz_risk":1,"updated_at":"2026-05-05T11:49:21.096007+05:30"},{"city":"Vellore","state":"Tamil Nadu","latitude":12.9165,"longitude":79.1325,"temp":37.0,"humidity":30,"rain":0.0,"pressure":983.9,"uv_index":8.35,"wind_gusts":32.4,"aqi":111,"pm10":66.4,"pm2_5":31.7,"no2":1.9,"co":222.0,"o3":176.0,"so2":7.0,"mosquito_risk":0,"arthritis_risk":5,"migraine_risk":10,"frizz_risk":1,"updated_at":"2026-05-05T11:49:21.096014+05:30"},{"city":"Erode","state":"Tamil Nadu","latitude":11.341,"longitude":77.7172,"temp":36.8,"humidity":32,"rain":0.0,"pressure":988.6,"uv_index":8.95,"wind_gusts":47.9,"aqi":71,"pm10":44.4,"pm2_5":19.0,"no2":2.2,"co":245.0,"o3":148.0,"so2":1.9,"mosquito_risk":0,"arthritis_risk":5,"migraine_risk":10,"frizz_risk":1,"updated_at":"2026-05-05T11:49:21.096021+05:30"},{"city":"Kochi","state":"Kerala","latitude":9.9312,"longitude":76.2673,"temp":30.9,"humidity":70,"rain":0.0,"pressure":1008.6,"uv_index":3.95,"wind_gusts":34.2,"aqi":73,"pm10":24.5,"pm2_5":12.5,"no2":2.8,"co":189.0,"o3":101.0,"so2":1.8,"mosquito_risk":3,"arthritis_risk":0,"migraine_risk":0,"frizz_risk":1,"updated_at":"2026-05-05T11:49:21.096027+05:30"},{"city":"Thiruvananthapuram","state":"Kerala","latitude":8.5241,"longitude":76.9366,"temp":32.9,"humidity":56,"rain":0.0,"pressure":1007.8,"uv_index":8.8,"wind_gusts":39.2,"aqi":73,"pm10":48.3,"pm2_5":21.0,"no2":3.5,"co":179.0,"o3":96.0,"so2":3.6,"mosquito_risk":0,"arthritis_risk":5,"migraine_risk":4,"frizz_risk":1,"updated_at":"2026-05-05T11:49:21.096034+05:30"},{"city":"Kozhikode","state":"Kerala","latitude":11.2588,"longitude":75.7804,"temp":31.4,"humidity":68,"rain":0.0,"pressure":1007.6,"uv_index":8.75,"wind_gusts":41.0,"aqi":61,"pm10":41.1,"pm2_5":14.8,"no2":0.6,"co":170.0,"o3":84.0,"so2":1.2,"mosquito_risk":3,"arthritis_risk":5,"migraine_risk":4,"frizz_risk":1,"updated_at":"2026-05-05T11:49:21.096041+05:30"},{"city":"Thrissur","state":"Kerala","latitude":10.5276,"longitude":76.2144,"temp":33.0,"humidity":59,"rain":0.0,"pressure":1006.8,"uv_index":5.7,"wind_gusts":31.7,"aqi":67,"pm10":23.1,"pm2_5":11.4,"no2":1.9,"co":173.0,"o3":90.0,"so2":1.5,"mosquito_risk":0,"arthritis_risk":5,"migraine_risk":0,"frizz_risk":1,"updated_at":"2026-05-05T11:49:21.096048+05:30"},{"city":"Kannur","state":"Kerala","latitude":11.8745,"longitude":75.3704,"temp":31.9,"humidity":65,"rain":0.0,"pressure":1007.3,"uv_index":8.7,"wind_gusts":43.6,"aqi":64,"pm10":42.7,"pm2_5":17.0,"no2":1.1,"co":167.0,"o3":88.0,"so2":1.4,"mosquito_risk":3,"arthritis_risk":5,"migraine_risk":4,"frizz_risk":1,"updated_at":"2026-05-05T11:49:21.096054+05:30"},{"city":"Patna","state":"Bihar","latitude":25.5941,"longitude":85.1376,"temp":30.5,"humidity":61,"rain":0.0,"pressure":1003.5,"uv_index":8.7,"wind_gusts":29.9,"aqi":126,"pm10":46.1,"pm2_5":40.3,"no2":4.1,"co":339.0,"o3":155.0,"so2":11.8,"mosquito_risk":3,"arthritis_risk":5,"migraine_risk":4,"frizz_risk":1,"updated_at":"2026-05-05T11:49:21.096061+05:30"},{"city":"Gaya","state":"Bihar","latitude":24.7914,"longitude":85.0002,"temp":32.2,"humidity":51,"rain":0.0,"pressure":996.5,"uv_index":8.75,"wind_gusts":34.2,"aqi":108,"pm10":59.8,"pm2_5":43.3,"no2":2.9,"co":353.0,"o3":177.0,"so2":13.6,"mosquito_risk":0,"arthritis_risk":5,"migraine_risk":7,"frizz_risk":1,"updated_at":"2026-05-05T11:49:21.096067+05:30"},{"city":"Muzaffarpur","state":"Bihar","latitude":26.1209,"longitude":85.3647,"temp":31.0,"humidity":57,"rain":0.0,"pressure":1003.6,"uv_index":8.6,"wind_gusts":26.6,"aqi":113,"pm10":39.7,"pm2_5":34.7,"no2":2.9,"co":295.0,"o3":163.0,"so2":9.9,"mosquito_risk":0,"arthritis_risk":5,"migraine_risk":4,"frizz_risk":1,"updated_at":"2026-05-05T11:49:21.096074+05:30"},{"city":"Bhagalpur","state":"Bihar","latitude":25.2425,"longitude":87.0117,"temp":31.6,"humidity":50,"rain":0.0,"pressure":1004.4,"uv_index":8.7,"wind_gusts":22.0,"aqi":123,"pm10":35.7,"pm2_5":29.9,"no2":4.5,"co":259.0,"o3":144.0,"so2":8.5,"mosquito_risk":0,"arthritis_risk":5,"migraine_risk":4,"frizz_risk":1,"updated_at":"2026-05-05T11:49:21.096080+05:30"},{"city":"Ranchi","state":"Jharkhand","latitude":23.3441,"longitude":85.3096,"temp":27.9,"humidity":58,"rain":0.0,"pressure":940.8,"uv_index":9.2,"wind_gusts":26.6,"aqi":93,"pm10":58.6,"pm2_5":34.0,"no2":1.7,"co":256.0,"o3":181.0,"so2":16.2,"mosquito_risk":4,"arthritis_risk":5,"migraine_risk":7,"frizz_risk":1,"updated_at":"2026-05-05T11:49:21.096087+05:30"},{"city":"Jamshedpur","state":"Jharkhand","latitude":22.8046,"longitude":86.2029,"temp":31.0,"humidity":57,"rain":0.0,"pressure":993.2,"uv_index":9.0,"wind_gusts":37.4,"aqi":87,"pm10":31.3,"pm2_5":26.1,"no2":4.9,"co":373.0,"o3":133.0,"so2":15.5,"mosquito_risk":0,"arthritis_risk":5,"migraine_risk":7,"frizz_risk":1,"updated_at":"2026-05-05T11:49:21.096094+05:30"},{"city":"Dhanbad","state":"Jharkhand","latitude":23.7957,"longitude":86.4304,"temp":30.6,"humidity":59,"rain":0.0,"pressure":982.6,"uv_index":9.0,"wind_gusts":28.8,"aqi":139,"pm10":60.5,"pm2_5":52.0,"no2":30.2,"co":364.0,"o3":126.0,"so2":69.9,"mosquito_risk":0,"arthritis_risk":5,"migraine_risk":7,"frizz_risk":1,"updated_at":"2026-05-05T11:49:21.096101+05:30"},{"city":"Bokaro","state":"Jharkhand","latitude":23.6693,"longitude":86.1511,"temp":31.4,"humidity":58,"rain":0.0,"pressure":986.4,"uv_index":8.85,"wind_gusts":28.4,"aqi":150,"pm10":74.0,"pm2_5":58.3,"no2":30.3,"co":582.0,"o3":142.0,"so2":76.8,"mosquito_risk":0,"arthritis_risk":5,"migraine_risk":7,"frizz_risk":1,"updated_at":"2026-05-05T11:49:21.096108+05:30"},{"city":"Bhubaneswar","state":"Odisha","latitude":20.2961,"longitude":85.8245,"temp":32.4,"humidity":62,"rain":0.0,"pressure":1004.1,"uv_index":9.1,"wind_gusts":37.4,"aqi":60,"pm10":16.9,"pm2_5":10.6,"no2":1.5,"co":193.0,"o3":97.0,"so2":2.6,"mosquito_risk":3,"arthritis_risk":5,"migraine_risk":4,"frizz_risk":1,"updated_at":"2026-05-05T11:49:21.096114+05:30"},{"city":"Cuttack","state":"Odisha","latitude":20.4625,"longitude":85.8828,"temp":32.2,"humidity":61,"rain":0.0,"pressure":1006.0,"uv_index":9.15,"wind_gusts":38.5,"aqi":60,"pm10":16.9,"pm2_5":10.6,"no2":1.5,"co":209.0,"o3":97.0,"so2":2.6,"mosquito_risk":3,"arthritis_risk":5,"migraine_risk":4,"frizz_risk":1,"updated_at":"2026-05-05T11:49:21.096120+05:30"},{"city":"Rourkela","state":"Odisha","latitude":22.2604,"longitude":84.8536,"temp":32.8,"humidity":52,"rain":0.0,"pressure":986.6,"uv_index":9.0,"wind_gusts":34.2,"aqi":99,"pm10":47.1,"pm2_5":37.5,"no2":2.3,"co":422.0,"o3":182.0,"so2":38.6,"mosquito_risk":0,"arthritis_risk":5,"migraine_risk":7,"frizz_risk":1,"updated_at":"2026-05-05T11:49:21.096126+05:30"},{"city":"Raipur","state":"Chhattisgarh","latitude":21.2514,"longitude":81.6296,"temp":37.2,"humidity":30,"rain":0.0,"pressure":975.3,"uv_index":8.95,"wind_gusts":50.0,"aqi":107,"pm10":66.4,"pm2_5":40.9,"no2":6.4,"co":569.0,"o3":196.0,"so2":7.7,"mosquito_risk":0,"arthritis_risk":5,"migraine_risk":10,"frizz_risk":1,"updated_at":"2026-05-05T11:49:21.096133+05:30"},{"city":"Bhilai","state":"Chhattisgarh","latitude":21.1938,"longitude":81.3509,"temp":36.3,"humidity":34,"rain":0.0,"pressure":975.7,"uv_index":8.95,"wind_gusts":50.4,"aqi":112,"pm10":65.2,"pm2_5":42.5,"no2":8.4,"co":942.0,"o3":213.0,"so2":8.3,"mosquito_risk":0,"arthritis_risk":5,"migraine_risk":10,"frizz_risk":1,"updated_at":"2026-05-05T11:49:21.096139+05:30"},{"city":"Guwahati","state":"Assam","latitude":26.1158,"longitude":91.7086,"temp":25.9,"humidity":78,"rain":0.0,"pressure":1004.6,"uv_index":8.65,"wind_gusts":25.2,"aqi":78,"pm10":37.0,"pm2_5":20.5,"no2":1.0,"co":274.0,"o3":136.0,"so2":1.4,"mosquito_risk":7,"arthritis_risk":5,"migraine_risk":4,"frizz_risk":1,"updated_at":"2026-05-05T11:49:21.096145+05:30"},{"city":"Agartala","state":"Tripura","latitude":23.8315,"longitude":91.2868,"temp":30.8,"humidity":62,"rain":0.0,"pressure":1008.5,"uv_index":8.75,"wind_gusts":25.9,"aqi":131,"pm10":32.7,"pm2_5":22.4,"no2":3.4,"co":205.0,"o3":163.0,"so2":1.7,"mosquito_risk":3,"arthritis_risk":0,"migraine_risk":4,"frizz_risk":1,"updated_at":"2026-05-05T11:49:21.096153+05:30"},{"city":"Shillong","state":"Meghalaya","latitude":25.5788,"longitude":91.8933,"temp":22.6,"humidity":57,"rain":0.0,"pressure":860.4,"uv_index":8.4,"wind_gusts":25.6,"aqi":54,"pm10":54.6,"pm2_5":23.8,"no2":0.9,"co":231.0,"o3":138.0,"so2":1.8,"mosquito_risk":0,"arthritis_risk":5,"migraine_risk":7,"frizz_risk":0,"updated_at":"2026-05-05T11:49:21.096159+05:30"},{"city":"Imphal","state":"Manipur","latitude":24.817,"longitude":93.9368,"temp":27.2,"humidity":56,"rain":0.0,"pressure":925.6,"uv_index":9.2,"wind_gusts":32.0,"aqi":93,"pm10":44.2,"pm2_5":21.4,"no2":0.8,"co":238.0,"o3":123.0,"so2":1.5,"mosquito_risk":4,"arthritis_risk":5,"migraine_risk":7,"frizz_risk":1,"updated_at":"2026-05-05T11:49:21.096165+05:30"},{"city":"Aizawl","state":"Mizoram","latitude":23.7271,"longitude":92.7176,"temp":26.6,"humidity":48,"rain":0.0,"pressure":895.5,"uv_index":9.05,"wind_gusts":27.7,"aqi":76,"pm10":37.5,"pm2_5":18.6,"no2":0.6,"co":177.0,"o3":111.0,"so2":1.0,"mosquito_risk":4,"arthritis_risk":5,"migraine_risk":7,"frizz_risk":0,"updated_at":"2026-05-05T11:49:21.096172+05:30"},{"city":"Kohima","state":"Nagaland","latitude":25.6701,"longitude":94.1077,"temp":22.9,"humidity":70,"rain":0.0,"pressure":858.3,"uv_index":9.15,"wind_gusts":32.0,"aqi":67,"pm10":35.7,"pm2_5":18.9,"no2":0.6,"co":255.0,"o3":122.0,"so2":1.0,"mosquito_risk":3,"arthritis_risk":5,"migraine_risk":7,"frizz_risk":1,"updated_at":"2026-05-05T11:49:21.096178+05:30"},{"city":"Gangtok","state":"Sikkim","latitude":27.3314,"longitude":88.6138,"temp":22.0,"humidity":45,"rain":0.0,"pressure":841.2,"uv_index":9.0,"wind_gusts":42.1,"aqi":62,"pm10":20.0,"pm2_5":10.9,"no2":0.7,"co":236.0,"o3":130.0,"so2":0.4,"mosquito_risk":0,"arthritis_risk":5,"migraine_risk":7,"frizz_risk":0,"updated_at":"2026-05-05T11:49:21.096185+05:30"},{"city":"Siliguri","state":"West Bengal","latitude":26.7271,"longitude":88.3953,"temp":29.9,"humidity":60,"rain":0.0,"pressure":996.0,"uv_index":8.6,"wind_gusts":21.2,"aqi":82,"pm10":40.5,"pm2_5":24.7,"no2":1.3,"co":320.0,"o3":141.0,"so2":1.3,"mosquito_risk":4,"arthritis_risk":5,"migraine_risk":7,"frizz_risk":1,"updated_at":"2026-05-05T11:49:24.353831+05:30"},{"city":"Durgapur","state":"West Bengal","latitude":23.5204,"longitude":87.3119,"temp":29.2,"humidity":66,"rain":0.0,"pressure":998.2,"uv_index":8.7,"wind_gusts":28.4,"aqi":106,"pm10":36.1,"pm2_5":33.2,"no2":14.9,"co":283.0,"o3":123.0,"so2":41.4,"mosquito_risk":7,"arthritis_risk":5,"migraine_risk":7,"frizz_risk":1,"updated_at":"2026-05-05T11:49:24.353859+05:30"},{"city":"Asansol","state":"West Bengal","latitude":23.6739,"longitude":86.9524,"temp":30.5,"humidity":58,"rain":0.0,"pressure":996.7,"uv_index":8.3,"wind_gusts":32.0,"aqi":112,"pm10":41.4,"pm2_5":36.4,"no2":16.8,"co":387.0,"o3":126.0,"so2":48.9,"mosquito_risk":0,"arthritis_risk":5,"migraine_risk":7,"frizz_risk":1,"updated_at":"2026-05-05T11:49:24.353869+05:30"},{"city":"Pondicherry","state":"Puducherry","latitude":11.9139,"longitude":79.8145,"temp":31.6,"humidity":68,"rain":0.0,"pressure":1007.7,"uv_index":8.9,"wind_gusts":36.0,"aqi":77,"pm10":47.7,"pm2_5":30.4,"no2":4.4,"co":307.0,"o3":147.0,"so2":14.9,"mosquito_risk":3,"arthritis_risk":5,"migraine_risk":4,"frizz_risk":1,"updated_at":"2026-05-05T11:49:24.353877+05:30"},{"city":"Port Blair","state":"Andaman and Nicobar Islands","latitude":11.6234,"longitude":92.7265,"temp":29.1,"humidity":79,"rain":0.1,"pressure":1008.4,"uv_index":8.4,"wind_gusts":37.4,"aqi":28,"pm10":6.0,"pm2_5":4.5,"no2":0.3,"co":144.0,"o3":64.0,"so2":0.1,"mosquito_risk":10,"arthritis_risk":0,"migraine_risk":4,"frizz_risk":1,"updated_at":"2026-05-05T11:49:24.353885+05:30"},{"city":"Haridwar","state":"Uttarakhand","latitude":29.9457,"longitude":78.1642,"temp":29.0,"humidity":44,"rain":0.0,"pressure":978.8,"uv_index":6.2,"wind_gusts":24.1,"aqi":67,"pm10":32.0,"pm2_5":11.8,"no2":1.5,"co":212.0,"o3":167.0,"so2":6.3,"mosquito_risk":4,"arthritis_risk":5,"migraine_risk":7,"frizz_risk":0,"updated_at":"2026-05-05T11:49:24.353892+05:30"},{"city":"Rishikesh","state":"Uttarakhand","latitude":30.0869,"longitude":78.2676,"temp":28.0,"humidity":43,"rain":0.0,"pressure":971.5,"uv_index":6.6,"wind_gusts":32.8,"aqi":53,"pm10":31.2,"pm2_5":9.5,"no2":0.9,"co":178.0,"o3":157.0,"so2":3.4,"mosquito_risk":4,"arthritis_risk":5,"migraine_risk":7,"frizz_risk":0,"updated_at":"2026-05-05T11:49:24.353899+05:30"},{"city":"Nainital","state":"Uttarakhand","latitude":29.3919,"longitude":79.4542,"temp":16.0,"humidity":56,"rain":0.0,"pressure":809.4,"uv_index":6.55,"wind_gusts":29.5,"aqi":53,"pm10":20.1,"pm2_5":10.2,"no2":1.1,"co":199.0,"o3":151.0,"so2":2.9,"mosquito_risk":0,"arthritis_risk":5,"migraine_risk":7,"frizz_risk":0,"updated_at":"2026-05-05T11:49:24.353905+05:30"},{"city":"Mussoorie","state":"Uttarakhand","latitude":30.4599,"longitude":78.0664,"temp":16.3,"humidity":51,"rain":0.0,"pressure":806.8,"uv_index":6.2,"wind_gusts":35.3,"aqi":64,"pm10":33.8,"pm2_5":9.3,"no2":1.0,"co":188.0,"o3":151.0,"so2":2.9,"mosquito_risk":0,"arthritis_risk":5,"migraine_risk":7,"frizz_risk":0,"updated_at":"2026-05-05T11:49:24.353912+05:30"},{"city":"Dharamshala","state":"Himachal Pradesh","latitude":32.219,"longitude":76.3234,"temp":19.6,"humidity":53,"rain":0.0,"pressure":873.0,"uv_index":6.7,"wind_gusts":38.2,"aqi":59,"pm10":43.7,"pm2_5":10.3,"no2":0.5,"co":188.0,"o3":152.0,"so2":0.7,"mosquito_risk":0,"arthritis_risk":5,"migraine_risk":7,"frizz_risk":0,"updated_at":"2026-05-05T11:49:24.353919+05:30"},{"city":"Dalhousie","state":"Himachal Pradesh","latitude":32.5387,"longitude":75.971,"temp":17.1,"humidity":46,"rain":0.0,"pressure":808.3,"uv_index":6.15,"wind_gusts":41.8,"aqi":74,"pm10":76.6,"pm2_5":17.2,"no2":1.0,"co":202.0,"o3":158.0,"so2":1.3,"mosquito_risk":0,"arthritis_risk":5,"migraine_risk":7,"frizz_risk":0,"updated_at":"2026-05-05T11:49:24.353926+05:30"},{"city":"Patiala","state":"Punjab","latitude":30.3398,"longitude":76.3869,"temp":28.1,"humidity":46,"rain":0.0,"pressure":982.9,"uv_index":7.3,"wind_gusts":66.6,"aqi":223,"pm10":186.3,"pm2_5":31.7,"no2":2.1,"co":225.0,"o3":177.0,"so2":10.3,"mosquito_risk":4,"arthritis_risk":5,"migraine_risk":7,"frizz_risk":0,"updated_at":"2026-05-05T11:49:24.353932+05:30"},{"city":"Bhatinda","state":"Punjab","latitude":30.211,"longitude":74.9455,"temp":32.1,"humidity":36,"rain":0.0,"pressure":987.4,"uv_index":8.1,"wind_gusts":30.2,"aqi":493,"pm10":333.4,"pm2_5":60.1,"no2":3.0,"co":274.0,"o3":184.0,"so2":18.9,"mosquito_risk":0,"arthritis_risk":5,"migraine_risk":7,"frizz_risk":0,"updated_at":"2026-05-05T11:49:24.353938+05:30"},{"city":"Rohtak","state":"Haryana","latitude":28.8955,"longitude":76.6066,"temp":30.6,"humidity":45,"rain":0.0,"pressure":985.6,"uv_index":7.55,"wind_gusts":59.0,"aqi":230,"pm10":363.2,"pm2_5":67.3,"no2":4.2,"co":312.0,"o3":204.0,"so2":21.7,"mosquito_risk":0,"arthritis_risk":5,"migraine_risk":7,"frizz_risk":1,"updated_at":"2026-05-05T11:49:24.353944+05:30"},{"city":"Panipat","state":"Haryana","latitude":29.3909,"longitude":76.9635,"temp":28.9,"humidity":56,"rain":0.0,"pressure":984.3,"uv_index":6.65,"wind_gusts":48.2,"aqi":589,"pm10":325.0,"pm2_5":60.5,"no2":4.8,"co":297.0,"o3":201.0,"so2":27.4,"mosquito_risk":4,"arthritis_risk":5,"migraine_risk":7,"frizz_risk":1,"updated_at":"2026-05-05T11:49:24.353951+05:30"},{"city":"Mathura","state":"Uttar Pradesh","latitude":27.4924,"longitude":77.6737,"temp":31.0,"humidity":51,"rain":0.0,"pressure":990.3,"uv_index":7.65,"wind_gusts":63.4,"aqi":481,"pm10":230.0,"pm2_5":46.7,"no2":1.8,"co":325.0,"o3":174.0,"so2":7.0,"mosquito_risk":0,"arthritis_risk":5,"migraine_risk":7,"frizz_risk":1,"updated_at":"2026-05-05T11:49:24.353957+05:30"},{"city":"Vrindavan","state":"Uttar Pradesh","latitude":27.5823,"longitude":77.7027,"temp":31.1,"humidity":49,"rain":0.0,"pressure":990.8,"uv_index":7.6,"wind_gusts":65.9,"aqi":481,"pm10":230.0,"pm2_5":46.7,"no2":1.8,"co":324.0,"o3":174.0,"so2":7.0,"mosquito_risk":0,"arthritis_risk":5,"migraine_risk":7,"frizz_risk":1,"updated_at":"2026-05-05T11:49:24.353963+05:30"},{"city":"Ayodhya","state":"Uttar Pradesh","latitude":26.7922,"longitude":82.1998,"temp":24.4,"humidity":80,"rain":0.1,"pressure":999.7,"uv_index":4.65,"wind_gusts":25.2,"aqi":81,"pm10":51.9,"pm2_5":42.4,"no2":4.7,"co":353.0,"o3":129.0,"so2":6.8,"mosquito_risk":6,"arthritis_risk":5,"migraine_risk":3,"frizz_risk":1,"updated_at":"2026-05-05T11:49:24.353970+05:30"},{"city":"Ratlam","state":"Madhya Pradesh","latitude":23.3315,"longitude":75.0367,"temp":34.0,"humidity":41,"rain":0.0,"pressure":956.0,"uv_index":8.5,"wind_gusts":45.0,"aqi":66,"pm10":32.1,"pm2_5":14.8,"no2":1.0,"co":163.0,"o3":111.0,"so2":4.8,"mosquito_risk":0,"arthritis_risk":5,"migraine_risk":7,"frizz_risk":1,"updated_at":"2026-05-05T11:49:24.353976+05:30"},{"city":"Sagar","state":"Madhya Pradesh","latitude":23.8388,"longitude":78.7378,"temp":32.7,"humidity":39,"rain":0.0,"pressure":952.1,"uv_index":8.65,"wind_gusts":35.3,"aqi":79,"pm10":76.6,"pm2_5":39.1,"no2":1.6,"co":237.0,"o3":168.0,"so2":16.5,"mosquito_risk":0,"arthritis_risk":5,"migraine_risk":7,"frizz_risk":1,"updated_at":"2026-05-05T11:49:24.353982+05:30"},{"city":"Satna","state":"Madhya Pradesh","latitude":24.6005,"longitude":80.8322,"temp":31.0,"humidity":43,"rain":0.0,"pressure":973.8,"uv_index":8.7,"wind_gusts":51.1,"aqi":124,"pm10":66.8,"pm2_5":39.0,"no2":2.1,"co":214.0,"o3":161.0,"so2":9.4,"mosquito_risk":0,"arthritis_risk":5,"migraine_risk":7,"frizz_risk":1,"updated_at":"2026-05-05T11:49:24.353988+05:30"},{"city":"Akola","state":"Maharashtra","latitude":20.7002,"longitude":77.0082,"temp":38.2,"humidity":22,"rain":0.0,"pressure":975.1,"uv_index":8.9,"wind_gusts":35.6,"aqi":56,"pm10":50.5,"pm2_5":20.5,"no2":1.6,"co":179.0,"o3":137.0,"so2":12.2,"mosquito_risk":0,"arthritis_risk":5,"migraine_risk":10,"frizz_risk":0,"updated_at":"2026-05-05T11:49:24.353995+05:30"},{"city":"Amravati","state":"Maharashtra","latitude":20.9374,"longitude":77.7796,"temp":38.4,"humidity":17,"rain":0.0,"pressure":967.6,"uv_index":8.85,"wind_gusts":37.8,"aqi":57,"pm10":53.6,"pm2_5":21.8,"no2":2.4,"co":185.0,"o3":149.0,"so2":8.5,"mosquito_risk":0,"arthritis_risk":5,"migraine_risk":10,"frizz_risk":0,"updated_at":"2026-05-05T11:49:24.354002+05:30"},{"city":"Latur","state":"Maharashtra","latitude":18.4088,"longitude":76.5604,"temp":36.7,"humidity":19,"rain":0.0,"pressure":940.9,"uv_index":9.05,"wind_gusts":38.5,"aqi":60,"pm10":66.4,"pm2_5":20.5,"no2":1.4,"co":158.0,"o3":126.0,"so2":10.5,"mosquito_risk":0,"arthritis_risk":5,"migraine_risk":10,"frizz_risk":0,"updated_at":"2026-05-05T11:49:24.354010+05:30"},{"city":"Nanded","state":"Maharashtra","latitude":19.1383,"longitude":77.3091,"temp":38.3,"humidity":22,"rain":0.0,"pressure":968.7,"uv_index":8.95,"wind_gusts":33.1,"aqi":65,"pm10":47.8,"pm2_5":19.0,"no2":1.5,"co":184.0,"o3":134.0,"so2":7.1,"mosquito_risk":0,"arthritis_risk":5,"migraine_risk":10,"frizz_risk":0,"updated_at":"2026-05-05T11:49:24.354017+05:30"},{"city":"Gulbarga","state":"Karnataka","latitude":17.3297,"longitude":76.8343,"temp":38.5,"humidity":15,"rain":0.0,"pressure":958.8,"uv_index":9.1,"wind_gusts":40.3,"aqi":53,"pm10":59.0,"pm2_5":18.7,"no2":1.8,"co":174.0,"o3":133.0,"so2":6.0,"mosquito_risk":0,"arthritis_risk":5,"migraine_risk":10,"frizz_risk":0,"updated_at":"2026-05-05T11:49:24.354023+05:30"},{"city":"Bidar","state":"Karnataka","latitude":17.9104,"longitude":77.5199,"temp":36.3,"humidity":21,"rain":0.0,"pressure":936.6,"uv_index":9.15,"wind_gusts":36.0,"aqi":61,"pm10":43.3,"pm2_5":18.5,"no2":1.8,"co":166.0,"o3":140.0,"so2":9.3,"mosquito_risk":0,"arthritis_risk":5,"migraine_risk":10,"frizz_risk":0,"updated_at":"2026-05-05T11:49:24.354029+05:30"},{"city":"Hospet","state":"Karnataka","latitude":15.2689,"longitude":76.3909,"temp":33.8,"humidity":35,"rain":0.0,"pressure":956.5,"uv_index":9.25,"wind_gusts":34.9,"aqi":61,"pm10":64.0,"pm2_5":18.9,"no2":2.2,"co":181.0,"o3":114.0,"so2":1.9,"mosquito_risk":0,"arthritis_risk":5,"migraine_risk":7,"frizz_risk":1,"updated_at":"2026-05-05T11:49:24.354035+05:30"},{"city":"Tirupur","state":"Tamil Nadu","latitude":11.1085,"longitude":77.3411,"temp":35.0,"humidity":39,"rain":0.0,"pressure":975.2,"uv_index":9.2,"wind_gusts":52.9,"aqi":71,"pm10":38.6,"pm2_5":16.9,"no2":2.2,"co":230.0,"o3":141.0,"so2":2.6,"mosquito_risk":0,"arthritis_risk":5,"migraine_risk":7,"frizz_risk":1,"updated_at":"2026-05-05T11:49:24.354041+05:30"},{"city":"Alappuzha","state":"Kerala","latitude":9.4981,"longitude":76.3388,"temp":32.3,"humidity":61,"rain":0.0,"pressure":1008.5,"uv_index":7.75,"wind_gusts":37.8,"aqi":73,"pm10":30.0,"pm2_5":15.3,"no2":2.8,"co":184.0,"o3":116.0,"so2":3.5,"mosquito_risk":3,"arthritis_risk":0,"migraine_risk":4,"frizz_risk":1,"updated_at":"2026-05-05T11:49:24.354047+05:30"},{"city":"Munnar","state":"Kerala","latitude":10.0889,"longitude":77.0595,"temp":22.1,"humidity":68,"rain":0.0,"pressure":858.4,"uv_index":7.25,"wind_gusts":19.1,"aqi":60,"pm10":24.7,"pm2_5":10.6,"no2":1.0,"co":180.0,"o3":110.0,"so2":1.0,"mosquito_risk":3,"arthritis_risk":5,"migraine_risk":7,"frizz_risk":0,"updated_at":"2026-05-05T11:49:24.354054+05:30"},{"city":"Silchar","state":"Assam","latitude":24.8333,"longitude":92.7789,"temp":31.5,"humidity":55,"rain":0.0,"pressure":1006.7,"uv_index":8.85,"wind_gusts":29.2,"aqi":96,"pm10":40.9,"pm2_5":23.2,"no2":1.1,"co":215.0,"o3":126.0,"so2":2.9,"mosquito_risk":0,"arthritis_risk":5,"migraine_risk":4,"frizz_risk":1,"updated_at":"2026-05-05T11:49:24.354060+05:30"},{"city":"Dibrugarh","state":"Assam","latitude":27.4728,"longitude":94.912,"temp":27.4,"humidity":75,"rain":0.0,"pressure":997.7,"uv_index":8.45,"wind_gusts":34.6,"aqi":55,"pm10":18.2,"pm2_5":12.2,"no2":1.2,"co":220.0,"o3":126.0,"so2":1.1,"mosquito_risk":7,"arthritis_risk":5,"migraine_risk":7,"frizz_risk":1,"updated_at":"2026-05-05T11:49:24.354066+05:30"}]