[{"city":"Delhi","state":"Delhi","latitude":28.6139,"longitude":77.209,"temp":37.5,"humidity":23,"rain":0.0,"pressure":974.8,"uv_index":7.6,"wind_gusts":36.0,"aqi":197,"pm10":347.4,"pm2_5":72.9,"no2":5.3,"co":406.0,"o3":239.0,"so2":25.7,"mosquito_risk":0,"arthritis_risk":5,"migraine_risk":10,"frizz_risk":0,"updated_at":"2026-05-02T16:25:23.910910+05:30"},{"city":"Mumbai","state":"Maharashtra","latitude":19.076,"longitude":72.8777,"temp":32.0,"humidity":63,"rain":0.0,"pressure":1005.1,"uv_index":7.9,"wind_gusts":42.1,"aqi":73,"pm10":60.8,"pm2_5":24.6,"no2":5.1,"co":207.0,"o3":100.0,"so2":17.1,"mosquito_risk":3,"arthritis_risk":5,"migraine_risk":4,"frizz_risk":1,"updated_at":"2026-05-02T16:25:23.910970+05:30"},{"city":"Bangalore","state":"Karnataka","latitude":12.9716,"longitude":77.5946,"temp":33.3,"humidity":28,"rain":0.0,"pressure":909.0,"uv_index":9.5,"wind_gusts":33.1,"aqi":103,"pm10":31.0,"pm2_5":16.8,"no2":5.0,"co":313.0,"o3":165.0,"so2":4.9,"mosquito_risk":0,"arthritis_risk":5,"migraine_risk":7,"frizz_risk":0,"updated_at":"2026-05-02T16:25:23.910986+05:30"},{"city":"Hyderabad","state":"Telangana","latitude":17.385,"longitude":78.4867,"temp":39.3,"humidity":16,"rain":0.0,"pressure":948.0,"uv_index":9.25,"wind_gusts":32.8,"aqi":77,"pm10":34.8,"pm2_5":13.0,"no2":0.9,"co":242.0,"o3":131.0,"so2":3.0,"mosquito_risk":0,"arthritis_risk":5,"migraine_risk":10,"frizz_risk":0,"updated_at":"2026-05-02T16:25:23.910996+05:30"},{"city":"Chennai","state":"Tamil Nadu","latitude":13.0827,"longitude":80.2707,"temp":33.7,"humidity":63,"rain":0.0,"pressure":1001.6,"uv_index":9.2,"wind_gusts":54.7,"aqi":82,"pm10":23.5,"pm2_5":17.5,"no2":3.3,"co":229.0,"o3":134.0,"so2":5.9,"mosquito_risk":3,"arthritis_risk":5,"migraine_risk":4,"frizz_risk":1,"updated_at":"2026-05-02T16:25:23.911004+05:30"},{"city":"Kolkata","state":"West Bengal","latitude":22.5726,"longitude":88.3639,"temp":25.6,"humidity":87,"rain":0.2,"pressure":1000.3,"uv_index":8.85,"wind_gusts":42.8,"aqi":66,"pm10":45.2,"pm2_5":27.9,"no2":5.3,"co":377.0,"o3":130.0,"so2":8.6,"mosquito_risk":10,"arthritis_risk":5,"migraine_risk":4,"frizz_risk":1,"updated_at":"2026-05-02T16:25:23.911013+05:30"},{"city":"Pune","state":"Maharashtra","latitude":18.5204,"longitude":73.8567,"temp":34.8,"humidity":29,"rain":0.0,"pressure":945.0,"uv_index":8.5,"wind_gusts":48.6,"aqi":60,"pm10":72.6,"pm2_5":18.2,"no2":1.7,"co":174.0,"o3":108.0,"so2":2.6,"mosquito_risk":0,"arthritis_risk":5,"migraine_risk":7,"frizz_risk":0,"updated_at":"2026-05-02T16:25:23.911021+05:30"},{"city":"Ahmedabad","state":"Gujarat","latitude":23.0225,"longitude":72.5714,"temp":43.8,"humidity":11,"rain":0.0,"pressure":993.4,"uv_index":8.1,"wind_gusts":51.1,"aqi":56,"pm10":169.5,"pm2_5":28.3,"no2":2.1,"co":166.0,"o3":122.0,"so2":3.6,"mosquito_risk":0,"arthritis_risk":5,"migraine_risk":10,"frizz_risk":0,"updated_at":"2026-05-02T16:25:23.911033+05:30"},{"city":"Jaipur","state":"Rajasthan","latitude":26.9124,"longitude":75.7873,"temp":40.2,"humidity":13,"rain":0.0,"pressure":952.3,"uv_index":8.15,"wind_gusts":35.6,"aqi":121,"pm10":224.0,"pm2_5":32.5,"no2":0.3,"co":168.0,"o3":125.0,"so2":2.5,"mosquito_risk":0,"arthritis_risk":5,"migraine_risk":10,"frizz_risk":0,"updated_at":"2026-05-02T16:25:23.911040+05:30"},{"city":"Lucknow","state":"Uttar Pradesh","latitude":26.8467,"longitude":80.9462,"temp":35.4,"humidity":35,"rain":0.0,"pressure":985.7,"uv_index":8.1,"wind_gusts":40.7,"aqi":151,"pm10":95.9,"pm2_5":30.6,"no2":1.7,"co":309.0,"o3":180.0,"so2":7.7,"mosquito_risk":0,"arthritis_risk":5,"migraine_risk":10,"frizz_risk":1,"updated_at":"2026-05-02T16:25:23.911048+05:30"},{"city":"Kanpur","state":"Uttar Pradesh","latitude":26.4499,"longitude":80.3319,"temp":37.0,"humidity":30,"rain":0.0,"pressure":984.2,"uv_index":8.1,"wind_gusts":37.1,"aqi":158,"pm10":152.3,"pm2_5":36.8,"no2":1.4,"co":269.0,"o3":186.0,"so2":8.6,"mosquito_risk":0,"arthritis_risk":5,"migraine_risk":10,"frizz_risk":1,"updated_at":"2026-05-02T16:25:23.911054+05:30"},{"city":"Chandigarh","state":"Chandigarh","latitude":30.7333,"longitude":76.7794,"temp":34.2,"humidity":26,"rain":0.0,"pressure":962.0,"uv_index":7.6,"wind_gusts":33.8,"aqi":158,"pm10":43.7,"pm2_5":22.6,"no2":1.7,"co":299.0,"o3":175.0,"so2":13.9,"mosquito_risk":0,"arthritis_risk":5,"migraine_risk":7,"frizz_risk":0,"updated_at":"2026-05-02T16:25:23.911061+05:30"},{"city":"Srinagar","state":"Jammu and Kashmir","latitude":34.0837,"longitude":74.7973,"temp":20.0,"humidity":55,"rain":0.0,"pressure":838.8,"uv_index":8.8,"wind_gusts":36.0,"aqi":90,"pm10":12.0,"pm2_5":8.6,"no2":2.9,"co":311.0,"o3":139.0,"so2":2.1,"mosquito_risk":0,"arthritis_risk":5,"migraine_risk":7,"frizz_risk":0,"updated_at":"2026-05-02T16:25:23.911068+05:30"},{"city":"Jammu","state":"Jammu and Kashmir","latitude":32.7266,"longitude":74.857,"temp":34.2,"humidity":22,"rain":0.0,"pressure":966.3,"uv_index":8.4,"wind_gusts":31.0,"aqi":104,"pm10":24.5,"pm2_5":12.6,"no2":1.3,"co":265.0,"o3":160.0,"so2":3.2,"mosquito_risk":0,"arthritis_risk":5,"migraine_risk":7,"frizz_risk":0,"updated_at":"2026-05-02T16:25:23.911075+05:30"},{"city":"Amritsar","state":"Punjab","latitude":31.634,"longitude":74.8723,"temp":36.5,"humidity":20,"rain":0.0,"pressure":973.6,"uv_index":8.25,"wind_gusts":29.9,"aqi":136,"pm10":36.4,"pm2_5":17.4,"no2":1.7,"co":261.0,"o3":187.0,"so2":6.5,"mosquito_risk":0,"arthritis_risk":5,"migraine_risk":10,"frizz_risk":0,"updated_at":"2026-05-02T16:25:23.911082+05:30"},{"city":"Ludhiana","state":"Punjab","latitude":30.901,"longitude":75.8573,"temp":36.7,"humidity":19,"rain":0.0,"pressure":971.4,"uv_index":7.85,"wind_gusts":36.0,"aqi":153,"pm10":62.6,"pm2_5":21.5,"no2":0.8,"co":266.0,"o3":160.0,"so2":4.8,"mosquito_risk":0,"arthritis_risk":5,"migraine_risk":10,"frizz_risk":0,"updated_at":"2026-05-02T16:25:23.911089+05:30"},{"city":"Jalandhar","state":"Punjab","latitude":31.326,"longitude":75.5762,"temp":35.6,"humidity":23,"rain":0.0,"pressure":972.7,"uv_index":8.05,"wind_gusts":36.7,"aqi":136,"pm10":64.5,"pm2_5":20.6,"no2":0.8,"co":289.0,"o3":162.0,"so2":5.1,"mosquito_risk":0,"arthritis_risk":5,"migraine_risk":10,"frizz_risk":0,"updated_at":"2026-05-02T16:25:23.911095+05:30"},{"city":"Dehradun","state":"Uttarakhand","latitude":30.6284,"longitude":78.0322,"temp":18.6,"humidity":66,"rain":0.0,"pressure":826.2,"uv_index":8.05,"wind_gusts":44.6,"aqi":127,"pm10":56.0,"pm2_5":27.8,"no2":0.6,"co":264.0,"o3":167.0,"so2":5.1,"mosquito_risk":3,"arthritis_risk":5,"migraine_risk":7,"frizz_risk":0,"updated_at":"2026-05-02T16:25:23.911103+05:30"},{"city":"Shimla","state":"Himachal Pradesh","latitude":31.1048,"longitude":77.1734,"temp":18.6,"humidity":42,"rain":0.0,"pressure":781.8,"uv_index":8.15,"wind_gusts":44.6,"aqi":140,"pm10":33.6,"pm2_5":18.6,"no2":0.7,"co":205.0,"o3":174.0,"so2":13.6,"mosquito_risk":0,"arthritis_risk":5,"migraine_risk":7,"frizz_risk":0,"updated_at":"2026-05-02T16:25:23.911109+05:30"},{"city":"Manali","state":"Himachal Pradesh","latitude":32.2396,"longitude":77.1887,"temp":15.5,"humidity":72,"rain":0.0,"pressure":814.0,"uv_index":10.3,"wind_gusts":39.2,"aqi":129,"pm10":10.7,"pm2_5":5.9,"no2":0.5,"co":163.0,"o3":171.0,"so2":0.3,"mosquito_risk":3,"arthritis_risk":5,"migraine_risk":7,"frizz_risk":0,"updated_at":"2026-05-02T16:25:23.911116+05:30"},{"city":"Gurgaon","state":"Haryana","latitude":28.4595,"longitude":77.0266,"temp":37.5,"humidity":22,"rain":0.0,"pressure":973.4,"uv_index":7.7,"wind_gusts":26.6,"aqi":831,"pm10":726.4,"pm2_5":101.0,"no2":3.8,"co":309.0,"o3":222.0,"so2":19.5,"mosquito_risk":0,"arthritis_risk":5,"migraine_risk":10,"frizz_risk":0,"updated_at":"2026-05-02T16:25:23.911122+05:30"},{"city":"Noida","state":"Uttar Pradesh","latitude":28.5355,"longitude":77.391,"temp":36.2,"humidity":30,"rain":0.0,"pressure":976.4,"uv_index":7.65,"wind_gusts":24.8,"aqi":831,"pm10":726.4,"pm2_5":101.0,"no2":3.8,"co":388.0,"o3":222.0,"so2":19.5,"mosquito_risk":0,"arthritis_risk":5,"migraine_risk":10,"frizz_risk":0,"updated_at":"2026-05-02T16:25:23.911127+05:30"},{"city":"Ghaziabad","state":"Uttar Pradesh","latitude":28.6692,"longitude":77.4538,"temp":36.8,"humidity":26,"rain":0.0,"pressure":975.0,"uv_index":7.6,"wind_gusts":25.2,"aqi":153,"pm10":303.6,"pm2_5":59.8,"no2":3.1,"co":334.0,"o3":204.0,"so2":12.2,"mosquito_risk":0,"arthritis_risk":5,"migraine_risk":10,"frizz_risk":0,"updated_at":"2026-05-02T16:25:23.911133+05:30"},{"city":"Faridabad","state":"Haryana","latitude":28.4089,"longitude":77.3178,"temp":37.5,"humidity":21,"rain":0.0,"pressure":975.5,"uv_index":7.65,"wind_gusts":26.3,"aqi":831,"pm10":726.4,"pm2_5":101.0,"no2":3.8,"co":304.0,"o3":222.0,"so2":19.5,"mosquito_risk":0,"arthritis_risk":5,"migraine_risk":10,"frizz_risk":0,"updated_at":"2026-05-02T16:25:23.911139+05:30"},{"city":"Meerut","state":"Uttar Pradesh","latitude":28.9845,"longitude":77.7064,"temp":34.5,"humidity":33,"rain":0.0,"pressure":974.1,"uv_index":7.5,"wind_gusts":29.5,"aqi":153,"pm10":303.6,"pm2_5":59.8,"no2":3.1,"co":289.0,"o3":204.0,"so2":12.2,"mosquito_risk":0,"arthritis_risk":5,"migraine_risk":7,"frizz_risk":0,"updated_at":"2026-05-02T16:25:23.911145+05:30"},{"city":"Agra","state":"Uttar Pradesh","latitude":27.1767,"longitude":78.0081,"temp":37.2,"humidity":22,"rain":0.0,"pressure":980.4,"uv_index":7.95,"wind_gusts":45.7,"aqi":684,"pm10":573.7,"pm2_5":71.5,"no2":1.7,"co":232.0,"o3":175.0,"so2":8.1,"mosquito_risk":0,"arthritis_risk":5,"migraine_risk":10,"frizz_risk":0,"updated_at":"2026-05-02T16:25:23.911151+05:30"},{"city":"Varanasi","state":"Uttar Pradesh","latitude":25.3176,"longitude":82.9739,"temp":36.0,"humidity":31,"rain":0.0,"pressure":989.6,"uv_index":8.6,"wind_gusts":34.2,"aqi":174,"pm10":75.2,"pm2_5":33.9,"no2":2.4,"co":318.0,"o3":206.0,"so2":13.6,"mosquito_risk":0,"arthritis_risk":5,"migraine_risk":10,"frizz_risk":1,"updated_at":"2026-05-02T16:25:23.911157+05:30"},{"city":"Prayagraj","state":"Uttar Pradesh","latitude":25.4358,"longitude":81.8463,"temp":36.9,"humidity":30,"rain":0.0,"pressure":987.5,"uv_index":8.5,"wind_gusts":37.1,"aqi":171,"pm10":73.6,"pm2_5":33.8,"no2":2.2,"co":285.0,"o3":205.0,"so2":11.4,"mosquito_risk":0,"arthritis_risk":5,"migraine_risk":10,"frizz_risk":1,"updated_at":"2026-05-02T16:25:23.911164+05:30"},{"city":"Gorakhpur","state":"Uttar Pradesh","latitude":26.7606,"longitude":83.3732,"temp":32.6,"humidity":41,"rain":0.0,"pressure":990.3,"uv_index":8.45,"wind_gusts":31.3,"aqi":134,"pm10":82.0,"pm2_5":29.8,"no2":1.7,"co":317.0,"o3":184.0,"so2":5.3,"mosquito_risk":0,"arthritis_risk":5,"migraine_risk":7,"frizz_risk":1,"updated_at":"2026-05-02T16:25:23.911170+05:30"},{"city":"Bareilly","state":"Uttar Pradesh","latitude":28.367,"longitude":79.4304,"temp":34.5,"humidity":34,"rain":0.0,"pressure":979.6,"uv_index":7.9,"wind_gusts":32.8,"aqi":150,"pm10":269.2,"pm2_5":57.7,"no2":1.5,"co":278.0,"o3":199.0,"so2":12.6,"mosquito_risk":0,"arthritis_risk":5,"migraine_risk":7,"frizz_risk":1,"updated_at":"2026-05-02T16:25:23.911176+05:30"},{"city":"Aligarh","state":"Uttar Pradesh","latitude":27.8974,"longitude":78.088,"temp":36.0,"humidity":30,"rain":0.0,"pressure":977.9,"uv_index":7.75,"wind_gusts":30.6,"aqi":443,"pm10":402.3,"pm2_5":61.5,"no2":1.8,"co":270.0,"o3":177.0,"so2":11.3,"mosquito_risk":0,"arthritis_risk":5,"migraine_risk":10,"frizz_risk":0,"updated_at":"2026-05-02T16:25:23.911182+05:30"},{"city":"Moradabad","state":"Uttar Pradesh","latitude":28.8386,"longitude":78.7733,"temp":34.2,"humidity":33,"rain":0.0,"pressure":976.6,"uv_index":7.7,"wind_gusts":31.3,"aqi":157,"pm10":214.2,"pm2_5":51.5,"no2":2.5,"co":292.0,"o3":202.0,"so2":19.7,"mosquito_risk":0,"arthritis_risk":5,"migraine_risk":7,"frizz_risk":0,"updated_at":"2026-05-02T16:25:23.911188+05:30"},{"city":"Saharanpur","state":"Uttar Pradesh","latitude":29.9637,"longitude":77.546,"temp":33.0,"humidity":35,"rain":0.0,"pressure":968.9,"uv_index":7.35,"wind_gusts":31.7,"aqi":163,"pm10":118.5,"pm2_5":31.1,"no2":2.9,"co":281.0,"o3":181.0,"so2":7.2,"mosquito_risk":0,"arthritis_risk":5,"migraine_risk":7,"frizz_risk":0,"updated_at":"2026-05-02T16:25:23.911193+05:30"},{"city":"Jhansi","state":"Uttar Pradesh","latitude":25.4484,"longitude":78.5685,"temp":40.3,"humidity":14,"rain":0.0,"pressure":969.5,"uv_index":8.4,"wind_gusts":43.2,"aqi":73,"pm10":81.3,"pm2_5":21.3,"no2":1.0,"co":158.0,"o3":130.0,"so2":5.8,"mosquito_risk":0,"arthritis_risk":5,"migraine_risk":10,"frizz_risk":0,"updated_at":"2026-05-02T16:25:27.278407+05:30"},{"city":"Surat","state":"Gujarat","latitude":21.1702,"longitude":72.8311,"temp":33.1,"humidity":57,"rain":0.0,"pressure":1001.4,"uv_index":7.75,"wind_gusts":54.4,"aqi":64,"pm10":38.2,"pm2_5":19.9,"no2":11.2,"co":221.0,"o3":76.0,"so2":31.1,"mosquito_risk":0,"arthritis_risk":5,"migraine_risk":4,"frizz_risk":1,"updated_at":"2026-05-02T16:25:27.278439+05:30"},{"city":"Vadodara","state":"Gujarat","latitude":22.3072,"longitude":73.1812,"temp":40.0,"humidity":30,"rain":0.0,"pressure":996.8,"uv_index":8.05,"wind_gusts":50.4,"aqi":57,"pm10":62.9,"pm2_5":20.3,"no2":2.0,"co":176.0,"o3":124.0,"so2":6.2,"mosquito_risk":0,"arthritis_risk":5,"migraine_risk":10,"frizz_risk":1,"updated_at":"2026-05-02T16:25:27.278450+05:30"},{"city":"Rajkot","state":"Gujarat","latitude":22.3039,"longitude":70.8022,"temp":41.2,"humidity":16,"rain":0.0,"pressure":987.5,"uv_index":7.75,"wind_gusts":55.8,"aqi":53,"pm10":94.5,"pm2_5":21.6,"no2":1.2,"co":139.0,"o3":117.0,"so2":5.0,"mosquito_risk":0,"arthritis_risk":5,"migraine_risk":10,"frizz_risk":0,"updated_at":"2026-05-02T16:25:27.278458+05:30"},{"city":"Thane","state":"Maharashtra","latitude":19.2183,"longitude":72.9781,"temp":33.6,"humidity":54,"rain":0.0,"pressure":1004.1,"uv_index":7.95,"wind_gusts":40.3,"aqi":73,"pm10":60.8,"pm2_5":24.6,"no2":5.1,"co":203.0,"o3":100.0,"so2":17.1,"mosquito_risk":0,"arthritis_risk":5,"migraine_risk":4,"frizz_risk":1,"updated_at":"2026-05-02T16:25:27.278466+05:30"},{"city":"Nagpur","state":"Maharashtra","latitude":21.1458,"longitude":79.0882,"temp":41.2,"humidity":15,"rain":0.0,"pressure":966.1,"uv_index":8.95,"wind_gusts":63.0,"aqi":88,"pm10":44.0,"pm2_5":15.2,"no2":3.8,"co":159.0,"o3":134.0,"so2":12.0,"mosquito_risk":0,"arthritis_risk":5,"migraine_risk":10,"frizz_risk":0,"updated_at":"2026-05-02T16:25:27.278475+05:30"},{"city":"Nashik","state":"Maharashtra","latitude":19.9975,"longitude":73.7898,"temp":35.2,"humidity":28,"rain":0.0,"pressure":942.3,"uv_index":8.25,"wind_gusts":45.4,"aqi":65,"pm10":42.5,"pm2_5":16.4,"no2":0.9,"co":154.0,"o3":110.0,"so2":3.7,"mosquito_risk":0,"arthritis_risk":5,"migraine_risk":10,"frizz_risk":0,"updated_at":"2026-05-02T16:25:27.278483+05:30"},{"city":"Aurangabad","state":"Maharashtra","latitude":19.8762,"longitude":75.3433,"temp":39.0,"humidity":16,"rain":0.0,"pressure":939.6,"uv_index":9.05,"wind_gusts":40.3,"aqi":57,"pm10":54.6,"pm2_5":15.6,"no2":0.8,"co":156.0,"o3":108.0,"so2":1.7,"mosquito_risk":0,"arthritis_risk":5,"migraine_risk":10,"frizz_risk":0,"updated_at":"2026-05-02T16:25:27.278490+05:30"},{"city":"Solapur","state":"Maharashtra","latitude":17.6599,"longitude":75.9064,"temp":40.6,"humidity":12,"rain":0.0,"pressure":951.7,"uv_index":9.05,"wind_gusts":41.0,"aqi":53,"pm10":48.5,"pm2_5":14.0,"no2":0.8,"co":144.0,"o3":116.0,"so2":1.4,"mosquito_risk":0,"arthritis_risk":5,"migraine_risk":10,"frizz_risk":0,"updated_at":"2026-05-02T16:25:27.278498+05:30"},{"city":"Kolhapur","state":"Maharashtra","latitude":16.705,"longitude":74.2433,"temp":33.8,"humidity":35,"rain":0.0,"pressure":945.1,"uv_index":8.95,"wind_gusts":50.4,"aqi":64,"pm10":58.8,"pm2_5":18.6,"no2":1.7,"co":158.0,"o3":101.0,"so2":1.5,"mosquito_risk":0,"arthritis_risk":5,"migraine_risk":7,"frizz_risk":0,"updated_at":"2026-05-02T16:25:27.278506+05:30"},{"city":"Goa","state":"Goa","latitude":15.2993,"longitude":74.124,"temp":33.4,"humidity":54,"rain":0.0,"pressure":995.0,"uv_index":8.95,"wind_gusts":40.7,"aqi":70,"pm10":67.1,"pm2_5":18.2,"no2":0.6,"co":137.0,"o3":79.0,"so2":0.9,"mosquito_risk":0,"arthritis_risk":5,"migraine_risk":7,"frizz_risk":1,"updated_at":"2026-05-02T16:25:27.278513+05:30"},{"city":"Jodhpur","state":"Rajasthan","latitude":26.2389,"longitude":73.0243,"temp":42.2,"humidity":14,"rain":0.0,"pressure":973.9,"uv_index":8.35,"wind_gusts":37.8,"aqi":120,"pm10":244.0,"pm2_5":33.8,"no2":0.8,"co":150.0,"o3":125.0,"so2":3.0,"mosquito_risk":0,"arthritis_risk":5,"migraine_risk":10,"frizz_risk":0,"updated_at":"2026-05-02T16:25:27.278521+05:30"},{"city":"Udaipur","state":"Rajasthan","latitude":24.5854,"longitude":73.7125,"temp":38.1,"humidity":16,"rain":0.0,"pressure":940.4,"uv_index":8.8,"wind_gusts":40.7,"aqi":56,"pm10":117.3,"pm2_5":21.8,"no2":0.6,"co":142.0,"o3":123.0,"so2":2.3,"mosquito_risk":0,"arthritis_risk":5,"migraine_risk":10,"frizz_risk":0,"updated_at":"2026-05-02T16:25:27.278528+05:30"},{"city":"Kota","state":"Rajasthan","latitude":25.2138,"longitude":75.8648,"temp":40.3,"humidity":19,"rain":0.0,"pressure":970.6,"uv_index":8.35,"wind_gusts":40.3,"aqi":62,"pm10":73.8,"pm2_5":20.7,"no2":0.6,"co":164.0,"o3":125.0,"so2":3.2,"mosquito_risk":0,"arthritis_risk":5,"migraine_risk":10,"frizz_risk":0,"updated_at":"2026-05-02T16:25:27.278535+05:30"},{"city":"Bikaner","state":"Rajasthan","latitude":28.0229,"longitude":73.3119,"temp":42.5,"humidity":12,"rain":0.0,"pressure":972.2,"uv_index":8.25,"wind_gusts":40.3,"aqi":65,"pm10":110.8,"pm2_5":21.3,"no2":0.2,"co":150.0,"o3":123.0,"so2":5.1,"mosquito_risk":0,"arthritis_risk":5,"migraine_risk":10,"frizz_risk":0,"updated_at":"2026-05-02T16:25:27.278542+05:30"},{"city":"Ajmer","state":"Rajasthan","latitude":26.4499,"longitude":74.6399,"temp":39.2,"humidity":14,"rain":0.0,"pressure":947.4,"uv_index":8.3,"wind_gusts":43.6,"aqi":63,"pm10":89.2,"pm2_5":21.9,"no2":0.5,"co":149.0,"o3":118.0,"so2":3.0,"mosquito_risk":0,"arthritis_risk":5,"migraine_risk":10,"frizz_risk":0,"updated_at":"2026-05-02T16:25:27.278554+05:30"},{"city":"Gwalior","state":"Madhya Pradesh","latitude":26.2183,"longitude":78.1828,"temp":39.2,"humidity":16,"rain":0.0,"pressure":975.0,"uv_index":8.2,"wind_gusts":44.6,"aqi":94,"pm10":95.5,"pm2_5":26.0,"no2":0.8,"co":197.0,"o3":146.0,"so2":3.4,"mosquito_risk":0,"arthritis_risk":5,"migraine_risk":10,"frizz_risk":0,"updated_at":"2026-05-02T16:25:27.278561+05:30"},{"city":"Indore","state":"Madhya Pradesh","latitude":22.7196,"longitude":75.8577,"temp":39.2,"humidity":14,"rain":0.0,"pressure":942.3,"uv_index":8.65,"wind_gusts":53.3,"aqi":59,"pm10":65.7,"pm2_5":18.5,"no2":0.9,"co":174.0,"o3":113.0,"so2":3.0,"mosquito_risk":0,"arthritis_risk":5,"migraine_risk":10,"frizz_risk":0,"updated_at":"2026-05-02T16:25:27.278568+05:30"},{"city":"Bhopal","state":"Madhya Pradesh","latitude":23.2599,"longitude":77.4126,"temp":34.2,"humidity":28,"rain":0.0,"pressure":948.1,"uv_index":8.7,"wind_gusts":60.1,"aqi":65,"pm10":86.4,"pm2_5":21.1,"no2":0.6,"co":169.0,"o3":114.0,"so2":2.7,"mosquito_risk":0,"arthritis_risk":5,"migraine_risk":7,"frizz_risk":0,"updated_at":"2026-05-02T16:25:27.278576+05:30"},{"city":"Jabalpur","state":"Madhya Pradesh","latitude":23.1815,"longitude":79.9864,"temp":37.2,"humidity":20,"rain":0.0,"pressure":955.3,"uv_index":8.85,"wind_gusts":45.4,"aqi":76,"pm10":51.3,"pm2_5":15.8,"no2":1.2,"co":156.0,"o3":124.0,"so2":3.3,"mosquito_risk":0,"arthritis_risk":5,"migraine_risk":10,"frizz_risk":0,"updated_at":"2026-05-02T16:25:27.278583+05:30"},{"city":"Ujjain","state":"Madhya Pradesh","latitude":23.1765,"longitude":75.7885,"temp":39.5,"humidity":13,"rain":0.0,"pressure":947.5,"uv_index":8.6,"wind_gusts":49.7,"aqi":57,"pm10":54.9,"pm2_5":16.1,"no2":0.6,"co":151.0,"o3":110.0,"so2":2.8,"mosquito_risk":0,"arthritis_risk":5,"migraine_risk":10,"frizz_risk":0,"updated_at":"2026-05-02T16:25:27.278591+05:30"},{"city":"Visakhapatnam","state":"Andhra Pradesh","latitude":17.6868,"longitude":83.2185,"temp":32.4,"humidity":71,"rain":0.0,"pressure":998.1,"uv_index":9.1,"wind_gusts":59.0,"aqi":62,"pm10":21.6,"pm2_5":17.3,"no2":8.4,"co":288.0,"o3":92.0,"so2":8.4,"mosquito_risk":3,"arthritis_risk":5,"migraine_risk":7,"frizz_risk":1,"updated_at":"2026-05-02T16:25:27.278600+05:30"},{"city":"Vijayawada","state":"Andhra Pradesh","latitude":16.5062,"longitude":80.648,"temp":38.3,"humidity":35,"rain":0.0,"pressure":995.8,"uv_index":9.2,"wind_gusts":34.2,"aqi":99,"pm10":37.7,"pm2_5":21.4,"no2":2.6,"co":234.0,"o3":165.0,"so2":7.4,"mosquito_risk":0,"arthritis_risk":5,"migraine_risk":10,"frizz_risk":1,"updated_at":"2026-05-02T16:25:27.278608+05:30"},{"city":"Guntur","state":"Andhra Pradesh","latitude":16.3067,"longitude":80.4365,"temp":38.7,"humidity":35,"rain":0.0,"pressure":996.7,"uv_index":9.2,"wind_gusts":35.3,"aqi":107,"pm10":37.5,"pm2_5":18.7,"no2":1.8,"co":233.0,"o3":153.0,"so2":6.1,"mosquito_risk":0,"arthritis_risk":5,"migraine_risk":10,"frizz_risk":1,"updated_at":"2026-05-02T16:25:27.278615+05:30"},{"city":"Nellore","state":"Andhra Pradesh","latitude":14.4426,"longitude":79.9865,"temp":37.7,"humidity":36,"rain":0.0,"pressure":998.5,"uv_index":9.2,"wind_gusts":49.3,"aqi":143,"pm10":33.6,"pm2_5":18.4,"no2":1.9,"co":275.0,"o3":166.0,"so2":4.4,"mosquito_risk":0,"arthritis_risk":5,"migraine_risk":10,"frizz_risk":1,"updated_at":"2026-05-02T16:25:27.278624+05:30"},{"city":"Kurnool","state":"Andhra Pradesh","latitude":15.8281,"longitude":78.0373,"temp":41.2,"humidity":14,"rain":0.0,"pressure":970.7,"uv_index":9.2,"wind_gusts":32.8,"aqi":72,"pm10":34.1,"pm2_5":14.3,"no2":0.8,"co":158.0,"o3":148.0,"so2":5.9,"mosquito_risk":0,"arthritis_risk":5,"migraine_risk":10,"frizz_risk":0,"updated_at":"2026-05-02T16:25:27.278633+05:30"},{"city":"Kakinada","state":"Andhra Pradesh","latitude":16.9891,"longitude":82.2475,"temp":35.8,"humidity":51,"rain":0.0,"pressure":1001.1,"uv_index":9.15,"wind_gusts":43.6,"aqi":52,"pm10":20.2,"pm2_5":14.5,"no2":1.6,"co":227.0,"o3":105.0,"so2":2.5,"mosquito_risk":0,"arthritis_risk":5,"migraine_risk":7,"frizz_risk":1,"updated_at":"2026-05-02T16:25:27.278640+05:30"},{"city":"Tirupati","state":"Andhra Pradesh","latitude":13.6288,"longitude":79.4192,"temp":41.7,"humidity":17,"rain":0.0,"pressure":984.2,"uv_index":9.3,"wind_gusts":38.9,"aqi":128,"pm10":36.6,"pm2_5":17.2,"no2":3.2,"co":165.0,"o3":158.0,"so2":3.7,"mosquito_risk":0,"arthritis_risk":5,"migraine_risk":10,"frizz_risk":0,"updated_at":"2026-05-02T16:25:27.278647+05:30"},{"city":"Warangal","state":"Telangana","latitude":17.9689,"longitude":79.5941,"temp":40.1,"humidity":17,"rain":0.0,"pressure":972.3,"uv_index":9.15,"wind_gusts":32.4,"aqi":93,"pm10":42.7,"pm2_5":17.0,"no2":0.9,"co":171.0,"o3":140.0,"so2":7.4,"mosquito_risk":0,"arthritis_risk":5,"migraine_risk":10,"frizz_risk":0,"updated_at":"2026-05-02T16:25:27.278655+05:30"},{"city":"Nizamabad","state":"Telangana","latitude":18.6725,"longitude":78.0941,"temp":40.7,"humidity":13,"rain":0.0,"pressure":958.5,"uv_index":9.1,"wind_gusts":31.7,"aqi":66,"pm10":42.3,"pm2_5":15.8,"no2":0.8,"co":171.0,"o3":129.0,"so2":2.2,"mosquito_risk":0,"arthritis_risk":5,"migraine_risk":10,"frizz_risk":0,"updated_at":"2026-05-02T16:25:27.278662+05:30"},{"city":"Mysore","state":"Karnataka","latitude":12.2958,"longitude":76.6396,"temp":35.7,"humidity":23,"rain":0.0,"pressure":925.7,"uv_index":9.4,"wind_gusts":48.6,"aqi":85,"pm10":27.9,"pm2_5":16.2,"no2":3.6,"co":191.0,"o3":142.0,"so2":1.6,"mosquito_risk":0,"arthritis_risk":5,"migraine_risk":10,"frizz_risk":0,"updated_at":"2026-05-02T16:25:27.278670+05:30"},{"city":"Mangalore","state":"Karnataka","latitude":12.9141,"longitude":74.856,"temp":32.0,"humidity":61,"rain":0.0,"pressure":1003.6,"uv_index":9.05,"wind_gusts":43.6,"aqi":66,"pm10":30.3,"pm2_5":14.4,"no2":1.0,"co":137.0,"o3":84.0,"so2":1.0,"mosquito_risk":3,"arthritis_risk":5,"migraine_risk":4,"frizz_risk":1,"updated_at":"2026-05-02T16:25:27.278677+05:30"},{"city":"Hubli-Dharwad","state":"Karnataka","latitude":15.3647,"longitude":75.124,"temp":35.0,"humidity":29,"rain":0.0,"pressure":937.5,"uv_index":9.2,"wind_gusts":52.6,"aqi":59,"pm10":53.2,"pm2_5":17.8,"no2":1.6,"co":161.0,"o3":118.0,"so2":1.5,"mosquito_risk":0,"arthritis_risk":5,"migraine_risk":7,"frizz_risk":0,"updated_at":"2026-05-02T16:25:27.278684+05:30"},{"city":"Belgaum","state":"Karnataka","latitude":15.8497,"longitude":74.4977,"temp":31.4,"humidity":45,"rain":0.0,"pressure":923.6,"uv_index":9.2,"wind_gusts":49.0,"aqi":61,"pm10":59.5,"pm2_5":17.7,"no2":1.3,"co":151.0,"o3":97.0,"so2":1.5,"mosquito_risk":0,"arthritis_risk":5,"migraine_risk":7,"frizz_risk":1,"updated_at":"2026-05-02T16:25:30.628317+05:30"},{"city":"Coimbatore","state":"Tamil Nadu","latitude":11.0168,"longitude":76.9558,"temp":31.5,"humidity":55,"rain":0.0,"pressure":959.0,"uv_index":9.05,"wind_gusts":52.6,"aqi":98,"pm10":23.6,"pm2_5":19.0,"no2":3.0,"co":252.0,"o3":130.0,"so2":2.4,"mosquito_risk":0,"arthritis_risk":5,"migraine_risk":7,"frizz_risk":1,"updated_at":"2026-05-02T16:25:30.628349+05:30"},{"city":"Madurai","state":"Tamil Nadu","latitude":9.9252,"longitude":78.1198,"temp":34.4,"humidity":45,"rain":0.0,"pressure":989.0,"uv_index":9.2,"wind_gusts":51.1,"aqi":123,"pm10":23.2,"pm2_5":18.5,"no2":2.9,"co":230.0,"o3":169.0,"so2":3.4,"mosquito_risk":0,"arthritis_risk":5,"migraine_risk":7,"frizz_risk":1,"updated_at":"2026-05-02T16:25:30.628359+05:30"},{"city":"Trichy","state":"Tamil Nadu","latitude":10.7905,"longitude":78.7047,"temp":38.0,"humidity":31,"rain":0.0,"pressure":994.4,"uv_index":9.2,"wind_gusts":56.2,"aqi":100,"pm10":21.2,"pm2_5":17.7,"no2":2.5,"co":243.0,"o3":160.0,"so2":3.4,"mosquito_risk":0,"arthritis_risk":5,"migraine_risk":10,"frizz_risk":1,"updated_at":"2026-05-02T16:25:30.628368+05:30"},{"city":"Salem","state":"Tamil Nadu","latitude":11.6643,"longitude":78.146,"temp":33.3,"humidity":42,"rain":0.0,"pressure":972.8,"uv_index":9.25,"wind_gusts":61.6,"aqi":147,"pm10":33.5,"pm2_5":25.6,"no2":3.3,"co":244.0,"o3":187.0,"so2":9.6,"mosquito_risk":0,"arthritis_risk":5,"migraine_risk":7,"frizz_risk":1,"updated_at":"2026-05-02T16:25:30.628376+05:30"},{"city":"Tirunelveli","state":"Tamil Nadu","latitude":8.7139,"longitude":77.7567,"temp":36.2,"humidity":38,"rain":0.0,"pressure":999.2,"uv_index":9.1,"wind_gusts":33.5,"aqi":59,"pm10":19.5,"pm2_5":15.5,"no2":2.5,"co":211.0,"o3":111.0,"so2":1.1,"mosquito_risk":0,"arthritis_risk":5,"migraine_risk":10,"frizz_risk":1,"updated_at":"2026-05-02T16:25:30.628385+05:30"},{"city":"Vellore","state":"Tamil Nadu","latitude":12.9165,"longitude":79.1325,"temp":41.0,"humidity":18,"rain":0.0,"pressure":978.3,"uv_index":9.3,"wind_gusts":44.6,"aqi":133,"pm10":33.8,"pm2_5":20.4,"no2":2.7,"co":217.0,"o3":162.0,"so2":3.7,"mosquito_risk":0,"arthritis_risk":5,"migraine_risk":10,"frizz_risk":0,"updated_at":"2026-05-02T16:25:30.628393+05:30"},{"city":"Erode","state":"Tamil Nadu","latitude":11.341,"longitude":77.7172,"temp":32.1,"humidity":49,"rain":0.0,"pressure":985.1,"uv_index":9.25,"wind_gusts":62.3,"aqi":123,"pm10":27.2,"pm2_5":20.0,"no2":3.2,"co":254.0,"o3":162.0,"so2":1.7,"mosquito_risk":0,"arthritis_risk":5,"migraine_risk":7,"frizz_risk":1,"updated_at":"2026-05-02T16:25:30.628401+05:30"},{"city":"Kochi","state":"Kerala","latitude":9.9312,"longitude":76.2673,"temp":28.5,"humidity":81,"rain":0.0,"pressure":1006.7,"uv_index":8.45,"wind_gusts":29.9,"aqi":74,"pm10":18.9,"pm2_5":13.2,"no2":4.6,"co":215.0,"o3":90.0,"so2":1.2,"mosquito_risk":7,"arthritis_risk":5,"migraine_risk":4,"frizz_risk":1,"updated_at":"2026-05-02T16:25:30.628409+05:30"},{"city":"Thiruvananthapuram","state":"Kerala","latitude":8.5241,"longitude":76.9366,"temp":27.8,"humidity":81,"rain":0.0,"pressure":1006.2,"uv_index":8.1,"wind_gusts":34.6,"aqi":52,"pm10":17.3,"pm2_5":11.6,"no2":1.6,"co":179.0,"o3":99.0,"so2":0.6,"mosquito_risk":7,"arthritis_risk":5,"migraine_risk":4,"frizz_risk":1,"updated_at":"2026-05-02T16:25:30.628417+05:30"},{"city":"Kozhikode","state":"Kerala","latitude":11.2588,"longitude":75.7804,"temp":29.2,"humidity":84,"rain":0.0,"pressure":1005.7,"uv_index":8.95,"wind_gusts":39.6,"aqi":60,"pm10":27.6,"pm2_5":15.3,"no2":0.6,"co":144.0,"o3":75.0,"so2":0.5,"mosquito_risk":7,"arthritis_risk":5,"migraine_risk":4,"frizz_risk":1,"updated_at":"2026-05-02T16:25:30.628425+05:30"},{"city":"Thrissur","state":"Kerala","latitude":10.5276,"longitude":76.2144,"temp":30.4,"humidity":70,"rain":0.0,"pressure":1004.6,"uv_index":7.95,"wind_gusts":37.4,"aqi":71,"pm10":16.4,"pm2_5":11.6,"no2":1.9,"co":176.0,"o3":91.0,"so2":1.1,"mosquito_risk":3,"arthritis_risk":5,"migraine_risk":4,"frizz_risk":1,"updated_at":"2026-05-02T16:25:30.628434+05:30"},{"city":"Kannur","state":"Kerala","latitude":11.8745,"longitude":75.3704,"temp":32.0,"humidity":66,"rain":0.0,"pressure":1004.2,"uv_index":9.0,"wind_gusts":50.4,"aqi":76,"pm10":28.1,"pm2_5":15.5,"no2":1.1,"co":138.0,"o3":87.0,"so2":0.9,"mosquito_risk":3,"arthritis_risk":5,"migraine_risk":4,"frizz_risk":1,"updated_at":"2026-05-02T16:25:30.628441+05:30"},{"city":"Patna","state":"Bihar","latitude":25.5941,"longitude":85.1376,"temp":31.2,"humidity":51,"rain":0.0,"pressure":993.5,"uv_index":8.65,"wind_gusts":29.9,"aqi":154,"pm10":96.4,"pm2_5":41.7,"no2":3.6,"co":327.0,"o3":193.0,"so2":11.8,"mosquito_risk":0,"arthritis_risk":5,"migraine_risk":7,"frizz_risk":1,"updated_at":"2026-05-02T16:25:30.628449+05:30"},{"city":"Gaya","state":"Bihar","latitude":24.7914,"longitude":85.0002,"temp":33.2,"humidity":41,"rain":0.0,"pressure":986.5,"uv_index":8.75,"wind_gusts":27.0,"aqi":161,"pm10":99.2,"pm2_5":36.8,"no2":2.0,"co":335.0,"o3":188.0,"so2":12.6,"mosquito_risk":0,"arthritis_risk":5,"migraine_risk":7,"frizz_risk":1,"updated_at":"2026-05-02T16:25:30.628456+05:30"},{"city":"Muzaffarpur","state":"Bihar","latitude":26.1209,"longitude":85.3647,"temp":30.1,"humidity":51,"rain":0.0,"pressure":993.9,"uv_index":8.65,"wind_gusts":30.6,"aqi":150,"pm10":79.6,"pm2_5":37.7,"no2":4.1,"co":317.0,"o3":185.0,"so2":9.7,"mosquito_risk":0,"arthritis_risk":5,"migraine_risk":7,"frizz_risk":1,"updated_at":"2026-05-02T16:25:30.628463+05:30"},{"city":"Bhagalpur","state":"Bihar","latitude":25.2425,"longitude":87.0117,"temp":28.8,"humidity":58,"rain":0.0,"pressure":995.2,"uv_index":8.65,"wind_gusts":29.9,"aqi":147,"pm10":78.7,"pm2_5":47.0,"no2":4.8,"co":348.0,"o3":201.0,"so2":5.9,"mosquito_risk":4,"arthritis_risk":5,"migraine_risk":7,"frizz_risk":1,"updated_at":"2026-05-02T16:25:30.628471+05:30"},{"city":"Ranchi","state":"Jharkhand","latitude":23.3441,"longitude":85.3096,"temp":30.0,"humidity":41,"rain":0.0,"pressure":932.3,"uv_index":9.0,"wind_gusts":46.8,"aqi":158,"pm10":51.1,"pm2_5":25.8,"no2":2.0,"co":183.0,"o3":169.0,"so2":10.4,"mosquito_risk":4,"arthritis_risk":5,"migraine_risk":7,"frizz_risk":0,"updated_at":"2026-05-02T16:25:30.628478+05:30"},{"city":"Jamshedpur","state":"Jharkhand","latitude":22.8046,"longitude":86.2029,"temp":32.5,"humidity":37,"rain":0.0,"pressure":984.4,"uv_index":9.0,"wind_gusts":45.4,"aqi":194,"pm10":74.0,"pm2_5":37.1,"no2":7.5,"co":334.0,"o3":189.0,"so2":29.8,"mosquito_risk":0,"arthritis_risk":5,"migraine_risk":7,"frizz_risk":0,"updated_at":"2026-05-02T16:25:30.628486+05:30"},{"city":"Dhanbad","state":"Jharkhand","latitude":23.7957,"longitude":86.4304,"temp":30.4,"humidity":60,"rain":0.0,"pressure":973.6,"uv_index":9.0,"wind_gusts":29.5,"aqi":157,"pm10":96.2,"pm2_5":54.9,"no2":11.9,"co":367.0,"o3":227.0,"so2":37.0,"mosquito_risk":0,"arthritis_risk":5,"migraine_risk":7,"frizz_risk":1,"updated_at":"2026-05-02T16:25:30.628493+05:30"},{"city":"Bokaro","state":"Jharkhand","latitude":23.6693,"longitude":86.1511,"temp":31.6,"humidity":51,"rain":0.0,"pressure":977.3,"uv_index":9.0,"wind_gusts":40.0,"aqi":148,"pm10":76.4,"pm2_5":32.8,"no2":11.2,"co":388.0,"o3":173.0,"so2":26.1,"mosquito_risk":0,"arthritis_risk":5,"migraine_risk":7,"frizz_risk":1,"updated_at":"2026-05-02T16:25:30.628501+05:30"},{"city":"Bhubaneswar","state":"Odisha","latitude":20.2961,"longitude":85.8245,"temp":32.4,"humidity":66,"rain":0.1,"pressure":996.2,"uv_index":9.05,"wind_gusts":54.7,"aqi":66,"pm10":43.2,"pm2_5":20.7,"no2":3.2,"co":304.0,"o3":141.0,"so2":4.7,"mosquito_risk":6,"arthritis_risk":5,"migraine_risk":7,"frizz_risk":1,"updated_at":"2026-05-02T16:25:30.628508+05:30"},{"city":"Cuttack","state":"Odisha","latitude":20.4625,"longitude":85.8828,"temp":32.5,"humidity":62,"rain":0.0,"pressure":997.8,"uv_index":9.1,"wind_gusts":49.7,"aqi":66,"pm10":43.2,"pm2_5":20.7,"no2":3.2,"co":285.0,"o3":141.0,"so2":4.7,"mosquito_risk":3,"arthritis_risk":5,"migraine_risk":7,"frizz_risk":1,"updated_at":"2026-05-02T16:25:30.628516+05:30"},{"city":"Rourkela","state":"Odisha","latitude":22.2604,"longitude":84.8536,"temp":36.0,"humidity":29,"rain":0.0,"pressure":978.2,"uv_index":9.0,"wind_gusts":56.9,"aqi":175,"pm10":59.5,"pm2_5":24.1,"no2":3.2,"co":317.0,"o3":179.0,"so2":16.6,"mosquito_risk":0,"arthritis_risk":5,"migraine_risk":10,"frizz_risk":0,"updated_at":"2026-05-02T16:25:30.628523+05:30"},{"city":"Raipur","state":"Chhattisgarh","latitude":21.2514,"longitude":81.6296,"temp":40.5,"humidity":16,"rain":0.0,"pressure":967.1,"uv_index":9.0,"wind_gusts":63.0,"aqi":153,"pm10":36.3,"pm2_5":16.7,"no2":5.6,"co":188.0,"o3":175.0,"so2":5.7,"mosquito_risk":0,"arthritis_risk":5,"migraine_risk":10,"frizz_risk":0,"updated_at":"2026-05-02T16:25:30.628531+05:30"},{"city":"Bhilai","state":"Chhattisgarh","latitude":21.1938,"longitude":81.3509,"temp":39.8,"humidity":17,"rain":0.0,"pressure":967.7,"uv_index":9.0,"wind_gusts":51.5,"aqi":133,"pm10":39.0,"pm2_5":16.2,"no2":5.5,"co":321.0,"o3":163.0,"so2":5.4,"mosquito_risk":0,"arthritis_risk":5,"migraine_risk":10,"frizz_risk":0,"updated_at":"2026-05-02T16:25:30.628538+05:30"},{"city":"Guwahati","state":"Assam","latitude":26.1158,"longitude":91.7086,"temp":23.1,"humidity":86,"rain":0.0,"pressure":997.2,"uv_index":4.3,"wind_gusts":22.0,"aqi":62,"pm10":21.0,"pm2_5":18.1,"no2":3.4,"co":308.0,"o3":117.0,"so2":2.2,"mosquito_risk":3,"arthritis_risk":5,"migraine_risk":3,"frizz_risk":1,"updated_at":"2026-05-02T16:25:30.628546+05:30"},{"city":"Agartala","state":"Tripura","latitude":23.8315,"longitude":91.2868,"temp":20.8,"humidity":98,"rain":0.0,"pressure":1003.0,"uv_index":8.8,"wind_gusts":38.2,"aqi":48,"pm10":16.4,"pm2_5":11.3,"no2":4.8,"co":205.0,"o3":100.0,"so2":2.2,"mosquito_risk":3,"arthritis_risk":5,"migraine_risk":4,"frizz_risk":1,"updated_at":"2026-05-02T16:25:30.628553+05:30"},{"city":"Shillong","state":"Meghalaya","latitude":25.5788,"longitude":91.8933,"temp":17.4,"humidity":81,"rain":0.0,"pressure":852.0,"uv_index":5.0,"wind_gusts":37.4,"aqi":48,"pm10":10.4,"pm2_5":8.2,"no2":3.1,"co":223.0,"o3":108.0,"so2":1.2,"mosquito_risk":3,"arthritis_risk":10,"migraine_risk":3,"frizz_risk":0,"updated_at":"2026-05-02T16:25:30.628561+05:30"},{"city":"Imphal","state":"Manipur","latitude":24.817,"longitude":93.9368,"temp":21.8,"humidity":71,"rain":0.1,"pressure":919.2,"uv_index":5.75,"wind_gusts":30.2,"aqi":57,"pm10":10.0,"pm2_5":6.2,"no2":3.3,"co":239.0,"o3":85.0,"so2":1.1,"mosquito_risk":6,"arthritis_risk":5,"migraine_risk":3,"frizz_risk":1,"updated_at":"2026-05-02T16:25:30.628569+05:30"},{"city":"Aizawl","state":"Mizoram","latitude":23.7271,"longitude":92.7176,"temp":19.9,"humidity":78,"rain":0.0,"pressure":888.4,"uv_index":9.0,"wind_gusts":43.6,"aqi":37,"pm10":17.6,"pm2_5":10.6,"no2":2.0,"co":163.0,"o3":86.0,"so2":0.6,"mosquito_risk":3,"arthritis_risk":5,"migraine_risk":7,"frizz_risk":0,"updated_at":"2026-05-02T16:25:30.628576+05:30"},{"city":"Kohima","state":"Nagaland","latitude":25.6701,"longitude":94.1077,"temp":17.1,"humidity":91,"rain":0.0,"pressure":851.0,"uv_index":6.0,"wind_gusts":28.4,"aqi":46,"pm10":10.4,"pm2_5":6.9,"no2":2.7,"co":226.0,"o3":91.0,"so2":0.6,"mosquito_risk":3,"arthritis_risk":10,"migraine_risk":3,"frizz_risk":0,"updated_at":"2026-05-02T16:25:30.628584+05:30"},{"city":"Gangtok","state":"Sikkim","latitude":27.3314,"longitude":88.6138,"temp":17.7,"humidity":58,"rain":0.0,"pressure":832.2,"uv_index":4.45,"wind_gusts":25.9,"aqi":63,"pm10":5.6,"pm2_5":4.5,"no2":2.2,"co":296.0,"o3":118.0,"so2":0.7,"mosquito_risk":0,"arthritis_risk":5,"migraine_risk":3,"frizz_risk":0,"updated_at":"2026-05-02T16:25:30.628591+05:30"},{"city":"Siliguri","state":"West Bengal","latitude":26.7271,"longitude":88.3953,"temp":23.4,"humidity":79,"rain":0.0,"pressure":988.0,"uv_index":4.15,"wind_gusts":22.0,"aqi":71,"pm10":10.0,"pm2_5":8.8,"no2":2.7,"co":378.0,"o3":133.0,"so2":1.6,"mosquito_risk":3,"arthritis_risk":5,"migraine_risk":3,"frizz_risk":1,"updated_at":"2026-05-02T16:25:33.963863+05:30"},{"city":"Durgapur","state":"West Bengal","latitude":23.5204,"longitude":87.3119,"temp":28.1,"humidity":69,"rain":0.0,"pressure":988.9,"uv_index":8.9,"wind_gusts":27.7,"aqi":158,"pm10":103.1,"pm2_5":76.1,"no2":19.7,"co":704.0,"o3":241.0,"so2":58.8,"mosquito_risk":7,"arthritis_risk":5,"migraine_risk":7,"frizz_risk":1,"updated_at":"2026-05-02T16:25:33.963890+05:30"},{"city":"Asansol","state":"West Bengal","latitude":23.6739,"longitude":86.9524,"temp":30.2,"humidity":60,"rain":0.0,"pressure":987.3,"uv_index":8.95,"wind_gusts":27.7,"aqi":165,"pm10":103.4,"pm2_5":75.0,"no2":18.4,"co":393.0,"o3":248.0,"so2":60.2,"mosquito_risk":0,"arthritis_risk":5,"migraine_risk":7,"frizz_risk":1,"updated_at":"2026-05-02T16:25:33.963899+05:30"},{"city":"Pondicherry","state":"Puducherry","latitude":11.9139,"longitude":79.8145,"temp":32.5,"humidity":68,"rain":0.0,"pressure":1003.1,"uv_index":9.15,"wind_gusts":56.5,"aqi":90,"pm10":21.7,"pm2_5":16.9,"no2":2.3,"co":200.0,"o3":132.0,"so2":4.6,"mosquito_risk":3,"arthritis_risk":5,"migraine_risk":4,"frizz_risk":1,"updated_at":"2026-05-02T16:25:33.963906+05:30"},{"city":"Port Blair","state":"Andaman and Nicobar Islands","latitude":11.6234,"longitude":92.7265,"temp":32.7,"humidity":54,"rain":0.0,"pressure":1004.0,"uv_index":9.0,"wind_gusts":32.8,"aqi":33,"pm10":12.9,"pm2_5":9.3,"no2":0.4,"co":145.0,"o3":59.0,"so2":0.3,"mosquito_risk":0,"arthritis_risk":5,"migraine_risk":4,"frizz_risk":1,"updated_at":"2026-05-02T16:25:33.963913+05:30"},{"city":"Haridwar","state":"Uttarakhand","latitude":29.9457,"longitude":78.1642,"temp":30.5,"humidity":48,"rain":0.0,"pressure":967.5,"uv_index":7.4,"wind_gusts":28.4,"aqi":160,"pm10":89.4,"pm2_5":29.0,"no2":1.3,"co":287.0,"o3":178.0,"so2":7.4,"mosquito_risk":0,"arthritis_risk":5,"migraine_risk":7,"frizz_risk":1,"updated_at":"2026-05-02T16:25:33.963920+05:30"},{"city":"Rishikesh","state":"Uttarakhand","latitude":30.0869,"longitude":78.2676,"temp":27.9,"humidity":55,"rain":0.0,"pressure":960.6,"uv_index":7.5,"wind_gusts":29.2,"aqi":161,"pm10":93.6,"pm2_5":29.3,"no2":0.6,"co":275.0,"o3":177.0,"so2":8.3,"mosquito_risk":4,"arthritis_risk":5,"migraine_risk":7,"frizz_risk":1,"updated_at":"2026-05-02T16:25:33.963940+05:30"},{"city":"Nainital","state":"Uttarakhand","latitude":29.3919,"longitude":79.4542,"temp":17.3,"humidity":64,"rain":0.0,"pressure":801.5,"uv_index":7.85,"wind_gusts":41.4,"aqi":145,"pm10":107.3,"pm2_5":31.5,"no2":1.0,"co":253.0,"o3":176.0,"so2":6.4,"mosquito_risk":3,"arthritis_risk":5,"migraine_risk":7,"frizz_risk":0,"updated_at":"2026-05-02T16:25:33.963947+05:30"},{"city":"Mussoorie","state":"Uttarakhand","latitude":30.4599,"longitude":78.0664,"temp":17.6,"humidity":64,"rain":0.0,"pressure":798.9,"uv_index":7.9,"wind_gusts":47.9,"aqi":165,"pm10":94.3,"pm2_5":34.7,"no2":0.9,"co":249.0,"o3":186.0,"so2":7.6,"mosquito_risk":3,"arthritis_risk":5,"migraine_risk":7,"frizz_risk":0,"updated_at":"2026-05-02T16:25:33.963953+05:30"},{"city":"Dharamshala","state":"Himachal Pradesh","latitude":32.219,"longitude":76.3234,"temp":23.7,"humidity":39,"rain":0.0,"pressure":865.2,"uv_index":8.25,"wind_gusts":46.1,"aqi":115,"pm10":17.5,"pm2_5":9.9,"no2":0.3,"co":187.0,"o3":154.0,"so2":1.1,"mosquito_risk":0,"arthritis_risk":5,"migraine_risk":7,"frizz_risk":0,"updated_at":"2026-05-02T16:25:33.963959+05:30"},{"city":"Dalhousie","state":"Himachal Pradesh","latitude":32.5387,"longitude":75.971,"temp":17.2,"humidity":56,"rain":0.0,"pressure":801.3,"uv_index":8.5,"wind_gusts":42.8,"aqi":129,"pm10":19.0,"pm2_5":9.9,"no2":0.4,"co":185.0,"o3":164.0,"so2":2.6,"mosquito_risk":0,"arthritis_risk":5,"migraine_risk":7,"frizz_risk":0,"updated_at":"2026-05-02T16:25:33.963966+05:30"},{"city":"Patiala","state":"Punjab","latitude":30.3398,"longitude":76.3869,"temp":36.5,"humidity":22,"rain":0.0,"pressure":970.8,"uv_index":7.5,"wind_gusts":33.1,"aqi":263,"pm10":377.2,"pm2_5":49.8,"no2":1.1,"co":269.0,"o3":164.0,"so2":6.9,"mosquito_risk":0,"arthritis_risk":5,"migraine_risk":10,"frizz_risk":0,"updated_at":"2026-05-02T16:25:33.963973+05:30"},{"city":"Bhatinda","state":"Punjab","latitude":30.211,"longitude":74.9455,"temp":39.8,"humidity":16,"rain":0.0,"pressure":975.0,"uv_index":8.15,"wind_gusts":36.0,"aqi":156,"pm10":103.6,"pm2_5":29.4,"no2":1.8,"co":240.0,"o3":189.0,"so2":13.6,"mosquito_risk":0,"arthritis_risk":5,"migraine_risk":10,"frizz_risk":0,"updated_at":"2026-05-02T16:25:33.963978+05:30"},{"city":"Rohtak","state":"Haryana","latitude":28.8955,"longitude":76.6066,"temp":38.2,"humidity":20,"rain":0.0,"pressure":973.7,"uv_index":7.65,"wind_gusts":27.7,"aqi":386,"pm10":416.3,"pm2_5":75.2,"no2":1.1,"co":305.0,"o3":216.0,"so2":14.5,"mosquito_risk":0,"arthritis_risk":5,"migraine_risk":10,"frizz_risk":0,"updated_at":"2026-05-02T16:25:33.963984+05:30"},{"city":"Panipat","state":"Haryana","latitude":29.3909,"longitude":76.9635,"temp":36.7,"humidity":26,"rain":0.0,"pressure":972.8,"uv_index":7.5,"wind_gusts":26.3,"aqi":489,"pm10":538.3,"pm2_5":85.2,"no2":2.3,"co":296.0,"o3":220.0,"so2":22.7,"mosquito_risk":0,"arthritis_risk":5,"migraine_risk":10,"frizz_risk":0,"updated_at":"2026-05-02T16:25:33.963991+05:30"},{"city":"Mathura","state":"Uttar Pradesh","latitude":27.4924,"longitude":77.6737,"temp":36.5,"humidity":26,"rain":0.0,"pressure":979.1,"uv_index":7.9,"wind_gusts":35.6,"aqi":668,"pm10":579.3,"pm2_5":71.0,"no2":1.9,"co":230.0,"o3":172.0,"so2":6.4,"mosquito_risk":0,"arthritis_risk":5,"migraine_risk":10,"frizz_risk":0,"updated_at":"2026-05-02T16:25:33.963997+05:30"},{"city":"Vrindavan","state":"Uttar Pradesh","latitude":27.5823,"longitude":77.7027,"temp":36.8,"humidity":23,"rain":0.0,"pressure":979.6,"uv_index":7.85,"wind_gusts":31.7,"aqi":668,"pm10":579.3,"pm2_5":71.0,"no2":1.9,"co":238.0,"o3":172.0,"so2":6.4,"mosquito_risk":0,"arthritis_risk":5,"migraine_risk":10,"frizz_risk":0,"updated_at":"2026-05-02T16:25:33.964003+05:30"},{"city":"Ayodhya","state":"Uttar Pradesh","latitude":26.7922,"longitude":82.1998,"temp":33.2,"humidity":38,"rain":0.0,"pressure":988.0,"uv_index":8.25,"wind_gusts":31.3,"aqi":136,"pm10":99.0,"pm2_5":28.7,"no2":1.1,"co":311.0,"o3":179.0,"so2":5.6,"mosquito_risk":0,"arthritis_risk":5,"migraine_risk":7,"frizz_risk":1,"updated_at":"2026-05-02T16:25:33.964009+05:30"},{"city":"Ratlam","state":"Madhya Pradesh","latitude":23.3315,"longitude":75.0367,"temp":39.0,"humidity":16,"rain":0.0,"pressure":948.7,"uv_index":8.55,"wind_gusts":47.9,"aqi":55,"pm10":42.5,"pm2_5":13.0,"no2":0.4,"co":143.0,"o3":110.0,"so2":2.5,"mosquito_risk":0,"arthritis_risk":5,"migraine_risk":10,"frizz_risk":0,"updated_at":"2026-05-02T16:25:33.964015+05:30"},{"city":"Sagar","state":"Madhya Pradesh","latitude":23.8388,"longitude":78.7378,"temp":35.0,"humidity":26,"rain":0.0,"pressure":944.5,"uv_index":8.7,"wind_gusts":53.6,"aqi":60,"pm10":78.5,"pm2_5":20.0,"no2":0.5,"co":147.0,"o3":124.0,"so2":3.9,"mosquito_risk":0,"arthritis_risk":5,"migraine_risk":7,"frizz_risk":0,"updated_at":"2026-05-02T16:25:33.964021+05:30"},{"city":"Satna","state":"Madhya Pradesh","latitude":24.6005,"longitude":80.8322,"temp":35.8,"humidity":22,"rain":0.0,"pressure":964.1,"uv_index":8.7,"wind_gusts":66.6,"aqi":108,"pm10":43.8,"pm2_5":13.6,"no2":0.5,"co":162.0,"o3":138.0,"so2":3.2,"mosquito_risk":0,"arthritis_risk":5,"migraine_risk":10,"frizz_risk":0,"updated_at":"2026-05-02T16:25:33.964027+05:30"},{"city":"Akola","state":"Maharashtra","latitude":20.7002,"longitude":77.0082,"temp":40.7,"humidity":17,"rain":0.0,"pressure":968.3,"uv_index":8.9,"wind_gusts":45.0,"aqi":54,"pm10":98.5,"pm2_5":22.7,"no2":1.1,"co":148.0,"o3":110.0,"so2":7.0,"mosquito_risk":0,"arthritis_risk":5,"migraine_risk":10,"frizz_risk":0,"updated_at":"2026-05-02T16:25:33.964034+05:30"},{"city":"Amravati","state":"Maharashtra","latitude":20.9374,"longitude":77.7796,"temp":40.2,"humidity":17,"rain":0.0,"pressure":960.7,"uv_index":8.9,"wind_gusts":42.5,"aqi":53,"pm10":80.8,"pm2_5":19.9,"no2":1.3,"co":147.0,"o3":117.0,"so2":5.9,"mosquito_risk":0,"arthritis_risk":5,"migraine_risk":10,"frizz_risk":0,"updated_at":"2026-05-02T16:25:33.964041+05:30"},{"city":"Latur","state":"Maharashtra","latitude":18.4088,"longitude":76.5604,"temp":40.0,"humidity":11,"rain":0.0,"pressure":934.9,"uv_index":9.05,"wind_gusts":32.8,"aqi":56,"pm10":44.1,"pm2_5":12.8,"no2":0.6,"co":137.0,"o3":116.0,"so2":3.6,"mosquito_risk":0,"arthritis_risk":5,"migraine_risk":10,"frizz_risk":0,"updated_at":"2026-05-02T16:25:33.964047+05:30"},{"city":"Nanded","state":"Maharashtra","latitude":19.1383,"longitude":77.3091,"temp":41.2,"humidity":13,"rain":0.0,"pressure":962.3,"uv_index":8.95,"wind_gusts":31.3,"aqi":57,"pm10":42.7,"pm2_5":14.0,"no2":0.6,"co":152.0,"o3":125.0,"so2":1.7,"mosquito_risk":0,"arthritis_risk":5,"migraine_risk":10,"frizz_risk":0,"updated_at":"2026-05-02T16:25:33.964053+05:30"},{"city":"Gulbarga","state":"Karnataka","latitude":17.3297,"longitude":76.8343,"temp":40.3,"humidity":13,"rain":0.0,"pressure":952.9,"uv_index":9.1,"wind_gusts":41.8,"aqi":54,"pm10":47.3,"pm2_5":14.1,"no2":0.4,"co":150.0,"o3":123.0,"so2":2.0,"mosquito_risk":0,"arthritis_risk":5,"migraine_risk":10,"frizz_risk":0,"updated_at":"2026-05-02T16:25:33.964058+05:30"},{"city":"Bidar","state":"Karnataka","latitude":17.9104,"longitude":77.5199,"temp":39.9,"humidity":12,"rain":0.0,"pressure":930.3,"uv_index":9.1,"wind_gusts":34.9,"aqi":64,"pm10":42.4,"pm2_5":14.1,"no2":1.1,"co":136.0,"o3":127.0,"so2":3.1,"mosquito_risk":0,"arthritis_risk":5,"migraine_risk":10,"frizz_risk":0,"updated_at":"2026-05-02T16:25:33.964064+05:30"},{"city":"Hospet","state":"Karnataka","latitude":15.2689,"longitude":76.3909,"temp":38.5,"humidity":15,"rain":0.0,"pressure":951.1,"uv_index":9.2,"wind_gusts":45.4,"aqi":55,"pm10":45.4,"pm2_5":15.3,"no2":1.3,"co":171.0,"o3":128.0,"so2":1.5,"mosquito_risk":0,"arthritis_risk":5,"migraine_risk":10,"frizz_risk":0,"updated_at":"2026-05-02T16:25:33.964070+05:30"},{"city":"Tirupur","state":"Tamil Nadu","latitude":11.1085,"longitude":77.3411,"temp":33.3,"humidity":47,"rain":0.0,"pressure":971.8,"uv_index":9.2,"wind_gusts":48.2,"aqi":123,"pm10":27.5,"pm2_5":20.9,"no2":3.5,"co":241.0,"o3":154.0,"so2":2.5,"mosquito_risk":0,"arthritis_risk":5,"migraine_risk":7,"frizz_risk":1,"updated_at":"2026-05-02T16:25:33.964075+05:30"},{"city":"Alappuzha","state":"Kerala","latitude":9.4981,"longitude":76.3388,"temp":28.5,"humidity":79,"rain":0.0,"pressure":1006.8,"uv_index":8.2,"wind_gusts":26.3,"aqi":71,"pm10":26.2,"pm2_5":17.3,"no2":3.4,"co":170.0,"o3":105.0,"so2":2.6,"mosquito_risk":7,"arthritis_risk":5,"migraine_risk":4,"frizz_risk":1,"updated_at":"2026-05-02T16:25:33.964081+05:30"},{"city":"Munnar","state":"Kerala","latitude":10.0889,"longitude":77.0595,"temp":20.5,"humidity":87,"rain":0.1,"pressure":855.8,"uv_index":8.8,"wind_gusts":24.8,"aqi":56,"pm10":21.6,"pm2_5":16.7,"no2":2.4,"co":220.0,"o3":116.0,"so2":1.1,"mosquito_risk":6,"arthritis_risk":5,"migraine_risk":7,"frizz_risk":1,"updated_at":"2026-05-02T16:25:33.964087+05:30"},{"city":"Silchar","state":"Assam","latitude":24.8333,"longitude":92.7789,"temp":25.6,"humidity":73,"rain":0.0,"pressure":1001.1,"uv_index":8.5,"wind_gusts":27.7,"aqi":58,"pm10":9.8,"pm2_5":7.0,"no2":2.7,"co":220.0,"o3":82.0,"so2":2.7,"mosquito_risk":7,"arthritis_risk":5,"migraine_risk":4,"frizz_risk":1,"updated_at":"2026-05-02T16:25:33.964092+05:30"},{"city":"Dibrugarh","state":"Assam","latitude":27.4728,"longitude":94.912,"temp":22.8,"humidity":86,"rain":0.0,"pressure":992.6,"uv_index":7.3,"wind_gusts":22.7,"aqi":72,"pm10":17.0,"pm2_5":11.1,"no2":2.7,"co":266.0,"o3":122.0,"so2":1.3,"mosquito_risk":3,"arthritis_risk":5,"migraine_risk":7,"frizz_risk":1,"updated_at":"2026-05-02T16:25:33.964098+05:30"}]