[{"city":"Delhi","state":"Delhi","latitude":28.6139,"longitude":77.209,"temp":27.4,"humidity":38,"rain":0.0,"pressure":983.8,"uv_index":6.0,"wind_gusts":24.5,"aqi":358,"pm10":226.8,"pm2_5":55.3,"mosquito_risk":4,"arthritis_risk":5,"migraine_risk":3,"frizz_risk":0,"updated_at":"2026-03-14T19:21:38.994728+05:30"},{"city":"Mumbai","state":"Maharashtra","latitude":19.076,"longitude":72.8777,"temp":28.0,"humidity":75,"rain":0.0,"pressure":1009.0,"uv_index":7.65,"wind_gusts":18.4,"aqi":178,"pm10":71.9,"pm2_5":38.2,"mosquito_risk":7,"arthritis_risk":0,"migraine_risk":4,"frizz_risk":1,"updated_at":"2026-03-14T19:21:38.994772+05:30"},{"city":"Bangalore","state":"Karnataka","latitude":12.9716,"longitude":77.5946,"temp":27.4,"humidity":31,"rain":0.0,"pressure":912.9,"uv_index":9.3,"wind_gusts":32.8,"aqi":138,"pm10":32.4,"pm2_5":28.1,"mosquito_risk":4,"arthritis_risk":5,"migraine_risk":7,"frizz_risk":0,"updated_at":"2026-03-14T19:21:38.994788+05:30"},{"city":"Hyderabad","state":"Telangana","latitude":17.385,"longitude":78.4867,"temp":30.5,"humidity":39,"rain":0.0,"pressure":954.3,"uv_index":8.7,"wind_gusts":30.2,"aqi":144,"pm10":48.2,"pm2_5":37.5,"mosquito_risk":0,"arthritis_risk":5,"migraine_risk":7,"frizz_risk":0,"updated_at":"2026-03-14T19:21:38.994798+05:30"},{"city":"Chennai","state":"Tamil Nadu","latitude":13.0827,"longitude":80.2707,"temp":27.5,"humidity":76,"rain":0.0,"pressure":1009.8,"uv_index":9.05,"wind_gusts":32.0,"aqi":54,"pm10":12.4,"pm2_5":9.5,"mosquito_risk":7,"arthritis_risk":0,"migraine_risk":4,"frizz_risk":1,"updated_at":"2026-03-14T19:21:38.994806+05:30"},{"city":"Kolkata","state":"West Bengal","latitude":22.5726,"longitude":88.3639,"temp":26.4,"humidity":80,"rain":0.0,"pressure":1008.5,"uv_index":8.05,"wind_gusts":33.8,"aqi":83,"pm10":24.3,"pm2_5":19.7,"mosquito_risk":7,"arthritis_risk":0,"migraine_risk":4,"frizz_risk":1,"updated_at":"2026-03-14T19:21:38.994816+05:30"},{"city":"Pune","state":"Maharashtra","latitude":18.5204,"longitude":73.8567,"temp":29.6,"humidity":26,"rain":0.0,"pressure":949.3,"uv_index":8.25,"wind_gusts":47.5,"aqi":170,"pm10":33.4,"pm2_5":30.6,"mosquito_risk":4,"arthritis_risk":5,"migraine_risk":7,"frizz_risk":0,"updated_at":"2026-03-14T19:21:38.994828+05:30"},{"city":"Ahmedabad","state":"Gujarat","latitude":23.0225,"longitude":72.5714,"temp":31.9,"humidity":31,"rain":0.0,"pressure":1001.8,"uv_index":7.5,"wind_gusts":24.8,"aqi":78,"pm10":54.2,"pm2_5":22.8,"mosquito_risk":0,"arthritis_risk":5,"migraine_risk":4,"frizz_risk":0,"updated_at":"2026-03-14T19:21:38.994835+05:30"},{"city":"Jaipur","state":"Rajasthan","latitude":26.9124,"longitude":75.7873,"temp":28.5,"humidity":31,"rain":0.0,"pressure":959.7,"uv_index":7.0,"wind_gusts":28.8,"aqi":149,"pm10":102.2,"pm2_5":30.0,"mosquito_risk":4,"arthritis_risk":5,"migraine_risk":7,"frizz_risk":0,"updated_at":"2026-03-14T19:21:38.994844+05:30"},{"city":"Lucknow","state":"Uttar Pradesh","latitude":26.8467,"longitude":80.9462,"temp":27.9,"humidity":44,"rain":0.0,"pressure":993.9,"uv_index":6.7,"wind_gusts":24.5,"aqi":164,"pm10":167.2,"pm2_5":51.2,"mosquito_risk":4,"arthritis_risk":5,"migraine_risk":7,"frizz_risk":0,"updated_at":"2026-03-14T19:21:38.994851+05:30"},{"city":"Kanpur","state":"Uttar Pradesh","latitude":26.4499,"longitude":80.3319,"temp":28.4,"humidity":45,"rain":0.0,"pressure":992.1,"uv_index":6.7,"wind_gusts":17.3,"aqi":354,"pm10":196.0,"pm2_5":50.8,"mosquito_risk":4,"arthritis_risk":5,"migraine_risk":7,"frizz_risk":0,"updated_at":"2026-03-14T19:21:38.994858+05:30"},{"city":"Chandigarh","state":"Chandigarh","latitude":30.7333,"longitude":76.7794,"temp":21.8,"humidity":61,"rain":0.0,"pressure":968.8,"uv_index":5.2,"wind_gusts":20.2,"aqi":80,"pm10":29.4,"pm2_5":26.1,"mosquito_risk":3,"arthritis_risk":5,"migraine_risk":3,"frizz_risk":0,"updated_at":"2026-03-14T19:21:38.994866+05:30"},{"city":"Srinagar","state":"Jammu and Kashmir","latitude":34.0837,"longitude":74.7973,"temp":13.3,"humidity":69,"rain":0.0,"pressure":840.0,"uv_index":5.6,"wind_gusts":19.1,"aqi":95,"pm10":49.8,"pm2_5":28.6,"mosquito_risk":3,"arthritis_risk":5,"migraine_risk":3,"frizz_risk":0,"updated_at":"2026-03-14T19:21:38.994873+05:30"},{"city":"Jammu","state":"Jammu and Kashmir","latitude":32.7266,"longitude":74.857,"temp":24.2,"humidity":57,"rain":0.0,"pressure":972.2,"uv_index":6.35,"wind_gusts":19.1,"aqi":78,"pm10":40.3,"pm2_5":30.9,"mosquito_risk":0,"arthritis_risk":5,"migraine_risk":7,"frizz_risk":0,"updated_at":"2026-03-14T19:21:38.994880+05:30"},{"city":"Amritsar","state":"Punjab","latitude":31.634,"longitude":74.8723,"temp":21.7,"humidity":67,"rain":0.0,"pressure":980.8,"uv_index":4.65,"wind_gusts":17.6,"aqi":101,"pm10":30.4,"pm2_5":28.1,"mosquito_risk":3,"arthritis_risk":5,"migraine_risk":3,"frizz_risk":0,"updated_at":"2026-03-14T19:21:38.994887+05:30"},{"city":"Ludhiana","state":"Punjab","latitude":30.901,"longitude":75.8573,"temp":23.4,"humidity":53,"rain":0.0,"pressure":979.1,"uv_index":5.25,"wind_gusts":20.2,"aqi":86,"pm10":49.8,"pm2_5":34.0,"mosquito_risk":0,"arthritis_risk":5,"migraine_risk":3,"frizz_risk":0,"updated_at":"2026-03-14T19:21:38.994894+05:30"},{"city":"Jalandhar","state":"Punjab","latitude":31.326,"longitude":75.5762,"temp":23.2,"humidity":55,"rain":0.0,"pressure":980.2,"uv_index":6.15,"wind_gusts":23.0,"aqi":91,"pm10":39.3,"pm2_5":24.6,"mosquito_risk":0,"arthritis_risk":5,"migraine_risk":7,"frizz_risk":0,"updated_at":"2026-03-14T19:21:38.994903+05:30"},{"city":"Dehradun","state":"Uttarakhand","latitude":30.6284,"longitude":78.0322,"temp":15.2,"humidity":68,"rain":0.0,"pressure":829.3,"uv_index":4.2,"wind_gusts":21.6,"aqi":68,"pm10":24.4,"pm2_5":11.8,"mosquito_risk":3,"arthritis_risk":5,"migraine_risk":3,"frizz_risk":0,"updated_at":"2026-03-14T19:21:38.994910+05:30"},{"city":"Shimla","state":"Himachal Pradesh","latitude":31.1048,"longitude":77.1734,"temp":12.9,"humidity":67,"rain":0.0,"pressure":783.2,"uv_index":5.5,"wind_gusts":22.3,"aqi":70,"pm10":19.7,"pm2_5":12.2,"mosquito_risk":3,"arthritis_risk":5,"migraine_risk":3,"frizz_risk":0,"updated_at":"2026-03-14T19:21:38.994918+05:30"},{"city":"Manali","state":"Himachal Pradesh","latitude":32.2396,"longitude":77.1887,"temp":14.1,"humidity":40,"rain":0.0,"pressure":819.7,"uv_index":7.3,"wind_gusts":29.2,"aqi":72,"pm10":39.3,"pm2_5":10.2,"mosquito_risk":0,"arthritis_risk":5,"migraine_risk":7,"frizz_risk":0,"updated_at":"2026-03-14T19:21:38.994925+05:30"},{"city":"Gurgaon","state":"Haryana","latitude":28.4595,"longitude":77.0266,"temp":25.3,"humidity":48,"rain":0.0,"pressure":982.2,"uv_index":5.85,"wind_gusts":19.4,"aqi":941,"pm10":326.9,"pm2_5":67.5,"mosquito_risk":4,"arthritis_risk":5,"migraine_risk":3,"frizz_risk":0,"updated_at":"2026-03-14T19:21:38.994935+05:30"},{"city":"Noida","state":"Uttar Pradesh","latitude":28.5355,"longitude":77.391,"temp":26.2,"humidity":43,"rain":0.0,"pressure":985.3,"uv_index":5.75,"wind_gusts":23.8,"aqi":941,"pm10":326.9,"pm2_5":67.5,"mosquito_risk":4,"arthritis_risk":5,"migraine_risk":3,"frizz_risk":0,"updated_at":"2026-03-14T19:21:38.994941+05:30"},{"city":"Ghaziabad","state":"Uttar Pradesh","latitude":28.6692,"longitude":77.4538,"temp":25.9,"humidity":44,"rain":0.0,"pressure":983.4,"uv_index":5.95,"wind_gusts":23.8,"aqi":240,"pm10":190.9,"pm2_5":59.8,"mosquito_risk":4,"arthritis_risk":5,"migraine_risk":3,"frizz_risk":0,"updated_at":"2026-03-14T19:21:38.994948+05:30"},{"city":"Faridabad","state":"Haryana","latitude":28.4089,"longitude":77.3178,"temp":23.8,"humidity":50,"rain":0.0,"pressure":984.7,"uv_index":5.75,"wind_gusts":22.7,"aqi":941,"pm10":326.9,"pm2_5":67.5,"mosquito_risk":0,"arthritis_risk":5,"migraine_risk":3,"frizz_risk":0,"updated_at":"2026-03-14T19:21:38.994955+05:30"},{"city":"Meerut","state":"Uttar Pradesh","latitude":28.9845,"longitude":77.7064,"temp":24.4,"humidity":53,"rain":0.0,"pressure":982.0,"uv_index":5.8,"wind_gusts":27.4,"aqi":240,"pm10":190.9,"pm2_5":59.8,"mosquito_risk":0,"arthritis_risk":5,"migraine_risk":3,"frizz_risk":0,"updated_at":"2026-03-14T19:21:38.994961+05:30"},{"city":"Agra","state":"Uttar Pradesh","latitude":27.1767,"longitude":78.0081,"temp":25.2,"humidity":40,"rain":0.0,"pressure":988.5,"uv_index":6.35,"wind_gusts":15.5,"aqi":635,"pm10":149.5,"pm2_5":57.0,"mosquito_risk":4,"arthritis_risk":5,"migraine_risk":7,"frizz_risk":0,"updated_at":"2026-03-14T19:21:38.994968+05:30"},{"city":"Varanasi","state":"Uttar Pradesh","latitude":25.3176,"longitude":82.9739,"temp":29.1,"humidity":52,"rain":0.0,"pressure":997.7,"uv_index":6.85,"wind_gusts":27.7,"aqi":136,"pm10":93.8,"pm2_5":46.7,"mosquito_risk":4,"arthritis_risk":5,"migraine_risk":7,"frizz_risk":1,"updated_at":"2026-03-14T19:21:38.994977+05:30"},{"city":"Prayagraj","state":"Uttar Pradesh","latitude":25.4358,"longitude":81.8463,"temp":28.4,"humidity":55,"rain":0.0,"pressure":995.9,"uv_index":7.1,"wind_gusts":15.5,"aqi":151,"pm10":80.1,"pm2_5":36.3,"mosquito_risk":4,"arthritis_risk":5,"migraine_risk":7,"frizz_risk":1,"updated_at":"2026-03-14T19:21:38.994985+05:30"},{"city":"Gorakhpur","state":"Uttar Pradesh","latitude":26.7606,"longitude":83.3732,"temp":26.2,"humidity":55,"rain":0.0,"pressure":997.8,"uv_index":6.7,"wind_gusts":24.8,"aqi":132,"pm10":99.9,"pm2_5":51.1,"mosquito_risk":4,"arthritis_risk":5,"migraine_risk":7,"frizz_risk":1,"updated_at":"2026-03-14T19:21:38.994991+05:30"},{"city":"Bareilly","state":"Uttar Pradesh","latitude":28.367,"longitude":79.4304,"temp":24.4,"humidity":62,"rain":0.0,"pressure":987.4,"uv_index":6.4,"wind_gusts":19.4,"aqi":133,"pm10":47.3,"pm2_5":30.0,"mosquito_risk":3,"arthritis_risk":5,"migraine_risk":7,"frizz_risk":1,"updated_at":"2026-03-14T19:21:38.994998+05:30"},{"city":"Aligarh","state":"Uttar Pradesh","latitude":27.8974,"longitude":78.088,"temp":24.1,"humidity":38,"rain":0.0,"pressure":986.4,"uv_index":6.3,"wind_gusts":26.6,"aqi":579,"pm10":305.5,"pm2_5":82.4,"mosquito_risk":0,"arthritis_risk":5,"migraine_risk":7,"frizz_risk":0,"updated_at":"2026-03-14T19:21:38.995007+05:30"},{"city":"Moradabad","state":"Uttar Pradesh","latitude":28.8386,"longitude":78.7733,"temp":23.5,"humidity":54,"rain":0.0,"pressure":984.2,"uv_index":5.95,"wind_gusts":23.0,"aqi":138,"pm10":85.2,"pm2_5":43.0,"mosquito_risk":0,"arthritis_risk":5,"migraine_risk":3,"frizz_risk":0,"updated_at":"2026-03-14T19:21:38.995013+05:30"},{"city":"Saharanpur","state":"Uttar Pradesh","latitude":29.9637,"longitude":77.546,"temp":22.6,"humidity":50,"rain":0.0,"pressure":976.0,"uv_index":4.65,"wind_gusts":23.8,"aqi":127,"pm10":100.4,"pm2_5":39.8,"mosquito_risk":0,"arthritis_risk":5,"migraine_risk":3,"frizz_risk":0,"updated_at":"2026-03-14T19:21:38.995019+05:30"},{"city":"Jhansi","state":"Uttar Pradesh","latitude":25.4484,"longitude":78.5685,"temp":28.4,"humidity":44,"rain":0.0,"pressure":978.0,"uv_index":7.2,"wind_gusts":20.2,"aqi":148,"pm10":110.6,"pm2_5":41.2,"mosquito_risk":4,"arthritis_risk":5,"migraine_risk":7,"frizz_risk":0,"updated_at":"2026-03-14T19:21:42.219263+05:30"},{"city":"Surat","state":"Gujarat","latitude":21.1702,"longitude":72.8311,"temp":26.6,"humidity":63,"rain":0.0,"pressure":1007.4,"uv_index":7.35,"wind_gusts":23.4,"aqi":143,"pm10":91.3,"pm2_5":59.6,"mosquito_risk":7,"arthritis_risk":5,"migraine_risk":4,"frizz_risk":1,"updated_at":"2026-03-14T19:21:42.219329+05:30"},{"city":"Vadodara","state":"Gujarat","latitude":22.3072,"longitude":73.1812,"temp":31.6,"humidity":31,"rain":0.0,"pressure":1004.2,"uv_index":7.5,"wind_gusts":28.1,"aqi":99,"pm10":55.4,"pm2_5":29.0,"mosquito_risk":0,"arthritis_risk":5,"migraine_risk":4,"frizz_risk":0,"updated_at":"2026-03-14T19:21:42.219342+05:30"},{"city":"Rajkot","state":"Gujarat","latitude":22.3039,"longitude":70.8022,"temp":31.6,"humidity":27,"rain":0.0,"pressure":994.9,"uv_index":7.35,"wind_gusts":34.9,"aqi":95,"pm10":68.2,"pm2_5":22.9,"mosquito_risk":0,"arthritis_risk":5,"migraine_risk":7,"frizz_risk":0,"updated_at":"2026-03-14T19:21:42.219352+05:30"},{"city":"Thane","state":"Maharashtra","latitude":19.2183,"longitude":72.9781,"temp":28.1,"humidity":66,"rain":0.0,"pressure":1008.5,"uv_index":7.65,"wind_gusts":31.7,"aqi":178,"pm10":71.9,"pm2_5":38.2,"mosquito_risk":7,"arthritis_risk":0,"migraine_risk":4,"frizz_risk":1,"updated_at":"2026-03-14T19:21:42.219361+05:30"},{"city":"Nagpur","state":"Maharashtra","latitude":21.1458,"longitude":79.0882,"temp":31.0,"humidity":35,"rain":0.0,"pressure":972.7,"uv_index":8.1,"wind_gusts":19.8,"aqi":200,"pm10":40.2,"pm2_5":35.5,"mosquito_risk":0,"arthritis_risk":5,"migraine_risk":7,"frizz_risk":0,"updated_at":"2026-03-14T19:21:42.219370+05:30"},{"city":"Nashik","state":"Maharashtra","latitude":19.9975,"longitude":73.7898,"temp":27.6,"humidity":24,"rain":0.0,"pressure":946.7,"uv_index":7.9,"wind_gusts":39.2,"aqi":132,"pm10":22.1,"pm2_5":16.6,"mosquito_risk":4,"arthritis_risk":5,"migraine_risk":7,"frizz_risk":0,"updated_at":"2026-03-14T19:21:42.219379+05:30"},{"city":"Aurangabad","state":"Maharashtra","latitude":19.8762,"longitude":75.3433,"temp":31.1,"humidity":31,"rain":0.0,"pressure":944.3,"uv_index":8.4,"wind_gusts":32.8,"aqi":154,"pm10":27.1,"pm2_5":23.9,"mosquito_risk":0,"arthritis_risk":5,"migraine_risk":7,"frizz_risk":0,"updated_at":"2026-03-14T19:21:42.219387+05:30"},{"city":"Solapur","state":"Maharashtra","latitude":17.6599,"longitude":75.9064,"temp":30.8,"humidity":40,"rain":0.0,"pressure":957.0,"uv_index":8.6,"wind_gusts":18.7,"aqi":169,"pm10":46.2,"pm2_5":38.2,"mosquito_risk":0,"arthritis_risk":5,"migraine_risk":7,"frizz_risk":0,"updated_at":"2026-03-14T19:21:42.219396+05:30"},{"city":"Kolhapur","state":"Maharashtra","latitude":16.705,"longitude":74.2433,"temp":26.6,"humidity":69,"rain":0.0,"pressure":949.0,"uv_index":8.7,"wind_gusts":44.6,"aqi":177,"pm10":58.0,"pm2_5":53.6,"mosquito_risk":7,"arthritis_risk":5,"migraine_risk":7,"frizz_risk":1,"updated_at":"2026-03-14T19:21:42.219403+05:30"},{"city":"Goa","state":"Goa","latitude":15.2993,"longitude":74.124,"temp":28.7,"humidity":75,"rain":0.0,"pressure":999.2,"uv_index":8.75,"wind_gusts":32.4,"aqi":135,"pm10":40.4,"pm2_5":35.7,"mosquito_risk":7,"arthritis_risk":5,"migraine_risk":7,"frizz_risk":1,"updated_at":"2026-03-14T19:21:42.219410+05:30"},{"city":"Jodhpur","state":"Rajasthan","latitude":26.2389,"longitude":73.0243,"temp":31.4,"humidity":24,"rain":0.0,"pressure":981.7,"uv_index":7.1,"wind_gusts":37.4,"aqi":88,"pm10":156.5,"pm2_5":34.6,"mosquito_risk":0,"arthritis_risk":5,"migraine_risk":7,"frizz_risk":0,"updated_at":"2026-03-14T19:21:42.219417+05:30"},{"city":"Udaipur","state":"Rajasthan","latitude":24.5854,"longitude":73.7125,"temp":28.4,"humidity":24,"rain":0.0,"pressure":946.7,"uv_index":7.85,"wind_gusts":37.1,"aqi":67,"pm10":35.0,"pm2_5":15.9,"mosquito_risk":4,"arthritis_risk":5,"migraine_risk":7,"frizz_risk":0,"updated_at":"2026-03-14T19:21:42.219424+05:30"},{"city":"Kota","state":"Rajasthan","latitude":25.2138,"longitude":75.8648,"temp":29.3,"humidity":33,"rain":0.0,"pressure":978.0,"uv_index":7.25,"wind_gusts":13.7,"aqi":104,"pm10":39.7,"pm2_5":24.2,"mosquito_risk":4,"arthritis_risk":5,"migraine_risk":7,"frizz_risk":0,"updated_at":"2026-03-14T19:21:42.219430+05:30"},{"city":"Bikaner","state":"Rajasthan","latitude":28.0229,"longitude":73.3119,"temp":30.5,"humidity":26,"rain":0.0,"pressure":981.2,"uv_index":6.7,"wind_gusts":21.6,"aqi":96,"pm10":85.4,"pm2_5":23.6,"mosquito_risk":0,"arthritis_risk":5,"migraine_risk":7,"frizz_risk":0,"updated_at":"2026-03-14T19:21:42.219436+05:30"},{"city":"Ajmer","state":"Rajasthan","latitude":26.4499,"longitude":74.6399,"temp":28.1,"humidity":30,"rain":0.0,"pressure":953.9,"uv_index":7.05,"wind_gusts":41.4,"aqi":78,"pm10":38.0,"pm2_5":18.0,"mosquito_risk":4,"arthritis_risk":5,"migraine_risk":7,"frizz_risk":0,"updated_at":"2026-03-14T19:21:42.219443+05:30"},{"city":"Gwalior","state":"Madhya Pradesh","latitude":26.2183,"longitude":78.1828,"temp":26.6,"humidity":57,"rain":0.0,"pressure":983.6,"uv_index":6.9,"wind_gusts":22.0,"aqi":268,"pm10":92.9,"pm2_5":32.0,"mosquito_risk":4,"arthritis_risk":5,"migraine_risk":7,"frizz_risk":1,"updated_at":"2026-03-14T19:21:42.219449+05:30"},{"city":"Indore","state":"Madhya Pradesh","latitude":22.7196,"longitude":75.8577,"temp":28.2,"humidity":25,"rain":0.0,"pressure":948.1,"uv_index":7.8,"wind_gusts":38.2,"aqi":137,"pm10":22.1,"pm2_5":19.0,"mosquito_risk":4,"arthritis_risk":5,"migraine_risk":7,"frizz_risk":0,"updated_at":"2026-03-14T19:21:42.219455+05:30"},{"city":"Bhopal","state":"Madhya Pradesh","latitude":23.2599,"longitude":77.4126,"temp":28.3,"humidity":30,"rain":0.0,"pressure":953.4,"uv_index":7.65,"wind_gusts":35.3,"aqi":139,"pm10":24.7,"pm2_5":22.0,"mosquito_risk":4,"arthritis_risk":5,"migraine_risk":7,"frizz_risk":0,"updated_at":"2026-03-14T19:21:42.219461+05:30"},{"city":"Jabalpur","state":"Madhya Pradesh","latitude":23.1815,"longitude":79.9864,"temp":28.7,"humidity":31,"rain":0.0,"pressure":961.3,"uv_index":7.8,"wind_gusts":27.0,"aqi":130,"pm10":19.0,"pm2_5":18.0,"mosquito_risk":4,"arthritis_risk":5,"migraine_risk":7,"frizz_risk":0,"updated_at":"2026-03-14T19:21:42.219468+05:30"},{"city":"Ujjain","state":"Madhya Pradesh","latitude":23.1765,"longitude":75.7885,"temp":27.1,"humidity":31,"rain":0.0,"pressure":953.6,"uv_index":7.7,"wind_gusts":41.8,"aqi":111,"pm10":23.9,"pm2_5":19.2,"mosquito_risk":4,"arthritis_risk":5,"migraine_risk":7,"frizz_risk":0,"updated_at":"2026-03-14T19:21:42.219475+05:30"},{"city":"Visakhapatnam","state":"Andhra Pradesh","latitude":17.6868,"longitude":83.2185,"temp":26.5,"humidity":80,"rain":0.0,"pressure":1006.7,"uv_index":8.65,"wind_gusts":41.0,"aqi":58,"pm10":15.5,"pm2_5":12.2,"mosquito_risk":7,"arthritis_risk":5,"migraine_risk":4,"frizz_risk":1,"updated_at":"2026-03-14T19:21:42.219482+05:30"},{"city":"Vijayawada","state":"Andhra Pradesh","latitude":16.5062,"longitude":80.648,"temp":27.8,"humidity":69,"rain":0.0,"pressure":1004.8,"uv_index":8.75,"wind_gusts":31.3,"aqi":59,"pm10":15.0,"pm2_5":11.9,"mosquito_risk":7,"arthritis_risk":5,"migraine_risk":4,"frizz_risk":1,"updated_at":"2026-03-14T19:21:42.219489+05:30"},{"city":"Guntur","state":"Andhra Pradesh","latitude":16.3067,"longitude":80.4365,"temp":26.9,"humidity":76,"rain":0.0,"pressure":1006.0,"uv_index":8.75,"wind_gusts":33.8,"aqi":57,"pm10":15.9,"pm2_5":12.2,"mosquito_risk":7,"arthritis_risk":5,"migraine_risk":4,"frizz_risk":1,"updated_at":"2026-03-14T19:21:42.219495+05:30"},{"city":"Nellore","state":"Andhra Pradesh","latitude":14.4426,"longitude":79.9865,"temp":27.2,"humidity":75,"rain":0.0,"pressure":1008.1,"uv_index":8.9,"wind_gusts":33.1,"aqi":72,"pm10":15.9,"pm2_5":12.5,"mosquito_risk":7,"arthritis_risk":0,"migraine_risk":4,"frizz_risk":1,"updated_at":"2026-03-14T19:21:42.219502+05:30"},{"city":"Kurnool","state":"Andhra Pradesh","latitude":15.8281,"longitude":78.0373,"temp":33.0,"humidity":26,"rain":0.0,"pressure":976.9,"uv_index":8.75,"wind_gusts":23.4,"aqi":139,"pm10":46.4,"pm2_5":34.5,"mosquito_risk":0,"arthritis_risk":5,"migraine_risk":7,"frizz_risk":0,"updated_at":"2026-03-14T19:21:42.219510+05:30"},{"city":"Kakinada","state":"Andhra Pradesh","latitude":16.9891,"longitude":82.2475,"temp":26.4,"humidity":78,"rain":0.0,"pressure":1010.8,"uv_index":8.7,"wind_gusts":34.6,"aqi":52,"pm10":11.9,"pm2_5":8.1,"mosquito_risk":7,"arthritis_risk":0,"migraine_risk":4,"frizz_risk":1,"updated_at":"2026-03-14T19:21:42.219516+05:30"},{"city":"Tirupati","state":"Andhra Pradesh","latitude":13.6288,"longitude":79.4192,"temp":29.0,"humidity":51,"rain":0.0,"pressure":993.7,"uv_index":9.0,"wind_gusts":32.4,"aqi":76,"pm10":20.1,"pm2_5":17.5,"mosquito_risk":4,"arthritis_risk":5,"migraine_risk":7,"frizz_risk":1,"updated_at":"2026-03-14T19:21:42.219523+05:30"},{"city":"Warangal","state":"Telangana","latitude":17.9689,"longitude":79.5941,"temp":29.1,"humidity":55,"rain":0.0,"pressure":979.6,"uv_index":8.5,"wind_gusts":27.7,"aqi":95,"pm10":43.9,"pm2_5":37.1,"mosquito_risk":4,"arthritis_risk":5,"migraine_risk":7,"frizz_risk":1,"updated_at":"2026-03-14T19:21:42.219529+05:30"},{"city":"Nizamabad","state":"Telangana","latitude":18.6725,"longitude":78.0941,"temp":29.6,"humidity":48,"rain":0.0,"pressure":965.1,"uv_index":8.4,"wind_gusts":30.2,"aqi":153,"pm10":60.3,"pm2_5":48.1,"mosquito_risk":4,"arthritis_risk":5,"migraine_risk":7,"frizz_risk":1,"updated_at":"2026-03-14T19:21:42.219536+05:30"},{"city":"Mysore","state":"Karnataka","latitude":12.2958,"longitude":76.6396,"temp":28.4,"humidity":37,"rain":0.0,"pressure":929.3,"uv_index":9.3,"wind_gusts":32.8,"aqi":151,"pm10":38.4,"pm2_5":32.8,"mosquito_risk":4,"arthritis_risk":5,"migraine_risk":7,"frizz_risk":0,"updated_at":"2026-03-14T19:21:42.219542+05:30"},{"city":"Mangalore","state":"Karnataka","latitude":12.9141,"longitude":74.856,"temp":28.7,"humidity":80,"rain":0.0,"pressure":1008.1,"uv_index":8.95,"wind_gusts":24.8,"aqi":102,"pm10":28.0,"pm2_5":23.4,"mosquito_risk":7,"arthritis_risk":0,"migraine_risk":4,"frizz_risk":1,"updated_at":"2026-03-14T19:21:42.219548+05:30"},{"city":"Hubli-Dharwad","state":"Karnataka","latitude":15.3647,"longitude":75.124,"temp":26.7,"humidity":71,"rain":0.0,"pressure":941.8,"uv_index":8.9,"wind_gusts":46.4,"aqi":163,"pm10":44.8,"pm2_5":37.5,"mosquito_risk":7,"arthritis_risk":5,"migraine_risk":7,"frizz_risk":1,"updated_at":"2026-03-14T19:21:42.219554+05:30"},{"city":"Belgaum","state":"Karnataka","latitude":15.8497,"longitude":74.4977,"temp":24.9,"humidity":78,"rain":0.0,"pressure":926.8,"uv_index":8.95,"wind_gusts":44.3,"aqi":179,"pm10":49.9,"pm2_5":46.9,"mosquito_risk":3,"arthritis_risk":5,"migraine_risk":7,"frizz_risk":1,"updated_at":"2026-03-14T19:21:45.442449+05:30"},{"city":"Coimbatore","state":"Tamil Nadu","latitude":11.0168,"longitude":76.9558,"temp":27.8,"humidity":40,"rain":0.0,"pressure":962.9,"uv_index":9.3,"wind_gusts":37.1,"aqi":107,"pm10":19.8,"pm2_5":16.8,"mosquito_risk":4,"arthritis_risk":5,"migraine_risk":7,"frizz_risk":0,"updated_at":"2026-03-14T19:21:45.442478+05:30"},{"city":"Madurai","state":"Tamil Nadu","latitude":9.9252,"longitude":78.1198,"temp":31.0,"humidity":49,"rain":0.0,"pressure":994.1,"uv_index":9.25,"wind_gusts":28.8,"aqi":59,"pm10":8.5,"pm2_5":7.4,"mosquito_risk":0,"arthritis_risk":5,"migraine_risk":7,"frizz_risk":1,"updated_at":"2026-03-14T19:21:45.442488+05:30"},{"city":"Trichy","state":"Tamil Nadu","latitude":10.7905,"longitude":78.7047,"temp":30.3,"humidity":52,"rain":0.0,"pressure":1001.2,"uv_index":9.2,"wind_gusts":27.0,"aqi":65,"pm10":12.4,"pm2_5":11.2,"mosquito_risk":0,"arthritis_risk":5,"migraine_risk":4,"frizz_risk":1,"updated_at":"2026-03-14T19:21:45.442496+05:30"},{"city":"Salem","state":"Tamil Nadu","latitude":11.6643,"longitude":78.146,"temp":29.4,"humidity":39,"rain":0.0,"pressure":978.4,"uv_index":9.2,"wind_gusts":23.8,"aqi":94,"pm10":20.0,"pm2_5":17.5,"mosquito_risk":4,"arthritis_risk":5,"migraine_risk":7,"frizz_risk":0,"updated_at":"2026-03-14T19:21:45.442504+05:30"},{"city":"Tirunelveli","state":"Tamil Nadu","latitude":8.7139,"longitude":77.7567,"temp":28.8,"humidity":69,"rain":0.0,"pressure":1004.6,"uv_index":9.25,"wind_gusts":36.4,"aqi":55,"pm10":8.8,"pm2_5":8.1,"mosquito_risk":7,"arthritis_risk":5,"migraine_risk":4,"frizz_risk":1,"updated_at":"2026-03-14T19:21:45.442512+05:30"},{"city":"Vellore","state":"Tamil Nadu","latitude":12.9165,"longitude":79.1325,"temp":28.5,"humidity":48,"rain":0.0,"pressure":986.6,"uv_index":9.1,"wind_gusts":32.8,"aqi":96,"pm10":23.2,"pm2_5":21.3,"mosquito_risk":4,"arthritis_risk":5,"migraine_risk":7,"frizz_risk":1,"updated_at":"2026-03-14T19:21:45.442519+05:30"},{"city":"Erode","state":"Tamil Nadu","latitude":11.341,"longitude":77.7172,"temp":31.9,"humidity":38,"rain":0.0,"pressure":989.7,"uv_index":9.2,"wind_gusts":24.8,"aqi":61,"pm10":14.8,"pm2_5":12.9,"mosquito_risk":0,"arthritis_risk":5,"migraine_risk":7,"frizz_risk":0,"updated_at":"2026-03-14T19:21:45.442526+05:30"},{"city":"Kochi","state":"Kerala","latitude":9.9312,"longitude":76.2673,"temp":28.5,"humidity":79,"rain":0.0,"pressure":1009.9,"uv_index":9.1,"wind_gusts":31.3,"aqi":124,"pm10":18.4,"pm2_5":16.7,"mosquito_risk":7,"arthritis_risk":0,"migraine_risk":4,"frizz_risk":1,"updated_at":"2026-03-14T19:21:45.442533+05:30"},{"city":"Thiruvananthapuram","state":"Kerala","latitude":8.5241,"longitude":76.9366,"temp":28.0,"humidity":79,"rain":0.0,"pressure":1009.5,"uv_index":9.1,"wind_gusts":26.3,"aqi":81,"pm10":13.4,"pm2_5":9.7,"mosquito_risk":7,"arthritis_risk":0,"migraine_risk":4,"frizz_risk":1,"updated_at":"2026-03-14T19:21:45.442540+05:30"},{"city":"Kozhikode","state":"Kerala","latitude":11.2588,"longitude":75.7804,"temp":28.7,"humidity":82,"rain":0.0,"pressure":1009.4,"uv_index":9.0,"wind_gusts":24.8,"aqi":79,"pm10":22.6,"pm2_5":19.4,"mosquito_risk":7,"arthritis_risk":0,"migraine_risk":4,"frizz_risk":1,"updated_at":"2026-03-14T19:21:45.442547+05:30"},{"city":"Thrissur","state":"Kerala","latitude":10.5276,"longitude":76.2144,"temp":28.3,"humidity":81,"rain":0.0,"pressure":1008.5,"uv_index":9.05,"wind_gusts":36.0,"aqi":116,"pm10":17.1,"pm2_5":15.7,"mosquito_risk":7,"arthritis_risk":0,"migraine_risk":4,"frizz_risk":1,"updated_at":"2026-03-14T19:21:45.442555+05:30"},{"city":"Kannur","state":"Kerala","latitude":11.8745,"longitude":75.3704,"temp":28.4,"humidity":80,"rain":0.0,"pressure":1008.7,"uv_index":8.95,"wind_gusts":29.2,"aqi":95,"pm10":26.2,"pm2_5":22.6,"mosquito_risk":7,"arthritis_risk":0,"migraine_risk":4,"frizz_risk":1,"updated_at":"2026-03-14T19:21:45.442562+05:30"},{"city":"Patna","state":"Bihar","latitude":25.5941,"longitude":85.1376,"temp":29.2,"humidity":56,"rain":0.0,"pressure":1001.0,"uv_index":7.5,"wind_gusts":20.2,"aqi":137,"pm10":92.4,"pm2_5":51.2,"mosquito_risk":4,"arthritis_risk":5,"migraine_risk":4,"frizz_risk":1,"updated_at":"2026-03-14T19:21:45.442569+05:30"},{"city":"Gaya","state":"Bihar","latitude":24.7914,"longitude":85.0002,"temp":29.3,"humidity":48,"rain":0.0,"pressure":994.3,"uv_index":7.55,"wind_gusts":21.2,"aqi":124,"pm10":83.6,"pm2_5":40.0,"mosquito_risk":4,"arthritis_risk":5,"migraine_risk":7,"frizz_risk":1,"updated_at":"2026-03-14T19:21:45.442576+05:30"},{"city":"Muzaffarpur","state":"Bihar","latitude":26.1209,"longitude":85.3647,"temp":28.2,"humidity":55,"rain":0.0,"pressure":1001.1,"uv_index":7.45,"wind_gusts":24.5,"aqi":159,"pm10":96.2,"pm2_5":55.6,"mosquito_risk":4,"arthritis_risk":5,"migraine_risk":4,"frizz_risk":1,"updated_at":"2026-03-14T19:21:45.442582+05:30"},{"city":"Bhagalpur","state":"Bihar","latitude":25.2425,"longitude":87.0117,"temp":28.0,"humidity":56,"rain":0.0,"pressure":1002.0,"uv_index":7.5,"wind_gusts":20.5,"aqi":157,"pm10":108.7,"pm2_5":54.4,"mosquito_risk":4,"arthritis_risk":5,"migraine_risk":4,"frizz_risk":1,"updated_at":"2026-03-14T19:21:45.442589+05:30"},{"city":"Ranchi","state":"Jharkhand","latitude":23.3441,"longitude":85.3096,"temp":27.6,"humidity":23,"rain":0.0,"pressure":939.1,"uv_index":8.2,"wind_gusts":24.5,"aqi":126,"pm10":24.5,"pm2_5":18.3,"mosquito_risk":4,"arthritis_risk":5,"migraine_risk":7,"frizz_risk":0,"updated_at":"2026-03-14T19:21:45.442596+05:30"},{"city":"Jamshedpur","state":"Jharkhand","latitude":22.8046,"longitude":86.2029,"temp":30.2,"humidity":51,"rain":0.0,"pressure":991.4,"uv_index":8.1,"wind_gusts":29.2,"aqi":169,"pm10":56.5,"pm2_5":37.8,"mosquito_risk":0,"arthritis_risk":5,"migraine_risk":7,"frizz_risk":1,"updated_at":"2026-03-14T19:21:45.442602+05:30"},{"city":"Dhanbad","state":"Jharkhand","latitude":23.7957,"longitude":86.4304,"temp":31.7,"humidity":27,"rain":0.0,"pressure":980.4,"uv_index":7.95,"wind_gusts":19.8,"aqi":157,"pm10":72.9,"pm2_5":53.3,"mosquito_risk":0,"arthritis_risk":5,"migraine_risk":7,"frizz_risk":0,"updated_at":"2026-03-14T19:21:45.442609+05:30"},{"city":"Bokaro","state":"Jharkhand","latitude":23.6693,"longitude":86.1511,"temp":30.2,"humidity":28,"rain":0.0,"pressure":984.5,"uv_index":8.0,"wind_gusts":20.2,"aqi":152,"pm10":56.1,"pm2_5":42.3,"mosquito_risk":0,"arthritis_risk":5,"migraine_risk":7,"frizz_risk":0,"updated_at":"2026-03-14T19:21:45.442616+05:30"},{"city":"Bhubaneswar","state":"Odisha","latitude":20.2961,"longitude":85.8245,"temp":25.8,"humidity":83,"rain":0.0,"pressure":1005.6,"uv_index":8.4,"wind_gusts":38.9,"aqi":65,"pm10":15.8,"pm2_5":13.3,"mosquito_risk":7,"arthritis_risk":5,"migraine_risk":4,"frizz_risk":1,"updated_at":"2026-03-14T19:21:45.442623+05:30"},{"city":"Cuttack","state":"Odisha","latitude":20.4625,"longitude":85.8828,"temp":26.6,"humidity":77,"rain":0.0,"pressure":1007.1,"uv_index":8.45,"wind_gusts":34.2,"aqi":65,"pm10":15.8,"pm2_5":13.3,"mosquito_risk":7,"arthritis_risk":5,"migraine_risk":4,"frizz_risk":1,"updated_at":"2026-03-14T19:21:45.442629+05:30"},{"city":"Rourkela","state":"Odisha","latitude":22.2604,"longitude":84.8536,"temp":31.7,"humidity":39,"rain":0.0,"pressure":985.0,"uv_index":8.05,"wind_gusts":25.2,"aqi":179,"pm10":42.1,"pm2_5":39.1,"mosquito_risk":0,"arthritis_risk":5,"migraine_risk":7,"frizz_risk":0,"updated_at":"2026-03-14T19:21:45.442636+05:30"},{"city":"Raipur","state":"Chhattisgarh","latitude":21.2514,"longitude":81.6296,"temp":30.6,"humidity":40,"rain":0.0,"pressure":974.9,"uv_index":8.15,"wind_gusts":34.2,"aqi":176,"pm10":50.5,"pm2_5":46.0,"mosquito_risk":0,"arthritis_risk":5,"migraine_risk":7,"frizz_risk":0,"updated_at":"2026-03-14T19:21:45.442642+05:30"},{"city":"Bhilai","state":"Chhattisgarh","latitude":21.1938,"longitude":81.3509,"temp":29.6,"humidity":42,"rain":0.0,"pressure":975.1,"uv_index":8.15,"wind_gusts":27.7,"aqi":164,"pm10":47.5,"pm2_5":42.4,"mosquito_risk":4,"arthritis_risk":5,"migraine_risk":7,"frizz_risk":0,"updated_at":"2026-03-14T19:21:45.442648+05:30"},{"city":"Guwahati","state":"Assam","latitude":26.1158,"longitude":91.7086,"temp":22.7,"humidity":88,"rain":0.0,"pressure":1004.7,"uv_index":7.35,"wind_gusts":32.0,"aqi":71,"pm10":27.4,"pm2_5":21.1,"mosquito_risk":3,"arthritis_risk":5,"migraine_risk":4,"frizz_risk":1,"updated_at":"2026-03-14T19:21:45.442654+05:30"},{"city":"Agartala","state":"Tripura","latitude":23.8315,"longitude":91.2868,"temp":24.7,"humidity":80,"rain":0.0,"pressure":1009.2,"uv_index":7.8,"wind_gusts":48.6,"aqi":80,"pm10":41.3,"pm2_5":33.2,"mosquito_risk":3,"arthritis_risk":0,"migraine_risk":4,"frizz_risk":1,"updated_at":"2026-03-14T19:21:45.442661+05:30"},{"city":"Shillong","state":"Meghalaya","latitude":25.5788,"longitude":91.8933,"temp":13.3,"humidity":91,"rain":0.0,"pressure":857.3,"uv_index":7.85,"wind_gusts":73.8,"aqi":58,"pm10":29.1,"pm2_5":21.9,"mosquito_risk":3,"arthritis_risk":10,"migraine_risk":7,"frizz_risk":0,"updated_at":"2026-03-14T19:21:45.442668+05:30"},{"city":"Imphal","state":"Manipur","latitude":24.817,"longitude":93.9368,"temp":16.8,"humidity":89,"rain":0.0,"pressure":925.8,"uv_index":7.1,"wind_gusts":82.8,"aqi":146,"pm10":62.6,"pm2_5":51.8,"mosquito_risk":3,"arthritis_risk":10,"migraine_risk":7,"frizz_risk":0,"updated_at":"2026-03-14T19:21:45.442675+05:30"},{"city":"Aizawl","state":"Mizoram","latitude":23.7271,"longitude":92.7176,"temp":18.4,"humidity":77,"rain":0.0,"pressure":895.1,"uv_index":8.0,"wind_gusts":63.4,"aqi":110,"pm10":55.3,"pm2_5":40.5,"mosquito_risk":3,"arthritis_risk":5,"migraine_risk":7,"frizz_risk":0,"updated_at":"2026-03-14T19:21:45.442681+05:30"},{"city":"Kohima","state":"Nagaland","latitude":25.6701,"longitude":94.1077,"temp":14.6,"humidity":77,"rain":0.0,"pressure":856.4,"uv_index":6.9,"wind_gusts":100.8,"aqi":108,"pm10":37.8,"pm2_5":27.8,"mosquito_risk":3,"arthritis_risk":5,"migraine_risk":7,"frizz_risk":0,"updated_at":"2026-03-14T19:21:45.442687+05:30"},{"city":"Gangtok","state":"Sikkim","latitude":27.3314,"longitude":88.6138,"temp":13.8,"humidity":89,"rain":0.0,"pressure":837.6,"uv_index":7.55,"wind_gusts":20.2,"aqi":89,"pm10":20.5,"pm2_5":15.5,"mosquito_risk":3,"arthritis_risk":10,"migraine_risk":7,"frizz_risk":0,"updated_at":"2026-03-14T19:21:45.442694+05:30"},{"city":"Siliguri","state":"West Bengal","latitude":26.7271,"longitude":88.3953,"temp":21.3,"humidity":79,"rain":0.0,"pressure":995.6,"uv_index":7.4,"wind_gusts":31.7,"aqi":142,"pm10":66.6,"pm2_5":47.4,"mosquito_risk":3,"arthritis_risk":5,"migraine_risk":7,"frizz_risk":1,"updated_at":"2026-03-14T19:21:48.679147+05:30"},{"city":"Durgapur","state":"West Bengal","latitude":23.5204,"longitude":87.3119,"temp":28.8,"humidity":61,"rain":0.0,"pressure":995.9,"uv_index":7.95,"wind_gusts":23.4,"aqi":154,"pm10":63.6,"pm2_5":49.6,"mosquito_risk":7,"arthritis_risk":5,"migraine_risk":7,"frizz_risk":1,"updated_at":"2026-03-14T19:21:48.679176+05:30"},{"city":"Asansol","state":"West Bengal","latitude":23.6739,"longitude":86.9524,"temp":30.2,"humidity":52,"rain":0.0,"pressure":994.3,"uv_index":7.95,"wind_gusts":21.2,"aqi":146,"pm10":63.1,"pm2_5":44.4,"mosquito_risk":0,"arthritis_risk":5,"migraine_risk":7,"frizz_risk":1,"updated_at":"2026-03-14T19:21:48.679186+05:30"},{"city":"Pondicherry","state":"Puducherry","latitude":11.9139,"longitude":79.8145,"temp":26.6,"humidity":86,"rain":0.0,"pressure":1010.7,"uv_index":9.05,"wind_gusts":29.9,"aqi":51,"pm10":12.1,"pm2_5":9.1,"mosquito_risk":7,"arthritis_risk":0,"migraine_risk":4,"frizz_risk":1,"updated_at":"2026-03-14T19:21:48.679194+05:30"},{"city":"Port Blair","state":"Andaman and Nicobar Islands","latitude":11.6234,"longitude":92.7265,"temp":27.7,"humidity":79,"rain":0.0,"pressure":1010.3,"uv_index":8.95,"wind_gusts":23.0,"aqi":80,"pm10":15.0,"pm2_5":11.7,"mosquito_risk":7,"arthritis_risk":0,"migraine_risk":4,"frizz_risk":1,"updated_at":"2026-03-14T19:21:48.679202+05:30"},{"city":"Haridwar","state":"Uttarakhand","latitude":29.9457,"longitude":78.1642,"temp":25.3,"humidity":57,"rain":0.0,"pressure":974.7,"uv_index":5.0,"wind_gusts":21.2,"aqi":101,"pm10":40.6,"pm2_5":25.4,"mosquito_risk":4,"arthritis_risk":5,"migraine_risk":3,"frizz_risk":1,"updated_at":"2026-03-14T19:21:48.679209+05:30"},{"city":"Rishikesh","state":"Uttarakhand","latitude":30.0869,"longitude":78.2676,"temp":23.4,"humidity":60,"rain":0.0,"pressure":967.5,"uv_index":4.55,"wind_gusts":20.9,"aqi":88,"pm10":24.0,"pm2_5":15.3,"mosquito_risk":0,"arthritis_risk":5,"migraine_risk":3,"frizz_risk":0,"updated_at":"2026-03-14T19:21:48.679217+05:30"},{"city":"Nainital","state":"Uttarakhand","latitude":29.3919,"longitude":79.4542,"temp":17.2,"humidity":64,"rain":0.0,"pressure":805.9,"uv_index":6.15,"wind_gusts":34.9,"aqi":105,"pm10":38.2,"pm2_5":28.3,"mosquito_risk":3,"arthritis_risk":5,"migraine_risk":7,"frizz_risk":0,"updated_at":"2026-03-14T19:21:48.679224+05:30"},{"city":"Mussoorie","state":"Uttarakhand","latitude":30.4599,"longitude":78.0664,"temp":15.9,"humidity":64,"rain":0.0,"pressure":802.2,"uv_index":4.9,"wind_gusts":25.2,"aqi":90,"pm10":32.5,"pm2_5":22.0,"mosquito_risk":3,"arthritis_risk":5,"migraine_risk":3,"frizz_risk":0,"updated_at":"2026-03-14T19:21:48.679232+05:30"},{"city":"Dharamshala","state":"Himachal Pradesh","latitude":32.219,"longitude":76.3234,"temp":19.6,"humidity":35,"rain":0.0,"pressure":868.6,"uv_index":5.45,"wind_gusts":17.6,"aqi":72,"pm10":28.7,"pm2_5":12.6,"mosquito_risk":0,"arthritis_risk":5,"migraine_risk":3,"frizz_risk":0,"updated_at":"2026-03-14T19:21:48.679239+05:30"},{"city":"Dalhousie","state":"Himachal Pradesh","latitude":32.5387,"longitude":75.971,"temp":17.2,"humidity":47,"rain":0.0,"pressure":803.0,"uv_index":6.05,"wind_gusts":18.7,"aqi":80,"pm10":32.8,"pm2_5":18.5,"mosquito_risk":0,"arthritis_risk":5,"migraine_risk":7,"frizz_risk":0,"updated_at":"2026-03-14T19:21:48.679247+05:30"},{"city":"Patiala","state":"Punjab","latitude":30.3398,"longitude":76.3869,"temp":22.5,"humidity":49,"rain":0.0,"pressure":978.6,"uv_index":5.45,"wind_gusts":27.0,"aqi":195,"pm10":134.1,"pm2_5":41.6,"mosquito_risk":0,"arthritis_risk":5,"migraine_risk":3,"frizz_risk":0,"updated_at":"2026-03-14T19:21:48.679254+05:30"},{"city":"Bhatinda","state":"Punjab","latitude":30.211,"longitude":74.9455,"temp":24.4,"humidity":53,"rain":0.0,"pressure":984.1,"uv_index":6.15,"wind_gusts":22.0,"aqi":93,"pm10":34.7,"pm2_5":31.3,"mosquito_risk":0,"arthritis_risk":5,"migraine_risk":7,"frizz_risk":0,"updated_at":"2026-03-14T19:21:48.679261+05:30"},{"city":"Rohtak","state":"Haryana","latitude":28.8955,"longitude":76.6066,"temp":26.1,"humidity":49,"rain":0.0,"pressure":982.3,"uv_index":5.9,"wind_gusts":22.0,"aqi":416,"pm10":192.3,"pm2_5":54.4,"mosquito_risk":4,"arthritis_risk":5,"migraine_risk":3,"frizz_risk":0,"updated_at":"2026-03-14T19:21:48.679267+05:30"},{"city":"Panipat","state":"Haryana","latitude":29.3909,"longitude":76.9635,"temp":23.7,"humidity":58,"rain":0.0,"pressure":980.9,"uv_index":5.6,"wind_gusts":23.0,"aqi":809,"pm10":350.2,"pm2_5":68.5,"mosquito_risk":0,"arthritis_risk":5,"migraine_risk":3,"frizz_risk":0,"updated_at":"2026-03-14T19:21:48.679292+05:30"},{"city":"Mathura","state":"Uttar Pradesh","latitude":27.4924,"longitude":77.6737,"temp":24.0,"humidity":42,"rain":0.0,"pressure":987.6,"uv_index":5.95,"wind_gusts":29.2,"aqi":564,"pm10":151.8,"pm2_5":47.0,"mosquito_risk":0,"arthritis_risk":5,"migraine_risk":3,"frizz_risk":0,"updated_at":"2026-03-14T19:21:48.679300+05:30"},{"city":"Vrindavan","state":"Uttar Pradesh","latitude":27.5823,"longitude":77.7027,"temp":23.9,"humidity":43,"rain":0.0,"pressure":988.1,"uv_index":5.9,"wind_gusts":35.3,"aqi":564,"pm10":151.8,"pm2_5":47.0,"mosquito_risk":0,"arthritis_risk":5,"migraine_risk":3,"frizz_risk":0,"updated_at":"2026-03-14T19:21:48.679307+05:30"},{"city":"Ayodhya","state":"Uttar Pradesh","latitude":26.7922,"longitude":82.1998,"temp":26.3,"humidity":58,"rain":0.0,"pressure":995.6,"uv_index":6.85,"wind_gusts":21.6,"aqi":152,"pm10":74.7,"pm2_5":43.0,"mosquito_risk":4,"arthritis_risk":5,"migraine_risk":7,"frizz_risk":1,"updated_at":"2026-03-14T19:21:48.679313+05:30"},{"city":"Ratlam","state":"Madhya Pradesh","latitude":23.3315,"longitude":75.0367,"temp":28.7,"humidity":27,"rain":0.0,"pressure":954.7,"uv_index":7.65,"wind_gusts":39.6,"aqi":114,"pm10":23.0,"pm2_5":16.5,"mosquito_risk":4,"arthritis_risk":5,"migraine_risk":7,"frizz_risk":0,"updated_at":"2026-03-14T19:21:48.679320+05:30"},{"city":"Sagar","state":"Madhya Pradesh","latitude":23.8388,"longitude":78.7378,"temp":28.1,"humidity":32,"rain":0.0,"pressure":950.0,"uv_index":7.6,"wind_gusts":34.2,"aqi":131,"pm10":19.6,"pm2_5":16.6,"mosquito_risk":4,"arthritis_risk":5,"migraine_risk":7,"frizz_risk":0,"updated_at":"2026-03-14T19:21:48.679326+05:30"},{"city":"Satna","state":"Madhya Pradesh","latitude":24.6005,"longitude":80.8322,"temp":30.0,"humidity":29,"rain":0.0,"pressure":971.0,"uv_index":7.6,"wind_gusts":26.3,"aqi":118,"pm10":40.5,"pm2_5":20.2,"mosquito_risk":4,"arthritis_risk":5,"migraine_risk":7,"frizz_risk":0,"updated_at":"2026-03-14T19:21:48.679333+05:30"},{"city":"Akola","state":"Maharashtra","latitude":20.7002,"longitude":77.0082,"temp":32.2,"humidity":28,"rain":0.0,"pressure":974.5,"uv_index":8.1,"wind_gusts":17.3,"aqi":160,"pm10":27.4,"pm2_5":25.0,"mosquito_risk":0,"arthritis_risk":5,"migraine_risk":7,"frizz_risk":0,"updated_at":"2026-03-14T19:21:48.679341+05:30"},{"city":"Amravati","state":"Maharashtra","latitude":20.9374,"longitude":77.7796,"temp":30.3,"humidity":29,"rain":0.0,"pressure":966.6,"uv_index":8.05,"wind_gusts":22.3,"aqi":164,"pm10":27.6,"pm2_5":25.4,"mosquito_risk":0,"arthritis_risk":5,"migraine_risk":7,"frizz_risk":0,"updated_at":"2026-03-14T19:21:48.679348+05:30"},{"city":"Latur","state":"Maharashtra","latitude":18.4088,"longitude":76.5604,"temp":30.5,"humidity":39,"rain":0.0,"pressure":940.3,"uv_index":8.5,"wind_gusts":26.6,"aqi":160,"pm10":49.8,"pm2_5":41.0,"mosquito_risk":0,"arthritis_risk":5,"migraine_risk":7,"frizz_risk":0,"updated_at":"2026-03-14T19:21:48.679355+05:30"},{"city":"Nanded","state":"Maharashtra","latitude":19.1383,"longitude":77.3091,"temp":31.8,"humidity":33,"rain":0.0,"pressure":968.3,"uv_index":8.3,"wind_gusts":31.0,"aqi":180,"pm10":51.2,"pm2_5":42.7,"mosquito_risk":0,"arthritis_risk":5,"migraine_risk":7,"frizz_risk":0,"updated_at":"2026-03-14T19:21:48.679361+05:30"},{"city":"Gulbarga","state":"Karnataka","latitude":17.3297,"longitude":76.8343,"temp":32.9,"humidity":31,"rain":0.0,"pressure":959.1,"uv_index":8.6,"wind_gusts":38.9,"aqi":168,"pm10":46.2,"pm2_5":36.4,"mosquito_risk":0,"arthritis_risk":5,"migraine_risk":7,"frizz_risk":0,"updated_at":"2026-03-14T19:21:48.679368+05:30"},{"city":"Bidar","state":"Karnataka","latitude":17.9104,"longitude":77.5199,"temp":29.9,"humidity":36,"rain":0.0,"pressure":936.0,"uv_index":8.55,"wind_gusts":37.1,"aqi":157,"pm10":57.7,"pm2_5":43.2,"mosquito_risk":4,"arthritis_risk":5,"migraine_risk":7,"frizz_risk":0,"updated_at":"2026-03-14T19:21:48.679374+05:30"},{"city":"Hospet","state":"Karnataka","latitude":15.2689,"longitude":76.3909,"temp":32.4,"humidity":42,"rain":0.0,"pressure":956.1,"uv_index":8.85,"wind_gusts":28.1,"aqi":176,"pm10":44.6,"pm2_5":37.8,"mosquito_risk":0,"arthritis_risk":5,"migraine_risk":7,"frizz_risk":1,"updated_at":"2026-03-14T19:21:48.679380+05:30"},{"city":"Tirupur","state":"Tamil Nadu","latitude":11.1085,"longitude":77.3411,"temp":31.3,"humidity":28,"rain":0.0,"pressure":976.1,"uv_index":9.3,"wind_gusts":30.2,"aqi":83,"pm10":18.7,"pm2_5":16.3,"mosquito_risk":0,"arthritis_risk":5,"migraine_risk":7,"frizz_risk":0,"updated_at":"2026-03-14T19:21:48.679387+05:30"},{"city":"Alappuzha","state":"Kerala","latitude":9.4981,"longitude":76.3388,"temp":28.7,"humidity":77,"rain":0.0,"pressure":1010.0,"uv_index":9.1,"wind_gusts":28.4,"aqi":110,"pm10":17.2,"pm2_5":15.0,"mosquito_risk":7,"arthritis_risk":0,"migraine_risk":4,"frizz_risk":1,"updated_at":"2026-03-14T19:21:48.679394+05:30"},{"city":"Munnar","state":"Kerala","latitude":10.0889,"longitude":77.0595,"temp":22.7,"humidity":82,"rain":0.0,"pressure":858.4,"uv_index":9.55,"wind_gusts":28.8,"aqi":65,"pm10":15.4,"pm2_5":14.4,"mosquito_risk":3,"arthritis_risk":5,"migraine_risk":7,"frizz_risk":1,"updated_at":"2026-03-14T19:21:48.679402+05:30"},{"city":"Silchar","state":"Assam","latitude":24.8333,"longitude":92.7789,"temp":20.7,"humidity":91,"rain":0.0,"pressure":1010.3,"uv_index":7.75,"wind_gusts":39.6,"aqi":109,"pm10":35.6,"pm2_5":30.2,"mosquito_risk":3,"arthritis_risk":0,"migraine_risk":4,"frizz_risk":1,"updated_at":"2026-03-14T19:21:48.679409+05:30"},{"city":"Dibrugarh","state":"Assam","latitude":27.4728,"longitude":94.912,"temp":19.9,"humidity":91,"rain":0.1,"pressure":999.8,"uv_index":4.45,"wind_gusts":22.0,"aqi":91,"pm10":31.5,"pm2_5":27.2,"mosquito_risk":6,"arthritis_risk":10,"migraine_risk":3,"frizz_risk":1,"updated_at":"2026-03-14T19:21:48.679416+05:30"}]