[{"city":"Delhi","state":"Delhi","latitude":28.6139,"longitude":77.209,"temp":32.2,"humidity":65,"rain":0.0,"pressure":977.3,"uv_index":7.7,"wind_gusts":26.3,"aqi":180,"pm10":746.9,"pm2_5":186.3,"no2":61.3,"co":1410.0,"o3":49.0,"so2":24.1,"mosquito_risk":3,"arthritis_risk":5,"migraine_risk":7,"frizz_risk":1,"updated_at":"2026-07-15T20:22:58.451200+05:30"},{"city":"Mumbai","state":"Maharashtra","latitude":19.076,"longitude":72.8777,"temp":26.6,"humidity":85,"rain":0.0,"pressure":1007.5,"uv_index":7.75,"wind_gusts":48.2,"aqi":69,"pm10":43.2,"pm2_5":19.0,"no2":13.6,"co":266.0,"o3":49.0,"so2":10.9,"mosquito_risk":7,"arthritis_risk":5,"migraine_risk":4,"frizz_risk":1,"updated_at":"2026-07-15T20:22:58.451261+05:30"},{"city":"Bangalore","state":"Karnataka","latitude":12.9716,"longitude":77.5946,"temp":26.5,"humidity":52,"rain":0.0,"pressure":912.1,"uv_index":9.15,"wind_gusts":42.1,"aqi":61,"pm10":16.1,"pm2_5":13.5,"no2":27.1,"co":389.0,"o3":58.0,"so2":5.8,"mosquito_risk":4,"arthritis_risk":5,"migraine_risk":7,"frizz_risk":0,"updated_at":"2026-07-15T20:22:58.451278+05:30"},{"city":"Hyderabad","state":"Telangana","latitude":17.385,"longitude":78.4867,"temp":28.3,"humidity":58,"rain":0.0,"pressure":952.1,"uv_index":8.95,"wind_gusts":46.1,"aqi":76,"pm10":33.8,"pm2_5":18.7,"no2":7.0,"co":307.0,"o3":76.0,"so2":3.7,"mosquito_risk":4,"arthritis_risk":5,"migraine_risk":7,"frizz_risk":1,"updated_at":"2026-07-15T20:22:58.451290+05:30"},{"city":"Chennai","state":"Tamil Nadu","latitude":13.0827,"longitude":80.2707,"temp":31.7,"humidity":69,"rain":0.0,"pressure":1004.8,"uv_index":8.75,"wind_gusts":37.8,"aqi":149,"pm10":42.6,"pm2_5":29.0,"no2":9.9,"co":253.0,"o3":151.0,"so2":7.4,"mosquito_risk":3,"arthritis_risk":5,"migraine_risk":4,"frizz_risk":1,"updated_at":"2026-07-15T20:22:58.451301+05:30"},{"city":"Kolkata","state":"West Bengal","latitude":22.5726,"longitude":88.3639,"temp":28.5,"humidity":84,"rain":0.0,"pressure":999.4,"uv_index":7.3,"wind_gusts":38.2,"aqi":115,"pm10":26.1,"pm2_5":25.1,"no2":19.2,"co":448.0,"o3":69.0,"so2":12.6,"mosquito_risk":7,"arthritis_risk":5,"migraine_risk":7,"frizz_risk":1,"updated_at":"2026-07-15T20:22:58.451312+05:30"},{"city":"Pune","state":"Maharashtra","latitude":18.5204,"longitude":73.8567,"temp":23.7,"humidity":84,"rain":0.0,"pressure":947.2,"uv_index":8.1,"wind_gusts":49.7,"aqi":53,"pm10":14.8,"pm2_5":8.8,"no2":10.6,"co":189.0,"o3":42.0,"so2":5.8,"mosquito_risk":3,"arthritis_risk":5,"migraine_risk":7,"frizz_risk":1,"updated_at":"2026-07-15T20:22:58.451321+05:30"},{"city":"Ahmedabad","state":"Gujarat","latitude":23.0225,"longitude":72.5714,"temp":29.4,"humidity":71,"rain":0.1,"pressure":998.8,"uv_index":7.0,"wind_gusts":45.4,"aqi":66,"pm10":54.7,"pm2_5":26.7,"no2":9.2,"co":200.0,"o3":64.0,"so2":6.2,"mosquito_risk":10,"arthritis_risk":5,"migraine_risk":7,"frizz_risk":1,"updated_at":"2026-07-15T20:22:58.451330+05:30"},{"city":"Jaipur","state":"Rajasthan","latitude":26.9124,"longitude":75.7873,"temp":31.8,"humidity":55,"rain":0.0,"pressure":955.6,"uv_index":7.85,"wind_gusts":38.2,"aqi":345,"pm10":283.1,"pm2_5":70.3,"no2":17.6,"co":269.0,"o3":64.0,"so2":6.0,"mosquito_risk":0,"arthritis_risk":5,"migraine_risk":7,"frizz_risk":1,"updated_at":"2026-07-15T20:22:58.451354+05:30"},{"city":"Lucknow","state":"Uttar Pradesh","latitude":26.8467,"longitude":80.9462,"temp":30.8,"humidity":82,"rain":0.0,"pressure":988.0,"uv_index":7.05,"wind_gusts":24.1,"aqi":164,"pm10":114.3,"pm2_5":61.7,"no2":15.2,"co":667.0,"o3":91.0,"so2":7.6,"mosquito_risk":3,"arthritis_risk":5,"migraine_risk":7,"frizz_risk":1,"updated_at":"2026-07-15T20:22:58.451367+05:30"},{"city":"Kanpur","state":"Uttar Pradesh","latitude":26.4499,"longitude":80.3319,"temp":31.4,"humidity":72,"rain":0.0,"pressure":986.6,"uv_index":7.6,"wind_gusts":36.7,"aqi":157,"pm10":131.3,"pm2_5":66.6,"no2":15.1,"co":261.0,"o3":85.0,"so2":7.3,"mosquito_risk":3,"arthritis_risk":5,"migraine_risk":7,"frizz_risk":1,"updated_at":"2026-07-15T20:22:58.451375+05:30"},{"city":"Chandigarh","state":"Chandigarh","latitude":30.7333,"longitude":76.7794,"temp":29.7,"humidity":74,"rain":0.0,"pressure":963.0,"uv_index":7.7,"wind_gusts":32.4,"aqi":207,"pm10":85.4,"pm2_5":67.3,"no2":20.9,"co":1065.0,"o3":153.0,"so2":15.4,"mosquito_risk":7,"arthritis_risk":5,"migraine_risk":7,"frizz_risk":1,"updated_at":"2026-07-15T20:22:58.451384+05:30"},{"city":"Srinagar","state":"Jammu and Kashmir","latitude":34.0837,"longitude":74.7973,"temp":25.6,"humidity":57,"rain":0.0,"pressure":838.6,"uv_index":8.8,"wind_gusts":20.2,"aqi":130,"pm10":31.8,"pm2_5":20.1,"no2":22.7,"co":840.0,"o3":104.0,"so2":3.8,"mosquito_risk":4,"arthritis_risk":5,"migraine_risk":7,"frizz_risk":1,"updated_at":"2026-07-15T20:22:58.451394+05:30"},{"city":"Jammu","state":"Jammu and Kashmir","latitude":32.7266,"longitude":74.857,"temp":28.5,"humidity":73,"rain":0.0,"pressure":966.8,"uv_index":8.55,"wind_gusts":16.9,"aqi":168,"pm10":73.3,"pm2_5":54.6,"no2":36.4,"co":694.0,"o3":127.0,"so2":7.6,"mosquito_risk":7,"arthritis_risk":5,"migraine_risk":7,"frizz_risk":1,"updated_at":"2026-07-15T20:22:58.451402+05:30"},{"city":"Amritsar","state":"Punjab","latitude":31.634,"longitude":74.8723,"temp":30.5,"humidity":79,"rain":0.0,"pressure":974.7,"uv_index":8.35,"wind_gusts":22.0,"aqi":190,"pm10":130.4,"pm2_5":78.0,"no2":33.2,"co":583.0,"o3":107.0,"so2":10.7,"mosquito_risk":3,"arthritis_risk":5,"migraine_risk":7,"frizz_risk":1,"updated_at":"2026-07-15T20:22:58.451410+05:30"},{"city":"Ludhiana","state":"Punjab","latitude":30.901,"longitude":75.8573,"temp":31.1,"humidity":74,"rain":0.0,"pressure":972.6,"uv_index":7.9,"wind_gusts":27.0,"aqi":188,"pm10":102.2,"pm2_5":72.2,"no2":24.0,"co":651.0,"o3":90.0,"so2":7.0,"mosquito_risk":3,"arthritis_risk":5,"migraine_risk":7,"frizz_risk":1,"updated_at":"2026-07-15T20:22:58.451418+05:30"},{"city":"Jalandhar","state":"Punjab","latitude":31.326,"longitude":75.5762,"temp":30.5,"humidity":76,"rain":0.0,"pressure":973.7,"uv_index":8.15,"wind_gusts":23.4,"aqi":193,"pm10":122.0,"pm2_5":78.9,"no2":28.9,"co":918.0,"o3":93.0,"so2":6.7,"mosquito_risk":3,"arthritis_risk":5,"migraine_risk":7,"frizz_risk":1,"updated_at":"2026-07-15T20:22:58.451425+05:30"},{"city":"Dehradun","state":"Uttarakhand","latitude":30.6284,"longitude":78.0322,"temp":19.8,"humidity":100,"rain":0.0,"pressure":828.2,"uv_index":7.75,"wind_gusts":26.6,"aqi":136,"pm10":52.7,"pm2_5":36.3,"no2":13.3,"co":340.0,"o3":138.0,"so2":5.5,"mosquito_risk":3,"arthritis_risk":10,"migraine_risk":7,"frizz_risk":1,"updated_at":"2026-07-15T20:22:58.451433+05:30"},{"city":"Shimla","state":"Himachal Pradesh","latitude":31.1048,"longitude":77.1734,"temp":16.4,"humidity":94,"rain":0.0,"pressure":782.3,"uv_index":8.2,"wind_gusts":39.6,"aqi":152,"pm10":61.5,"pm2_5":42.1,"no2":10.2,"co":363.0,"o3":162.0,"so2":11.0,"mosquito_risk":3,"arthritis_risk":10,"migraine_risk":7,"frizz_risk":0,"updated_at":"2026-07-15T20:22:58.451441+05:30"},{"city":"Manali","state":"Himachal Pradesh","latitude":32.2396,"longitude":77.1887,"temp":19.8,"humidity":91,"rain":0.0,"pressure":817.4,"uv_index":9.5,"wind_gusts":31.3,"aqi":119,"pm10":20.3,"pm2_5":11.8,"no2":31.7,"co":192.0,"o3":104.0,"so2":1.2,"mosquito_risk":3,"arthritis_risk":10,"migraine_risk":7,"frizz_risk":1,"updated_at":"2026-07-15T20:22:58.451450+05:30"},{"city":"Gurgaon","state":"Haryana","latitude":28.4595,"longitude":77.0266,"temp":31.3,"humidity":68,"rain":0.0,"pressure":975.7,"uv_index":7.75,"wind_gusts":29.9,"aqi":213,"pm10":633.3,"pm2_5":169.0,"no2":49.9,"co":1192.0,"o3":49.0,"so2":15.7,"mosquito_risk":3,"arthritis_risk":5,"migraine_risk":7,"frizz_risk":1,"updated_at":"2026-07-15T20:22:58.451458+05:30"},{"city":"Noida","state":"Uttar Pradesh","latitude":28.5355,"longitude":77.391,"temp":31.6,"humidity":68,"rain":0.0,"pressure":978.7,"uv_index":7.7,"wind_gusts":29.9,"aqi":213,"pm10":633.3,"pm2_5":169.0,"no2":49.9,"co":1275.0,"o3":49.0,"so2":15.7,"mosquito_risk":3,"arthritis_risk":5,"migraine_risk":7,"frizz_risk":1,"updated_at":"2026-07-15T20:22:58.451465+05:30"},{"city":"Ghaziabad","state":"Uttar Pradesh","latitude":28.6692,"longitude":77.4538,"temp":31.3,"humidity":78,"rain":0.0,"pressure":976.9,"uv_index":7.65,"wind_gusts":32.0,"aqi":172,"pm10":590.5,"pm2_5":167.6,"no2":47.9,"co":583.0,"o3":73.0,"so2":22.3,"mosquito_risk":3,"arthritis_risk":5,"migraine_risk":7,"frizz_risk":1,"updated_at":"2026-07-15T20:22:58.451473+05:30"},{"city":"Faridabad","state":"Haryana","latitude":28.4089,"longitude":77.3178,"temp":32.1,"humidity":64,"rain":0.0,"pressure":978.0,"uv_index":7.7,"wind_gusts":28.4,"aqi":213,"pm10":633.3,"pm2_5":169.0,"no2":49.9,"co":812.0,"o3":49.0,"so2":15.7,"mosquito_risk":3,"arthritis_risk":5,"migraine_risk":7,"frizz_risk":1,"updated_at":"2026-07-15T20:22:58.451484+05:30"},{"city":"Meerut","state":"Uttar Pradesh","latitude":28.9845,"longitude":77.7064,"temp":30.9,"humidity":72,"rain":0.0,"pressure":975.7,"uv_index":7.6,"wind_gusts":38.2,"aqi":172,"pm10":590.5,"pm2_5":167.6,"no2":47.9,"co":516.0,"o3":73.0,"so2":22.3,"mosquito_risk":3,"arthritis_risk":5,"migraine_risk":7,"frizz_risk":1,"updated_at":"2026-07-15T20:22:58.451492+05:30"},{"city":"Agra","state":"Uttar Pradesh","latitude":27.1767,"longitude":78.0081,"temp":31.0,"humidity":67,"rain":0.0,"pressure":982.7,"uv_index":6.85,"wind_gusts":34.2,"aqi":152,"pm10":112.0,"pm2_5":54.6,"no2":17.5,"co":545.0,"o3":67.0,"so2":6.5,"mosquito_risk":3,"arthritis_risk":5,"migraine_risk":7,"frizz_risk":1,"updated_at":"2026-07-15T20:22:58.451498+05:30"},{"city":"Varanasi","state":"Uttar Pradesh","latitude":25.3176,"longitude":82.9739,"temp":31.5,"humidity":78,"rain":0.0,"pressure":992.3,"uv_index":8.55,"wind_gusts":28.1,"aqi":180,"pm10":110.1,"pm2_5":62.2,"no2":13.3,"co":1076.0,"o3":104.0,"so2":9.0,"mosquito_risk":3,"arthritis_risk":5,"migraine_risk":7,"frizz_risk":1,"updated_at":"2026-07-15T20:22:58.451505+05:30"},{"city":"Prayagraj","state":"Uttar Pradesh","latitude":25.4358,"longitude":81.8463,"temp":31.6,"humidity":76,"rain":0.0,"pressure":990.7,"uv_index":8.55,"wind_gusts":26.6,"aqi":171,"pm10":114.1,"pm2_5":64.7,"no2":22.1,"co":328.0,"o3":79.0,"so2":12.5,"mosquito_risk":3,"arthritis_risk":5,"migraine_risk":7,"frizz_risk":1,"updated_at":"2026-07-15T20:22:58.451513+05:30"},{"city":"Gorakhpur","state":"Uttar Pradesh","latitude":26.7606,"longitude":83.3732,"temp":28.8,"humidity":91,"rain":0.0,"pressure":992.1,"uv_index":8.45,"wind_gusts":23.0,"aqi":158,"pm10":88.0,"pm2_5":48.8,"no2":13.8,"co":437.0,"o3":94.0,"so2":6.2,"mosquito_risk":7,"arthritis_risk":5,"migraine_risk":7,"frizz_risk":1,"updated_at":"2026-07-15T20:22:58.451520+05:30"},{"city":"Bareilly","state":"Uttar Pradesh","latitude":28.367,"longitude":79.4304,"temp":30.8,"humidity":77,"rain":0.0,"pressure":981.1,"uv_index":8.0,"wind_gusts":22.7,"aqi":162,"pm10":108.7,"pm2_5":75.7,"no2":25.4,"co":456.0,"o3":96.0,"so2":12.9,"mosquito_risk":3,"arthritis_risk":5,"migraine_risk":7,"frizz_risk":1,"updated_at":"2026-07-15T20:22:58.451530+05:30"},{"city":"Aligarh","state":"Uttar Pradesh","latitude":27.8974,"longitude":78.088,"temp":30.8,"humidity":72,"rain":0.0,"pressure":980.0,"uv_index":7.7,"wind_gusts":34.6,"aqi":160,"pm10":497.3,"pm2_5":127.6,"no2":17.6,"co":369.0,"o3":84.0,"so2":6.9,"mosquito_risk":3,"arthritis_risk":5,"migraine_risk":7,"frizz_risk":1,"updated_at":"2026-07-15T20:22:58.451538+05:30"},{"city":"Moradabad","state":"Uttar Pradesh","latitude":28.8386,"longitude":78.7733,"temp":31.1,"humidity":78,"rain":0.0,"pressure":977.8,"uv_index":7.8,"wind_gusts":28.1,"aqi":167,"pm10":163.0,"pm2_5":104.8,"no2":39.3,"co":632.0,"o3":104.0,"so2":18.1,"mosquito_risk":3,"arthritis_risk":5,"migraine_risk":7,"frizz_risk":1,"updated_at":"2026-07-15T20:22:58.451545+05:30"},{"city":"Saharanpur","state":"Uttar Pradesh","latitude":29.9637,"longitude":77.546,"temp":30.7,"humidity":74,"rain":0.0,"pressure":969.6,"uv_index":7.35,"wind_gusts":32.8,"aqi":186,"pm10":251.5,"pm2_5":102.0,"no2":23.5,"co":585.0,"o3":124.0,"so2":14.6,"mosquito_risk":3,"arthritis_risk":5,"migraine_risk":7,"frizz_risk":1,"updated_at":"2026-07-15T20:22:58.451553+05:30"},{"city":"Jhansi","state":"Uttar Pradesh","latitude":25.4484,"longitude":78.5685,"temp":30.4,"humidity":69,"rain":0.0,"pressure":973.8,"uv_index":7.5,"wind_gusts":42.5,"aqi":121,"pm10":85.2,"pm2_5":40.6,"no2":10.6,"co":350.0,"o3":66.0,"so2":3.8,"mosquito_risk":3,"arthritis_risk":5,"migraine_risk":7,"frizz_risk":1,"updated_at":"2026-07-15T20:23:01.745261+05:30"},{"city":"Surat","state":"Gujarat","latitude":21.1702,"longitude":72.8311,"temp":28.4,"humidity":80,"rain":0.0,"pressure":1004.2,"uv_index":7.7,"wind_gusts":43.2,"aqi":69,"pm10":28.2,"pm2_5":18.6,"no2":20.8,"co":214.0,"o3":31.0,"so2":35.8,"mosquito_risk":7,"arthritis_risk":5,"migraine_risk":4,"frizz_risk":1,"updated_at":"2026-07-15T20:23:01.745299+05:30"},{"city":"Vadodara","state":"Gujarat","latitude":22.3072,"longitude":73.1812,"temp":28.9,"humidity":78,"rain":0.0,"pressure":1001.4,"uv_index":7.0,"wind_gusts":42.8,"aqi":65,"pm10":25.6,"pm2_5":18.0,"no2":16.7,"co":193.0,"o3":52.0,"so2":19.6,"mosquito_risk":7,"arthritis_risk":5,"migraine_risk":4,"frizz_risk":1,"updated_at":"2026-07-15T20:23:01.745310+05:30"},{"city":"Rajkot","state":"Gujarat","latitude":22.3039,"longitude":70.8022,"temp":30.3,"humidity":58,"rain":0.0,"pressure":990.5,"uv_index":4.7,"wind_gusts":45.7,"aqi":56,"pm10":27.0,"pm2_5":17.2,"no2":6.5,"co":118.0,"o3":49.0,"so2":4.3,"mosquito_risk":0,"arthritis_risk":5,"migraine_risk":3,"frizz_risk":1,"updated_at":"2026-07-15T20:23:01.745320+05:30"},{"city":"Thane","state":"Maharashtra","latitude":19.2183,"longitude":72.9781,"temp":25.7,"humidity":88,"rain":0.0,"pressure":1006.9,"uv_index":7.4,"wind_gusts":35.6,"aqi":69,"pm10":43.2,"pm2_5":19.0,"no2":13.6,"co":294.0,"o3":49.0,"so2":10.9,"mosquito_risk":7,"arthritis_risk":5,"migraine_risk":4,"frizz_risk":1,"updated_at":"2026-07-15T20:23:01.745329+05:30"},{"city":"Nagpur","state":"Maharashtra","latitude":21.1458,"longitude":79.0882,"temp":29.3,"humidity":70,"rain":0.0,"pressure":970.2,"uv_index":7.5,"wind_gusts":40.0,"aqi":92,"pm10":64.7,"pm2_5":35.3,"no2":23.1,"co":328.0,"o3":52.0,"so2":17.7,"mosquito_risk":7,"arthritis_risk":5,"migraine_risk":7,"frizz_risk":1,"updated_at":"2026-07-15T20:23:01.745352+05:30"},{"city":"Nashik","state":"Maharashtra","latitude":19.9975,"longitude":73.7898,"temp":23.3,"humidity":88,"rain":0.0,"pressure":944.0,"uv_index":7.5,"wind_gusts":46.8,"aqi":52,"pm10":18.5,"pm2_5":9.9,"no2":9.1,"co":155.0,"o3":57.0,"so2":7.8,"mosquito_risk":3,"arthritis_risk":5,"migraine_risk":7,"frizz_risk":1,"updated_at":"2026-07-15T20:23:01.745360+05:30"},{"city":"Aurangabad","state":"Maharashtra","latitude":19.8762,"longitude":75.3433,"temp":25.9,"humidity":73,"rain":0.0,"pressure":942.7,"uv_index":8.85,"wind_gusts":44.3,"aqi":57,"pm10":18.4,"pm2_5":11.8,"no2":5.9,"co":167.0,"o3":79.0,"so2":6.4,"mosquito_risk":7,"arthritis_risk":5,"migraine_risk":7,"frizz_risk":1,"updated_at":"2026-07-15T20:23:01.745367+05:30"},{"city":"Solapur","state":"Maharashtra","latitude":17.6599,"longitude":75.9064,"temp":28.0,"humidity":60,"rain":0.0,"pressure":956.6,"uv_index":8.85,"wind_gusts":52.2,"aqi":60,"pm10":22.8,"pm2_5":13.8,"no2":6.8,"co":216.0,"o3":61.0,"so2":2.5,"mosquito_risk":4,"arthritis_risk":5,"migraine_risk":7,"frizz_risk":1,"updated_at":"2026-07-15T20:23:01.745375+05:30"},{"city":"Kolhapur","state":"Maharashtra","latitude":16.705,"longitude":74.2433,"temp":22.4,"humidity":90,"rain":0.0,"pressure":948.2,"uv_index":7.7,"wind_gusts":46.1,"aqi":54,"pm10":12.7,"pm2_5":8.3,"no2":7.1,"co":181.0,"o3":47.0,"so2":2.6,"mosquito_risk":3,"arthritis_risk":5,"migraine_risk":7,"frizz_risk":1,"updated_at":"2026-07-15T20:23:01.745382+05:30"},{"city":"Goa","state":"Goa","latitude":15.2993,"longitude":74.124,"temp":26.5,"humidity":84,"rain":0.0,"pressure":999.0,"uv_index":7.25,"wind_gusts":34.6,"aqi":75,"pm10":35.5,"pm2_5":17.4,"no2":3.2,"co":269.0,"o3":51.0,"so2":1.5,"mosquito_risk":7,"arthritis_risk":5,"migraine_risk":7,"frizz_risk":1,"updated_at":"2026-07-15T20:23:01.745390+05:30"},{"city":"Jodhpur","state":"Rajasthan","latitude":26.2389,"longitude":73.0243,"temp":32.9,"humidity":46,"rain":0.0,"pressure":978.2,"uv_index":8.2,"wind_gusts":38.2,"aqi":147,"pm10":190.5,"pm2_5":36.9,"no2":5.6,"co":143.0,"o3":65.0,"so2":1.9,"mosquito_risk":0,"arthritis_risk":5,"migraine_risk":7,"frizz_risk":1,"updated_at":"2026-07-15T20:23:01.745397+05:30"},{"city":"Udaipur","state":"Rajasthan","latitude":24.5854,"longitude":73.7125,"temp":27.3,"humidity":68,"rain":0.0,"pressure":943.2,"uv_index":8.8,"wind_gusts":37.1,"aqi":69,"pm10":38.9,"pm2_5":18.1,"no2":4.6,"co":150.0,"o3":72.0,"so2":2.8,"mosquito_risk":7,"arthritis_risk":5,"migraine_risk":7,"frizz_risk":1,"updated_at":"2026-07-15T20:23:01.745405+05:30"},{"city":"Kota","state":"Rajasthan","latitude":25.2138,"longitude":75.8648,"temp":31.3,"humidity":59,"rain":0.0,"pressure":974.5,"uv_index":8.25,"wind_gusts":34.9,"aqi":92,"pm10":70.1,"pm2_5":32.7,"no2":12.2,"co":297.0,"o3":73.0,"so2":5.8,"mosquito_risk":0,"arthritis_risk":5,"migraine_risk":7,"frizz_risk":1,"updated_at":"2026-07-15T20:23:01.745412+05:30"},{"city":"Bikaner","state":"Rajasthan","latitude":28.0229,"longitude":73.3119,"temp":35.0,"humidity":39,"rain":0.0,"pressure":976.0,"uv_index":8.4,"wind_gusts":36.7,"aqi":159,"pm10":122.0,"pm2_5":39.6,"no2":2.5,"co":132.0,"o3":76.0,"so2":2.5,"mosquito_risk":0,"arthritis_risk":5,"migraine_risk":7,"frizz_risk":1,"updated_at":"2026-07-15T20:23:01.745420+05:30"},{"city":"Ajmer","state":"Rajasthan","latitude":26.4499,"longitude":74.6399,"temp":29.3,"humidity":60,"rain":0.0,"pressure":950.7,"uv_index":8.3,"wind_gusts":46.1,"aqi":95,"pm10":49.5,"pm2_5":23.2,"no2":8.4,"co":170.0,"o3":69.0,"so2":3.2,"mosquito_risk":4,"arthritis_risk":5,"migraine_risk":7,"frizz_risk":1,"updated_at":"2026-07-15T20:23:01.745426+05:30"},{"city":"Gwalior","state":"Madhya Pradesh","latitude":26.2183,"longitude":78.1828,"temp":29.8,"humidity":73,"rain":0.0,"pressure":978.6,"uv_index":8.15,"wind_gusts":39.2,"aqi":144,"pm10":108.5,"pm2_5":43.5,"no2":8.0,"co":187.0,"o3":70.0,"so2":3.1,"mosquito_risk":7,"arthritis_risk":5,"migraine_risk":7,"frizz_risk":1,"updated_at":"2026-07-15T20:23:01.745434+05:30"},{"city":"Indore","state":"Madhya Pradesh","latitude":22.7196,"longitude":75.8577,"temp":28.2,"humidity":64,"rain":0.0,"pressure":945.4,"uv_index":8.55,"wind_gusts":38.9,"aqi":67,"pm10":39.6,"pm2_5":23.3,"no2":11.3,"co":301.0,"o3":71.0,"so2":5.4,"mosquito_risk":7,"arthritis_risk":5,"migraine_risk":7,"frizz_risk":1,"updated_at":"2026-07-15T20:23:01.745440+05:30"},{"city":"Bhopal","state":"Madhya Pradesh","latitude":23.2599,"longitude":77.4126,"temp":27.9,"humidity":73,"rain":0.0,"pressure":950.6,"uv_index":5.35,"wind_gusts":43.6,"aqi":85,"pm10":53.0,"pm2_5":26.9,"no2":9.5,"co":496.0,"o3":64.0,"so2":4.0,"mosquito_risk":7,"arthritis_risk":5,"migraine_risk":3,"frizz_risk":1,"updated_at":"2026-07-15T20:23:01.745447+05:30"},{"city":"Jabalpur","state":"Madhya Pradesh","latitude":23.1815,"longitude":79.9864,"temp":27.7,"humidity":75,"rain":0.0,"pressure":958.2,"uv_index":8.65,"wind_gusts":33.1,"aqi":111,"pm10":94.5,"pm2_5":45.6,"no2":7.0,"co":221.0,"o3":76.0,"so2":5.0,"mosquito_risk":7,"arthritis_risk":5,"migraine_risk":7,"frizz_risk":1,"updated_at":"2026-07-15T20:23:01.745454+05:30"},{"city":"Ujjain","state":"Madhya Pradesh","latitude":23.1765,"longitude":75.7885,"temp":27.9,"humidity":67,"rain":0.0,"pressure":950.8,"uv_index":8.5,"wind_gusts":36.7,"aqi":68,"pm10":42.3,"pm2_5":23.6,"no2":6.3,"co":251.0,"o3":76.0,"so2":3.9,"mosquito_risk":7,"arthritis_risk":5,"migraine_risk":7,"frizz_risk":1,"updated_at":"2026-07-15T20:23:01.745461+05:30"},{"city":"Visakhapatnam","state":"Andhra Pradesh","latitude":17.6868,"longitude":83.2185,"temp":30.6,"humidity":69,"rain":0.0,"pressure":998.7,"uv_index":8.65,"wind_gusts":36.7,"aqi":123,"pm10":42.4,"pm2_5":32.2,"no2":25.0,"co":421.0,"o3":73.0,"so2":46.1,"mosquito_risk":3,"arthritis_risk":5,"migraine_risk":7,"frizz_risk":1,"updated_at":"2026-07-15T20:23:01.745468+05:30"},{"city":"Vijayawada","state":"Andhra Pradesh","latitude":16.5062,"longitude":80.648,"temp":32.5,"humidity":47,"rain":0.0,"pressure":999.3,"uv_index":8.55,"wind_gusts":48.2,"aqi":90,"pm10":39.6,"pm2_5":28.6,"no2":10.5,"co":273.0,"o3":83.0,"so2":6.4,"mosquito_risk":0,"arthritis_risk":5,"migraine_risk":7,"frizz_risk":1,"updated_at":"2026-07-15T20:23:01.745475+05:30"},{"city":"Guntur","state":"Andhra Pradesh","latitude":16.3067,"longitude":80.4365,"temp":33.1,"humidity":42,"rain":0.0,"pressure":1000.6,"uv_index":8.8,"wind_gusts":49.0,"aqi":86,"pm10":45.6,"pm2_5":30.2,"no2":11.3,"co":330.0,"o3":78.0,"so2":6.0,"mosquito_risk":0,"arthritis_risk":5,"migraine_risk":4,"frizz_risk":1,"updated_at":"2026-07-15T20:23:01.745482+05:30"},{"city":"Nellore","state":"Andhra Pradesh","latitude":14.4426,"longitude":79.9865,"temp":32.4,"humidity":43,"rain":0.0,"pressure":1003.0,"uv_index":8.55,"wind_gusts":51.1,"aqi":79,"pm10":27.5,"pm2_5":19.0,"no2":7.4,"co":334.0,"o3":103.0,"so2":4.6,"mosquito_risk":0,"arthritis_risk":5,"migraine_risk":4,"frizz_risk":1,"updated_at":"2026-07-15T20:23:01.745490+05:30"},{"city":"Kurnool","state":"Andhra Pradesh","latitude":15.8281,"longitude":78.0373,"temp":26.0,"humidity":76,"rain":0.1,"pressure":976.8,"uv_index":8.9,"wind_gusts":64.4,"aqi":68,"pm10":54.6,"pm2_5":25.3,"no2":6.1,"co":128.0,"o3":84.0,"so2":8.5,"mosquito_risk":10,"arthritis_risk":5,"migraine_risk":7,"frizz_risk":1,"updated_at":"2026-07-15T20:23:01.745497+05:30"},{"city":"Kakinada","state":"Andhra Pradesh","latitude":16.9891,"longitude":82.2475,"temp":31.3,"humidity":60,"rain":0.0,"pressure":1003.5,"uv_index":6.15,"wind_gusts":52.6,"aqi":99,"pm10":32.6,"pm2_5":24.3,"no2":7.0,"co":303.0,"o3":109.0,"so2":7.3,"mosquito_risk":0,"arthritis_risk":5,"migraine_risk":4,"frizz_risk":1,"updated_at":"2026-07-15T20:23:01.745504+05:30"},{"city":"Tirupati","state":"Andhra Pradesh","latitude":13.6288,"longitude":79.4192,"temp":31.5,"humidity":44,"rain":0.0,"pressure":989.1,"uv_index":8.85,"wind_gusts":40.0,"aqi":82,"pm10":45.3,"pm2_5":36.9,"no2":46.3,"co":521.0,"o3":52.0,"so2":5.7,"mosquito_risk":0,"arthritis_risk":5,"migraine_risk":7,"frizz_risk":1,"updated_at":"2026-07-15T20:23:01.745511+05:30"},{"city":"Warangal","state":"Telangana","latitude":17.9689,"longitude":79.5941,"temp":29.8,"humidity":57,"rain":0.0,"pressure":976.4,"uv_index":8.7,"wind_gusts":45.4,"aqi":90,"pm10":46.8,"pm2_5":30.5,"no2":12.6,"co":222.0,"o3":56.0,"so2":4.7,"mosquito_risk":4,"arthritis_risk":5,"migraine_risk":7,"frizz_risk":1,"updated_at":"2026-07-15T20:23:01.745517+05:30"},{"city":"Nizamabad","state":"Telangana","latitude":18.6725,"longitude":78.0941,"temp":27.7,"humidity":65,"rain":0.0,"pressure":963.2,"uv_index":8.9,"wind_gusts":40.0,"aqi":82,"pm10":32.2,"pm2_5":18.9,"no2":6.2,"co":213.0,"o3":78.0,"so2":4.4,"mosquito_risk":7,"arthritis_risk":5,"migraine_risk":7,"frizz_risk":1,"updated_at":"2026-07-15T20:23:01.745524+05:30"},{"city":"Mysore","state":"Karnataka","latitude":12.2958,"longitude":76.6396,"temp":23.7,"humidity":77,"rain":0.0,"pressure":929.2,"uv_index":9.0,"wind_gusts":41.0,"aqi":58,"pm10":14.1,"pm2_5":10.3,"no2":8.3,"co":179.0,"o3":74.0,"so2":2.3,"mosquito_risk":3,"arthritis_risk":5,"migraine_risk":7,"frizz_risk":1,"updated_at":"2026-07-15T20:23:01.745530+05:30"},{"city":"Mangalore","state":"Karnataka","latitude":12.9141,"longitude":74.856,"temp":27.1,"humidity":81,"rain":0.0,"pressure":1008.3,"uv_index":8.75,"wind_gusts":35.6,"aqi":68,"pm10":42.6,"pm2_5":22.5,"no2":7.8,"co":234.0,"o3":44.0,"so2":2.7,"mosquito_risk":7,"arthritis_risk":0,"migraine_risk":4,"frizz_risk":1,"updated_at":"2026-07-15T20:23:01.745537+05:30"},{"city":"Hubli-Dharwad","state":"Karnataka","latitude":15.3647,"longitude":75.124,"temp":23.9,"humidity":79,"rain":0.0,"pressure":941.7,"uv_index":8.1,"wind_gusts":48.2,"aqi":54,"pm10":26.3,"pm2_5":14.4,"no2":4.9,"co":140.0,"o3":50.0,"so2":1.3,"mosquito_risk":3,"arthritis_risk":5,"migraine_risk":7,"frizz_risk":1,"updated_at":"2026-07-15T20:23:01.745544+05:30"},{"city":"Belgaum","state":"Karnataka","latitude":15.8497,"longitude":74.4977,"temp":21.4,"humidity":91,"rain":0.0,"pressure":926.2,"uv_index":8.55,"wind_gusts":47.2,"aqi":53,"pm10":12.4,"pm2_5":6.8,"no2":5.4,"co":142.0,"o3":46.0,"so2":1.8,"mosquito_risk":3,"arthritis_risk":5,"migraine_risk":7,"frizz_risk":1,"updated_at":"2026-07-15T20:23:05.047154+05:30"},{"city":"Coimbatore","state":"Tamil Nadu","latitude":11.0168,"longitude":76.9558,"temp":26.2,"humidity":77,"rain":0.0,"pressure":961.8,"uv_index":8.6,"wind_gusts":50.8,"aqi":59,"pm10":16.3,"pm2_5":12.5,"no2":7.9,"co":181.0,"o3":61.0,"so2":3.2,"mosquito_risk":7,"arthritis_risk":5,"migraine_risk":7,"frizz_risk":1,"updated_at":"2026-07-15T20:23:05.047192+05:30"},{"city":"Madurai","state":"Tamil Nadu","latitude":9.9252,"longitude":78.1198,"temp":31.3,"humidity":56,"rain":0.0,"pressure":992.6,"uv_index":7.75,"wind_gusts":36.0,"aqi":86,"pm10":50.9,"pm2_5":25.3,"no2":8.8,"co":189.0,"o3":97.0,"so2":4.6,"mosquito_risk":0,"arthritis_risk":5,"migraine_risk":7,"frizz_risk":1,"updated_at":"2026-07-15T20:23:05.047203+05:30"},{"city":"Trichy","state":"Tamil Nadu","latitude":10.7905,"longitude":78.7047,"temp":31.7,"humidity":55,"rain":0.0,"pressure":998.9,"uv_index":8.3,"wind_gusts":47.2,"aqi":71,"pm10":41.3,"pm2_5":27.3,"no2":12.4,"co":171.0,"o3":74.0,"so2":4.2,"mosquito_risk":0,"arthritis_risk":5,"migraine_risk":7,"frizz_risk":1,"updated_at":"2026-07-15T20:23:05.047212+05:30"},{"city":"Salem","state":"Tamil Nadu","latitude":11.6643,"longitude":78.146,"temp":29.3,"humidity":59,"rain":0.0,"pressure":976.7,"uv_index":8.7,"wind_gusts":24.5,"aqi":77,"pm10":33.4,"pm2_5":20.8,"no2":15.2,"co":322.0,"o3":75.0,"so2":5.7,"mosquito_risk":4,"arthritis_risk":5,"migraine_risk":7,"frizz_risk":1,"updated_at":"2026-07-15T20:23:05.047221+05:30"},{"city":"Tirunelveli","state":"Tamil Nadu","latitude":8.7139,"longitude":77.7567,"temp":31.4,"humidity":54,"rain":0.0,"pressure":1002.5,"uv_index":8.0,"wind_gusts":45.4,"aqi":57,"pm10":20.1,"pm2_5":13.6,"no2":5.0,"co":146.0,"o3":68.0,"so2":2.1,"mosquito_risk":0,"arthritis_risk":5,"migraine_risk":4,"frizz_risk":1,"updated_at":"2026-07-15T20:23:05.047229+05:30"},{"city":"Vellore","state":"Tamil Nadu","latitude":12.9165,"longitude":79.1325,"temp":32.3,"humidity":36,"rain":0.0,"pressure":982.7,"uv_index":8.95,"wind_gusts":43.2,"aqi":91,"pm10":44.5,"pm2_5":33.8,"no2":29.9,"co":431.0,"o3":60.0,"so2":6.0,"mosquito_risk":0,"arthritis_risk":5,"migraine_risk":7,"frizz_risk":0,"updated_at":"2026-07-15T20:23:05.047237+05:30"},{"city":"Erode","state":"Tamil Nadu","latitude":11.341,"longitude":77.7172,"temp":29.2,"humidity":61,"rain":0.0,"pressure":988.3,"uv_index":8.45,"wind_gusts":43.9,"aqi":66,"pm10":25.9,"pm2_5":17.1,"no2":13.5,"co":192.0,"o3":70.0,"so2":3.2,"mosquito_risk":7,"arthritis_risk":5,"migraine_risk":7,"frizz_risk":1,"updated_at":"2026-07-15T20:23:05.047245+05:30"},{"city":"Kochi","state":"Kerala","latitude":9.9312,"longitude":76.2673,"temp":27.2,"humidity":88,"rain":0.0,"pressure":1010.4,"uv_index":8.4,"wind_gusts":37.8,"aqi":65,"pm10":24.2,"pm2_5":16.7,"no2":14.1,"co":153.0,"o3":38.0,"so2":4.0,"mosquito_risk":7,"arthritis_risk":0,"migraine_risk":4,"frizz_risk":1,"updated_at":"2026-07-15T20:23:05.047254+05:30"},{"city":"Thiruvananthapuram","state":"Kerala","latitude":8.5241,"longitude":76.9366,"temp":26.6,"humidity":84,"rain":0.0,"pressure":1009.8,"uv_index":8.0,"wind_gusts":48.2,"aqi":60,"pm10":26.5,"pm2_5":14.7,"no2":4.9,"co":123.0,"o3":51.0,"so2":1.4,"mosquito_risk":7,"arthritis_risk":0,"migraine_risk":4,"frizz_risk":1,"updated_at":"2026-07-15T20:23:05.047262+05:30"},{"city":"Kozhikode","state":"Kerala","latitude":11.2588,"longitude":75.7804,"temp":27.0,"humidity":83,"rain":0.0,"pressure":1009.3,"uv_index":8.2,"wind_gusts":37.4,"aqi":61,"pm10":40.2,"pm2_5":18.5,"no2":1.4,"co":130.0,"o3":58.0,"so2":1.2,"mosquito_risk":7,"arthritis_risk":0,"migraine_risk":4,"frizz_risk":1,"updated_at":"2026-07-15T20:23:05.047269+05:30"},{"city":"Thrissur","state":"Kerala","latitude":10.5276,"longitude":76.2144,"temp":26.3,"humidity":88,"rain":0.0,"pressure":1008.7,"uv_index":8.3,"wind_gusts":35.6,"aqi":62,"pm10":22.8,"pm2_5":15.5,"no2":9.9,"co":195.0,"o3":42.0,"so2":3.1,"mosquito_risk":7,"arthritis_risk":0,"migraine_risk":4,"frizz_risk":1,"updated_at":"2026-07-15T20:23:05.047277+05:30"},{"city":"Kannur","state":"Kerala","latitude":11.8745,"longitude":75.3704,"temp":27.3,"humidity":81,"rain":0.0,"pressure":1008.6,"uv_index":7.25,"wind_gusts":39.2,"aqi":64,"pm10":40.7,"pm2_5":21.5,"no2":9.5,"co":176.0,"o3":43.0,"so2":2.2,"mosquito_risk":7,"arthritis_risk":0,"migraine_risk":4,"frizz_risk":1,"updated_at":"2026-07-15T20:23:05.047284+05:30"},{"city":"Patna","state":"Bihar","latitude":25.5941,"longitude":85.1376,"temp":28.2,"humidity":96,"rain":0.2,"pressure":995.7,"uv_index":8.25,"wind_gusts":34.2,"aqi":164,"pm10":72.4,"pm2_5":54.2,"no2":16.0,"co":609.0,"o3":105.0,"so2":10.2,"mosquito_risk":10,"arthritis_risk":5,"migraine_risk":7,"frizz_risk":1,"updated_at":"2026-07-15T20:23:05.047292+05:30"},{"city":"Gaya","state":"Bihar","latitude":24.7914,"longitude":85.0002,"temp":28.1,"humidity":94,"rain":0.1,"pressure":989.4,"uv_index":8.5,"wind_gusts":26.6,"aqi":163,"pm10":87.1,"pm2_5":53.3,"no2":11.2,"co":539.0,"o3":102.0,"so2":6.8,"mosquito_risk":10,"arthritis_risk":5,"migraine_risk":7,"frizz_risk":1,"updated_at":"2026-07-15T20:23:05.047299+05:30"},{"city":"Muzaffarpur","state":"Bihar","latitude":26.1209,"longitude":85.3647,"temp":27.7,"humidity":96,"rain":0.1,"pressure":995.8,"uv_index":7.35,"wind_gusts":22.0,"aqi":159,"pm10":49.7,"pm2_5":44.1,"no2":19.1,"co":784.0,"o3":90.0,"so2":10.2,"mosquito_risk":10,"arthritis_risk":5,"migraine_risk":7,"frizz_risk":1,"updated_at":"2026-07-15T20:23:05.047306+05:30"},{"city":"Bhagalpur","state":"Bihar","latitude":25.2425,"longitude":87.0117,"temp":29.3,"humidity":87,"rain":0.0,"pressure":996.4,"uv_index":7.95,"wind_gusts":21.6,"aqi":122,"pm10":42.6,"pm2_5":41.2,"no2":24.7,"co":432.0,"o3":76.0,"so2":14.8,"mosquito_risk":7,"arthritis_risk":5,"migraine_risk":7,"frizz_risk":1,"updated_at":"2026-07-15T20:23:05.047313+05:30"},{"city":"Ranchi","state":"Jharkhand","latitude":23.3441,"longitude":85.3096,"temp":24.4,"humidity":94,"rain":0.1,"pressure":933.2,"uv_index":8.5,"wind_gusts":32.4,"aqi":159,"pm10":79.4,"pm2_5":42.7,"no2":10.0,"co":291.0,"o3":97.0,"so2":7.5,"mosquito_risk":6,"arthritis_risk":5,"migraine_risk":7,"frizz_risk":1,"updated_at":"2026-07-15T20:23:05.047321+05:30"},{"city":"Jamshedpur","state":"Jharkhand","latitude":22.8046,"longitude":86.2029,"temp":26.5,"humidity":95,"rain":0.2,"pressure":985.9,"uv_index":7.75,"wind_gusts":31.7,"aqi":166,"pm10":45.6,"pm2_5":40.4,"no2":18.8,"co":412.0,"o3":98.0,"so2":37.7,"mosquito_risk":10,"arthritis_risk":5,"migraine_risk":7,"frizz_risk":1,"updated_at":"2026-07-15T20:23:05.047329+05:30"},{"city":"Dhanbad","state":"Jharkhand","latitude":23.7957,"longitude":86.4304,"temp":27.3,"humidity":93,"rain":0.0,"pressure":974.9,"uv_index":8.6,"wind_gusts":29.9,"aqi":187,"pm10":57.4,"pm2_5":54.0,"no2":38.2,"co":289.0,"o3":84.0,"so2":87.0,"mosquito_risk":7,"arthritis_risk":5,"migraine_risk":7,"frizz_risk":1,"updated_at":"2026-07-15T20:23:05.047351+05:30"},{"city":"Bokaro","state":"Jharkhand","latitude":23.6693,"longitude":86.1511,"temp":27.1,"humidity":95,"rain":0.0,"pressure":978.9,"uv_index":8.35,"wind_gusts":28.8,"aqi":190,"pm10":85.7,"pm2_5":63.1,"no2":36.9,"co":391.0,"o3":79.0,"so2":88.8,"mosquito_risk":7,"arthritis_risk":5,"migraine_risk":7,"frizz_risk":1,"updated_at":"2026-07-15T20:23:05.047359+05:30"},{"city":"Bhubaneswar","state":"Odisha","latitude":20.2961,"longitude":85.8245,"temp":26.2,"humidity":96,"rain":0.1,"pressure":996.1,"uv_index":5.9,"wind_gusts":37.8,"aqi":142,"pm10":57.0,"pm2_5":39.9,"no2":17.1,"co":381.0,"o3":75.0,"so2":14.9,"mosquito_risk":10,"arthritis_risk":5,"migraine_risk":3,"frizz_risk":1,"updated_at":"2026-07-15T20:23:05.047366+05:30"},{"city":"Cuttack","state":"Odisha","latitude":20.4625,"longitude":85.8828,"temp":26.7,"humidity":95,"rain":0.4,"pressure":997.7,"uv_index":6.95,"wind_gusts":37.1,"aqi":142,"pm10":57.0,"pm2_5":39.9,"no2":17.1,"co":272.0,"o3":75.0,"so2":14.9,"mosquito_risk":10,"arthritis_risk":5,"migraine_risk":7,"frizz_risk":1,"updated_at":"2026-07-15T20:23:05.047373+05:30"},{"city":"Rourkela","state":"Odisha","latitude":22.2604,"longitude":84.8536,"temp":25.9,"humidity":97,"rain":0.0,"pressure":980.0,"uv_index":7.8,"wind_gusts":40.0,"aqi":159,"pm10":89.2,"pm2_5":49.8,"no2":10.7,"co":575.0,"o3":84.0,"so2":6.2,"mosquito_risk":7,"arthritis_risk":5,"migraine_risk":7,"frizz_risk":1,"updated_at":"2026-07-15T20:23:05.047380+05:30"},{"city":"Raipur","state":"Chhattisgarh","latitude":21.2514,"longitude":81.6296,"temp":29.1,"humidity":71,"rain":0.0,"pressure":971.0,"uv_index":8.0,"wind_gusts":30.2,"aqi":140,"pm10":77.8,"pm2_5":48.9,"no2":35.7,"co":255.0,"o3":61.0,"so2":63.1,"mosquito_risk":7,"arthritis_risk":5,"migraine_risk":7,"frizz_risk":1,"updated_at":"2026-07-15T20:23:05.047387+05:30"},{"city":"Bhilai","state":"Chhattisgarh","latitude":21.1938,"longitude":81.3509,"temp":28.8,"humidity":72,"rain":0.0,"pressure":971.5,"uv_index":8.35,"wind_gusts":31.0,"aqi":123,"pm10":67.3,"pm2_5":42.0,"no2":25.4,"co":457.0,"o3":73.0,"so2":45.8,"mosquito_risk":7,"arthritis_risk":5,"migraine_risk":7,"frizz_risk":1,"updated_at":"2026-07-15T20:23:05.047394+05:30"},{"city":"Guwahati","state":"Assam","latitude":26.1158,"longitude":91.7086,"temp":27.0,"humidity":97,"rain":0.0,"pressure":997.2,"uv_index":7.85,"wind_gusts":23.4,"aqi":40,"pm10":13.0,"pm2_5":13.0,"no2":11.2,"co":324.0,"o3":44.0,"so2":2.2,"mosquito_risk":7,"arthritis_risk":5,"migraine_risk":7,"frizz_risk":1,"updated_at":"2026-07-15T20:23:05.047401+05:30"},{"city":"Agartala","state":"Tripura","latitude":23.8315,"longitude":91.2868,"temp":28.2,"humidity":86,"rain":0.0,"pressure":1001.9,"uv_index":8.7,"wind_gusts":31.7,"aqi":74,"pm10":20.4,"pm2_5":16.6,"no2":11.1,"co":216.0,"o3":56.0,"so2":2.5,"mosquito_risk":7,"arthritis_risk":5,"migraine_risk":4,"frizz_risk":1,"updated_at":"2026-07-15T20:23:05.047408+05:30"},{"city":"Shillong","state":"Meghalaya","latitude":25.5788,"longitude":91.8933,"temp":20.6,"humidity":94,"rain":0.0,"pressure":855.3,"uv_index":7.1,"wind_gusts":27.4,"aqi":38,"pm10":6.2,"pm2_5":5.8,"no2":6.7,"co":280.0,"o3":72.0,"so2":2.2,"mosquito_risk":3,"arthritis_risk":5,"migraine_risk":7,"frizz_risk":1,"updated_at":"2026-07-15T20:23:05.047415+05:30"},{"city":"Imphal","state":"Manipur","latitude":24.817,"longitude":93.9368,"temp":24.7,"humidity":96,"rain":0.0,"pressure":920.7,"uv_index":8.65,"wind_gusts":24.1,"aqi":55,"pm10":10.1,"pm2_5":9.3,"no2":10.0,"co":486.0,"o3":48.0,"so2":2.1,"mosquito_risk":3,"arthritis_risk":5,"migraine_risk":7,"frizz_risk":1,"updated_at":"2026-07-15T20:23:05.047422+05:30"},{"city":"Aizawl","state":"Mizoram","latitude":23.7271,"longitude":92.7176,"temp":21.4,"humidity":98,"rain":0.0,"pressure":889.5,"uv_index":9.0,"wind_gusts":30.6,"aqi":41,"pm10":5.4,"pm2_5":5.0,"no2":7.6,"co":229.0,"o3":40.0,"so2":0.8,"mosquito_risk":3,"arthritis_risk":5,"migraine_risk":7,"frizz_risk":1,"updated_at":"2026-07-15T20:23:05.047429+05:30"},{"city":"Kohima","state":"Nagaland","latitude":25.6701,"longitude":94.1077,"temp":21.2,"humidity":97,"rain":0.0,"pressure":853.7,"uv_index":7.25,"wind_gusts":26.6,"aqi":50,"pm10":10.8,"pm2_5":10.1,"no2":8.1,"co":299.0,"o3":52.0,"so2":1.2,"mosquito_risk":3,"arthritis_risk":5,"migraine_risk":7,"frizz_risk":1,"updated_at":"2026-07-15T20:23:05.047435+05:30"},{"city":"Gangtok","state":"Sikkim","latitude":27.3314,"longitude":88.6138,"temp":19.1,"humidity":93,"rain":0.2,"pressure":836.3,"uv_index":8.55,"wind_gusts":33.1,"aqi":47,"pm10":6.3,"pm2_5":6.1,"no2":5.8,"co":325.0,"o3":106.0,"so2":1.4,"mosquito_risk":6,"arthritis_risk":10,"migraine_risk":7,"frizz_risk":1,"updated_at":"2026-07-15T20:23:05.047443+05:30"},{"city":"Siliguri","state":"West Bengal","latitude":26.7271,"longitude":88.3953,"temp":26.9,"humidity":98,"rain":0.0,"pressure":988.6,"uv_index":6.95,"wind_gusts":23.4,"aqi":78,"pm10":33.2,"pm2_5":32.0,"no2":12.6,"co":782.0,"o3":105.0,"so2":4.0,"mosquito_risk":7,"arthritis_risk":5,"migraine_risk":7,"frizz_risk":1,"updated_at":"2026-07-15T20:23:08.379697+05:30"},{"city":"Durgapur","state":"West Bengal","latitude":23.5204,"longitude":87.3119,"temp":28.5,"humidity":87,"rain":0.0,"pressure":989.3,"uv_index":9.0,"wind_gusts":31.0,"aqi":152,"pm10":42.4,"pm2_5":41.4,"no2":30.8,"co":428.0,"o3":69.0,"so2":37.6,"mosquito_risk":7,"arthritis_risk":5,"migraine_risk":7,"frizz_risk":1,"updated_at":"2026-07-15T20:23:08.379738+05:30"},{"city":"Asansol","state":"West Bengal","latitude":23.6739,"longitude":86.9524,"temp":27.9,"humidity":89,"rain":0.0,"pressure":988.3,"uv_index":8.15,"wind_gusts":26.3,"aqi":155,"pm10":42.5,"pm2_5":41.7,"no2":30.3,"co":471.0,"o3":75.0,"so2":34.4,"mosquito_risk":7,"arthritis_risk":5,"migraine_risk":7,"frizz_risk":1,"updated_at":"2026-07-15T20:23:08.379750+05:30"},{"city":"Pondicherry","state":"Puducherry","latitude":11.9139,"longitude":79.8145,"temp":30.1,"humidity":82,"rain":0.0,"pressure":1006.0,"uv_index":8.15,"wind_gusts":43.9,"aqi":152,"pm10":43.5,"pm2_5":29.7,"no2":14.8,"co":204.0,"o3":116.0,"so2":7.0,"mosquito_risk":3,"arthritis_risk":5,"migraine_risk":4,"frizz_risk":1,"updated_at":"2026-07-15T20:23:08.379760+05:30"},{"city":"Port Blair","state":"Andaman and Nicobar Islands","latitude":11.6234,"longitude":92.7265,"temp":24.9,"humidity":95,"rain":0.1,"pressure":1008.9,"uv_index":8.35,"wind_gusts":55.4,"aqi":48,"pm10":31.3,"pm2_5":12.3,"no2":0.4,"co":98.0,"o3":49.0,"so2":0.4,"mosquito_risk":6,"arthritis_risk":0,"migraine_risk":4,"frizz_risk":1,"updated_at":"2026-07-15T20:23:08.379768+05:30"},{"city":"Haridwar","state":"Uttarakhand","latitude":29.9457,"longitude":78.1642,"temp":29.1,"humidity":86,"rain":0.0,"pressure":968.0,"uv_index":7.45,"wind_gusts":25.2,"aqi":188,"pm10":128.5,"pm2_5":83.6,"no2":17.3,"co":462.0,"o3":162.0,"so2":16.5,"mosquito_risk":7,"arthritis_risk":5,"migraine_risk":7,"frizz_risk":1,"updated_at":"2026-07-15T20:23:08.379776+05:30"},{"city":"Rishikesh","state":"Uttarakhand","latitude":30.0869,"longitude":78.2676,"temp":28.0,"humidity":92,"rain":0.0,"pressure":961.0,"uv_index":7.55,"wind_gusts":23.8,"aqi":165,"pm10":104.3,"pm2_5":69.8,"no2":5.5,"co":439.0,"o3":186.0,"so2":13.2,"mosquito_risk":7,"arthritis_risk":5,"migraine_risk":7,"frizz_risk":1,"updated_at":"2026-07-15T20:23:08.379784+05:30"},{"city":"Nainital","state":"Uttarakhand","latitude":29.3919,"longitude":79.4542,"temp":18.0,"humidity":99,"rain":0.0,"pressure":804.0,"uv_index":7.55,"wind_gusts":27.0,"aqi":159,"pm10":88.2,"pm2_5":54.7,"no2":12.2,"co":357.0,"o3":133.0,"so2":11.4,"mosquito_risk":3,"arthritis_risk":10,"migraine_risk":7,"frizz_risk":1,"updated_at":"2026-07-15T20:23:08.379793+05:30"},{"city":"Mussoorie","state":"Uttarakhand","latitude":30.4599,"longitude":78.0664,"temp":18.2,"humidity":100,"rain":0.0,"pressure":801.1,"uv_index":7.85,"wind_gusts":33.1,"aqi":173,"pm10":89.4,"pm2_5":70.5,"no2":22.2,"co":381.0,"o3":147.0,"so2":13.4,"mosquito_risk":3,"arthritis_risk":10,"migraine_risk":7,"frizz_risk":1,"updated_at":"2026-07-15T20:23:08.379801+05:30"},{"city":"Dharamshala","state":"Himachal Pradesh","latitude":32.219,"longitude":76.3234,"temp":22.2,"humidity":94,"rain":0.0,"pressure":866.1,"uv_index":8.4,"wind_gusts":36.0,"aqi":117,"pm10":46.7,"pm2_5":32.4,"no2":8.7,"co":422.0,"o3":119.0,"so2":2.5,"mosquito_risk":3,"arthritis_risk":5,"migraine_risk":7,"frizz_risk":1,"updated_at":"2026-07-15T20:23:08.379809+05:30"},{"city":"Dalhousie","state":"Himachal Pradesh","latitude":32.5387,"longitude":75.971,"temp":17.6,"humidity":99,"rain":0.0,"pressure":802.2,"uv_index":8.4,"wind_gusts":30.6,"aqi":157,"pm10":64.5,"pm2_5":46.9,"no2":20.6,"co":590.0,"o3":152.0,"so2":4.5,"mosquito_risk":3,"arthritis_risk":10,"migraine_risk":7,"frizz_risk":1,"updated_at":"2026-07-15T20:23:08.379817+05:30"},{"city":"Patiala","state":"Punjab","latitude":30.3398,"longitude":76.3869,"temp":30.8,"humidity":75,"rain":0.0,"pressure":972.2,"uv_index":7.6,"wind_gusts":29.2,"aqi":192,"pm10":436.8,"pm2_5":122.5,"no2":21.6,"co":609.0,"o3":92.0,"so2":7.9,"mosquito_risk":3,"arthritis_risk":5,"migraine_risk":7,"frizz_risk":1,"updated_at":"2026-07-15T20:23:08.379825+05:30"},{"city":"Bhatinda","state":"Punjab","latitude":30.211,"longitude":74.9455,"temp":34.3,"humidity":51,"rain":0.0,"pressure":977.6,"uv_index":8.2,"wind_gusts":25.9,"aqi":173,"pm10":196.5,"pm2_5":84.8,"no2":25.0,"co":309.0,"o3":74.0,"so2":7.0,"mosquito_risk":0,"arthritis_risk":5,"migraine_risk":7,"frizz_risk":1,"updated_at":"2026-07-15T20:23:08.379832+05:30"},{"city":"Rohtak","state":"Haryana","latitude":28.8955,"longitude":76.6066,"temp":32.3,"humidity":65,"rain":0.0,"pressure":975.8,"uv_index":7.65,"wind_gusts":33.1,"aqi":381,"pm10":841.9,"pm2_5":179.7,"no2":45.2,"co":778.0,"o3":53.0,"so2":8.2,"mosquito_risk":3,"arthritis_risk":5,"migraine_risk":7,"frizz_risk":1,"updated_at":"2026-07-15T20:23:08.379839+05:30"},{"city":"Panipat","state":"Haryana","latitude":29.3909,"longitude":76.9635,"temp":30.9,"humidity":78,"rain":0.0,"pressure":974.3,"uv_index":7.5,"wind_gusts":28.1,"aqi":693,"pm10":1367.2,"pm2_5":252.4,"no2":29.2,"co":542.0,"o3":64.0,"so2":9.0,"mosquito_risk":3,"arthritis_risk":5,"migraine_risk":7,"frizz_risk":1,"updated_at":"2026-07-15T20:23:08.379847+05:30"},{"city":"Mathura","state":"Uttar Pradesh","latitude":27.4924,"longitude":77.6737,"temp":30.8,"humidity":69,"rain":0.0,"pressure":981.6,"uv_index":7.65,"wind_gusts":38.2,"aqi":237,"pm10":864.3,"pm2_5":150.4,"no2":19.2,"co":453.0,"o3":77.0,"so2":4.8,"mosquito_risk":3,"arthritis_risk":5,"migraine_risk":7,"frizz_risk":1,"updated_at":"2026-07-15T20:23:08.379855+05:30"},{"city":"Vrindavan","state":"Uttar Pradesh","latitude":27.5823,"longitude":77.7027,"temp":31.0,"humidity":69,"rain":0.0,"pressure":981.9,"uv_index":7.65,"wind_gusts":31.0,"aqi":237,"pm10":864.3,"pm2_5":150.4,"no2":19.2,"co":367.0,"o3":77.0,"so2":4.8,"mosquito_risk":3,"arthritis_risk":5,"migraine_risk":7,"frizz_risk":1,"updated_at":"2026-07-15T20:23:08.379862+05:30"},{"city":"Ayodhya","state":"Uttar Pradesh","latitude":26.7922,"longitude":82.1998,"temp":30.0,"humidity":89,"rain":0.0,"pressure":990.1,"uv_index":7.05,"wind_gusts":25.2,"aqi":182,"pm10":131.8,"pm2_5":76.8,"no2":18.6,"co":537.0,"o3":89.0,"so2":8.0,"mosquito_risk":7,"arthritis_risk":5,"migraine_risk":7,"frizz_risk":1,"updated_at":"2026-07-15T20:23:08.379870+05:30"},{"city":"Ratlam","state":"Madhya Pradesh","latitude":23.3315,"longitude":75.0367,"temp":28.0,"humidity":64,"rain":0.0,"pressure":951.8,"uv_index":7.3,"wind_gusts":36.4,"aqi":66,"pm10":43.0,"pm2_5":22.6,"no2":4.3,"co":154.0,"o3":84.0,"so2":4.0,"mosquito_risk":7,"arthritis_risk":5,"migraine_risk":7,"frizz_risk":1,"updated_at":"2026-07-15T20:23:08.379877+05:30"},{"city":"Sagar","state":"Madhya Pradesh","latitude":23.8388,"longitude":78.7378,"temp":28.0,"humidity":70,"rain":0.0,"pressure":946.8,"uv_index":6.65,"wind_gusts":40.0,"aqi":99,"pm10":71.0,"pm2_5":35.5,"no2":7.7,"co":162.0,"o3":66.0,"so2":3.3,"mosquito_risk":7,"arthritis_risk":5,"migraine_risk":7,"frizz_risk":1,"updated_at":"2026-07-15T20:23:08.379885+05:30"},{"city":"Satna","state":"Madhya Pradesh","latitude":24.6005,"longitude":80.8322,"temp":30.0,"humidity":66,"rain":0.0,"pressure":967.2,"uv_index":8.7,"wind_gusts":31.3,"aqi":127,"pm10":85.7,"pm2_5":44.7,"no2":6.9,"co":202.0,"o3":82.0,"so2":3.5,"mosquito_risk":7,"arthritis_risk":5,"migraine_risk":7,"frizz_risk":1,"updated_at":"2026-07-15T20:23:08.379892+05:30"},{"city":"Akola","state":"Maharashtra","latitude":20.7002,"longitude":77.0082,"temp":29.9,"humidity":62,"rain":0.0,"pressure":972.7,"uv_index":7.95,"wind_gusts":42.8,"aqi":68,"pm10":37.1,"pm2_5":19.5,"no2":7.2,"co":151.0,"o3":82.0,"so2":6.8,"mosquito_risk":7,"arthritis_risk":5,"migraine_risk":7,"frizz_risk":1,"updated_at":"2026-07-15T20:23:08.379900+05:30"},{"city":"Amravati","state":"Maharashtra","latitude":20.9374,"longitude":77.7796,"temp":28.9,"humidity":68,"rain":0.0,"pressure":964.7,"uv_index":7.4,"wind_gusts":41.4,"aqi":69,"pm10":35.5,"pm2_5":19.0,"no2":8.3,"co":165.0,"o3":78.0,"so2":7.4,"mosquito_risk":7,"arthritis_risk":5,"migraine_risk":7,"frizz_risk":1,"updated_at":"2026-07-15T20:23:08.379909+05:30"},{"city":"Latur","state":"Maharashtra","latitude":18.4088,"longitude":76.5604,"temp":23.7,"humidity":91,"rain":0.1,"pressure":938.8,"uv_index":8.9,"wind_gusts":42.8,"aqi":61,"pm10":20.7,"pm2_5":11.6,"no2":4.5,"co":161.0,"o3":68.0,"so2":1.7,"mosquito_risk":6,"arthritis_risk":5,"migraine_risk":7,"frizz_risk":1,"updated_at":"2026-07-15T20:23:08.379918+05:30"},{"city":"Nanded","state":"Maharashtra","latitude":19.1383,"longitude":77.3091,"temp":26.7,"humidity":75,"rain":0.0,"pressure":967.0,"uv_index":8.85,"wind_gusts":42.1,"aqi":74,"pm10":33.9,"pm2_5":18.6,"no2":5.4,"co":186.0,"o3":74.0,"so2":3.3,"mosquito_risk":7,"arthritis_risk":5,"migraine_risk":7,"frizz_risk":1,"updated_at":"2026-07-15T20:23:08.379925+05:30"},{"city":"Gulbarga","state":"Karnataka","latitude":17.3297,"longitude":76.8343,"temp":27.1,"humidity":66,"rain":0.0,"pressure":958.1,"uv_index":8.75,"wind_gusts":62.6,"aqi":63,"pm10":22.8,"pm2_5":12.9,"no2":7.8,"co":176.0,"o3":62.0,"so2":2.6,"mosquito_risk":7,"arthritis_risk":5,"migraine_risk":7,"frizz_risk":1,"updated_at":"2026-07-15T20:23:08.379932+05:30"},{"city":"Bidar","state":"Karnataka","latitude":17.9104,"longitude":77.5199,"temp":24.9,"humidity":79,"rain":0.0,"pressure":934.3,"uv_index":9.0,"wind_gusts":44.6,"aqi":74,"pm10":22.9,"pm2_5":13.8,"no2":6.5,"co":186.0,"o3":68.0,"so2":2.3,"mosquito_risk":3,"arthritis_risk":5,"migraine_risk":7,"frizz_risk":1,"updated_at":"2026-07-15T20:23:08.379938+05:30"},{"city":"Hospet","state":"Karnataka","latitude":15.2689,"longitude":76.3909,"temp":25.6,"humidity":73,"rain":0.1,"pressure":955.9,"uv_index":8.5,"wind_gusts":43.9,"aqi":56,"pm10":18.6,"pm2_5":11.8,"no2":5.9,"co":130.0,"o3":60.0,"so2":1.7,"mosquito_risk":10,"arthritis_risk":5,"migraine_risk":7,"frizz_risk":1,"updated_at":"2026-07-15T20:23:08.379946+05:30"},{"city":"Tirupur","state":"Tamil Nadu","latitude":11.1085,"longitude":77.3411,"temp":27.3,"humidity":73,"rain":0.0,"pressure":975.0,"uv_index":8.8,"wind_gusts":52.6,"aqi":67,"pm10":29.0,"pm2_5":19.0,"no2":15.9,"co":166.0,"o3":65.0,"so2":4.4,"mosquito_risk":7,"arthritis_risk":5,"migraine_risk":7,"frizz_risk":1,"updated_at":"2026-07-15T20:23:08.379953+05:30"},{"city":"Alappuzha","state":"Kerala","latitude":9.4981,"longitude":76.3388,"temp":27.6,"humidity":85,"rain":0.0,"pressure":1010.5,"uv_index":8.25,"wind_gusts":39.2,"aqi":64,"pm10":25.9,"pm2_5":15.3,"no2":8.5,"co":92.0,"o3":50.0,"so2":2.8,"mosquito_risk":7,"arthritis_risk":0,"migraine_risk":4,"frizz_risk":1,"updated_at":"2026-07-15T20:23:08.379960+05:30"},{"city":"Munnar","state":"Kerala","latitude":10.0889,"longitude":77.0595,"temp":17.6,"humidity":97,"rain":0.0,"pressure":857.4,"uv_index":8.4,"wind_gusts":36.4,"aqi":55,"pm10":20.2,"pm2_5":14.4,"no2":8.5,"co":130.0,"o3":52.0,"so2":2.1,"mosquito_risk":3,"arthritis_risk":10,"migraine_risk":7,"frizz_risk":1,"updated_at":"2026-07-15T20:23:08.379968+05:30"},{"city":"Silchar","state":"Assam","latitude":24.8333,"longitude":92.7789,"temp":27.7,"humidity":97,"rain":0.1,"pressure":1000.9,"uv_index":8.85,"wind_gusts":25.2,"aqi":61,"pm10":17.1,"pm2_5":16.2,"no2":6.1,"co":368.0,"o3":73.0,"so2":3.0,"mosquito_risk":10,"arthritis_risk":5,"migraine_risk":4,"frizz_risk":1,"updated_at":"2026-07-15T20:23:08.379975+05:30"},{"city":"Dibrugarh","state":"Assam","latitude":27.4728,"longitude":94.912,"temp":27.9,"humidity":95,"rain":0.1,"pressure":991.1,"uv_index":7.3,"wind_gusts":22.0,"aqi":55,"pm10":22.2,"pm2_5":21.8,"no2":10.9,"co":256.0,"o3":62.0,"so2":2.0,"mosquito_risk":10,"arthritis_risk":5,"migraine_risk":7,"frizz_risk":1,"updated_at":"2026-07-15T20:23:08.379982+05:30"}]