[{"city":"Delhi","state":"Delhi","latitude":28.6139,"longitude":77.209,"temp":38.5,"humidity":17,"rain":0.0,"pressure":980.8,"uv_index":7.25,"wind_gusts":32.8,"aqi":214,"pm10":261.7,"pm2_5":41.3,"mosquito_risk":0,"arthritis_risk":5,"migraine_risk":10,"frizz_risk":0,"updated_at":"2026-04-20T13:43:32.593592+05:30"},{"city":"Mumbai","state":"Maharashtra","latitude":19.076,"longitude":72.8777,"temp":28.1,"humidity":78,"rain":0.0,"pressure":1007.3,"uv_index":8.05,"wind_gusts":21.6,"aqi":80,"pm10":47.8,"pm2_5":33.2,"mosquito_risk":7,"arthritis_risk":5,"migraine_risk":4,"frizz_risk":1,"updated_at":"2026-04-20T13:43:32.593638+05:30"},{"city":"Bangalore","state":"Karnataka","latitude":12.9716,"longitude":77.5946,"temp":33.6,"humidity":38,"rain":0.0,"pressure":911.6,"uv_index":9.55,"wind_gusts":29.5,"aqi":74,"pm10":28.0,"pm2_5":22.1,"mosquito_risk":0,"arthritis_risk":5,"migraine_risk":7,"frizz_risk":1,"updated_at":"2026-04-20T13:43:32.593653+05:30"},{"city":"Hyderabad","state":"Telangana","latitude":17.385,"longitude":78.4867,"temp":39.3,"humidity":22,"rain":0.0,"pressure":952.6,"uv_index":9.3,"wind_gusts":47.2,"aqi":110,"pm10":45.6,"pm2_5":36.8,"mosquito_risk":0,"arthritis_risk":5,"migraine_risk":10,"frizz_risk":0,"updated_at":"2026-04-20T13:43:32.593664+05:30"},{"city":"Chennai","state":"Tamil Nadu","latitude":13.0827,"longitude":80.2707,"temp":36.6,"humidity":47,"rain":0.0,"pressure":1005.8,"uv_index":9.25,"wind_gusts":35.3,"aqi":34,"pm10":14.5,"pm2_5":10.3,"mosquito_risk":0,"arthritis_risk":5,"migraine_risk":7,"frizz_risk":1,"updated_at":"2026-04-20T13:43:32.593674+05:30"},{"city":"Kolkata","state":"West Bengal","latitude":22.5726,"longitude":88.3639,"temp":34.8,"humidity":64,"rain":0.0,"pressure":1001.8,"uv_index":8.9,"wind_gusts":33.1,"aqi":83,"pm10":42.6,"pm2_5":33.6,"mosquito_risk":3,"arthritis_risk":5,"migraine_risk":4,"frizz_risk":1,"updated_at":"2026-04-20T13:43:32.593687+05:30"},{"city":"Pune","state":"Maharashtra","latitude":18.5204,"longitude":73.8567,"temp":39.3,"humidity":16,"rain":0.0,"pressure":947.7,"uv_index":8.55,"wind_gusts":44.3,"aqi":111,"pm10":39.7,"pm2_5":32.6,"mosquito_risk":0,"arthritis_risk":5,"migraine_risk":10,"frizz_risk":0,"updated_at":"2026-04-20T13:43:32.593696+05:30"},{"city":"Ahmedabad","state":"Gujarat","latitude":23.0225,"longitude":72.5714,"temp":38.6,"humidity":28,"rain":0.0,"pressure":1000.9,"uv_index":8.15,"wind_gusts":25.6,"aqi":49,"pm10":38.6,"pm2_5":12.1,"mosquito_risk":0,"arthritis_risk":5,"migraine_risk":7,"frizz_risk":1,"updated_at":"2026-04-20T13:43:32.593704+05:30"},{"city":"Jaipur","state":"Rajasthan","latitude":26.9124,"longitude":75.7873,"temp":38.8,"humidity":17,"rain":0.0,"pressure":958.4,"uv_index":7.95,"wind_gusts":26.6,"aqi":114,"pm10":182.1,"pm2_5":22.4,"mosquito_risk":0,"arthritis_risk":5,"migraine_risk":10,"frizz_risk":0,"updated_at":"2026-04-20T13:43:32.593712+05:30"},{"city":"Lucknow","state":"Uttar Pradesh","latitude":26.8467,"longitude":80.9462,"temp":41.4,"humidity":15,"rain":0.0,"pressure":989.3,"uv_index":7.9,"wind_gusts":39.6,"aqi":119,"pm10":199.3,"pm2_5":32.8,"mosquito_risk":0,"arthritis_risk":5,"migraine_risk":10,"frizz_risk":0,"updated_at":"2026-04-20T13:43:32.593720+05:30"},{"city":"Kanpur","state":"Uttar Pradesh","latitude":26.4499,"longitude":80.3319,"temp":39.9,"humidity":21,"rain":0.0,"pressure":988.1,"uv_index":7.9,"wind_gusts":30.2,"aqi":182,"pm10":306.4,"pm2_5":41.6,"mosquito_risk":0,"arthritis_risk":5,"migraine_risk":10,"frizz_risk":0,"updated_at":"2026-04-20T13:43:32.593727+05:30"},{"city":"Chandigarh","state":"Chandigarh","latitude":30.7333,"longitude":76.7794,"temp":38.2,"humidity":14,"rain":0.0,"pressure":966.9,"uv_index":7.25,"wind_gusts":34.2,"aqi":64,"pm10":42.3,"pm2_5":14.5,"mosquito_risk":0,"arthritis_risk":5,"migraine_risk":10,"frizz_risk":0,"updated_at":"2026-04-20T13:43:32.593735+05:30"},{"city":"Srinagar","state":"Jammu and Kashmir","latitude":34.0837,"longitude":74.7973,"temp":20.2,"humidity":47,"rain":0.0,"pressure":844.7,"uv_index":8.25,"wind_gusts":15.5,"aqi":97,"pm10":34.8,"pm2_5":12.0,"mosquito_risk":0,"arthritis_risk":5,"migraine_risk":7,"frizz_risk":0,"updated_at":"2026-04-20T13:43:32.593742+05:30"},{"city":"Jammu","state":"Jammu and Kashmir","latitude":32.7266,"longitude":74.857,"temp":36.5,"humidity":21,"rain":0.0,"pressure":971.5,"uv_index":7.9,"wind_gusts":28.1,"aqi":62,"pm10":40.4,"pm2_5":12.2,"mosquito_risk":0,"arthritis_risk":5,"migraine_risk":10,"frizz_risk":0,"updated_at":"2026-04-20T13:43:32.593751+05:30"},{"city":"Amritsar","state":"Punjab","latitude":31.634,"longitude":74.8723,"temp":37.3,"humidity":15,"rain":0.0,"pressure":979.6,"uv_index":7.9,"wind_gusts":32.4,"aqi":79,"pm10":35.3,"pm2_5":11.4,"mosquito_risk":0,"arthritis_risk":5,"migraine_risk":10,"frizz_risk":0,"updated_at":"2026-04-20T13:43:32.593758+05:30"},{"city":"Ludhiana","state":"Punjab","latitude":30.901,"longitude":75.8573,"temp":38.7,"humidity":13,"rain":0.0,"pressure":976.8,"uv_index":7.5,"wind_gusts":32.4,"aqi":67,"pm10":49.9,"pm2_5":14.4,"mosquito_risk":0,"arthritis_risk":5,"migraine_risk":10,"frizz_risk":0,"updated_at":"2026-04-20T13:43:32.593767+05:30"},{"city":"Jalandhar","state":"Punjab","latitude":31.326,"longitude":75.5762,"temp":38.2,"humidity":14,"rain":0.0,"pressure":978.1,"uv_index":7.65,"wind_gusts":31.3,"aqi":76,"pm10":61.0,"pm2_5":16.9,"mosquito_risk":0,"arthritis_risk":5,"migraine_risk":10,"frizz_risk":0,"updated_at":"2026-04-20T13:43:32.593775+05:30"},{"city":"Dehradun","state":"Uttarakhand","latitude":30.6284,"longitude":78.0322,"temp":26.8,"humidity":22,"rain":0.0,"pressure":832.8,"uv_index":7.7,"wind_gusts":41.0,"aqi":59,"pm10":28.6,"pm2_5":7.8,"mosquito_risk":4,"arthritis_risk":5,"migraine_risk":7,"frizz_risk":0,"updated_at":"2026-04-20T13:43:32.593784+05:30"},{"city":"Shimla","state":"Himachal Pradesh","latitude":31.1048,"longitude":77.1734,"temp":25.6,"humidity":19,"rain":0.0,"pressure":788.9,"uv_index":7.75,"wind_gusts":47.9,"aqi":54,"pm10":30.0,"pm2_5":10.1,"mosquito_risk":4,"arthritis_risk":5,"migraine_risk":7,"frizz_risk":0,"updated_at":"2026-04-20T13:43:32.593791+05:30"},{"city":"Manali","state":"Himachal Pradesh","latitude":32.2396,"longitude":77.1887,"temp":24.6,"humidity":24,"rain":0.0,"pressure":823.5,"uv_index":9.85,"wind_gusts":28.4,"aqi":84,"pm10":16.7,"pm2_5":4.8,"mosquito_risk":0,"arthritis_risk":5,"migraine_risk":7,"frizz_risk":0,"updated_at":"2026-04-20T13:43:32.593797+05:30"},{"city":"Gurgaon","state":"Haryana","latitude":28.4595,"longitude":77.0266,"temp":39.2,"humidity":15,"rain":0.0,"pressure":979.4,"uv_index":7.4,"wind_gusts":32.8,"aqi":834,"pm10":745.1,"pm2_5":80.3,"mosquito_risk":0,"arthritis_risk":5,"migraine_risk":10,"frizz_risk":0,"updated_at":"2026-04-20T13:43:32.593804+05:30"},{"city":"Noida","state":"Uttar Pradesh","latitude":28.5355,"longitude":77.391,"temp":39.0,"humidity":16,"rain":0.0,"pressure":982.2,"uv_index":7.3,"wind_gusts":32.8,"aqi":834,"pm10":745.1,"pm2_5":80.3,"mosquito_risk":0,"arthritis_risk":5,"migraine_risk":10,"frizz_risk":0,"updated_at":"2026-04-20T13:43:32.593811+05:30"},{"city":"Ghaziabad","state":"Uttar Pradesh","latitude":28.6692,"longitude":77.4538,"temp":38.8,"humidity":17,"rain":0.0,"pressure":980.4,"uv_index":7.3,"wind_gusts":32.4,"aqi":126,"pm10":201.6,"pm2_5":36.3,"mosquito_risk":0,"arthritis_risk":5,"migraine_risk":10,"frizz_risk":0,"updated_at":"2026-04-20T13:43:32.593818+05:30"},{"city":"Faridabad","state":"Haryana","latitude":28.4089,"longitude":77.3178,"temp":39.5,"humidity":15,"rain":0.0,"pressure":981.6,"uv_index":7.35,"wind_gusts":32.0,"aqi":834,"pm10":745.1,"pm2_5":80.3,"mosquito_risk":0,"arthritis_risk":5,"migraine_risk":10,"frizz_risk":0,"updated_at":"2026-04-20T13:43:32.593825+05:30"},{"city":"Meerut","state":"Uttar Pradesh","latitude":28.9845,"longitude":77.7064,"temp":39.4,"humidity":15,"rain":0.0,"pressure":978.9,"uv_index":7.2,"wind_gusts":35.3,"aqi":126,"pm10":201.6,"pm2_5":36.3,"mosquito_risk":0,"arthritis_risk":5,"migraine_risk":10,"frizz_risk":0,"updated_at":"2026-04-20T13:43:32.593831+05:30"},{"city":"Agra","state":"Uttar Pradesh","latitude":27.1767,"longitude":78.0081,"temp":40.2,"humidity":19,"rain":0.0,"pressure":985.1,"uv_index":7.7,"wind_gusts":23.8,"aqi":555,"pm10":482.4,"pm2_5":58.0,"mosquito_risk":0,"arthritis_risk":5,"migraine_risk":10,"frizz_risk":0,"updated_at":"2026-04-20T13:43:32.593840+05:30"},{"city":"Varanasi","state":"Uttar Pradesh","latitude":25.3176,"longitude":82.9739,"temp":43.0,"humidity":15,"rain":0.0,"pressure":992.6,"uv_index":8.4,"wind_gusts":34.2,"aqi":107,"pm10":75.0,"pm2_5":19.8,"mosquito_risk":0,"arthritis_risk":5,"migraine_risk":10,"frizz_risk":0,"updated_at":"2026-04-20T13:43:32.593847+05:30"},{"city":"Prayagraj","state":"Uttar Pradesh","latitude":25.4358,"longitude":81.8463,"temp":42.1,"humidity":17,"rain":0.0,"pressure":991.4,"uv_index":7.8,"wind_gusts":34.9,"aqi":91,"pm10":88.2,"pm2_5":22.5,"mosquito_risk":0,"arthritis_risk":5,"migraine_risk":10,"frizz_risk":0,"updated_at":"2026-04-20T13:43:32.593854+05:30"},{"city":"Gorakhpur","state":"Uttar Pradesh","latitude":26.7606,"longitude":83.3732,"temp":40.1,"humidity":29,"rain":0.0,"pressure":992.5,"uv_index":8.35,"wind_gusts":37.1,"aqi":133,"pm10":121.1,"pm2_5":33.1,"mosquito_risk":0,"arthritis_risk":5,"migraine_risk":10,"frizz_risk":1,"updated_at":"2026-04-20T13:43:32.593861+05:30"},{"city":"Bareilly","state":"Uttar Pradesh","latitude":28.367,"longitude":79.4304,"temp":39.9,"humidity":17,"rain":0.0,"pressure":983.5,"uv_index":7.55,"wind_gusts":35.6,"aqi":76,"pm10":106.4,"pm2_5":21.5,"mosquito_risk":0,"arthritis_risk":5,"migraine_risk":10,"frizz_risk":0,"updated_at":"2026-04-20T13:43:32.593867+05:30"},{"city":"Aligarh","state":"Uttar Pradesh","latitude":27.8974,"longitude":78.088,"temp":40.8,"humidity":14,"rain":0.0,"pressure":982.5,"uv_index":7.45,"wind_gusts":32.4,"aqi":415,"pm10":488.0,"pm2_5":57.9,"mosquito_risk":0,"arthritis_risk":5,"migraine_risk":10,"frizz_risk":0,"updated_at":"2026-04-20T13:43:32.593873+05:30"},{"city":"Moradabad","state":"Uttar Pradesh","latitude":28.8386,"longitude":78.7733,"temp":39.6,"humidity":16,"rain":0.0,"pressure":980.5,"uv_index":7.4,"wind_gusts":38.5,"aqi":82,"pm10":108.3,"pm2_5":22.1,"mosquito_risk":0,"arthritis_risk":5,"migraine_risk":10,"frizz_risk":0,"updated_at":"2026-04-20T13:43:32.593882+05:30"},{"city":"Saharanpur","state":"Uttar Pradesh","latitude":29.9637,"longitude":77.546,"temp":37.7,"humidity":17,"rain":0.0,"pressure":973.6,"uv_index":6.95,"wind_gusts":30.2,"aqi":70,"pm10":71.9,"pm2_5":18.3,"mosquito_risk":0,"arthritis_risk":5,"migraine_risk":10,"frizz_risk":0,"updated_at":"2026-04-20T13:43:32.593888+05:30"},{"city":"Jhansi","state":"Uttar Pradesh","latitude":25.4484,"longitude":78.5685,"temp":42.2,"humidity":12,"rain":0.0,"pressure":974.9,"uv_index":8.05,"wind_gusts":29.9,"aqi":62,"pm10":143.0,"pm2_5":28.1,"mosquito_risk":0,"arthritis_risk":5,"migraine_risk":10,"frizz_risk":0,"updated_at":"2026-04-20T13:43:35.819866+05:30"},{"city":"Surat","state":"Gujarat","latitude":21.1702,"longitude":72.8311,"temp":32.6,"humidity":59,"rain":0.0,"pressure":1006.2,"uv_index":7.85,"wind_gusts":23.8,"aqi":109,"pm10":44.4,"pm2_5":38.3,"mosquito_risk":0,"arthritis_risk":5,"migraine_risk":4,"frizz_risk":1,"updated_at":"2026-04-20T13:43:35.819897+05:30"},{"city":"Vadodara","state":"Gujarat","latitude":22.3072,"longitude":73.1812,"temp":39.1,"humidity":27,"rain":0.0,"pressure":1003.1,"uv_index":8.1,"wind_gusts":25.6,"aqi":81,"pm10":22.6,"pm2_5":15.5,"mosquito_risk":0,"arthritis_risk":5,"migraine_risk":7,"frizz_risk":1,"updated_at":"2026-04-20T13:43:35.819906+05:30"},{"city":"Rajkot","state":"Gujarat","latitude":22.3039,"longitude":70.8022,"temp":36.7,"humidity":26,"rain":0.0,"pressure":993.8,"uv_index":7.85,"wind_gusts":27.7,"aqi":45,"pm10":45.3,"pm2_5":14.6,"mosquito_risk":0,"arthritis_risk":5,"migraine_risk":10,"frizz_risk":0,"updated_at":"2026-04-20T13:43:35.819913+05:30"},{"city":"Thane","state":"Maharashtra","latitude":19.2183,"longitude":72.9781,"temp":33.9,"humidity":50,"rain":0.0,"pressure":1006.9,"uv_index":8.05,"wind_gusts":31.7,"aqi":80,"pm10":47.8,"pm2_5":33.2,"mosquito_risk":0,"arthritis_risk":5,"migraine_risk":4,"frizz_risk":1,"updated_at":"2026-04-20T13:43:35.819920+05:30"},{"city":"Nagpur","state":"Maharashtra","latitude":21.1458,"longitude":79.0882,"temp":40.3,"humidity":15,"rain":0.0,"pressure":971.1,"uv_index":8.6,"wind_gusts":37.4,"aqi":83,"pm10":27.1,"pm2_5":20.3,"mosquito_risk":0,"arthritis_risk":5,"migraine_risk":10,"frizz_risk":0,"updated_at":"2026-04-20T13:43:35.819927+05:30"},{"city":"Nashik","state":"Maharashtra","latitude":19.9975,"longitude":73.7898,"temp":36.8,"humidity":19,"rain":0.0,"pressure":945.7,"uv_index":8.3,"wind_gusts":34.6,"aqi":86,"pm10":21.4,"pm2_5":14.3,"mosquito_risk":0,"arthritis_risk":5,"migraine_risk":10,"frizz_risk":0,"updated_at":"2026-04-20T13:43:35.819934+05:30"},{"city":"Aurangabad","state":"Maharashtra","latitude":19.8762,"longitude":75.3433,"temp":38.6,"humidity":18,"rain":0.0,"pressure":943.8,"uv_index":8.85,"wind_gusts":21.2,"aqi":86,"pm10":35.3,"pm2_5":29.3,"mosquito_risk":0,"arthritis_risk":5,"migraine_risk":10,"frizz_risk":0,"updated_at":"2026-04-20T13:43:35.819941+05:30"},{"city":"Solapur","state":"Maharashtra","latitude":17.6599,"longitude":75.9064,"temp":37.8,"humidity":26,"rain":0.0,"pressure":956.4,"uv_index":8.75,"wind_gusts":24.8,"aqi":125,"pm10":43.4,"pm2_5":35.9,"mosquito_risk":0,"arthritis_risk":5,"migraine_risk":10,"frizz_risk":0,"updated_at":"2026-04-20T13:43:35.819954+05:30"},{"city":"Kolhapur","state":"Maharashtra","latitude":16.705,"longitude":74.2433,"temp":35.1,"humidity":38,"rain":0.0,"pressure":947.5,"uv_index":9.05,"wind_gusts":29.5,"aqi":111,"pm10":43.3,"pm2_5":36.2,"mosquito_risk":0,"arthritis_risk":5,"migraine_risk":10,"frizz_risk":1,"updated_at":"2026-04-20T13:43:35.819960+05:30"},{"city":"Goa","state":"Goa","latitude":15.2993,"longitude":74.124,"temp":32.1,"humidity":67,"rain":0.0,"pressure":996.9,"uv_index":9.0,"wind_gusts":28.8,"aqi":84,"pm10":38.6,"pm2_5":27.0,"mosquito_risk":3,"arthritis_risk":5,"migraine_risk":7,"frizz_risk":1,"updated_at":"2026-04-20T13:43:35.819967+05:30"},{"city":"Jodhpur","state":"Rajasthan","latitude":26.2389,"longitude":73.0243,"temp":39.2,"humidity":20,"rain":0.0,"pressure":981.8,"uv_index":8.15,"wind_gusts":25.2,"aqi":93,"pm10":115.5,"pm2_5":18.2,"mosquito_risk":0,"arthritis_risk":5,"migraine_risk":10,"frizz_risk":0,"updated_at":"2026-04-20T13:43:35.819973+05:30"},{"city":"Udaipur","state":"Rajasthan","latitude":24.5854,"longitude":73.7125,"temp":36.9,"humidity":15,"rain":0.0,"pressure":946.7,"uv_index":8.7,"wind_gusts":30.6,"aqi":47,"pm10":20.5,"pm2_5":6.8,"mosquito_risk":0,"arthritis_risk":5,"migraine_risk":10,"frizz_risk":0,"updated_at":"2026-04-20T13:43:35.819979+05:30"},{"city":"Kota","state":"Rajasthan","latitude":25.2138,"longitude":75.8648,"temp":41.0,"humidity":12,"rain":0.0,"pressure":976.5,"uv_index":8.25,"wind_gusts":26.6,"aqi":51,"pm10":30.2,"pm2_5":8.2,"mosquito_risk":0,"arthritis_risk":5,"migraine_risk":10,"frizz_risk":0,"updated_at":"2026-04-20T13:43:35.819986+05:30"},{"city":"Bikaner","state":"Rajasthan","latitude":28.0229,"longitude":73.3119,"temp":38.4,"humidity":18,"rain":0.0,"pressure":980.7,"uv_index":8.0,"wind_gusts":31.0,"aqi":63,"pm10":59.3,"pm2_5":15.1,"mosquito_risk":0,"arthritis_risk":5,"migraine_risk":10,"frizz_risk":0,"updated_at":"2026-04-20T13:43:35.819992+05:30"},{"city":"Ajmer","state":"Rajasthan","latitude":26.4499,"longitude":74.6399,"temp":37.9,"humidity":19,"rain":0.0,"pressure":954.0,"uv_index":8.1,"wind_gusts":25.2,"aqi":52,"pm10":170.9,"pm2_5":23.2,"mosquito_risk":0,"arthritis_risk":5,"migraine_risk":10,"frizz_risk":0,"updated_at":"2026-04-20T13:43:35.819998+05:30"},{"city":"Gwalior","state":"Madhya Pradesh","latitude":26.2183,"longitude":78.1828,"temp":40.7,"humidity":18,"rain":0.0,"pressure":980.7,"uv_index":8.0,"wind_gusts":37.1,"aqi":80,"pm10":227.2,"pm2_5":37.4,"mosquito_risk":0,"arthritis_risk":5,"migraine_risk":10,"frizz_risk":0,"updated_at":"2026-04-20T13:43:35.820004+05:30"},{"city":"Indore","state":"Madhya Pradesh","latitude":22.7196,"longitude":75.8577,"temp":38.2,"humidity":16,"rain":0.0,"pressure":947.9,"uv_index":8.6,"wind_gusts":35.6,"aqi":77,"pm10":16.1,"pm2_5":12.8,"mosquito_risk":0,"arthritis_risk":5,"migraine_risk":10,"frizz_risk":0,"updated_at":"2026-04-20T13:43:35.820011+05:30"},{"city":"Bhopal","state":"Madhya Pradesh","latitude":23.2599,"longitude":77.4126,"temp":40.5,"humidity":12,"rain":0.0,"pressure":952.6,"uv_index":7.1,"wind_gusts":35.6,"aqi":79,"pm10":15.3,"pm2_5":12.8,"mosquito_risk":0,"arthritis_risk":5,"migraine_risk":10,"frizz_risk":0,"updated_at":"2026-04-20T13:43:35.820017+05:30"},{"city":"Jabalpur","state":"Madhya Pradesh","latitude":23.1815,"longitude":79.9864,"temp":40.3,"humidity":18,"rain":0.0,"pressure":959.2,"uv_index":8.45,"wind_gusts":37.1,"aqi":66,"pm10":16.5,"pm2_5":12.7,"mosquito_risk":0,"arthritis_risk":5,"migraine_risk":10,"frizz_risk":0,"updated_at":"2026-04-20T13:43:35.820023+05:30"},{"city":"Ujjain","state":"Madhya Pradesh","latitude":23.1765,"longitude":75.7885,"temp":38.2,"humidity":16,"rain":0.0,"pressure":953.6,"uv_index":8.55,"wind_gusts":34.9,"aqi":58,"pm10":11.7,"pm2_5":8.2,"mosquito_risk":0,"arthritis_risk":5,"migraine_risk":10,"frizz_risk":0,"updated_at":"2026-04-20T13:43:35.820030+05:30"},{"city":"Visakhapatnam","state":"Andhra Pradesh","latitude":17.6868,"longitude":83.2185,"temp":34.4,"humidity":54,"rain":0.0,"pressure":1001.7,"uv_index":9.2,"wind_gusts":45.4,"aqi":55,"pm10":21.8,"pm2_5":16.8,"mosquito_risk":0,"arthritis_risk":5,"migraine_risk":4,"frizz_risk":1,"updated_at":"2026-04-20T13:43:35.820037+05:30"},{"city":"Vijayawada","state":"Andhra Pradesh","latitude":16.5062,"longitude":80.648,"temp":37.1,"humidity":46,"rain":0.0,"pressure":1000.7,"uv_index":9.2,"wind_gusts":27.7,"aqi":53,"pm10":21.2,"pm2_5":16.2,"mosquito_risk":0,"arthritis_risk":5,"migraine_risk":7,"frizz_risk":1,"updated_at":"2026-04-20T13:43:35.820043+05:30"},{"city":"Guntur","state":"Andhra Pradesh","latitude":16.3067,"longitude":80.4365,"temp":37.5,"humidity":45,"rain":0.0,"pressure":1001.9,"uv_index":9.25,"wind_gusts":31.0,"aqi":56,"pm10":25.0,"pm2_5":20.1,"mosquito_risk":0,"arthritis_risk":5,"migraine_risk":7,"frizz_risk":1,"updated_at":"2026-04-20T13:43:35.820049+05:30"},{"city":"Nellore","state":"Andhra Pradesh","latitude":14.4426,"longitude":79.9865,"temp":38.8,"humidity":39,"rain":0.0,"pressure":1003.4,"uv_index":9.25,"wind_gusts":38.5,"aqi":48,"pm10":22.8,"pm2_5":19.7,"mosquito_risk":0,"arthritis_risk":5,"migraine_risk":7,"frizz_risk":1,"updated_at":"2026-04-20T13:43:35.820056+05:30"},{"city":"Kurnool","state":"Andhra Pradesh","latitude":15.8281,"longitude":78.0373,"temp":39.6,"humidity":28,"rain":0.0,"pressure":975.3,"uv_index":9.2,"wind_gusts":43.2,"aqi":93,"pm10":41.7,"pm2_5":29.7,"mosquito_risk":0,"arthritis_risk":5,"migraine_risk":10,"frizz_risk":1,"updated_at":"2026-04-20T13:43:35.820064+05:30"},{"city":"Kakinada","state":"Andhra Pradesh","latitude":16.9891,"longitude":82.2475,"temp":38.0,"humidity":43,"rain":0.0,"pressure":1005.3,"uv_index":9.2,"wind_gusts":34.9,"aqi":38,"pm10":16.1,"pm2_5":10.2,"mosquito_risk":0,"arthritis_risk":5,"migraine_risk":7,"frizz_risk":1,"updated_at":"2026-04-20T13:43:35.820070+05:30"},{"city":"Tirupati","state":"Andhra Pradesh","latitude":13.6288,"longitude":79.4192,"temp":37.4,"humidity":40,"rain":0.0,"pressure":989.7,"uv_index":9.3,"wind_gusts":29.9,"aqi":65,"pm10":24.6,"pm2_5":21.8,"mosquito_risk":0,"arthritis_risk":5,"migraine_risk":10,"frizz_risk":1,"updated_at":"2026-04-20T13:43:35.820076+05:30"},{"city":"Warangal","state":"Telangana","latitude":17.9689,"longitude":79.5941,"temp":39.0,"humidity":30,"rain":0.0,"pressure":977.0,"uv_index":9.15,"wind_gusts":27.7,"aqi":90,"pm10":41.8,"pm2_5":35.2,"mosquito_risk":0,"arthritis_risk":5,"migraine_risk":10,"frizz_risk":1,"updated_at":"2026-04-20T13:43:35.820082+05:30"},{"city":"Nizamabad","state":"Telangana","latitude":18.6725,"longitude":78.0941,"temp":40.2,"humidity":22,"rain":0.0,"pressure":963.4,"uv_index":9.15,"wind_gusts":33.8,"aqi":114,"pm10":34.5,"pm2_5":29.0,"mosquito_risk":0,"arthritis_risk":5,"migraine_risk":10,"frizz_risk":0,"updated_at":"2026-04-20T13:43:35.820089+05:30"},{"city":"Mysore","state":"Karnataka","latitude":12.2958,"longitude":76.6396,"temp":35.0,"humidity":36,"rain":0.0,"pressure":928.0,"uv_index":9.45,"wind_gusts":38.2,"aqi":82,"pm10":28.8,"pm2_5":22.9,"mosquito_risk":0,"arthritis_risk":5,"migraine_risk":7,"frizz_risk":1,"updated_at":"2026-04-20T13:43:35.820095+05:30"},{"city":"Mangalore","state":"Karnataka","latitude":12.9141,"longitude":74.856,"temp":29.8,"humidity":80,"rain":0.0,"pressure":1005.1,"uv_index":9.1,"wind_gusts":23.0,"aqi":77,"pm10":35.7,"pm2_5":22.5,"mosquito_risk":7,"arthritis_risk":5,"migraine_risk":4,"frizz_risk":1,"updated_at":"2026-04-20T13:43:35.820101+05:30"},{"city":"Hubli-Dharwad","state":"Karnataka","latitude":15.3647,"longitude":75.124,"temp":36.2,"humidity":34,"rain":0.0,"pressure":940.3,"uv_index":9.25,"wind_gusts":33.5,"aqi":94,"pm10":48.3,"pm2_5":38.2,"mosquito_risk":0,"arthritis_risk":5,"migraine_risk":10,"frizz_risk":1,"updated_at":"2026-04-20T13:43:35.820108+05:30"},{"city":"Belgaum","state":"Karnataka","latitude":15.8497,"longitude":74.4977,"temp":32.8,"humidity":41,"rain":0.0,"pressure":925.9,"uv_index":9.25,"wind_gusts":26.6,"aqi":123,"pm10":46.9,"pm2_5":39.0,"mosquito_risk":0,"arthritis_risk":5,"migraine_risk":7,"frizz_risk":1,"updated_at":"2026-04-20T13:43:39.045140+05:30"},{"city":"Coimbatore","state":"Tamil Nadu","latitude":11.0168,"longitude":76.9558,"temp":36.0,"humidity":36,"rain":0.0,"pressure":960.7,"uv_index":9.4,"wind_gusts":49.3,"aqi":104,"pm10":29.7,"pm2_5":26.0,"mosquito_risk":0,"arthritis_risk":5,"migraine_risk":10,"frizz_risk":1,"updated_at":"2026-04-20T13:43:39.045170+05:30"},{"city":"Madurai","state":"Tamil Nadu","latitude":9.9252,"longitude":78.1198,"temp":37.7,"humidity":33,"rain":0.0,"pressure":991.2,"uv_index":9.3,"wind_gusts":39.6,"aqi":63,"pm10":15.7,"pm2_5":12.6,"mosquito_risk":0,"arthritis_risk":5,"migraine_risk":10,"frizz_risk":1,"updated_at":"2026-04-20T13:43:39.045180+05:30"},{"city":"Trichy","state":"Tamil Nadu","latitude":10.7905,"longitude":78.7047,"temp":37.2,"humidity":36,"rain":0.0,"pressure":998.0,"uv_index":9.3,"wind_gusts":25.2,"aqi":62,"pm10":14.8,"pm2_5":12.1,"mosquito_risk":0,"arthritis_risk":5,"migraine_risk":10,"frizz_risk":1,"updated_at":"2026-04-20T13:43:39.045188+05:30"},{"city":"Salem","state":"Tamil Nadu","latitude":11.6643,"longitude":78.146,"temp":37.2,"humidity":35,"rain":0.0,"pressure":975.7,"uv_index":9.35,"wind_gusts":19.8,"aqi":58,"pm10":17.0,"pm2_5":13.8,"mosquito_risk":0,"arthritis_risk":5,"migraine_risk":10,"frizz_risk":1,"updated_at":"2026-04-20T13:43:39.045196+05:30"},{"city":"Tirunelveli","state":"Tamil Nadu","latitude":8.7139,"longitude":77.7567,"temp":39.0,"humidity":26,"rain":0.0,"pressure":1000.6,"uv_index":9.2,"wind_gusts":50.4,"aqi":65,"pm10":17.8,"pm2_5":13.8,"mosquito_risk":0,"arthritis_risk":5,"migraine_risk":7,"frizz_risk":1,"updated_at":"2026-04-20T13:43:39.045204+05:30"},{"city":"Vellore","state":"Tamil Nadu","latitude":12.9165,"longitude":79.1325,"temp":36.8,"humidity":39,"rain":0.0,"pressure":982.9,"uv_index":9.35,"wind_gusts":30.6,"aqi":75,"pm10":19.9,"pm2_5":17.1,"mosquito_risk":0,"arthritis_risk":5,"migraine_risk":10,"frizz_risk":1,"updated_at":"2026-04-20T13:43:39.045211+05:30"},{"city":"Erode","state":"Tamil Nadu","latitude":11.341,"longitude":77.7172,"temp":38.8,"humidity":33,"rain":0.0,"pressure":986.9,"uv_index":9.35,"wind_gusts":27.4,"aqi":58,"pm10":17.3,"pm2_5":14.2,"mosquito_risk":0,"arthritis_risk":5,"migraine_risk":10,"frizz_risk":1,"updated_at":"2026-04-20T13:43:39.045218+05:30"},{"city":"Kochi","state":"Kerala","latitude":9.9312,"longitude":76.2673,"temp":29.3,"humidity":81,"rain":0.0,"pressure":1007.1,"uv_index":9.05,"wind_gusts":29.9,"aqi":61,"pm10":15.7,"pm2_5":13.0,"mosquito_risk":7,"arthritis_risk":5,"migraine_risk":4,"frizz_risk":1,"updated_at":"2026-04-20T13:43:39.045226+05:30"},{"city":"Thiruvananthapuram","state":"Kerala","latitude":8.5241,"longitude":76.9366,"temp":29.2,"humidity":82,"rain":0.0,"pressure":1006.2,"uv_index":8.9,"wind_gusts":32.0,"aqi":65,"pm10":21.4,"pm2_5":16.6,"mosquito_risk":7,"arthritis_risk":5,"migraine_risk":4,"frizz_risk":1,"updated_at":"2026-04-20T13:43:39.045233+05:30"},{"city":"Kozhikode","state":"Kerala","latitude":11.2588,"longitude":75.7804,"temp":31.0,"humidity":74,"rain":0.0,"pressure":1006.2,"uv_index":9.1,"wind_gusts":28.8,"aqi":61,"pm10":26.4,"pm2_5":17.3,"mosquito_risk":3,"arthritis_risk":5,"migraine_risk":4,"frizz_risk":1,"updated_at":"2026-04-20T13:43:39.045240+05:30"},{"city":"Thrissur","state":"Kerala","latitude":10.5276,"longitude":76.2144,"temp":34.0,"humidity":60,"rain":0.0,"pressure":1005.4,"uv_index":9.05,"wind_gusts":36.7,"aqi":66,"pm10":19.4,"pm2_5":15.6,"mosquito_risk":0,"arthritis_risk":5,"migraine_risk":4,"frizz_risk":1,"updated_at":"2026-04-20T13:43:39.045247+05:30"},{"city":"Kannur","state":"Kerala","latitude":11.8745,"longitude":75.3704,"temp":32.3,"humidity":66,"rain":0.0,"pressure":1005.5,"uv_index":9.1,"wind_gusts":30.6,"aqi":73,"pm10":30.0,"pm2_5":19.4,"mosquito_risk":3,"arthritis_risk":5,"migraine_risk":4,"frizz_risk":1,"updated_at":"2026-04-20T13:43:39.045254+05:30"},{"city":"Patna","state":"Bihar","latitude":25.5941,"longitude":85.1376,"temp":38.7,"humidity":37,"rain":0.0,"pressure":995.2,"uv_index":8.15,"wind_gusts":37.1,"aqi":140,"pm10":98.7,"pm2_5":42.4,"mosquito_risk":0,"arthritis_risk":5,"migraine_risk":10,"frizz_risk":1,"updated_at":"2026-04-20T13:43:39.045261+05:30"},{"city":"Gaya","state":"Bihar","latitude":24.7914,"longitude":85.0002,"temp":41.4,"humidity":21,"rain":0.0,"pressure":988.9,"uv_index":8.6,"wind_gusts":34.6,"aqi":106,"pm10":82.9,"pm2_5":23.9,"mosquito_risk":0,"arthritis_risk":5,"migraine_risk":10,"frizz_risk":0,"updated_at":"2026-04-20T13:43:39.045267+05:30"},{"city":"Muzaffarpur","state":"Bihar","latitude":26.1209,"longitude":85.3647,"temp":37.3,"humidity":45,"rain":0.0,"pressure":995.4,"uv_index":8.3,"wind_gusts":23.0,"aqi":144,"pm10":91.3,"pm2_5":48.7,"mosquito_risk":0,"arthritis_risk":5,"migraine_risk":10,"frizz_risk":1,"updated_at":"2026-04-20T13:43:39.045273+05:30"},{"city":"Bhagalpur","state":"Bihar","latitude":25.2425,"longitude":87.0117,"temp":37.0,"humidity":50,"rain":0.0,"pressure":996.1,"uv_index":8.65,"wind_gusts":19.1,"aqi":151,"pm10":96.2,"pm2_5":64.3,"mosquito_risk":0,"arthritis_risk":5,"migraine_risk":10,"frizz_risk":1,"updated_at":"2026-04-20T13:43:39.045280+05:30"},{"city":"Ranchi","state":"Jharkhand","latitude":23.3441,"longitude":85.3096,"temp":39.4,"humidity":18,"rain":0.0,"pressure":935.5,"uv_index":9.25,"wind_gusts":38.2,"aqi":111,"pm10":61.7,"pm2_5":15.5,"mosquito_risk":0,"arthritis_risk":5,"migraine_risk":10,"frizz_risk":0,"updated_at":"2026-04-20T13:43:39.045286+05:30"},{"city":"Jamshedpur","state":"Jharkhand","latitude":22.8046,"longitude":86.2029,"temp":39.4,"humidity":40,"rain":0.0,"pressure":986.1,"uv_index":9.05,"wind_gusts":32.8,"aqi":154,"pm10":90.8,"pm2_5":34.5,"mosquito_risk":0,"arthritis_risk":5,"migraine_risk":10,"frizz_risk":1,"updated_at":"2026-04-20T13:43:39.045293+05:30"},{"city":"Dhanbad","state":"Jharkhand","latitude":23.7957,"longitude":86.4304,"temp":41.5,"humidity":21,"rain":0.0,"pressure":975.1,"uv_index":9.0,"wind_gusts":25.6,"aqi":156,"pm10":69.8,"pm2_5":21.3,"mosquito_risk":0,"arthritis_risk":5,"migraine_risk":10,"frizz_risk":0,"updated_at":"2026-04-20T13:43:39.045299+05:30"},{"city":"Bokaro","state":"Jharkhand","latitude":23.6693,"longitude":86.1511,"temp":40.8,"humidity":22,"rain":0.0,"pressure":979.0,"uv_index":9.0,"wind_gusts":37.8,"aqi":136,"pm10":64.0,"pm2_5":20.1,"mosquito_risk":0,"arthritis_risk":5,"migraine_risk":10,"frizz_risk":0,"updated_at":"2026-04-20T13:43:39.045306+05:30"},{"city":"Bhubaneswar","state":"Odisha","latitude":20.2961,"longitude":85.8245,"temp":34.5,"humidity":66,"rain":0.0,"pressure":999.6,"uv_index":9.1,"wind_gusts":36.7,"aqi":72,"pm10":35.9,"pm2_5":29.0,"mosquito_risk":3,"arthritis_risk":5,"migraine_risk":7,"frizz_risk":1,"updated_at":"2026-04-20T13:43:39.045333+05:30"},{"city":"Cuttack","state":"Odisha","latitude":20.4625,"longitude":85.8828,"temp":38.4,"humidity":48,"rain":0.0,"pressure":1000.9,"uv_index":9.15,"wind_gusts":36.4,"aqi":72,"pm10":35.9,"pm2_5":29.0,"mosquito_risk":0,"arthritis_risk":5,"migraine_risk":7,"frizz_risk":1,"updated_at":"2026-04-20T13:43:39.045341+05:30"},{"city":"Rourkela","state":"Odisha","latitude":22.2604,"longitude":84.8536,"temp":39.8,"humidity":33,"rain":0.0,"pressure":980.9,"uv_index":8.95,"wind_gusts":41.0,"aqi":150,"pm10":85.9,"pm2_5":35.2,"mosquito_risk":0,"arthritis_risk":5,"migraine_risk":10,"frizz_risk":1,"updated_at":"2026-04-20T13:43:39.045348+05:30"},{"city":"Raipur","state":"Chhattisgarh","latitude":21.2514,"longitude":81.6296,"temp":41.6,"humidity":17,"rain":0.0,"pressure":971.6,"uv_index":8.65,"wind_gusts":40.3,"aqi":109,"pm10":57.4,"pm2_5":24.0,"mosquito_risk":0,"arthritis_risk":5,"migraine_risk":10,"frizz_risk":0,"updated_at":"2026-04-20T13:43:39.045354+05:30"},{"city":"Bhilai","state":"Chhattisgarh","latitude":21.1938,"longitude":81.3509,"temp":41.7,"humidity":17,"rain":0.0,"pressure":971.9,"uv_index":8.25,"wind_gusts":38.2,"aqi":103,"pm10":39.2,"pm2_5":23.3,"mosquito_risk":0,"arthritis_risk":5,"migraine_risk":10,"frizz_risk":0,"updated_at":"2026-04-20T13:43:39.045361+05:30"},{"city":"Guwahati","state":"Assam","latitude":26.1158,"longitude":91.7086,"temp":28.8,"humidity":76,"rain":0.0,"pressure":998.3,"uv_index":8.5,"wind_gusts":43.9,"aqi":109,"pm10":19.4,"pm2_5":14.4,"mosquito_risk":7,"arthritis_risk":5,"migraine_risk":7,"frizz_risk":1,"updated_at":"2026-04-20T13:43:39.045367+05:30"},{"city":"Agartala","state":"Tripura","latitude":23.8315,"longitude":91.2868,"temp":33.8,"humidity":58,"rain":0.0,"pressure":1003.0,"uv_index":8.6,"wind_gusts":33.1,"aqi":105,"pm10":61.2,"pm2_5":46.7,"mosquito_risk":0,"arthritis_risk":5,"migraine_risk":4,"frizz_risk":1,"updated_at":"2026-04-20T13:43:39.045373+05:30"},{"city":"Shillong","state":"Meghalaya","latitude":25.5788,"longitude":91.8933,"temp":22.1,"humidity":58,"rain":0.0,"pressure":856.0,"uv_index":7.2,"wind_gusts":73.8,"aqi":73,"pm10":35.3,"pm2_5":23.7,"mosquito_risk":0,"arthritis_risk":5,"migraine_risk":7,"frizz_risk":0,"updated_at":"2026-04-20T13:43:39.045379+05:30"},{"city":"Imphal","state":"Manipur","latitude":24.817,"longitude":93.9368,"temp":22.7,"humidity":80,"rain":0.0,"pressure":921.9,"uv_index":9.15,"wind_gusts":79.2,"aqi":118,"pm10":61.5,"pm2_5":35.6,"mosquito_risk":3,"arthritis_risk":5,"migraine_risk":7,"frizz_risk":1,"updated_at":"2026-04-20T13:43:39.045386+05:30"},{"city":"Aizawl","state":"Mizoram","latitude":23.7271,"longitude":92.7176,"temp":27.5,"humidity":57,"rain":0.0,"pressure":892.7,"uv_index":8.95,"wind_gusts":58.7,"aqi":137,"pm10":65.7,"pm2_5":48.3,"mosquito_risk":4,"arthritis_risk":5,"migraine_risk":7,"frizz_risk":1,"updated_at":"2026-04-20T13:43:39.045392+05:30"},{"city":"Kohima","state":"Nagaland","latitude":25.6701,"longitude":94.1077,"temp":19.9,"humidity":82,"rain":0.0,"pressure":854.2,"uv_index":7.75,"wind_gusts":98.6,"aqi":89,"pm10":41.9,"pm2_5":26.0,"mosquito_risk":3,"arthritis_risk":10,"migraine_risk":7,"frizz_risk":1,"updated_at":"2026-04-20T13:43:39.045399+05:30"},{"city":"Gangtok","state":"Sikkim","latitude":27.3314,"longitude":88.6138,"temp":21.9,"humidity":71,"rain":0.0,"pressure":837.4,"uv_index":8.8,"wind_gusts":17.6,"aqi":68,"pm10":21.6,"pm2_5":16.9,"mosquito_risk":3,"arthritis_risk":5,"migraine_risk":7,"frizz_risk":1,"updated_at":"2026-04-20T13:43:39.045405+05:30"},{"city":"Siliguri","state":"West Bengal","latitude":26.7271,"longitude":88.3953,"temp":28.6,"humidity":63,"rain":0.0,"pressure":990.0,"uv_index":8.45,"wind_gusts":23.8,"aqi":93,"pm10":70.5,"pm2_5":52.3,"mosquito_risk":7,"arthritis_risk":5,"migraine_risk":7,"frizz_risk":1,"updated_at":"2026-04-20T13:43:42.278175+05:30"},{"city":"Durgapur","state":"West Bengal","latitude":23.5204,"longitude":87.3119,"temp":39.5,"humidity":41,"rain":0.0,"pressure":990.0,"uv_index":8.9,"wind_gusts":26.3,"aqi":150,"pm10":105.7,"pm2_5":47.5,"mosquito_risk":0,"arthritis_risk":5,"migraine_risk":10,"frizz_risk":1,"updated_at":"2026-04-20T13:43:42.278204+05:30"},{"city":"Asansol","state":"West Bengal","latitude":23.6739,"longitude":86.9524,"temp":40.3,"humidity":34,"rain":0.0,"pressure":988.4,"uv_index":8.95,"wind_gusts":51.1,"aqi":142,"pm10":82.0,"pm2_5":28.1,"mosquito_risk":0,"arthritis_risk":5,"migraine_risk":10,"frizz_risk":1,"updated_at":"2026-04-20T13:43:42.278213+05:30"},{"city":"Pondicherry","state":"Puducherry","latitude":11.9139,"longitude":79.8145,"temp":36.8,"humidity":45,"rain":0.0,"pressure":1006.4,"uv_index":9.25,"wind_gusts":32.8,"aqi":32,"pm10":12.3,"pm2_5":8.5,"mosquito_risk":0,"arthritis_risk":5,"migraine_risk":7,"frizz_risk":1,"updated_at":"2026-04-20T13:43:42.278221+05:30"},{"city":"Port Blair","state":"Andaman and Nicobar Islands","latitude":11.6234,"longitude":92.7265,"temp":30.1,"humidity":71,"rain":0.0,"pressure":1005.7,"uv_index":9.05,"wind_gusts":19.8,"aqi":61,"pm10":20.1,"pm2_5":16.8,"mosquito_risk":3,"arthritis_risk":5,"migraine_risk":4,"frizz_risk":1,"updated_at":"2026-04-20T13:43:42.278229+05:30"},{"city":"Haridwar","state":"Uttarakhand","latitude":29.9457,"longitude":78.1642,"temp":37.8,"humidity":18,"rain":0.0,"pressure":972.1,"uv_index":7.05,"wind_gusts":33.5,"aqi":59,"pm10":50.9,"pm2_5":13.6,"mosquito_risk":0,"arthritis_risk":5,"migraine_risk":10,"frizz_risk":0,"updated_at":"2026-04-20T13:43:42.278236+05:30"},{"city":"Rishikesh","state":"Uttarakhand","latitude":30.0869,"longitude":78.2676,"temp":36.7,"humidity":19,"rain":0.0,"pressure":965.0,"uv_index":7.2,"wind_gusts":35.6,"aqi":54,"pm10":52.7,"pm2_5":12.2,"mosquito_risk":0,"arthritis_risk":5,"migraine_risk":10,"frizz_risk":0,"updated_at":"2026-04-20T13:43:42.278243+05:30"},{"city":"Nainital","state":"Uttarakhand","latitude":29.3919,"longitude":79.4542,"temp":30.1,"humidity":18,"rain":0.0,"pressure":809.7,"uv_index":8.05,"wind_gusts":62.6,"aqi":80,"pm10":59.0,"pm2_5":14.1,"mosquito_risk":0,"arthritis_risk":5,"migraine_risk":7,"frizz_risk":0,"updated_at":"2026-04-20T13:43:42.278250+05:30"},{"city":"Mussoorie","state":"Uttarakhand","latitude":30.4599,"longitude":78.0664,"temp":27.5,"humidity":21,"rain":0.0,"pressure":806.3,"uv_index":7.55,"wind_gusts":44.3,"aqi":56,"pm10":39.0,"pm2_5":10.6,"mosquito_risk":4,"arthritis_risk":5,"migraine_risk":7,"frizz_risk":0,"updated_at":"2026-04-20T13:43:42.278257+05:30"},{"city":"Dharamshala","state":"Himachal Pradesh","latitude":32.219,"longitude":76.3234,"temp":30.3,"humidity":19,"rain":0.0,"pressure":870.9,"uv_index":7.8,"wind_gusts":33.8,"aqi":58,"pm10":26.0,"pm2_5":6.7,"mosquito_risk":0,"arthritis_risk":5,"migraine_risk":7,"frizz_risk":0,"updated_at":"2026-04-20T13:43:42.278264+05:30"},{"city":"Dalhousie","state":"Himachal Pradesh","latitude":32.5387,"longitude":75.971,"temp":28.9,"humidity":16,"rain":0.0,"pressure":807.6,"uv_index":8.05,"wind_gusts":29.5,"aqi":52,"pm10":39.5,"pm2_5":10.7,"mosquito_risk":4,"arthritis_risk":5,"migraine_risk":7,"frizz_risk":0,"updated_at":"2026-04-20T13:43:42.278272+05:30"},{"city":"Patiala","state":"Punjab","latitude":30.3398,"longitude":76.3869,"temp":38.9,"humidity":13,"rain":0.0,"pressure":976.2,"uv_index":7.15,"wind_gusts":29.5,"aqi":348,"pm10":455.4,"pm2_5":46.4,"mosquito_risk":0,"arthritis_risk":5,"migraine_risk":10,"frizz_risk":0,"updated_at":"2026-04-20T13:43:42.278279+05:30"},{"city":"Bhatinda","state":"Punjab","latitude":30.211,"longitude":74.9455,"temp":39.6,"humidity":11,"rain":0.0,"pressure":982.1,"uv_index":7.8,"wind_gusts":32.8,"aqi":72,"pm10":44.7,"pm2_5":13.1,"mosquito_risk":0,"arthritis_risk":5,"migraine_risk":10,"frizz_risk":0,"updated_at":"2026-04-20T13:43:42.278286+05:30"},{"city":"Rohtak","state":"Haryana","latitude":28.8955,"longitude":76.6066,"temp":39.0,"humidity":15,"rain":0.0,"pressure":979.8,"uv_index":7.3,"wind_gusts":31.3,"aqi":563,"pm10":404.2,"pm2_5":47.4,"mosquito_risk":0,"arthritis_risk":5,"migraine_risk":10,"frizz_risk":0,"updated_at":"2026-04-20T13:43:42.278293+05:30"},{"city":"Panipat","state":"Haryana","latitude":29.3909,"longitude":76.9635,"temp":39.3,"humidity":14,"rain":0.0,"pressure":978.3,"uv_index":7.1,"wind_gusts":28.1,"aqi":967,"pm10":773.0,"pm2_5":75.4,"mosquito_risk":0,"arthritis_risk":5,"migraine_risk":10,"frizz_risk":0,"updated_at":"2026-04-20T13:43:42.278299+05:30"},{"city":"Mathura","state":"Uttar Pradesh","latitude":27.4924,"longitude":77.6737,"temp":40.3,"humidity":18,"rain":0.0,"pressure":984.3,"uv_index":7.6,"wind_gusts":24.1,"aqi":571,"pm10":501.1,"pm2_5":60.8,"mosquito_risk":0,"arthritis_risk":5,"migraine_risk":10,"frizz_risk":0,"updated_at":"2026-04-20T13:43:42.278305+05:30"},{"city":"Vrindavan","state":"Uttar Pradesh","latitude":27.5823,"longitude":77.7027,"temp":40.7,"humidity":16,"rain":0.0,"pressure":984.6,"uv_index":7.55,"wind_gusts":29.2,"aqi":571,"pm10":501.1,"pm2_5":60.8,"mosquito_risk":0,"arthritis_risk":5,"migraine_risk":10,"frizz_risk":0,"updated_at":"2026-04-20T13:43:42.278339+05:30"},{"city":"Ayodhya","state":"Uttar Pradesh","latitude":26.7922,"longitude":82.1998,"temp":41.7,"humidity":21,"rain":0.0,"pressure":990.7,"uv_index":8.1,"wind_gusts":34.9,"aqi":104,"pm10":194.6,"pm2_5":37.1,"mosquito_risk":0,"arthritis_risk":5,"migraine_risk":10,"frizz_risk":0,"updated_at":"2026-04-20T13:43:42.278353+05:30"},{"city":"Ratlam","state":"Madhya Pradesh","latitude":23.3315,"longitude":75.0367,"temp":35.0,"humidity":27,"rain":0.0,"pressure":954.7,"uv_index":8.45,"wind_gusts":30.2,"aqi":60,"pm10":11.9,"pm2_5":7.5,"mosquito_risk":0,"arthritis_risk":5,"migraine_risk":7,"frizz_risk":0,"updated_at":"2026-04-20T13:43:42.278360+05:30"},{"city":"Sagar","state":"Madhya Pradesh","latitude":23.8388,"longitude":78.7378,"temp":40.4,"humidity":14,"rain":0.0,"pressure":948.6,"uv_index":8.35,"wind_gusts":36.7,"aqi":68,"pm10":17.2,"pm2_5":12.2,"mosquito_risk":0,"arthritis_risk":5,"migraine_risk":10,"frizz_risk":0,"updated_at":"2026-04-20T13:43:42.278367+05:30"},{"city":"Satna","state":"Madhya Pradesh","latitude":24.6005,"longitude":80.8322,"temp":42.2,"humidity":12,"rain":0.0,"pressure":967.9,"uv_index":7.75,"wind_gusts":36.0,"aqi":70,"pm10":24.2,"pm2_5":11.4,"mosquito_risk":0,"arthritis_risk":5,"migraine_risk":10,"frizz_risk":0,"updated_at":"2026-04-20T13:43:42.278373+05:30"},{"city":"Akola","state":"Maharashtra","latitude":20.7002,"longitude":77.0082,"temp":41.0,"humidity":17,"rain":0.0,"pressure":973.5,"uv_index":8.9,"wind_gusts":29.5,"aqi":77,"pm10":32.5,"pm2_5":26.7,"mosquito_risk":0,"arthritis_risk":5,"migraine_risk":10,"frizz_risk":0,"updated_at":"2026-04-20T13:43:42.278381+05:30"},{"city":"Amravati","state":"Maharashtra","latitude":20.9374,"longitude":77.7796,"temp":40.4,"humidity":20,"rain":0.0,"pressure":965.8,"uv_index":8.85,"wind_gusts":25.9,"aqi":78,"pm10":27.5,"pm2_5":22.6,"mosquito_risk":0,"arthritis_risk":5,"migraine_risk":10,"frizz_risk":0,"updated_at":"2026-04-20T13:43:42.278388+05:30"},{"city":"Latur","state":"Maharashtra","latitude":18.4088,"longitude":76.5604,"temp":37.7,"humidity":23,"rain":0.0,"pressure":939.4,"uv_index":8.9,"wind_gusts":27.7,"aqi":120,"pm10":36.0,"pm2_5":29.9,"mosquito_risk":0,"arthritis_risk":5,"migraine_risk":10,"frizz_risk":0,"updated_at":"2026-04-20T13:43:42.278394+05:30"},{"city":"Nanded","state":"Maharashtra","latitude":19.1383,"longitude":77.3091,"temp":40.4,"humidity":21,"rain":0.0,"pressure":967.3,"uv_index":8.85,"wind_gusts":25.2,"aqi":114,"pm10":31.3,"pm2_5":25.5,"mosquito_risk":0,"arthritis_risk":5,"migraine_risk":10,"frizz_risk":0,"updated_at":"2026-04-20T13:43:42.278400+05:30"},{"city":"Gulbarga","state":"Karnataka","latitude":17.3297,"longitude":76.8343,"temp":39.1,"humidity":23,"rain":0.0,"pressure":957.8,"uv_index":9.1,"wind_gusts":26.3,"aqi":132,"pm10":44.7,"pm2_5":37.0,"mosquito_risk":0,"arthritis_risk":5,"migraine_risk":10,"frizz_risk":0,"updated_at":"2026-04-20T13:43:42.278406+05:30"},{"city":"Bidar","state":"Karnataka","latitude":17.9104,"longitude":77.5199,"temp":38.1,"humidity":23,"rain":0.0,"pressure":935.2,"uv_index":8.65,"wind_gusts":33.5,"aqi":127,"pm10":42.8,"pm2_5":36.6,"mosquito_risk":0,"arthritis_risk":5,"migraine_risk":10,"frizz_risk":0,"updated_at":"2026-04-20T13:43:42.278412+05:30"},{"city":"Hospet","state":"Karnataka","latitude":15.2689,"longitude":76.3909,"temp":35.6,"humidity":39,"rain":0.0,"pressure":954.9,"uv_index":9.25,"wind_gusts":28.4,"aqi":115,"pm10":46.7,"pm2_5":36.4,"mosquito_risk":0,"arthritis_risk":5,"migraine_risk":10,"frizz_risk":1,"updated_at":"2026-04-20T13:43:42.278419+05:30"},{"city":"Tirupur","state":"Tamil Nadu","latitude":11.1085,"longitude":77.3411,"temp":37.7,"humidity":34,"rain":0.0,"pressure":973.6,"uv_index":9.4,"wind_gusts":29.5,"aqi":68,"pm10":19.8,"pm2_5":16.8,"mosquito_risk":0,"arthritis_risk":5,"migraine_risk":10,"frizz_risk":1,"updated_at":"2026-04-20T13:43:42.278426+05:30"},{"city":"Alappuzha","state":"Kerala","latitude":9.4981,"longitude":76.3388,"temp":29.3,"humidity":81,"rain":0.0,"pressure":1007.1,"uv_index":8.6,"wind_gusts":27.4,"aqi":67,"pm10":17.1,"pm2_5":14.1,"mosquito_risk":7,"arthritis_risk":5,"migraine_risk":4,"frizz_risk":1,"updated_at":"2026-04-20T13:43:42.278432+05:30"},{"city":"Munnar","state":"Kerala","latitude":10.0889,"longitude":77.0595,"temp":32.6,"humidity":34,"rain":0.0,"pressure":859.2,"uv_index":9.65,"wind_gusts":31.3,"aqi":73,"pm10":14.5,"pm2_5":10.6,"mosquito_risk":0,"arthritis_risk":5,"migraine_risk":7,"frizz_risk":0,"updated_at":"2026-04-20T13:43:42.278439+05:30"},{"city":"Silchar","state":"Assam","latitude":24.8333,"longitude":92.7789,"temp":28.0,"humidity":79,"rain":0.0,"pressure":1003.0,"uv_index":8.1,"wind_gusts":42.8,"aqi":122,"pm10":58.6,"pm2_5":42.0,"mosquito_risk":7,"arthritis_risk":5,"migraine_risk":4,"frizz_risk":1,"updated_at":"2026-04-20T13:43:42.278446+05:30"},{"city":"Dibrugarh","state":"Assam","latitude":27.4728,"longitude":94.912,"temp":27.5,"humidity":74,"rain":0.0,"pressure":992.0,"uv_index":8.75,"wind_gusts":16.6,"aqi":126,"pm10":30.6,"pm2_5":24.5,"mosquito_risk":7,"arthritis_risk":5,"migraine_risk":7,"frizz_risk":1,"updated_at":"2026-04-20T13:43:42.278452+05:30"}]