[{"city":"Delhi","state":"Delhi","latitude":28.6139,"longitude":77.209,"temp":29.1,"humidity":31,"rain":0.0,"pressure":982.9,"uv_index":7.4,"wind_gusts":30.2,"aqi":357,"pm10":358.6,"pm2_5":66.4,"mosquito_risk":4,"arthritis_risk":5,"migraine_risk":7,"frizz_risk":0,"updated_at":"2026-04-23T08:23:04.071606+05:30"},{"city":"Mumbai","state":"Maharashtra","latitude":19.076,"longitude":72.8777,"temp":29.0,"humidity":75,"rain":0.0,"pressure":1007.9,"uv_index":8.05,"wind_gusts":24.1,"aqi":80,"pm10":38.0,"pm2_5":26.6,"mosquito_risk":7,"arthritis_risk":5,"migraine_risk":4,"frizz_risk":1,"updated_at":"2026-04-23T08:23:04.071645+05:30"},{"city":"Bangalore","state":"Karnataka","latitude":12.9716,"longitude":77.5946,"temp":25.9,"humidity":60,"rain":0.0,"pressure":912.2,"uv_index":8.95,"wind_gusts":29.2,"aqi":72,"pm10":35.5,"pm2_5":33.4,"mosquito_risk":4,"arthritis_risk":5,"migraine_risk":7,"frizz_risk":1,"updated_at":"2026-04-23T08:23:04.071661+05:30"},{"city":"Hyderabad","state":"Telangana","latitude":17.385,"longitude":78.4867,"temp":30.7,"humidity":50,"rain":0.0,"pressure":953.8,"uv_index":8.95,"wind_gusts":44.6,"aqi":123,"pm10":37.5,"pm2_5":32.7,"mosquito_risk":0,"arthritis_risk":5,"migraine_risk":7,"frizz_risk":1,"updated_at":"2026-04-23T08:23:04.071671+05:30"},{"city":"Chennai","state":"Tamil Nadu","latitude":13.0827,"longitude":80.2707,"temp":31.0,"humidity":70,"rain":0.0,"pressure":1007.2,"uv_index":9.3,"wind_gusts":35.3,"aqi":32,"pm10":11.2,"pm2_5":7.9,"mosquito_risk":3,"arthritis_risk":5,"migraine_risk":4,"frizz_risk":1,"updated_at":"2026-04-23T08:23:04.071680+05:30"},{"city":"Kolkata","state":"West Bengal","latitude":22.5726,"longitude":88.3639,"temp":29.8,"humidity":84,"rain":0.0,"pressure":1005.3,"uv_index":8.85,"wind_gusts":27.4,"aqi":83,"pm10":25.7,"pm2_5":21.0,"mosquito_risk":7,"arthritis_risk":5,"migraine_risk":4,"frizz_risk":1,"updated_at":"2026-04-23T08:23:04.071692+05:30"},{"city":"Pune","state":"Maharashtra","latitude":18.5204,"longitude":73.8567,"temp":29.5,"humidity":47,"rain":0.0,"pressure":949.2,"uv_index":8.65,"wind_gusts":28.4,"aqi":115,"pm10":56.3,"pm2_5":46.2,"mosquito_risk":4,"arthritis_risk":5,"migraine_risk":7,"frizz_risk":1,"updated_at":"2026-04-23T08:23:04.071699+05:30"},{"city":"Ahmedabad","state":"Gujarat","latitude":23.0225,"longitude":72.5714,"temp":26.2,"humidity":76,"rain":0.0,"pressure":1003.3,"uv_index":8.2,"wind_gusts":27.4,"aqi":45,"pm10":19.5,"pm2_5":12.3,"mosquito_risk":7,"arthritis_risk":5,"migraine_risk":4,"frizz_risk":1,"updated_at":"2026-04-23T08:23:04.071706+05:30"},{"city":"Jaipur","state":"Rajasthan","latitude":26.9124,"longitude":75.7873,"temp":28.7,"humidity":25,"rain":0.0,"pressure":961.2,"uv_index":8.05,"wind_gusts":29.2,"aqi":148,"pm10":214.7,"pm2_5":33.2,"mosquito_risk":4,"arthritis_risk":5,"migraine_risk":7,"frizz_risk":0,"updated_at":"2026-04-23T08:23:04.071714+05:30"},{"city":"Lucknow","state":"Uttar Pradesh","latitude":26.8467,"longitude":80.9462,"temp":29.9,"humidity":45,"rain":0.0,"pressure":992.5,"uv_index":7.85,"wind_gusts":36.7,"aqi":197,"pm10":315.7,"pm2_5":76.1,"mosquito_risk":4,"arthritis_risk":5,"migraine_risk":7,"frizz_risk":1,"updated_at":"2026-04-23T08:23:04.071722+05:30"},{"city":"Kanpur","state":"Uttar Pradesh","latitude":26.4499,"longitude":80.3319,"temp":28.9,"humidity":53,"rain":0.0,"pressure":991.4,"uv_index":7.85,"wind_gusts":31.3,"aqi":416,"pm10":369.7,"pm2_5":62.6,"mosquito_risk":4,"arthritis_risk":5,"migraine_risk":7,"frizz_risk":1,"updated_at":"2026-04-23T08:23:04.071729+05:30"},{"city":"Chandigarh","state":"Chandigarh","latitude":30.7333,"longitude":76.7794,"temp":26.5,"humidity":56,"rain":0.0,"pressure":967.7,"uv_index":7.4,"wind_gusts":30.2,"aqi":58,"pm10":23.7,"pm2_5":20.5,"mosquito_risk":4,"arthritis_risk":5,"migraine_risk":7,"frizz_risk":1,"updated_at":"2026-04-23T08:23:04.071736+05:30"},{"city":"Srinagar","state":"Jammu and Kashmir","latitude":34.0837,"longitude":74.7973,"temp":16.5,"humidity":86,"rain":0.0,"pressure":843.8,"uv_index":7.35,"wind_gusts":18.4,"aqi":70,"pm10":31.0,"pm2_5":25.8,"mosquito_risk":3,"arthritis_risk":10,"migraine_risk":7,"frizz_risk":0,"updated_at":"2026-04-23T08:23:04.071744+05:30"},{"city":"Jammu","state":"Jammu and Kashmir","latitude":32.7266,"longitude":74.857,"temp":28.0,"humidity":67,"rain":0.0,"pressure":971.2,"uv_index":8.2,"wind_gusts":28.1,"aqi":64,"pm10":21.2,"pm2_5":19.0,"mosquito_risk":7,"arthritis_risk":5,"migraine_risk":7,"frizz_risk":1,"updated_at":"2026-04-23T08:23:04.071751+05:30"},{"city":"Amritsar","state":"Punjab","latitude":31.634,"longitude":74.8723,"temp":27.3,"humidity":58,"rain":0.0,"pressure":979.3,"uv_index":8.1,"wind_gusts":32.8,"aqi":94,"pm10":62.6,"pm2_5":56.3,"mosquito_risk":4,"arthritis_risk":5,"migraine_risk":7,"frizz_risk":1,"updated_at":"2026-04-23T08:23:04.071759+05:30"},{"city":"Ludhiana","state":"Punjab","latitude":30.901,"longitude":75.8573,"temp":28.7,"humidity":47,"rain":0.0,"pressure":977.5,"uv_index":7.7,"wind_gusts":15.5,"aqi":81,"pm10":55.5,"pm2_5":47.0,"mosquito_risk":4,"arthritis_risk":5,"migraine_risk":7,"frizz_risk":1,"updated_at":"2026-04-23T08:23:04.071767+05:30"},{"city":"Jalandhar","state":"Punjab","latitude":31.326,"longitude":75.5762,"temp":27.4,"humidity":53,"rain":0.0,"pressure":978.5,"uv_index":7.9,"wind_gusts":23.4,"aqi":85,"pm10":48.7,"pm2_5":44.2,"mosquito_risk":4,"arthritis_risk":5,"migraine_risk":7,"frizz_risk":1,"updated_at":"2026-04-23T08:23:04.071774+05:30"},{"city":"Dehradun","state":"Uttarakhand","latitude":30.6284,"longitude":78.0322,"temp":22.0,"humidity":44,"rain":0.0,"pressure":832.8,"uv_index":7.85,"wind_gusts":35.6,"aqi":44,"pm10":9.7,"pm2_5":7.7,"mosquito_risk":0,"arthritis_risk":5,"migraine_risk":7,"frizz_risk":0,"updated_at":"2026-04-23T08:23:04.071781+05:30"},{"city":"Shimla","state":"Himachal Pradesh","latitude":31.1048,"longitude":77.1734,"temp":21.3,"humidity":47,"rain":0.0,"pressure":788.4,"uv_index":7.9,"wind_gusts":52.6,"aqi":51,"pm10":18.6,"pm2_5":15.4,"mosquito_risk":0,"arthritis_risk":5,"migraine_risk":7,"frizz_risk":0,"updated_at":"2026-04-23T08:23:04.071787+05:30"},{"city":"Manali","state":"Himachal Pradesh","latitude":32.2396,"longitude":77.1887,"temp":23.1,"humidity":25,"rain":0.0,"pressure":823.9,"uv_index":9.3,"wind_gusts":32.8,"aqi":51,"pm10":25.5,"pm2_5":15.5,"mosquito_risk":0,"arthritis_risk":5,"migraine_risk":7,"frizz_risk":0,"updated_at":"2026-04-23T08:23:04.071795+05:30"},{"city":"Gurgaon","state":"Haryana","latitude":28.4595,"longitude":77.0266,"temp":27.2,"humidity":43,"rain":0.0,"pressure":981.3,"uv_index":7.5,"wind_gusts":24.8,"aqi":1101,"pm10":1806.8,"pm2_5":204.4,"mosquito_risk":4,"arthritis_risk":5,"migraine_risk":7,"frizz_risk":0,"updated_at":"2026-04-23T08:23:04.071803+05:30"},{"city":"Noida","state":"Uttar Pradesh","latitude":28.5355,"longitude":77.391,"temp":29.8,"humidity":29,"rain":0.0,"pressure":984.3,"uv_index":7.4,"wind_gusts":31.7,"aqi":1101,"pm10":1806.8,"pm2_5":204.4,"mosquito_risk":4,"arthritis_risk":5,"migraine_risk":7,"frizz_risk":0,"updated_at":"2026-04-23T08:23:04.071810+05:30"},{"city":"Ghaziabad","state":"Uttar Pradesh","latitude":28.6692,"longitude":77.4538,"temp":28.9,"humidity":35,"rain":0.0,"pressure":982.4,"uv_index":7.4,"wind_gusts":30.6,"aqi":279,"pm10":327.8,"pm2_5":71.0,"mosquito_risk":4,"arthritis_risk":5,"migraine_risk":7,"frizz_risk":0,"updated_at":"2026-04-23T08:23:04.071816+05:30"},{"city":"Faridabad","state":"Haryana","latitude":28.4089,"longitude":77.3178,"temp":30.5,"humidity":25,"rain":0.0,"pressure":983.8,"uv_index":7.45,"wind_gusts":31.7,"aqi":1101,"pm10":1806.8,"pm2_5":204.4,"mosquito_risk":0,"arthritis_risk":5,"migraine_risk":7,"frizz_risk":0,"updated_at":"2026-04-23T08:23:04.071823+05:30"},{"city":"Meerut","state":"Uttar Pradesh","latitude":28.9845,"longitude":77.7064,"temp":28.2,"humidity":45,"rain":0.0,"pressure":980.9,"uv_index":7.3,"wind_gusts":28.1,"aqi":279,"pm10":327.8,"pm2_5":71.0,"mosquito_risk":4,"arthritis_risk":5,"migraine_risk":7,"frizz_risk":0,"updated_at":"2026-04-23T08:23:04.071829+05:30"},{"city":"Agra","state":"Uttar Pradesh","latitude":27.1767,"longitude":78.0081,"temp":29.8,"humidity":33,"rain":0.0,"pressure":988.1,"uv_index":7.75,"wind_gusts":29.5,"aqi":711,"pm10":976.0,"pm2_5":104.1,"mosquito_risk":4,"arthritis_risk":5,"migraine_risk":7,"frizz_risk":0,"updated_at":"2026-04-23T08:23:04.071838+05:30"},{"city":"Varanasi","state":"Uttar Pradesh","latitude":25.3176,"longitude":82.9739,"temp":32.0,"humidity":35,"rain":0.0,"pressure":996.9,"uv_index":8.5,"wind_gusts":34.2,"aqi":114,"pm10":111.3,"pm2_5":39.8,"mosquito_risk":0,"arthritis_risk":5,"migraine_risk":7,"frizz_risk":0,"updated_at":"2026-04-23T08:23:04.071845+05:30"},{"city":"Prayagraj","state":"Uttar Pradesh","latitude":25.4358,"longitude":81.8463,"temp":31.4,"humidity":42,"rain":0.0,"pressure":995.3,"uv_index":8.35,"wind_gusts":31.7,"aqi":125,"pm10":114.8,"pm2_5":42.7,"mosquito_risk":0,"arthritis_risk":5,"migraine_risk":7,"frizz_risk":1,"updated_at":"2026-04-23T08:23:04.071852+05:30"},{"city":"Gorakhpur","state":"Uttar Pradesh","latitude":26.7606,"longitude":83.3732,"temp":28.2,"humidity":50,"rain":0.0,"pressure":997.1,"uv_index":8.25,"wind_gusts":28.4,"aqi":117,"pm10":101.7,"pm2_5":55.3,"mosquito_risk":4,"arthritis_risk":5,"migraine_risk":7,"frizz_risk":1,"updated_at":"2026-04-23T08:23:04.071858+05:30"},{"city":"Bareilly","state":"Uttar Pradesh","latitude":28.367,"longitude":79.4304,"temp":28.2,"humidity":50,"rain":0.0,"pressure":986.6,"uv_index":7.65,"wind_gusts":31.3,"aqi":97,"pm10":156.5,"pm2_5":55.5,"mosquito_risk":4,"arthritis_risk":5,"migraine_risk":7,"frizz_risk":1,"updated_at":"2026-04-23T08:23:04.071865+05:30"},{"city":"Aligarh","state":"Uttar Pradesh","latitude":27.8974,"longitude":78.088,"temp":29.8,"humidity":38,"rain":0.0,"pressure":985.7,"uv_index":7.55,"wind_gusts":32.0,"aqi":636,"pm10":823.3,"pm2_5":125.7,"mosquito_risk":4,"arthritis_risk":5,"migraine_risk":7,"frizz_risk":0,"updated_at":"2026-04-23T08:23:04.071871+05:30"},{"city":"Moradabad","state":"Uttar Pradesh","latitude":28.8386,"longitude":78.7733,"temp":27.9,"humidity":49,"rain":0.0,"pressure":983.4,"uv_index":7.5,"wind_gusts":33.1,"aqi":117,"pm10":123.4,"pm2_5":54.7,"mosquito_risk":4,"arthritis_risk":5,"migraine_risk":7,"frizz_risk":1,"updated_at":"2026-04-23T08:23:04.071878+05:30"},{"city":"Saharanpur","state":"Uttar Pradesh","latitude":29.9637,"longitude":77.546,"temp":25.8,"humidity":63,"rain":0.0,"pressure":974.8,"uv_index":7.1,"wind_gusts":33.8,"aqi":90,"pm10":68.5,"pm2_5":50.4,"mosquito_risk":7,"arthritis_risk":5,"migraine_risk":7,"frizz_risk":1,"updated_at":"2026-04-23T08:23:04.071886+05:30"},{"city":"Jhansi","state":"Uttar Pradesh","latitude":25.4484,"longitude":78.5685,"temp":31.6,"humidity":23,"rain":0.0,"pressure":979.0,"uv_index":8.25,"wind_gusts":32.4,"aqi":46,"pm10":11.2,"pm2_5":10.6,"mosquito_risk":0,"arthritis_risk":5,"migraine_risk":7,"frizz_risk":0,"updated_at":"2026-04-23T08:23:07.375595+05:30"},{"city":"Surat","state":"Gujarat","latitude":21.1702,"longitude":72.8311,"temp":27.4,"humidity":82,"rain":0.0,"pressure":1007.2,"uv_index":7.9,"wind_gusts":22.0,"aqi":102,"pm10":38.9,"pm2_5":33.9,"mosquito_risk":7,"arthritis_risk":5,"migraine_risk":4,"frizz_risk":1,"updated_at":"2026-04-23T08:23:07.375625+05:30"},{"city":"Vadodara","state":"Gujarat","latitude":22.3072,"longitude":73.1812,"temp":28.1,"humidity":50,"rain":0.0,"pressure":1005.5,"uv_index":8.2,"wind_gusts":25.6,"aqi":77,"pm10":23.1,"pm2_5":18.3,"mosquito_risk":4,"arthritis_risk":5,"migraine_risk":4,"frizz_risk":1,"updated_at":"2026-04-23T08:23:07.375634+05:30"},{"city":"Rajkot","state":"Gujarat","latitude":22.3039,"longitude":70.8022,"temp":25.6,"humidity":84,"rain":0.0,"pressure":995.4,"uv_index":7.9,"wind_gusts":28.4,"aqi":52,"pm10":15.5,"pm2_5":10.0,"mosquito_risk":7,"arthritis_risk":5,"migraine_risk":7,"frizz_risk":1,"updated_at":"2026-04-23T08:23:07.375642+05:30"},{"city":"Thane","state":"Maharashtra","latitude":19.2183,"longitude":72.9781,"temp":28.8,"humidity":68,"rain":0.0,"pressure":1007.4,"uv_index":8.05,"wind_gusts":37.8,"aqi":80,"pm10":38.0,"pm2_5":26.6,"mosquito_risk":7,"arthritis_risk":5,"migraine_risk":4,"frizz_risk":1,"updated_at":"2026-04-23T08:23:07.375649+05:30"},{"city":"Nagpur","state":"Maharashtra","latitude":21.1458,"longitude":79.0882,"temp":30.7,"humidity":41,"rain":0.0,"pressure":974.0,"uv_index":8.95,"wind_gusts":24.8,"aqi":74,"pm10":22.2,"pm2_5":20.9,"mosquito_risk":0,"arthritis_risk":5,"migraine_risk":7,"frizz_risk":0,"updated_at":"2026-04-23T08:23:07.375656+05:30"},{"city":"Nashik","state":"Maharashtra","latitude":19.9975,"longitude":73.7898,"temp":28.5,"humidity":44,"rain":0.0,"pressure":946.6,"uv_index":8.35,"wind_gusts":30.6,"aqi":89,"pm10":38.5,"pm2_5":29.1,"mosquito_risk":4,"arthritis_risk":5,"migraine_risk":7,"frizz_risk":0,"updated_at":"2026-04-23T08:23:07.375663+05:30"},{"city":"Aurangabad","state":"Maharashtra","latitude":19.8762,"longitude":75.3433,"temp":31.2,"humidity":27,"rain":0.0,"pressure":945.5,"uv_index":9.05,"wind_gusts":36.7,"aqi":84,"pm10":36.9,"pm2_5":29.9,"mosquito_risk":0,"arthritis_risk":5,"migraine_risk":7,"frizz_risk":0,"updated_at":"2026-04-23T08:23:07.375670+05:30"},{"city":"Solapur","state":"Maharashtra","latitude":17.6599,"longitude":75.9064,"temp":29.2,"humidity":60,"rain":0.0,"pressure":957.7,"uv_index":9.1,"wind_gusts":35.3,"aqi":104,"pm10":41.4,"pm2_5":38.9,"mosquito_risk":4,"arthritis_risk":5,"migraine_risk":7,"frizz_risk":1,"updated_at":"2026-04-23T08:23:07.375676+05:30"},{"city":"Kolhapur","state":"Maharashtra","latitude":16.705,"longitude":74.2433,"temp":29.0,"humidity":61,"rain":0.0,"pressure":948.2,"uv_index":9.05,"wind_gusts":39.6,"aqi":116,"pm10":69.2,"pm2_5":65.4,"mosquito_risk":7,"arthritis_risk":5,"migraine_risk":7,"frizz_risk":1,"updated_at":"2026-04-23T08:23:07.375683+05:30"},{"city":"Goa","state":"Goa","latitude":15.2993,"longitude":74.124,"temp":30.2,"humidity":77,"rain":0.0,"pressure":996.9,"uv_index":9.0,"wind_gusts":29.9,"aqi":86,"pm10":41.6,"pm2_5":32.9,"mosquito_risk":3,"arthritis_risk":5,"migraine_risk":7,"frizz_risk":1,"updated_at":"2026-04-23T08:23:07.375689+05:30"},{"city":"Jodhpur","state":"Rajasthan","latitude":26.2389,"longitude":73.0243,"temp":28.9,"humidity":43,"rain":0.0,"pressure":983.3,"uv_index":8.25,"wind_gusts":23.8,"aqi":86,"pm10":110.6,"pm2_5":21.1,"mosquito_risk":4,"arthritis_risk":5,"migraine_risk":7,"frizz_risk":0,"updated_at":"2026-04-23T08:23:07.375696+05:30"},{"city":"Udaipur","state":"Rajasthan","latitude":24.5854,"longitude":73.7125,"temp":26.9,"humidity":44,"rain":0.0,"pressure":947.5,"uv_index":8.8,"wind_gusts":26.3,"aqi":42,"pm10":17.4,"pm2_5":11.7,"mosquito_risk":4,"arthritis_risk":5,"migraine_risk":7,"frizz_risk":0,"updated_at":"2026-04-23T08:23:07.375703+05:30"},{"city":"Kota","state":"Rajasthan","latitude":25.2138,"longitude":75.8648,"temp":29.6,"humidity":32,"rain":0.0,"pressure":980.2,"uv_index":8.25,"wind_gusts":32.0,"aqi":49,"pm10":20.4,"pm2_5":17.7,"mosquito_risk":4,"arthritis_risk":5,"migraine_risk":7,"frizz_risk":0,"updated_at":"2026-04-23T08:23:07.375709+05:30"},{"city":"Bikaner","state":"Rajasthan","latitude":28.0229,"longitude":73.3119,"temp":31.3,"humidity":32,"rain":0.0,"pressure":981.7,"uv_index":8.15,"wind_gusts":35.6,"aqi":65,"pm10":69.2,"pm2_5":19.2,"mosquito_risk":0,"arthritis_risk":5,"migraine_risk":7,"frizz_risk":0,"updated_at":"2026-04-23T08:23:07.375716+05:30"},{"city":"Ajmer","state":"Rajasthan","latitude":26.4499,"longitude":74.6399,"temp":27.7,"humidity":37,"rain":0.0,"pressure":955.6,"uv_index":8.2,"wind_gusts":31.0,"aqi":39,"pm10":7.9,"pm2_5":7.3,"mosquito_risk":4,"arthritis_risk":5,"migraine_risk":7,"frizz_risk":0,"updated_at":"2026-04-23T08:23:07.375722+05:30"},{"city":"Gwalior","state":"Madhya Pradesh","latitude":26.2183,"longitude":78.1828,"temp":31.5,"humidity":26,"rain":0.0,"pressure":984.1,"uv_index":8.0,"wind_gusts":38.2,"aqi":50,"pm10":17.1,"pm2_5":10.0,"mosquito_risk":0,"arthritis_risk":5,"migraine_risk":7,"frizz_risk":0,"updated_at":"2026-04-23T08:23:07.375728+05:30"},{"city":"Indore","state":"Madhya Pradesh","latitude":22.7196,"longitude":75.8577,"temp":28.1,"humidity":41,"rain":0.0,"pressure":949.6,"uv_index":8.55,"wind_gusts":29.5,"aqi":62,"pm10":22.7,"pm2_5":20.5,"mosquito_risk":4,"arthritis_risk":5,"migraine_risk":7,"frizz_risk":0,"updated_at":"2026-04-23T08:23:07.375734+05:30"},{"city":"Bhopal","state":"Madhya Pradesh","latitude":23.2599,"longitude":77.4126,"temp":29.1,"humidity":35,"rain":0.0,"pressure":955.3,"uv_index":8.65,"wind_gusts":31.7,"aqi":57,"pm10":21.5,"pm2_5":19.8,"mosquito_risk":4,"arthritis_risk":5,"migraine_risk":7,"frizz_risk":0,"updated_at":"2026-04-23T08:23:07.375741+05:30"},{"city":"Jabalpur","state":"Madhya Pradesh","latitude":23.1815,"longitude":79.9864,"temp":29.4,"humidity":41,"rain":0.0,"pressure":963.0,"uv_index":8.8,"wind_gusts":27.0,"aqi":65,"pm10":25.1,"pm2_5":24.6,"mosquito_risk":4,"arthritis_risk":5,"migraine_risk":7,"frizz_risk":0,"updated_at":"2026-04-23T08:23:07.375748+05:30"},{"city":"Ujjain","state":"Madhya Pradesh","latitude":23.1765,"longitude":75.7885,"temp":28.9,"humidity":39,"rain":0.0,"pressure":955.4,"uv_index":8.6,"wind_gusts":33.8,"aqi":65,"pm10":30.3,"pm2_5":27.8,"mosquito_risk":4,"arthritis_risk":5,"migraine_risk":7,"frizz_risk":0,"updated_at":"2026-04-23T08:23:07.375755+05:30"},{"city":"Visakhapatnam","state":"Andhra Pradesh","latitude":17.6868,"longitude":83.2185,"temp":29.7,"humidity":77,"rain":0.0,"pressure":1003.3,"uv_index":9.25,"wind_gusts":36.0,"aqi":64,"pm10":26.3,"pm2_5":22.4,"mosquito_risk":7,"arthritis_risk":5,"migraine_risk":4,"frizz_risk":1,"updated_at":"2026-04-23T08:23:07.375761+05:30"},{"city":"Vijayawada","state":"Andhra Pradesh","latitude":16.5062,"longitude":80.648,"temp":28.9,"humidity":81,"rain":0.0,"pressure":1002.4,"uv_index":9.15,"wind_gusts":25.6,"aqi":62,"pm10":15.5,"pm2_5":11.2,"mosquito_risk":7,"arthritis_risk":5,"migraine_risk":4,"frizz_risk":1,"updated_at":"2026-04-23T08:23:07.375768+05:30"},{"city":"Guntur","state":"Andhra Pradesh","latitude":16.3067,"longitude":80.4365,"temp":29.3,"humidity":76,"rain":0.0,"pressure":1003.5,"uv_index":9.0,"wind_gusts":28.8,"aqi":66,"pm10":15.0,"pm2_5":11.1,"mosquito_risk":7,"arthritis_risk":5,"migraine_risk":4,"frizz_risk":1,"updated_at":"2026-04-23T08:23:07.375774+05:30"},{"city":"Nellore","state":"Andhra Pradesh","latitude":14.4426,"longitude":79.9865,"temp":30.1,"humidity":71,"rain":0.0,"pressure":1005.8,"uv_index":9.3,"wind_gusts":32.8,"aqi":47,"pm10":12.5,"pm2_5":10.0,"mosquito_risk":3,"arthritis_risk":5,"migraine_risk":4,"frizz_risk":1,"updated_at":"2026-04-23T08:23:07.375781+05:30"},{"city":"Kurnool","state":"Andhra Pradesh","latitude":15.8281,"longitude":78.0373,"temp":32.7,"humidity":48,"rain":0.0,"pressure":977.0,"uv_index":8.8,"wind_gusts":47.9,"aqi":97,"pm10":27.2,"pm2_5":24.6,"mosquito_risk":0,"arthritis_risk":5,"migraine_risk":7,"frizz_risk":1,"updated_at":"2026-04-23T08:23:07.375788+05:30"},{"city":"Kakinada","state":"Andhra Pradesh","latitude":16.9891,"longitude":82.2475,"temp":29.9,"humidity":77,"rain":0.0,"pressure":1007.3,"uv_index":9.25,"wind_gusts":31.7,"aqi":46,"pm10":18.3,"pm2_5":12.0,"mosquito_risk":7,"arthritis_risk":5,"migraine_risk":4,"frizz_risk":1,"updated_at":"2026-04-23T08:23:07.375794+05:30"},{"city":"Tirupati","state":"Andhra Pradesh","latitude":13.6288,"longitude":79.4192,"temp":28.1,"humidity":75,"rain":0.0,"pressure":992.3,"uv_index":9.15,"wind_gusts":32.8,"aqi":68,"pm10":17.1,"pm2_5":15.4,"mosquito_risk":7,"arthritis_risk":5,"migraine_risk":7,"frizz_risk":1,"updated_at":"2026-04-23T08:23:07.375800+05:30"},{"city":"Warangal","state":"Telangana","latitude":17.9689,"longitude":79.5941,"temp":30.7,"humidity":56,"rain":0.0,"pressure":978.5,"uv_index":8.5,"wind_gusts":20.5,"aqi":117,"pm10":34.1,"pm2_5":31.9,"mosquito_risk":0,"arthritis_risk":5,"migraine_risk":7,"frizz_risk":1,"updated_at":"2026-04-23T08:23:07.375806+05:30"},{"city":"Nizamabad","state":"Telangana","latitude":18.6725,"longitude":78.0941,"temp":30.8,"humidity":48,"rain":0.0,"pressure":965.4,"uv_index":8.4,"wind_gusts":36.0,"aqi":116,"pm10":51.8,"pm2_5":49.2,"mosquito_risk":0,"arthritis_risk":5,"migraine_risk":7,"frizz_risk":1,"updated_at":"2026-04-23T08:23:07.375812+05:30"},{"city":"Mysore","state":"Karnataka","latitude":12.2958,"longitude":76.6396,"temp":26.2,"humidity":79,"rain":0.0,"pressure":928.9,"uv_index":8.9,"wind_gusts":37.4,"aqi":80,"pm10":49.4,"pm2_5":46.7,"mosquito_risk":7,"arthritis_risk":5,"migraine_risk":7,"frizz_risk":1,"updated_at":"2026-04-23T08:23:07.375819+05:30"},{"city":"Mangalore","state":"Karnataka","latitude":12.9141,"longitude":74.856,"temp":29.5,"humidity":84,"rain":0.0,"pressure":1005.7,"uv_index":8.95,"wind_gusts":25.6,"aqi":82,"pm10":38.4,"pm2_5":29.5,"mosquito_risk":7,"arthritis_risk":5,"migraine_risk":4,"frizz_risk":1,"updated_at":"2026-04-23T08:23:07.375825+05:30"},{"city":"Hubli-Dharwad","state":"Karnataka","latitude":15.3647,"longitude":75.124,"temp":27.8,"humidity":69,"rain":0.0,"pressure":941.2,"uv_index":9.25,"wind_gusts":52.9,"aqi":98,"pm10":44.7,"pm2_5":40.6,"mosquito_risk":7,"arthritis_risk":5,"migraine_risk":7,"frizz_risk":1,"updated_at":"2026-04-23T08:23:07.375832+05:30"},{"city":"Belgaum","state":"Karnataka","latitude":15.8497,"longitude":74.4977,"temp":26.8,"humidity":71,"rain":0.0,"pressure":926.3,"uv_index":9.25,"wind_gusts":38.5,"aqi":101,"pm10":52.3,"pm2_5":47.6,"mosquito_risk":7,"arthritis_risk":5,"migraine_risk":7,"frizz_risk":1,"updated_at":"2026-04-23T08:23:10.897208+05:30"},{"city":"Coimbatore","state":"Tamil Nadu","latitude":11.0168,"longitude":76.9558,"temp":27.8,"humidity":74,"rain":0.0,"pressure":962.2,"uv_index":9.3,"wind_gusts":32.0,"aqi":86,"pm10":48.7,"pm2_5":46.8,"mosquito_risk":7,"arthritis_risk":5,"migraine_risk":7,"frizz_risk":1,"updated_at":"2026-04-23T08:23:10.897237+05:30"},{"city":"Madurai","state":"Tamil Nadu","latitude":9.9252,"longitude":78.1198,"temp":29.4,"humidity":77,"rain":0.0,"pressure":993.4,"uv_index":9.3,"wind_gusts":32.0,"aqi":52,"pm10":20.7,"pm2_5":19.7,"mosquito_risk":7,"arthritis_risk":5,"migraine_risk":7,"frizz_risk":1,"updated_at":"2026-04-23T08:23:10.897279+05:30"},{"city":"Trichy","state":"Tamil Nadu","latitude":10.7905,"longitude":78.7047,"temp":30.0,"humidity":79,"rain":0.0,"pressure":1000.0,"uv_index":9.3,"wind_gusts":20.9,"aqi":49,"pm10":14.2,"pm2_5":12.6,"mosquito_risk":7,"arthritis_risk":5,"migraine_risk":4,"frizz_risk":1,"updated_at":"2026-04-23T08:23:10.897290+05:30"},{"city":"Salem","state":"Tamil Nadu","latitude":11.6643,"longitude":78.146,"temp":29.0,"humidity":73,"rain":0.0,"pressure":977.9,"uv_index":9.4,"wind_gusts":27.0,"aqi":66,"pm10":17.5,"pm2_5":16.5,"mosquito_risk":7,"arthritis_risk":5,"migraine_risk":7,"frizz_risk":1,"updated_at":"2026-04-23T08:23:10.897298+05:30"},{"city":"Tirunelveli","state":"Tamil Nadu","latitude":8.7139,"longitude":77.7567,"temp":29.8,"humidity":71,"rain":0.0,"pressure":1003.2,"uv_index":9.25,"wind_gusts":36.4,"aqi":69,"pm10":29.8,"pm2_5":27.0,"mosquito_risk":7,"arthritis_risk":5,"migraine_risk":4,"frizz_risk":1,"updated_at":"2026-04-23T08:23:10.897305+05:30"},{"city":"Vellore","state":"Tamil Nadu","latitude":12.9165,"longitude":79.1325,"temp":27.7,"humidity":74,"rain":0.0,"pressure":985.3,"uv_index":9.4,"wind_gusts":29.9,"aqi":80,"pm10":39.5,"pm2_5":38.2,"mosquito_risk":7,"arthritis_risk":5,"migraine_risk":7,"frizz_risk":1,"updated_at":"2026-04-23T08:23:10.897313+05:30"},{"city":"Erode","state":"Tamil Nadu","latitude":11.341,"longitude":77.7172,"temp":30.0,"humidity":73,"rain":0.0,"pressure":989.4,"uv_index":9.35,"wind_gusts":28.1,"aqi":48,"pm10":9.1,"pm2_5":8.2,"mosquito_risk":7,"arthritis_risk":5,"migraine_risk":7,"frizz_risk":1,"updated_at":"2026-04-23T08:23:10.897323+05:30"},{"city":"Kochi","state":"Kerala","latitude":9.9312,"longitude":76.2673,"temp":28.8,"humidity":84,"rain":0.0,"pressure":1008.0,"uv_index":9.05,"wind_gusts":28.8,"aqi":77,"pm10":31.9,"pm2_5":28.6,"mosquito_risk":7,"arthritis_risk":0,"migraine_risk":4,"frizz_risk":1,"updated_at":"2026-04-23T08:23:10.897331+05:30"},{"city":"Thiruvananthapuram","state":"Kerala","latitude":8.5241,"longitude":76.9366,"temp":28.6,"humidity":84,"rain":0.0,"pressure":1007.3,"uv_index":8.8,"wind_gusts":18.4,"aqi":60,"pm10":22.1,"pm2_5":18.5,"mosquito_risk":7,"arthritis_risk":5,"migraine_risk":4,"frizz_risk":1,"updated_at":"2026-04-23T08:23:10.897338+05:30"},{"city":"Kozhikode","state":"Kerala","latitude":11.2588,"longitude":75.7804,"temp":29.8,"humidity":79,"rain":0.0,"pressure":1007.2,"uv_index":8.85,"wind_gusts":29.2,"aqi":70,"pm10":33.4,"pm2_5":27.4,"mosquito_risk":7,"arthritis_risk":5,"migraine_risk":4,"frizz_risk":1,"updated_at":"2026-04-23T08:23:10.897345+05:30"},{"city":"Thrissur","state":"Kerala","latitude":10.5276,"longitude":76.2144,"temp":29.9,"humidity":76,"rain":0.0,"pressure":1006.6,"uv_index":9.05,"wind_gusts":36.0,"aqi":80,"pm10":30.2,"pm2_5":27.0,"mosquito_risk":7,"arthritis_risk":5,"migraine_risk":4,"frizz_risk":1,"updated_at":"2026-04-23T08:23:10.897352+05:30"},{"city":"Kannur","state":"Kerala","latitude":11.8745,"longitude":75.3704,"temp":29.5,"humidity":80,"rain":0.0,"pressure":1006.5,"uv_index":8.9,"wind_gusts":31.7,"aqi":83,"pm10":37.4,"pm2_5":31.2,"mosquito_risk":7,"arthritis_risk":5,"migraine_risk":4,"frizz_risk":1,"updated_at":"2026-04-23T08:23:10.897359+05:30"},{"city":"Patna","state":"Bihar","latitude":25.5941,"longitude":85.1376,"temp":28.6,"humidity":66,"rain":0.0,"pressure":999.8,"uv_index":8.6,"wind_gusts":21.2,"aqi":142,"pm10":85.2,"pm2_5":58.8,"mosquito_risk":7,"arthritis_risk":5,"migraine_risk":7,"frizz_risk":1,"updated_at":"2026-04-23T08:23:10.897365+05:30"},{"city":"Gaya","state":"Bihar","latitude":24.7914,"longitude":85.0002,"temp":32.0,"humidity":43,"rain":0.0,"pressure":993.2,"uv_index":8.55,"wind_gusts":30.2,"aqi":133,"pm10":74.3,"pm2_5":40.5,"mosquito_risk":0,"arthritis_risk":5,"migraine_risk":7,"frizz_risk":1,"updated_at":"2026-04-23T08:23:10.897372+05:30"},{"city":"Muzaffarpur","state":"Bihar","latitude":26.1209,"longitude":85.3647,"temp":28.7,"humidity":75,"rain":0.0,"pressure":999.8,"uv_index":8.6,"wind_gusts":26.6,"aqi":150,"pm10":62.6,"pm2_5":49.1,"mosquito_risk":7,"arthritis_risk":5,"migraine_risk":7,"frizz_risk":1,"updated_at":"2026-04-23T08:23:10.897378+05:30"},{"city":"Bhagalpur","state":"Bihar","latitude":25.2425,"longitude":87.0117,"temp":29.0,"humidity":83,"rain":0.0,"pressure":1000.4,"uv_index":8.65,"wind_gusts":18.0,"aqi":132,"pm10":68.5,"pm2_5":53.8,"mosquito_risk":7,"arthritis_risk":5,"migraine_risk":4,"frizz_risk":1,"updated_at":"2026-04-23T08:23:10.897384+05:30"},{"city":"Ranchi","state":"Jharkhand","latitude":23.3441,"longitude":85.3096,"temp":31.5,"humidity":31,"rain":0.0,"pressure":939.0,"uv_index":8.7,"wind_gusts":32.4,"aqi":92,"pm10":95.0,"pm2_5":37.3,"mosquito_risk":0,"arthritis_risk":5,"migraine_risk":7,"frizz_risk":0,"updated_at":"2026-04-23T08:23:10.897391+05:30"},{"city":"Jamshedpur","state":"Jharkhand","latitude":22.8046,"longitude":86.2029,"temp":31.6,"humidity":68,"rain":0.0,"pressure":990.4,"uv_index":8.85,"wind_gusts":19.4,"aqi":150,"pm10":108.0,"pm2_5":79.2,"mosquito_risk":3,"arthritis_risk":5,"migraine_risk":7,"frizz_risk":1,"updated_at":"2026-04-23T08:23:10.897397+05:30"},{"city":"Dhanbad","state":"Jharkhand","latitude":23.7957,"longitude":86.4304,"temp":32.7,"humidity":44,"rain":0.0,"pressure":979.3,"uv_index":8.65,"wind_gusts":32.8,"aqi":161,"pm10":147.1,"pm2_5":101.3,"mosquito_risk":0,"arthritis_risk":5,"migraine_risk":7,"frizz_risk":1,"updated_at":"2026-04-23T08:23:10.897404+05:30"},{"city":"Bokaro","state":"Jharkhand","latitude":23.6693,"longitude":86.1511,"temp":32.4,"humidity":39,"rain":0.0,"pressure":983.5,"uv_index":8.55,"wind_gusts":33.1,"aqi":154,"pm10":129.0,"pm2_5":77.1,"mosquito_risk":0,"arthritis_risk":5,"migraine_risk":7,"frizz_risk":1,"updated_at":"2026-04-23T08:23:10.897411+05:30"},{"city":"Bhubaneswar","state":"Odisha","latitude":20.2961,"longitude":85.8245,"temp":29.5,"humidity":85,"rain":0.0,"pressure":1001.8,"uv_index":9.2,"wind_gusts":32.8,"aqi":85,"pm10":29.7,"pm2_5":26.6,"mosquito_risk":7,"arthritis_risk":5,"migraine_risk":4,"frizz_risk":1,"updated_at":"2026-04-23T08:23:10.897417+05:30"},{"city":"Cuttack","state":"Odisha","latitude":20.4625,"longitude":85.8828,"temp":30.0,"humidity":81,"rain":0.0,"pressure":1003.7,"uv_index":9.25,"wind_gusts":26.3,"aqi":85,"pm10":29.7,"pm2_5":26.6,"mosquito_risk":7,"arthritis_risk":5,"migraine_risk":4,"frizz_risk":1,"updated_at":"2026-04-23T08:23:10.897424+05:30"},{"city":"Rourkela","state":"Odisha","latitude":22.2604,"longitude":84.8536,"temp":31.1,"humidity":58,"rain":0.0,"pressure":984.9,"uv_index":8.95,"wind_gusts":20.2,"aqi":99,"pm10":70.1,"pm2_5":39.1,"mosquito_risk":0,"arthritis_risk":5,"migraine_risk":7,"frizz_risk":1,"updated_at":"2026-04-23T08:23:10.897430+05:30"},{"city":"Raipur","state":"Chhattisgarh","latitude":21.2514,"longitude":81.6296,"temp":32.1,"humidity":44,"rain":0.0,"pressure":975.3,"uv_index":8.15,"wind_gusts":23.0,"aqi":116,"pm10":68.9,"pm2_5":62.6,"mosquito_risk":0,"arthritis_risk":5,"migraine_risk":7,"frizz_risk":1,"updated_at":"2026-04-23T08:23:10.897436+05:30"},{"city":"Bhilai","state":"Chhattisgarh","latitude":21.1938,"longitude":81.3509,"temp":32.1,"humidity":47,"rain":0.0,"pressure":975.5,"uv_index":7.85,"wind_gusts":22.7,"aqi":106,"pm10":64.5,"pm2_5":59.1,"mosquito_risk":0,"arthritis_risk":5,"migraine_risk":7,"frizz_risk":1,"updated_at":"2026-04-23T08:23:10.897442+05:30"},{"city":"Guwahati","state":"Assam","latitude":26.1158,"longitude":91.7086,"temp":26.0,"humidity":84,"rain":0.0,"pressure":1003.0,"uv_index":8.55,"wind_gusts":18.4,"aqi":96,"pm10":61.9,"pm2_5":32.9,"mosquito_risk":7,"arthritis_risk":5,"migraine_risk":4,"frizz_risk":1,"updated_at":"2026-04-23T08:23:10.897448+05:30"},{"city":"Agartala","state":"Tripura","latitude":23.8315,"longitude":91.2868,"temp":29.4,"humidity":79,"rain":0.0,"pressure":1006.8,"uv_index":8.3,"wind_gusts":19.8,"aqi":79,"pm10":24.4,"pm2_5":20.6,"mosquito_risk":7,"arthritis_risk":5,"migraine_risk":4,"frizz_risk":1,"updated_at":"2026-04-23T08:23:10.897455+05:30"},{"city":"Shillong","state":"Meghalaya","latitude":25.5788,"longitude":91.8933,"temp":20.5,"humidity":65,"rain":0.0,"pressure":858.8,"uv_index":8.95,"wind_gusts":37.1,"aqi":78,"pm10":83.1,"pm2_5":33.4,"mosquito_risk":3,"arthritis_risk":5,"migraine_risk":7,"frizz_risk":0,"updated_at":"2026-04-23T08:23:10.897461+05:30"},{"city":"Imphal","state":"Manipur","latitude":24.817,"longitude":93.9368,"temp":22.4,"humidity":77,"rain":0.0,"pressure":924.7,"uv_index":9.05,"wind_gusts":51.1,"aqi":112,"pm10":65.7,"pm2_5":38.9,"mosquito_risk":3,"arthritis_risk":5,"migraine_risk":7,"frizz_risk":1,"updated_at":"2026-04-23T08:23:10.897468+05:30"},{"city":"Aizawl","state":"Mizoram","latitude":23.7271,"longitude":92.7176,"temp":24.2,"humidity":77,"rain":0.0,"pressure":895.0,"uv_index":8.9,"wind_gusts":34.9,"aqi":106,"pm10":64.3,"pm2_5":38.1,"mosquito_risk":3,"arthritis_risk":5,"migraine_risk":7,"frizz_risk":1,"updated_at":"2026-04-23T08:23:10.897475+05:30"},{"city":"Kohima","state":"Nagaland","latitude":25.6701,"longitude":94.1077,"temp":19.2,"humidity":78,"rain":0.0,"pressure":857.2,"uv_index":9.1,"wind_gusts":50.0,"aqi":94,"pm10":82.0,"pm2_5":29.9,"mosquito_risk":3,"arthritis_risk":5,"migraine_risk":7,"frizz_risk":0,"updated_at":"2026-04-23T08:23:10.897481+05:30"},{"city":"Gangtok","state":"Sikkim","latitude":27.3314,"longitude":88.6138,"temp":20.3,"humidity":75,"rain":0.0,"pressure":840.4,"uv_index":8.9,"wind_gusts":21.6,"aqi":89,"pm10":46.0,"pm2_5":27.8,"mosquito_risk":3,"arthritis_risk":5,"migraine_risk":7,"frizz_risk":0,"updated_at":"2026-04-23T08:23:10.897487+05:30"},{"city":"Siliguri","state":"West Bengal","latitude":26.7271,"longitude":88.3953,"temp":24.8,"humidity":79,"rain":0.0,"pressure":995.4,"uv_index":8.5,"wind_gusts":22.7,"aqi":146,"pm10":82.4,"pm2_5":53.4,"mosquito_risk":3,"arthritis_risk":5,"migraine_risk":7,"frizz_risk":1,"updated_at":"2026-04-23T08:23:14.202215+05:30"},{"city":"Durgapur","state":"West Bengal","latitude":23.5204,"longitude":87.3119,"temp":31.0,"humidity":74,"rain":0.0,"pressure":994.4,"uv_index":8.95,"wind_gusts":29.5,"aqi":154,"pm10":63.6,"pm2_5":58.2,"mosquito_risk":3,"arthritis_risk":5,"migraine_risk":7,"frizz_risk":1,"updated_at":"2026-04-23T08:23:14.202300+05:30"},{"city":"Asansol","state":"West Bengal","latitude":23.6739,"longitude":86.9524,"temp":31.8,"humidity":68,"rain":0.0,"pressure":992.8,"uv_index":8.9,"wind_gusts":31.7,"aqi":153,"pm10":97.1,"pm2_5":79.2,"mosquito_risk":3,"arthritis_risk":5,"migraine_risk":7,"frizz_risk":1,"updated_at":"2026-04-23T08:23:14.202318+05:30"},{"city":"Pondicherry","state":"Puducherry","latitude":11.9139,"longitude":79.8145,"temp":30.5,"humidity":77,"rain":0.0,"pressure":1008.6,"uv_index":9.25,"wind_gusts":28.8,"aqi":26,"pm10":9.9,"pm2_5":7.3,"mosquito_risk":3,"arthritis_risk":0,"migraine_risk":4,"frizz_risk":1,"updated_at":"2026-04-23T08:23:14.202329+05:30"},{"city":"Port Blair","state":"Andaman and Nicobar Islands","latitude":11.6234,"longitude":92.7265,"temp":30.6,"humidity":68,"rain":0.0,"pressure":1007.0,"uv_index":9.15,"wind_gusts":22.0,"aqi":29,"pm10":10.1,"pm2_5":5.4,"mosquito_risk":3,"arthritis_risk":5,"migraine_risk":4,"frizz_risk":1,"updated_at":"2026-04-23T08:23:14.202340+05:30"},{"city":"Haridwar","state":"Uttarakhand","latitude":29.9457,"longitude":78.1642,"temp":29.0,"humidity":53,"rain":0.0,"pressure":973.6,"uv_index":7.2,"wind_gusts":36.7,"aqi":71,"pm10":30.3,"pm2_5":28.9,"mosquito_risk":4,"arthritis_risk":5,"migraine_risk":7,"frizz_risk":1,"updated_at":"2026-04-23T08:23:14.202357+05:30"},{"city":"Rishikesh","state":"Uttarakhand","latitude":30.0869,"longitude":78.2676,"temp":29.4,"humidity":52,"rain":0.0,"pressure":966.7,"uv_index":7.3,"wind_gusts":35.3,"aqi":61,"pm10":23.7,"pm2_5":21.5,"mosquito_risk":4,"arthritis_risk":5,"migraine_risk":7,"frizz_risk":1,"updated_at":"2026-04-23T08:23:14.202370+05:30"},{"city":"Nainital","state":"Uttarakhand","latitude":29.3919,"longitude":79.4542,"temp":26.2,"humidity":34,"rain":0.0,"pressure":809.9,"uv_index":8.15,"wind_gusts":40.3,"aqi":59,"pm10":22.4,"pm2_5":20.1,"mosquito_risk":4,"arthritis_risk":5,"migraine_risk":7,"frizz_risk":0,"updated_at":"2026-04-23T08:23:14.202381+05:30"},{"city":"Mussoorie","state":"Uttarakhand","latitude":30.4599,"longitude":78.0664,"temp":23.7,"humidity":44,"rain":0.0,"pressure":806.0,"uv_index":7.7,"wind_gusts":37.8,"aqi":63,"pm10":20.5,"pm2_5":18.9,"mosquito_risk":0,"arthritis_risk":5,"migraine_risk":7,"frizz_risk":0,"updated_at":"2026-04-23T08:23:14.202391+05:30"},{"city":"Dharamshala","state":"Himachal Pradesh","latitude":32.219,"longitude":76.3234,"temp":27.0,"humidity":43,"rain":0.0,"pressure":870.6,"uv_index":8.1,"wind_gusts":32.0,"aqi":42,"pm10":13.5,"pm2_5":9.4,"mosquito_risk":4,"arthritis_risk":5,"migraine_risk":7,"frizz_risk":0,"updated_at":"2026-04-23T08:23:14.202401+05:30"},{"city":"Dalhousie","state":"Himachal Pradesh","latitude":32.5387,"longitude":75.971,"temp":24.0,"humidity":34,"rain":0.0,"pressure":806.2,"uv_index":8.35,"wind_gusts":30.6,"aqi":58,"pm10":18.2,"pm2_5":15.5,"mosquito_risk":0,"arthritis_risk":5,"migraine_risk":7,"frizz_risk":0,"updated_at":"2026-04-23T08:23:14.202412+05:30"},{"city":"Patiala","state":"Punjab","latitude":30.3398,"longitude":76.3869,"temp":27.8,"humidity":52,"rain":0.0,"pressure":977.0,"uv_index":7.3,"wind_gusts":16.9,"aqi":229,"pm10":314.8,"pm2_5":67.1,"mosquito_risk":4,"arthritis_risk":5,"migraine_risk":7,"frizz_risk":1,"updated_at":"2026-04-23T08:23:14.202422+05:30"},{"city":"Bhatinda","state":"Punjab","latitude":30.211,"longitude":74.9455,"temp":30.8,"humidity":41,"rain":0.0,"pressure":982.3,"uv_index":8.0,"wind_gusts":24.8,"aqi":79,"pm10":58.3,"pm2_5":34.3,"mosquito_risk":0,"arthritis_risk":5,"migraine_risk":7,"frizz_risk":0,"updated_at":"2026-04-23T08:23:14.202432+05:30"},{"city":"Rohtak","state":"Haryana","latitude":28.8955,"longitude":76.6066,"temp":27.4,"humidity":42,"rain":0.0,"pressure":981.2,"uv_index":7.45,"wind_gusts":24.5,"aqi":478,"pm10":646.3,"pm2_5":79.9,"mosquito_risk":4,"arthritis_risk":5,"migraine_risk":7,"frizz_risk":0,"updated_at":"2026-04-23T08:23:14.202441+05:30"},{"city":"Panipat","state":"Haryana","latitude":29.3909,"longitude":76.9635,"temp":28.0,"humidity":50,"rain":0.0,"pressure":979.8,"uv_index":7.25,"wind_gusts":21.2,"aqi":922,"pm10":1199.5,"pm2_5":143.9,"mosquito_risk":4,"arthritis_risk":5,"migraine_risk":7,"frizz_risk":1,"updated_at":"2026-04-23T08:23:14.202452+05:30"},{"city":"Mathura","state":"Uttar Pradesh","latitude":27.4924,"longitude":77.6737,"temp":29.4,"humidity":34,"rain":0.0,"pressure":987.1,"uv_index":7.7,"wind_gusts":25.2,"aqi":648,"pm10":739.5,"pm2_5":82.9,"mosquito_risk":4,"arthritis_risk":5,"migraine_risk":7,"frizz_risk":0,"updated_at":"2026-04-23T08:23:14.202462+05:30"},{"city":"Vrindavan","state":"Uttar Pradesh","latitude":27.5823,"longitude":77.7027,"temp":30.0,"humidity":35,"rain":0.0,"pressure":987.4,"uv_index":7.65,"wind_gusts":27.4,"aqi":648,"pm10":739.5,"pm2_5":82.9,"mosquito_risk":4,"arthritis_risk":5,"migraine_risk":7,"frizz_risk":0,"updated_at":"2026-04-23T08:23:14.202471+05:30"},{"city":"Ayodhya","state":"Uttar Pradesh","latitude":26.7922,"longitude":82.1998,"temp":29.2,"humidity":38,"rain":0.0,"pressure":995.0,"uv_index":8.05,"wind_gusts":37.1,"aqi":138,"pm10":217.9,"pm2_5":64.0,"mosquito_risk":4,"arthritis_risk":5,"migraine_risk":7,"frizz_risk":0,"updated_at":"2026-04-23T08:23:14.202479+05:30"},{"city":"Ratlam","state":"Madhya Pradesh","latitude":23.3315,"longitude":75.0367,"temp":28.4,"humidity":47,"rain":0.0,"pressure":955.7,"uv_index":8.5,"wind_gusts":33.1,"aqi":64,"pm10":33.8,"pm2_5":30.7,"mosquito_risk":4,"arthritis_risk":5,"migraine_risk":7,"frizz_risk":0,"updated_at":"2026-04-23T08:23:14.202486+05:30"},{"city":"Sagar","state":"Madhya Pradesh","latitude":23.8388,"longitude":78.7378,"temp":29.6,"humidity":31,"rain":0.0,"pressure":951.9,"uv_index":8.65,"wind_gusts":34.6,"aqi":44,"pm10":17.5,"pm2_5":16.1,"mosquito_risk":4,"arthritis_risk":5,"migraine_risk":7,"frizz_risk":0,"updated_at":"2026-04-23T08:23:14.202493+05:30"},{"city":"Satna","state":"Madhya Pradesh","latitude":24.6005,"longitude":80.8322,"temp":31.5,"humidity":29,"rain":0.0,"pressure":972.1,"uv_index":8.65,"wind_gusts":30.6,"aqi":60,"pm10":11.8,"pm2_5":10.7,"mosquito_risk":0,"arthritis_risk":5,"migraine_risk":7,"frizz_risk":0,"updated_at":"2026-04-23T08:23:14.202499+05:30"},{"city":"Akola","state":"Maharashtra","latitude":20.7002,"longitude":77.0082,"temp":30.7,"humidity":42,"rain":0.0,"pressure":976.5,"uv_index":8.85,"wind_gusts":27.4,"aqi":76,"pm10":27.0,"pm2_5":24.7,"mosquito_risk":0,"arthritis_risk":5,"migraine_risk":7,"frizz_risk":1,"updated_at":"2026-04-23T08:23:14.202507+05:30"},{"city":"Amravati","state":"Maharashtra","latitude":20.9374,"longitude":77.7796,"temp":29.9,"humidity":43,"rain":0.0,"pressure":968.3,"uv_index":8.9,"wind_gusts":18.4,"aqi":77,"pm10":24.2,"pm2_5":22.2,"mosquito_risk":4,"arthritis_risk":5,"migraine_risk":7,"frizz_risk":0,"updated_at":"2026-04-23T08:23:14.202515+05:30"},{"city":"Latur","state":"Maharashtra","latitude":18.4088,"longitude":76.5604,"temp":28.9,"humidity":45,"rain":0.0,"pressure":941.0,"uv_index":8.95,"wind_gusts":43.6,"aqi":116,"pm10":40.5,"pm2_5":37.0,"mosquito_risk":4,"arthritis_risk":5,"migraine_risk":7,"frizz_risk":0,"updated_at":"2026-04-23T08:23:14.202521+05:30"},{"city":"Nanded","state":"Maharashtra","latitude":19.1383,"longitude":77.3091,"temp":30.1,"humidity":52,"rain":0.0,"pressure":969.6,"uv_index":9.05,"wind_gusts":33.1,"aqi":119,"pm10":48.8,"pm2_5":46.0,"mosquito_risk":0,"arthritis_risk":5,"migraine_risk":7,"frizz_risk":1,"updated_at":"2026-04-23T08:23:14.202528+05:30"},{"city":"Gulbarga","state":"Karnataka","latitude":17.3297,"longitude":76.8343,"temp":30.7,"humidity":47,"rain":0.0,"pressure":959.2,"uv_index":9.0,"wind_gusts":32.0,"aqi":97,"pm10":46.3,"pm2_5":43.3,"mosquito_risk":0,"arthritis_risk":5,"migraine_risk":7,"frizz_risk":1,"updated_at":"2026-04-23T08:23:14.202534+05:30"},{"city":"Bidar","state":"Karnataka","latitude":17.9104,"longitude":77.5199,"temp":30.2,"humidity":45,"rain":0.0,"pressure":936.5,"uv_index":7.85,"wind_gusts":37.4,"aqi":113,"pm10":49.4,"pm2_5":46.0,"mosquito_risk":0,"arthritis_risk":5,"migraine_risk":7,"frizz_risk":1,"updated_at":"2026-04-23T08:23:14.202540+05:30"},{"city":"Hospet","state":"Karnataka","latitude":15.2689,"longitude":76.3909,"temp":28.1,"humidity":65,"rain":0.0,"pressure":956.0,"uv_index":9.05,"wind_gusts":25.9,"aqi":94,"pm10":39.9,"pm2_5":38.1,"mosquito_risk":7,"arthritis_risk":5,"migraine_risk":7,"frizz_risk":1,"updated_at":"2026-04-23T08:23:14.202545+05:30"},{"city":"Tirupur","state":"Tamil Nadu","latitude":11.1085,"longitude":77.3411,"temp":28.7,"humidity":72,"rain":0.0,"pressure":975.8,"uv_index":9.35,"wind_gusts":32.4,"aqi":67,"pm10":23.7,"pm2_5":22.6,"mosquito_risk":7,"arthritis_risk":5,"migraine_risk":7,"frizz_risk":1,"updated_at":"2026-04-23T08:23:14.202551+05:30"},{"city":"Alappuzha","state":"Kerala","latitude":9.4981,"longitude":76.3388,"temp":28.6,"humidity":83,"rain":0.0,"pressure":1008.1,"uv_index":9.0,"wind_gusts":26.6,"aqi":79,"pm10":32.8,"pm2_5":28.8,"mosquito_risk":7,"arthritis_risk":0,"migraine_risk":4,"frizz_risk":1,"updated_at":"2026-04-23T08:23:14.202556+05:30"},{"city":"Munnar","state":"Kerala","latitude":10.0889,"longitude":77.0595,"temp":24.6,"humidity":67,"rain":0.0,"pressure":857.8,"uv_index":9.65,"wind_gusts":22.3,"aqi":70,"pm10":25.0,"pm2_5":24.2,"mosquito_risk":3,"arthritis_risk":5,"migraine_risk":7,"frizz_risk":1,"updated_at":"2026-04-23T08:23:14.202563+05:30"},{"city":"Silchar","state":"Assam","latitude":24.8333,"longitude":92.7789,"temp":25.1,"humidity":88,"rain":0.0,"pressure":1007.0,"uv_index":8.8,"wind_gusts":24.5,"aqi":113,"pm10":71.5,"pm2_5":43.8,"mosquito_risk":7,"arthritis_risk":5,"migraine_risk":4,"frizz_risk":1,"updated_at":"2026-04-23T08:23:14.202569+05:30"},{"city":"Dibrugarh","state":"Assam","latitude":27.4728,"longitude":94.912,"temp":24.5,"humidity":83,"rain":0.0,"pressure":997.6,"uv_index":8.65,"wind_gusts":10.8,"aqi":75,"pm10":19.7,"pm2_5":15.5,"mosquito_risk":3,"arthritis_risk":5,"migraine_risk":7,"frizz_risk":1,"updated_at":"2026-04-23T08:23:14.202575+05:30"}]