[{"city":"Delhi","state":"Delhi","latitude":28.6139,"longitude":77.209,"temp":25.9,"humidity":44,"rain":0.0,"pressure":986.0,"uv_index":5.75,"wind_gusts":37.4,"aqi":219,"pm10":620.3,"pm2_5":99.4,"mosquito_risk":4,"arthritis_risk":5,"migraine_risk":3,"frizz_risk":0,"updated_at":"2026-03-02T18:36:02.279382+05:30"},{"city":"Mumbai","state":"Maharashtra","latitude":19.076,"longitude":72.8777,"temp":26.4,"humidity":78,"rain":0.0,"pressure":1009.8,"uv_index":7.3,"wind_gusts":25.6,"aqi":123,"pm10":39.3,"pm2_5":25.4,"mosquito_risk":7,"arthritis_risk":0,"migraine_risk":4,"frizz_risk":1,"updated_at":"2026-03-02T18:36:02.279423+05:30"},{"city":"Bangalore","state":"Karnataka","latitude":12.9716,"longitude":77.5946,"temp":29.1,"humidity":32,"rain":0.0,"pressure":912.4,"uv_index":9.05,"wind_gusts":28.8,"aqi":149,"pm10":43.3,"pm2_5":42.6,"mosquito_risk":4,"arthritis_risk":5,"migraine_risk":7,"frizz_risk":0,"updated_at":"2026-03-02T18:36:02.279437+05:30"},{"city":"Hyderabad","state":"Telangana","latitude":17.385,"longitude":78.4867,"temp":30.4,"humidity":39,"rain":0.0,"pressure":954.8,"uv_index":8.3,"wind_gusts":16.6,"aqi":151,"pm10":46.0,"pm2_5":45.6,"mosquito_risk":0,"arthritis_risk":5,"migraine_risk":7,"frizz_risk":0,"updated_at":"2026-03-02T18:36:02.279447+05:30"},{"city":"Chennai","state":"Tamil Nadu","latitude":13.0827,"longitude":80.2707,"temp":27.7,"humidity":59,"rain":0.0,"pressure":1008.9,"uv_index":8.8,"wind_gusts":30.2,"aqi":130,"pm10":41.2,"pm2_5":37.5,"mosquito_risk":4,"arthritis_risk":0,"migraine_risk":4,"frizz_risk":1,"updated_at":"2026-03-02T18:36:02.279455+05:30"},{"city":"Kolkata","state":"West Bengal","latitude":22.5726,"longitude":88.3639,"temp":28.5,"humidity":59,"rain":0.0,"pressure":1006.9,"uv_index":7.65,"wind_gusts":16.6,"aqi":170,"pm10":96.2,"pm2_5":82.9,"mosquito_risk":4,"arthritis_risk":5,"migraine_risk":4,"frizz_risk":1,"updated_at":"2026-03-02T18:36:02.279464+05:30"},{"city":"Pune","state":"Maharashtra","latitude":18.5204,"longitude":73.8567,"temp":31.8,"humidity":35,"rain":0.0,"pressure":949.5,"uv_index":7.85,"wind_gusts":28.4,"aqi":146,"pm10":22.8,"pm2_5":21.9,"mosquito_risk":0,"arthritis_risk":5,"migraine_risk":7,"frizz_risk":0,"updated_at":"2026-03-02T18:36:02.279476+05:30"},{"city":"Ahmedabad","state":"Gujarat","latitude":23.0225,"longitude":72.5714,"temp":32.8,"humidity":29,"rain":0.0,"pressure":1004.1,"uv_index":7.1,"wind_gusts":15.5,"aqi":126,"pm10":33.5,"pm2_5":23.5,"mosquito_risk":0,"arthritis_risk":5,"migraine_risk":4,"frizz_risk":0,"updated_at":"2026-03-02T18:36:02.279483+05:30"},{"city":"Jaipur","state":"Rajasthan","latitude":26.9124,"longitude":75.7873,"temp":29.9,"humidity":21,"rain":0.0,"pressure":962.9,"uv_index":6.5,"wind_gusts":30.2,"aqi":98,"pm10":88.2,"pm2_5":27.3,"mosquito_risk":4,"arthritis_risk":5,"migraine_risk":7,"frizz_risk":0,"updated_at":"2026-03-02T18:36:02.279491+05:30"},{"city":"Lucknow","state":"Uttar Pradesh","latitude":26.8467,"longitude":80.9462,"temp":26.5,"humidity":39,"rain":0.0,"pressure":996.0,"uv_index":6.25,"wind_gusts":37.4,"aqi":143,"pm10":184.4,"pm2_5":57.4,"mosquito_risk":4,"arthritis_risk":5,"migraine_risk":7,"frizz_risk":0,"updated_at":"2026-03-02T18:36:02.279498+05:30"},{"city":"Kanpur","state":"Uttar Pradesh","latitude":26.4499,"longitude":80.3319,"temp":26.2,"humidity":50,"rain":0.0,"pressure":994.5,"uv_index":6.25,"wind_gusts":32.0,"aqi":151,"pm10":238.4,"pm2_5":58.4,"mosquito_risk":4,"arthritis_risk":5,"migraine_risk":7,"frizz_risk":0,"updated_at":"2026-03-02T18:36:02.279505+05:30"},{"city":"Chandigarh","state":"Chandigarh","latitude":30.7333,"longitude":76.7794,"temp":22.3,"humidity":54,"rain":0.0,"pressure":971.1,"uv_index":5.65,"wind_gusts":38.9,"aqi":111,"pm10":27.4,"pm2_5":23.3,"mosquito_risk":0,"arthritis_risk":5,"migraine_risk":3,"frizz_risk":0,"updated_at":"2026-03-02T18:36:02.279512+05:30"},{"city":"Srinagar","state":"Jammu and Kashmir","latitude":34.0837,"longitude":74.7973,"temp":16.0,"humidity":28,"rain":0.0,"pressure":843.4,"uv_index":6.55,"wind_gusts":17.6,"aqi":143,"pm10":56.0,"pm2_5":46.8,"mosquito_risk":0,"arthritis_risk":5,"migraine_risk":7,"frizz_risk":1,"updated_at":"2026-03-02T18:36:02.279519+05:30"},{"city":"Jammu","state":"Jammu and Kashmir","latitude":32.7266,"longitude":74.857,"temp":24.2,"humidity":58,"rain":0.0,"pressure":975.0,"uv_index":6.25,"wind_gusts":26.3,"aqi":104,"pm10":34.3,"pm2_5":27.6,"mosquito_risk":0,"arthritis_risk":5,"migraine_risk":7,"frizz_risk":0,"updated_at":"2026-03-02T18:36:02.279526+05:30"},{"city":"Amritsar","state":"Punjab","latitude":31.634,"longitude":74.8723,"temp":23.1,"humidity":55,"rain":0.0,"pressure":983.7,"uv_index":6.1,"wind_gusts":25.2,"aqi":144,"pm10":29.7,"pm2_5":23.3,"mosquito_risk":0,"arthritis_risk":5,"migraine_risk":7,"frizz_risk":0,"updated_at":"2026-03-02T18:36:02.279533+05:30"},{"city":"Ludhiana","state":"Punjab","latitude":30.901,"longitude":75.8573,"temp":24.0,"humidity":52,"rain":0.0,"pressure":981.6,"uv_index":5.85,"wind_gusts":32.4,"aqi":159,"pm10":55.2,"pm2_5":39.5,"mosquito_risk":0,"arthritis_risk":5,"migraine_risk":3,"frizz_risk":0,"updated_at":"2026-03-02T18:36:02.279539+05:30"},{"city":"Jalandhar","state":"Punjab","latitude":31.326,"longitude":75.5762,"temp":24.3,"humidity":52,"rain":0.0,"pressure":982.7,"uv_index":6.0,"wind_gusts":30.2,"aqi":160,"pm10":44.8,"pm2_5":29.2,"mosquito_risk":0,"arthritis_risk":5,"migraine_risk":3,"frizz_risk":0,"updated_at":"2026-03-02T18:36:02.279547+05:30"},{"city":"Dehradun","state":"Uttarakhand","latitude":30.6284,"longitude":78.0322,"temp":15.6,"humidity":58,"rain":0.0,"pressure":830.0,"uv_index":6.0,"wind_gusts":27.0,"aqi":95,"pm10":20.1,"pm2_5":15.1,"mosquito_risk":0,"arthritis_risk":5,"migraine_risk":3,"frizz_risk":0,"updated_at":"2026-03-02T18:36:02.279554+05:30"},{"city":"Shimla","state":"Himachal Pradesh","latitude":31.1048,"longitude":77.1734,"temp":12.8,"humidity":49,"rain":0.0,"pressure":784.7,"uv_index":6.0,"wind_gusts":56.5,"aqi":98,"pm10":19.8,"pm2_5":14.1,"mosquito_risk":0,"arthritis_risk":5,"migraine_risk":3,"frizz_risk":0,"updated_at":"2026-03-02T18:36:02.279560+05:30"},{"city":"Manali","state":"Himachal Pradesh","latitude":32.2396,"longitude":77.1887,"temp":16.5,"humidity":68,"rain":0.0,"pressure":820.2,"uv_index":7.7,"wind_gusts":36.7,"aqi":107,"pm10":17.1,"pm2_5":12.3,"mosquito_risk":3,"arthritis_risk":5,"migraine_risk":7,"frizz_risk":0,"updated_at":"2026-03-02T18:36:02.279567+05:30"},{"city":"Gurgaon","state":"Haryana","latitude":28.4595,"longitude":77.0266,"temp":23.8,"humidity":53,"rain":0.0,"pressure":984.4,"uv_index":5.85,"wind_gusts":35.3,"aqi":845,"pm10":1359.7,"pm2_5":173.7,"mosquito_risk":0,"arthritis_risk":5,"migraine_risk":3,"frizz_risk":0,"updated_at":"2026-03-02T18:36:02.279573+05:30"},{"city":"Noida","state":"Uttar Pradesh","latitude":28.5355,"longitude":77.391,"temp":26.2,"humidity":42,"rain":0.0,"pressure":987.5,"uv_index":5.75,"wind_gusts":37.1,"aqi":845,"pm10":1359.7,"pm2_5":173.7,"mosquito_risk":4,"arthritis_risk":5,"migraine_risk":3,"frizz_risk":0,"updated_at":"2026-03-02T18:36:02.279579+05:30"},{"city":"Ghaziabad","state":"Uttar Pradesh","latitude":28.6692,"longitude":77.4538,"temp":24.9,"humidity":48,"rain":0.0,"pressure":985.6,"uv_index":5.75,"wind_gusts":36.0,"aqi":181,"pm10":517.8,"pm2_5":84.5,"mosquito_risk":0,"arthritis_risk":5,"migraine_risk":3,"frizz_risk":0,"updated_at":"2026-03-02T18:36:02.279585+05:30"},{"city":"Faridabad","state":"Haryana","latitude":28.4089,"longitude":77.3178,"temp":24.8,"humidity":48,"rain":0.0,"pressure":986.8,"uv_index":5.8,"wind_gusts":33.1,"aqi":845,"pm10":1359.7,"pm2_5":173.7,"mosquito_risk":0,"arthritis_risk":5,"migraine_risk":3,"frizz_risk":0,"updated_at":"2026-03-02T18:36:02.279592+05:30"},{"city":"Meerut","state":"Uttar Pradesh","latitude":28.9845,"longitude":77.7064,"temp":23.2,"humidity":51,"rain":0.0,"pressure":984.0,"uv_index":5.6,"wind_gusts":38.9,"aqi":181,"pm10":517.8,"pm2_5":84.5,"mosquito_risk":0,"arthritis_risk":5,"migraine_risk":3,"frizz_risk":0,"updated_at":"2026-03-02T18:36:02.279599+05:30"},{"city":"Agra","state":"Uttar Pradesh","latitude":27.1767,"longitude":78.0081,"temp":26.4,"humidity":48,"rain":0.0,"pressure":990.6,"uv_index":6.1,"wind_gusts":35.3,"aqi":350,"pm10":413.5,"pm2_5":76.1,"mosquito_risk":4,"arthritis_risk":5,"migraine_risk":7,"frizz_risk":0,"updated_at":"2026-03-02T18:36:02.279605+05:30"},{"city":"Varanasi","state":"Uttar Pradesh","latitude":25.3176,"longitude":82.9739,"temp":24.0,"humidity":51,"rain":0.0,"pressure":1000.3,"uv_index":6.9,"wind_gusts":31.7,"aqi":106,"pm10":51.2,"pm2_5":32.0,"mosquito_risk":0,"arthritis_risk":5,"migraine_risk":4,"frizz_risk":0,"updated_at":"2026-03-02T18:36:02.279617+05:30"},{"city":"Prayagraj","state":"Uttar Pradesh","latitude":25.4358,"longitude":81.8463,"temp":25.2,"humidity":49,"rain":0.0,"pressure":998.9,"uv_index":6.75,"wind_gusts":29.9,"aqi":104,"pm10":56.6,"pm2_5":33.8,"mosquito_risk":4,"arthritis_risk":5,"migraine_risk":7,"frizz_risk":0,"updated_at":"2026-03-02T18:36:02.279624+05:30"},{"city":"Gorakhpur","state":"Uttar Pradesh","latitude":26.7606,"longitude":83.3732,"temp":23.8,"humidity":50,"rain":0.0,"pressure":999.1,"uv_index":6.6,"wind_gusts":25.2,"aqi":130,"pm10":59.0,"pm2_5":46.3,"mosquito_risk":0,"arthritis_risk":5,"migraine_risk":7,"frizz_risk":0,"updated_at":"2026-03-02T18:36:02.279630+05:30"},{"city":"Bareilly","state":"Uttar Pradesh","latitude":28.367,"longitude":79.4304,"temp":23.2,"humidity":52,"rain":0.0,"pressure":989.0,"uv_index":5.9,"wind_gusts":31.3,"aqi":132,"pm10":60.8,"pm2_5":33.2,"mosquito_risk":0,"arthritis_risk":5,"migraine_risk":3,"frizz_risk":0,"updated_at":"2026-03-02T18:36:02.279639+05:30"},{"city":"Aligarh","state":"Uttar Pradesh","latitude":27.8974,"longitude":78.088,"temp":24.8,"humidity":51,"rain":0.0,"pressure":988.3,"uv_index":5.85,"wind_gusts":34.2,"aqi":506,"pm10":916.4,"pm2_5":138.3,"mosquito_risk":0,"arthritis_risk":5,"migraine_risk":3,"frizz_risk":0,"updated_at":"2026-03-02T18:36:02.279646+05:30"},{"city":"Moradabad","state":"Uttar Pradesh","latitude":28.8386,"longitude":78.7733,"temp":23.0,"humidity":48,"rain":0.0,"pressure":985.8,"uv_index":5.75,"wind_gusts":35.6,"aqi":140,"pm10":94.8,"pm2_5":34.2,"mosquito_risk":0,"arthritis_risk":5,"migraine_risk":3,"frizz_risk":0,"updated_at":"2026-03-02T18:36:02.279652+05:30"},{"city":"Saharanpur","state":"Uttar Pradesh","latitude":29.9637,"longitude":77.546,"temp":22.8,"humidity":47,"rain":0.0,"pressure":977.4,"uv_index":5.4,"wind_gusts":52.9,"aqi":114,"pm10":79.9,"pm2_5":33.3,"mosquito_risk":0,"arthritis_risk":5,"migraine_risk":3,"frizz_risk":0,"updated_at":"2026-03-02T18:36:02.279657+05:30"},{"city":"Jhansi","state":"Uttar Pradesh","latitude":25.4484,"longitude":78.5685,"temp":27.4,"humidity":37,"rain":0.0,"pressure":981.0,"uv_index":6.7,"wind_gusts":29.2,"aqi":75,"pm10":40.9,"pm2_5":22.6,"mosquito_risk":4,"arthritis_risk":5,"migraine_risk":7,"frizz_risk":0,"updated_at":"2026-03-02T18:36:05.583573+05:30"},{"city":"Surat","state":"Gujarat","latitude":21.1702,"longitude":72.8311,"temp":28.0,"humidity":58,"rain":0.0,"pressure":1008.7,"uv_index":7.0,"wind_gusts":23.0,"aqi":149,"pm10":80.1,"pm2_5":74.0,"mosquito_risk":4,"arthritis_risk":0,"migraine_risk":4,"frizz_risk":1,"updated_at":"2026-03-02T18:36:05.583602+05:30"},{"city":"Vadodara","state":"Gujarat","latitude":22.3072,"longitude":73.1812,"temp":32.4,"humidity":33,"rain":0.0,"pressure":1006.3,"uv_index":7.1,"wind_gusts":13.0,"aqi":152,"pm10":44.7,"pm2_5":38.4,"mosquito_risk":0,"arthritis_risk":5,"migraine_risk":4,"frizz_risk":0,"updated_at":"2026-03-02T18:36:05.583613+05:30"},{"city":"Rajkot","state":"Gujarat","latitude":22.3039,"longitude":70.8022,"temp":32.4,"humidity":34,"rain":0.0,"pressure":996.2,"uv_index":6.9,"wind_gusts":21.2,"aqi":79,"pm10":30.7,"pm2_5":16.5,"mosquito_risk":0,"arthritis_risk":5,"migraine_risk":7,"frizz_risk":0,"updated_at":"2026-03-02T18:36:05.583624+05:30"},{"city":"Thane","state":"Maharashtra","latitude":19.2183,"longitude":72.9781,"temp":26.7,"humidity":68,"rain":0.0,"pressure":1009.3,"uv_index":7.3,"wind_gusts":35.6,"aqi":123,"pm10":39.3,"pm2_5":25.4,"mosquito_risk":7,"arthritis_risk":0,"migraine_risk":4,"frizz_risk":1,"updated_at":"2026-03-02T18:36:05.583632+05:30"},{"city":"Nagpur","state":"Maharashtra","latitude":21.1458,"longitude":79.0882,"temp":30.4,"humidity":37,"rain":0.0,"pressure":975.2,"uv_index":7.7,"wind_gusts":20.9,"aqi":106,"pm10":27.1,"pm2_5":24.5,"mosquito_risk":0,"arthritis_risk":5,"migraine_risk":7,"frizz_risk":0,"updated_at":"2026-03-02T18:36:05.583642+05:30"},{"city":"Nashik","state":"Maharashtra","latitude":19.9975,"longitude":73.7898,"temp":29.6,"humidity":37,"rain":0.0,"pressure":947.4,"uv_index":7.5,"wind_gusts":28.1,"aqi":128,"pm10":23.3,"pm2_5":20.4,"mosquito_risk":4,"arthritis_risk":5,"migraine_risk":7,"frizz_risk":0,"updated_at":"2026-03-02T18:36:05.583650+05:30"},{"city":"Aurangabad","state":"Maharashtra","latitude":19.8762,"longitude":75.3433,"temp":31.5,"humidity":33,"rain":0.0,"pressure":945.9,"uv_index":8.0,"wind_gusts":21.2,"aqi":137,"pm10":22.9,"pm2_5":22.3,"mosquito_risk":0,"arthritis_risk":5,"migraine_risk":7,"frizz_risk":0,"updated_at":"2026-03-02T18:36:05.583659+05:30"},{"city":"Solapur","state":"Maharashtra","latitude":17.6599,"longitude":75.9064,"temp":31.4,"humidity":43,"rain":0.0,"pressure":958.3,"uv_index":8.25,"wind_gusts":14.0,"aqi":170,"pm10":47.4,"pm2_5":46.7,"mosquito_risk":0,"arthritis_risk":5,"migraine_risk":7,"frizz_risk":1,"updated_at":"2026-03-02T18:36:05.583668+05:30"},{"city":"Kolhapur","state":"Maharashtra","latitude":16.705,"longitude":74.2433,"temp":29.0,"humidity":46,"rain":0.0,"pressure":948.7,"uv_index":8.35,"wind_gusts":37.4,"aqi":146,"pm10":38.4,"pm2_5":37.8,"mosquito_risk":4,"arthritis_risk":5,"migraine_risk":7,"frizz_risk":1,"updated_at":"2026-03-02T18:36:05.583677+05:30"},{"city":"Goa","state":"Goa","latitude":15.2993,"longitude":74.124,"temp":27.3,"humidity":74,"rain":0.0,"pressure":999.1,"uv_index":8.4,"wind_gusts":29.9,"aqi":71,"pm10":30.3,"pm2_5":18.9,"mosquito_risk":7,"arthritis_risk":5,"migraine_risk":7,"frizz_risk":1,"updated_at":"2026-03-02T18:36:05.583685+05:30"},{"city":"Jodhpur","state":"Rajasthan","latitude":26.2389,"longitude":73.0243,"temp":32.3,"humidity":29,"rain":0.0,"pressure":985.7,"uv_index":6.75,"wind_gusts":12.6,"aqi":87,"pm10":71.5,"pm2_5":24.9,"mosquito_risk":0,"arthritis_risk":5,"migraine_risk":7,"frizz_risk":0,"updated_at":"2026-03-02T18:36:05.583694+05:30"},{"city":"Udaipur","state":"Rajasthan","latitude":24.5854,"longitude":73.7125,"temp":28.9,"humidity":35,"rain":0.0,"pressure":949.4,"uv_index":7.4,"wind_gusts":15.5,"aqi":102,"pm10":32.9,"pm2_5":22.8,"mosquito_risk":4,"arthritis_risk":5,"migraine_risk":7,"frizz_risk":0,"updated_at":"2026-03-02T18:36:05.583702+05:30"},{"city":"Kota","state":"Rajasthan","latitude":25.2138,"longitude":75.8648,"temp":30.4,"humidity":41,"rain":0.0,"pressure":981.7,"uv_index":6.8,"wind_gusts":17.6,"aqi":89,"pm10":38.0,"pm2_5":23.8,"mosquito_risk":0,"arthritis_risk":5,"migraine_risk":7,"frizz_risk":0,"updated_at":"2026-03-02T18:36:05.583711+05:30"},{"city":"Bikaner","state":"Rajasthan","latitude":28.0229,"longitude":73.3119,"temp":30.7,"humidity":30,"rain":0.0,"pressure":985.0,"uv_index":6.5,"wind_gusts":20.2,"aqi":70,"pm10":44.9,"pm2_5":22.7,"mosquito_risk":0,"arthritis_risk":5,"migraine_risk":7,"frizz_risk":0,"updated_at":"2026-03-02T18:36:05.583720+05:30"},{"city":"Ajmer","state":"Rajasthan","latitude":26.4499,"longitude":74.6399,"temp":28.6,"humidity":32,"rain":0.0,"pressure":957.6,"uv_index":6.75,"wind_gusts":22.0,"aqi":92,"pm10":46.1,"pm2_5":21.4,"mosquito_risk":4,"arthritis_risk":5,"migraine_risk":7,"frizz_risk":0,"updated_at":"2026-03-02T18:36:05.583729+05:30"},{"city":"Gwalior","state":"Madhya Pradesh","latitude":26.2183,"longitude":78.1828,"temp":26.3,"humidity":53,"rain":0.0,"pressure":986.4,"uv_index":6.4,"wind_gusts":31.0,"aqi":91,"pm10":54.6,"pm2_5":27.5,"mosquito_risk":4,"arthritis_risk":5,"migraine_risk":7,"frizz_risk":0,"updated_at":"2026-03-02T18:36:05.583737+05:30"},{"city":"Indore","state":"Madhya Pradesh","latitude":22.7196,"longitude":75.8577,"temp":26.8,"humidity":44,"rain":0.0,"pressure":950.5,"uv_index":7.4,"wind_gusts":14.4,"aqi":98,"pm10":29.1,"pm2_5":24.4,"mosquito_risk":4,"arthritis_risk":5,"migraine_risk":7,"frizz_risk":0,"updated_at":"2026-03-02T18:36:05.583745+05:30"},{"city":"Bhopal","state":"Madhya Pradesh","latitude":23.2599,"longitude":77.4126,"temp":27.0,"humidity":45,"rain":0.0,"pressure":956.6,"uv_index":7.25,"wind_gusts":20.5,"aqi":99,"pm10":28.6,"pm2_5":20.4,"mosquito_risk":4,"arthritis_risk":5,"migraine_risk":7,"frizz_risk":0,"updated_at":"2026-03-02T18:36:05.583754+05:30"},{"city":"Jabalpur","state":"Madhya Pradesh","latitude":23.1815,"longitude":79.9864,"temp":27.8,"humidity":36,"rain":0.0,"pressure":964.6,"uv_index":7.35,"wind_gusts":20.9,"aqi":82,"pm10":29.8,"pm2_5":19.9,"mosquito_risk":4,"arthritis_risk":5,"migraine_risk":7,"frizz_risk":0,"updated_at":"2026-03-02T18:36:05.583762+05:30"},{"city":"Ujjain","state":"Madhya Pradesh","latitude":23.1765,"longitude":75.7885,"temp":28.2,"humidity":47,"rain":0.0,"pressure":956.6,"uv_index":7.25,"wind_gusts":11.5,"aqi":117,"pm10":34.9,"pm2_5":28.6,"mosquito_risk":4,"arthritis_risk":5,"migraine_risk":7,"frizz_risk":0,"updated_at":"2026-03-02T18:36:05.583771+05:30"},{"city":"Visakhapatnam","state":"Andhra Pradesh","latitude":17.6868,"longitude":83.2185,"temp":27.8,"humidity":57,"rain":0.0,"pressure":1005.3,"uv_index":8.35,"wind_gusts":37.8,"aqi":150,"pm10":43.1,"pm2_5":39.6,"mosquito_risk":4,"arthritis_risk":5,"migraine_risk":4,"frizz_risk":1,"updated_at":"2026-03-02T18:36:05.583779+05:30"},{"city":"Vijayawada","state":"Andhra Pradesh","latitude":16.5062,"longitude":80.648,"temp":30.9,"humidity":46,"rain":0.0,"pressure":1004.1,"uv_index":8.4,"wind_gusts":25.6,"aqi":146,"pm10":54.1,"pm2_5":52.6,"mosquito_risk":0,"arthritis_risk":5,"migraine_risk":4,"frizz_risk":1,"updated_at":"2026-03-02T18:36:05.583787+05:30"},{"city":"Guntur","state":"Andhra Pradesh","latitude":16.3067,"longitude":80.4365,"temp":29.7,"humidity":42,"rain":0.0,"pressure":1005.6,"uv_index":8.4,"wind_gusts":30.2,"aqi":136,"pm10":55.9,"pm2_5":54.6,"mosquito_risk":4,"arthritis_risk":5,"migraine_risk":4,"frizz_risk":0,"updated_at":"2026-03-02T18:36:05.583796+05:30"},{"city":"Nellore","state":"Andhra Pradesh","latitude":14.4426,"longitude":79.9865,"temp":28.3,"humidity":51,"rain":0.0,"pressure":1007.7,"uv_index":8.65,"wind_gusts":29.5,"aqi":129,"pm10":40.9,"pm2_5":38.2,"mosquito_risk":4,"arthritis_risk":5,"migraine_risk":4,"frizz_risk":1,"updated_at":"2026-03-02T18:36:05.583805+05:30"},{"city":"Kurnool","state":"Andhra Pradesh","latitude":15.8281,"longitude":78.0373,"temp":33.5,"humidity":30,"rain":0.0,"pressure":977.7,"uv_index":8.45,"wind_gusts":26.3,"aqi":132,"pm10":44.1,"pm2_5":43.5,"mosquito_risk":0,"arthritis_risk":5,"migraine_risk":7,"frizz_risk":0,"updated_at":"2026-03-02T18:36:05.583814+05:30"},{"city":"Kakinada","state":"Andhra Pradesh","latitude":16.9891,"longitude":82.2475,"temp":29.1,"humidity":44,"rain":0.0,"pressure":1008.9,"uv_index":8.35,"wind_gusts":29.2,"aqi":140,"pm10":39.9,"pm2_5":36.8,"mosquito_risk":4,"arthritis_risk":0,"migraine_risk":4,"frizz_risk":0,"updated_at":"2026-03-02T18:36:05.583823+05:30"},{"city":"Tirupati","state":"Andhra Pradesh","latitude":13.6288,"longitude":79.4192,"temp":30.0,"humidity":39,"rain":0.0,"pressure":992.8,"uv_index":8.75,"wind_gusts":32.4,"aqi":142,"pm10":52.6,"pm2_5":51.2,"mosquito_risk":4,"arthritis_risk":5,"migraine_risk":7,"frizz_risk":0,"updated_at":"2026-03-02T18:36:05.583831+05:30"},{"city":"Warangal","state":"Telangana","latitude":17.9689,"longitude":79.5941,"temp":31.3,"humidity":45,"rain":0.0,"pressure":980.4,"uv_index":8.15,"wind_gusts":17.3,"aqi":141,"pm10":46.3,"pm2_5":45.6,"mosquito_risk":0,"arthritis_risk":5,"migraine_risk":7,"frizz_risk":1,"updated_at":"2026-03-02T18:36:05.583845+05:30"},{"city":"Nizamabad","state":"Telangana","latitude":18.6725,"longitude":78.0941,"temp":30.8,"humidity":35,"rain":0.0,"pressure":966.7,"uv_index":8.05,"wind_gusts":25.6,"aqi":129,"pm10":29.9,"pm2_5":29.1,"mosquito_risk":0,"arthritis_risk":5,"migraine_risk":7,"frizz_risk":0,"updated_at":"2026-03-02T18:36:05.583853+05:30"},{"city":"Mysore","state":"Karnataka","latitude":12.2958,"longitude":76.6396,"temp":30.4,"humidity":30,"rain":0.0,"pressure":928.2,"uv_index":9.1,"wind_gusts":25.6,"aqi":160,"pm10":48.5,"pm2_5":47.5,"mosquito_risk":0,"arthritis_risk":5,"migraine_risk":7,"frizz_risk":0,"updated_at":"2026-03-02T18:36:05.583861+05:30"},{"city":"Mangalore","state":"Karnataka","latitude":12.9141,"longitude":74.856,"temp":28.5,"humidity":74,"rain":0.0,"pressure":1007.2,"uv_index":8.65,"wind_gusts":28.8,"aqi":70,"pm10":17.5,"pm2_5":13.1,"mosquito_risk":7,"arthritis_risk":5,"migraine_risk":4,"frizz_risk":1,"updated_at":"2026-03-02T18:36:05.583870+05:30"},{"city":"Hubli-Dharwad","state":"Karnataka","latitude":15.3647,"longitude":75.124,"temp":31.0,"humidity":34,"rain":0.0,"pressure":941.2,"uv_index":8.6,"wind_gusts":23.4,"aqi":152,"pm10":37.7,"pm2_5":37.0,"mosquito_risk":0,"arthritis_risk":5,"migraine_risk":7,"frizz_risk":0,"updated_at":"2026-03-02T18:36:05.583878+05:30"},{"city":"Belgaum","state":"Karnataka","latitude":15.8497,"longitude":74.4977,"temp":25.5,"humidity":66,"rain":0.0,"pressure":926.6,"uv_index":8.65,"wind_gusts":38.9,"aqi":161,"pm10":32.8,"pm2_5":31.3,"mosquito_risk":7,"arthritis_risk":5,"migraine_risk":7,"frizz_risk":1,"updated_at":"2026-03-02T18:36:08.893898+05:30"},{"city":"Coimbatore","state":"Tamil Nadu","latitude":11.0168,"longitude":76.9558,"temp":31.5,"humidity":31,"rain":0.0,"pressure":961.1,"uv_index":9.1,"wind_gusts":29.5,"aqi":148,"pm10":44.7,"pm2_5":43.7,"mosquito_risk":0,"arthritis_risk":5,"migraine_risk":7,"frizz_risk":0,"updated_at":"2026-03-02T18:36:08.893927+05:30"},{"city":"Madurai","state":"Tamil Nadu","latitude":9.9252,"longitude":78.1198,"temp":32.6,"humidity":29,"rain":0.0,"pressure":992.2,"uv_index":9.05,"wind_gusts":32.8,"aqi":133,"pm10":40.3,"pm2_5":39.2,"mosquito_risk":0,"arthritis_risk":5,"migraine_risk":7,"frizz_risk":0,"updated_at":"2026-03-02T18:36:08.893939+05:30"},{"city":"Trichy","state":"Tamil Nadu","latitude":10.7905,"longitude":78.7047,"temp":31.1,"humidity":42,"rain":0.0,"pressure":999.8,"uv_index":8.95,"wind_gusts":32.0,"aqi":145,"pm10":47.3,"pm2_5":45.9,"mosquito_risk":0,"arthritis_risk":5,"migraine_risk":7,"frizz_risk":1,"updated_at":"2026-03-02T18:36:08.893948+05:30"},{"city":"Salem","state":"Tamil Nadu","latitude":11.6643,"longitude":78.146,"temp":32.6,"humidity":31,"rain":0.0,"pressure":976.7,"uv_index":9.0,"wind_gusts":32.4,"aqi":146,"pm10":46.9,"pm2_5":46.0,"mosquito_risk":0,"arthritis_risk":5,"migraine_risk":7,"frizz_risk":0,"updated_at":"2026-03-02T18:36:08.893956+05:30"},{"city":"Tirunelveli","state":"Tamil Nadu","latitude":8.7139,"longitude":77.7567,"temp":29.8,"humidity":54,"rain":0.0,"pressure":1002.7,"uv_index":9.05,"wind_gusts":40.3,"aqi":135,"pm10":36.1,"pm2_5":35.0,"mosquito_risk":4,"arthritis_risk":5,"migraine_risk":4,"frizz_risk":1,"updated_at":"2026-03-02T18:36:08.893965+05:30"},{"city":"Vellore","state":"Tamil Nadu","latitude":12.9165,"longitude":79.1325,"temp":30.0,"humidity":41,"rain":0.0,"pressure":985.4,"uv_index":8.85,"wind_gusts":37.1,"aqi":148,"pm10":44.7,"pm2_5":43.4,"mosquito_risk":4,"arthritis_risk":5,"migraine_risk":7,"frizz_risk":0,"updated_at":"2026-03-02T18:36:08.893973+05:30"},{"city":"Erode","state":"Tamil Nadu","latitude":11.341,"longitude":77.7172,"temp":34.6,"humidity":28,"rain":0.0,"pressure":987.8,"uv_index":9.0,"wind_gusts":23.4,"aqi":138,"pm10":46.4,"pm2_5":45.2,"mosquito_risk":0,"arthritis_risk":5,"migraine_risk":7,"frizz_risk":0,"updated_at":"2026-03-02T18:36:08.893981+05:30"},{"city":"Kochi","state":"Kerala","latitude":9.9312,"longitude":76.2673,"temp":28.2,"humidity":79,"rain":0.0,"pressure":1007.9,"uv_index":8.9,"wind_gusts":35.6,"aqi":141,"pm10":28.9,"pm2_5":27.4,"mosquito_risk":7,"arthritis_risk":5,"migraine_risk":4,"frizz_risk":1,"updated_at":"2026-03-02T18:36:08.893989+05:30"},{"city":"Thiruvananthapuram","state":"Kerala","latitude":8.5241,"longitude":76.9366,"temp":28.5,"humidity":74,"rain":0.0,"pressure":1007.6,"uv_index":8.85,"wind_gusts":27.7,"aqi":128,"pm10":32.1,"pm2_5":29.4,"mosquito_risk":7,"arthritis_risk":5,"migraine_risk":4,"frizz_risk":1,"updated_at":"2026-03-02T18:36:08.893997+05:30"},{"city":"Kozhikode","state":"Kerala","latitude":11.2588,"longitude":75.7804,"temp":28.9,"humidity":72,"rain":0.0,"pressure":1007.6,"uv_index":8.75,"wind_gusts":31.7,"aqi":65,"pm10":20.0,"pm2_5":15.2,"mosquito_risk":7,"arthritis_risk":5,"migraine_risk":4,"frizz_risk":1,"updated_at":"2026-03-02T18:36:08.894005+05:30"},{"city":"Thrissur","state":"Kerala","latitude":10.5276,"longitude":76.2144,"temp":28.5,"humidity":72,"rain":0.0,"pressure":1006.4,"uv_index":8.85,"wind_gusts":38.5,"aqi":112,"pm10":24.9,"pm2_5":23.5,"mosquito_risk":7,"arthritis_risk":5,"migraine_risk":4,"frizz_risk":1,"updated_at":"2026-03-02T18:36:08.894014+05:30"},{"city":"Kannur","state":"Kerala","latitude":11.8745,"longitude":75.3704,"temp":28.6,"humidity":74,"rain":0.0,"pressure":1007.3,"uv_index":8.75,"wind_gusts":34.9,"aqi":71,"pm10":20.7,"pm2_5":16.2,"mosquito_risk":7,"arthritis_risk":5,"migraine_risk":4,"frizz_risk":1,"updated_at":"2026-03-02T18:36:08.894021+05:30"},{"city":"Patna","state":"Bihar","latitude":25.5941,"longitude":85.1376,"temp":25.6,"humidity":44,"rain":0.0,"pressure":1002.8,"uv_index":7.05,"wind_gusts":28.8,"aqi":129,"pm10":66.6,"pm2_5":40.0,"mosquito_risk":4,"arthritis_risk":5,"migraine_risk":4,"frizz_risk":0,"updated_at":"2026-03-02T18:36:08.894046+05:30"},{"city":"Gaya","state":"Bihar","latitude":24.7914,"longitude":85.0002,"temp":22.6,"humidity":49,"rain":0.0,"pressure":996.4,"uv_index":7.15,"wind_gusts":23.8,"aqi":123,"pm10":51.2,"pm2_5":29.0,"mosquito_risk":0,"arthritis_risk":5,"migraine_risk":7,"frizz_risk":0,"updated_at":"2026-03-02T18:36:08.894055+05:30"},{"city":"Muzaffarpur","state":"Bihar","latitude":26.1209,"longitude":85.3647,"temp":24.2,"humidity":42,"rain":0.0,"pressure":1002.5,"uv_index":7.0,"wind_gusts":27.0,"aqi":127,"pm10":58.9,"pm2_5":39.2,"mosquito_risk":0,"arthritis_risk":5,"migraine_risk":4,"frizz_risk":0,"updated_at":"2026-03-02T18:36:08.894063+05:30"},{"city":"Bhagalpur","state":"Bihar","latitude":25.2425,"longitude":87.0117,"temp":22.8,"humidity":61,"rain":0.0,"pressure":1003.4,"uv_index":7.1,"wind_gusts":19.4,"aqi":149,"pm10":89.2,"pm2_5":44.9,"mosquito_risk":3,"arthritis_risk":5,"migraine_risk":4,"frizz_risk":0,"updated_at":"2026-03-02T18:36:08.894070+05:30"},{"city":"Ranchi","state":"Jharkhand","latitude":23.3441,"longitude":85.3096,"temp":24.1,"humidity":24,"rain":0.0,"pressure":940.0,"uv_index":7.8,"wind_gusts":40.3,"aqi":99,"pm10":34.3,"pm2_5":18.5,"mosquito_risk":0,"arthritis_risk":5,"migraine_risk":7,"frizz_risk":0,"updated_at":"2026-03-02T18:36:08.894079+05:30"},{"city":"Jamshedpur","state":"Jharkhand","latitude":22.8046,"longitude":86.2029,"temp":29.4,"humidity":22,"rain":0.0,"pressure":992.3,"uv_index":7.75,"wind_gusts":18.7,"aqi":140,"pm10":41.8,"pm2_5":22.4,"mosquito_risk":4,"arthritis_risk":5,"migraine_risk":7,"frizz_risk":0,"updated_at":"2026-03-02T18:36:08.894087+05:30"},{"city":"Dhanbad","state":"Jharkhand","latitude":23.7957,"longitude":86.4304,"temp":28.8,"humidity":20,"rain":0.0,"pressure":981.6,"uv_index":7.6,"wind_gusts":33.8,"aqi":127,"pm10":56.5,"pm2_5":32.4,"mosquito_risk":4,"arthritis_risk":5,"migraine_risk":7,"frizz_risk":0,"updated_at":"2026-03-02T18:36:08.894095+05:30"},{"city":"Bokaro","state":"Jharkhand","latitude":23.6693,"longitude":86.1511,"temp":26.5,"humidity":24,"rain":0.0,"pressure":985.9,"uv_index":7.6,"wind_gusts":37.1,"aqi":131,"pm10":56.1,"pm2_5":31.3,"mosquito_risk":4,"arthritis_risk":5,"migraine_risk":7,"frizz_risk":0,"updated_at":"2026-03-02T18:36:08.894103+05:30"},{"city":"Bhubaneswar","state":"Odisha","latitude":20.2961,"longitude":85.8245,"temp":28.8,"humidity":66,"rain":0.0,"pressure":1003.8,"uv_index":8.05,"wind_gusts":28.4,"aqi":180,"pm10":62.4,"pm2_5":56.6,"mosquito_risk":7,"arthritis_risk":5,"migraine_risk":4,"frizz_risk":1,"updated_at":"2026-03-02T18:36:08.894111+05:30"},{"city":"Cuttack","state":"Odisha","latitude":20.4625,"longitude":85.8828,"temp":32.6,"humidity":36,"rain":0.0,"pressure":1004.9,"uv_index":8.1,"wind_gusts":21.2,"aqi":180,"pm10":62.4,"pm2_5":56.6,"mosquito_risk":0,"arthritis_risk":5,"migraine_risk":4,"frizz_risk":0,"updated_at":"2026-03-02T18:36:08.894119+05:30"},{"city":"Rourkela","state":"Odisha","latitude":22.2604,"longitude":84.8536,"temp":29.4,"humidity":28,"rain":0.0,"pressure":986.6,"uv_index":7.65,"wind_gusts":24.8,"aqi":118,"pm10":42.5,"pm2_5":27.8,"mosquito_risk":4,"arthritis_risk":5,"migraine_risk":7,"frizz_risk":0,"updated_at":"2026-03-02T18:36:08.894127+05:30"},{"city":"Raipur","state":"Chhattisgarh","latitude":21.2514,"longitude":81.6296,"temp":30.5,"humidity":35,"rain":0.0,"pressure":976.7,"uv_index":7.75,"wind_gusts":24.1,"aqi":95,"pm10":51.5,"pm2_5":40.6,"mosquito_risk":0,"arthritis_risk":5,"migraine_risk":7,"frizz_risk":0,"updated_at":"2026-03-02T18:36:08.894134+05:30"},{"city":"Bhilai","state":"Chhattisgarh","latitude":21.1938,"longitude":81.3509,"temp":30.4,"humidity":38,"rain":0.0,"pressure":977.1,"uv_index":7.8,"wind_gusts":22.7,"aqi":90,"pm10":52.3,"pm2_5":41.4,"mosquito_risk":0,"arthritis_risk":5,"migraine_risk":7,"frizz_risk":0,"updated_at":"2026-03-02T18:36:08.894142+05:30"},{"city":"Guwahati","state":"Assam","latitude":26.1158,"longitude":91.7086,"temp":23.3,"humidity":74,"rain":0.0,"pressure":1004.0,"uv_index":7.0,"wind_gusts":28.4,"aqi":153,"pm10":76.4,"pm2_5":60.5,"mosquito_risk":3,"arthritis_risk":5,"migraine_risk":4,"frizz_risk":1,"updated_at":"2026-03-02T18:36:08.894149+05:30"},{"city":"Agartala","state":"Tripura","latitude":23.8315,"longitude":91.2868,"temp":24.7,"humidity":74,"rain":0.0,"pressure":1007.9,"uv_index":7.3,"wind_gusts":18.0,"aqi":135,"pm10":108.7,"pm2_5":91.3,"mosquito_risk":3,"arthritis_risk":5,"migraine_risk":4,"frizz_risk":1,"updated_at":"2026-03-02T18:36:08.894157+05:30"},{"city":"Shillong","state":"Meghalaya","latitude":25.5788,"longitude":91.8933,"temp":12.1,"humidity":72,"rain":0.0,"pressure":855.7,"uv_index":7.35,"wind_gusts":66.2,"aqi":115,"pm10":52.7,"pm2_5":41.9,"mosquito_risk":3,"arthritis_risk":5,"migraine_risk":7,"frizz_risk":0,"updated_at":"2026-03-02T18:36:08.894165+05:30"},{"city":"Imphal","state":"Manipur","latitude":24.817,"longitude":93.9368,"temp":15.8,"humidity":69,"rain":0.0,"pressure":923.9,"uv_index":7.6,"wind_gusts":72.4,"aqi":150,"pm10":78.2,"pm2_5":62.4,"mosquito_risk":3,"arthritis_risk":5,"migraine_risk":7,"frizz_risk":0,"updated_at":"2026-03-02T18:36:08.894173+05:30"},{"city":"Aizawl","state":"Mizoram","latitude":23.7271,"longitude":92.7176,"temp":18.1,"humidity":76,"rain":0.0,"pressure":893.6,"uv_index":7.6,"wind_gusts":42.8,"aqi":139,"pm10":75.0,"pm2_5":70.3,"mosquito_risk":3,"arthritis_risk":5,"migraine_risk":7,"frizz_risk":0,"updated_at":"2026-03-02T18:36:08.894181+05:30"},{"city":"Kohima","state":"Nagaland","latitude":25.6701,"longitude":94.1077,"temp":12.3,"humidity":83,"rain":0.0,"pressure":854.6,"uv_index":7.45,"wind_gusts":82.8,"aqi":146,"pm10":76.4,"pm2_5":61.9,"mosquito_risk":3,"arthritis_risk":10,"migraine_risk":7,"frizz_risk":0,"updated_at":"2026-03-02T18:36:08.894189+05:30"},{"city":"Gangtok","state":"Sikkim","latitude":27.3314,"longitude":88.6138,"temp":12.9,"humidity":84,"rain":0.0,"pressure":836.7,"uv_index":5.8,"wind_gusts":19.4,"aqi":130,"pm10":73.3,"pm2_5":52.4,"mosquito_risk":3,"arthritis_risk":10,"migraine_risk":3,"frizz_risk":0,"updated_at":"2026-03-02T18:36:08.894196+05:30"},{"city":"Siliguri","state":"West Bengal","latitude":26.7271,"longitude":88.3953,"temp":20.2,"humidity":72,"rain":0.0,"pressure":996.0,"uv_index":7.0,"wind_gusts":20.5,"aqi":170,"pm10":97.8,"pm2_5":71.0,"mosquito_risk":3,"arthritis_risk":5,"migraine_risk":7,"frizz_risk":0,"updated_at":"2026-03-02T18:36:12.205134+05:30"},{"city":"Durgapur","state":"West Bengal","latitude":23.5204,"longitude":87.3119,"temp":29.3,"humidity":19,"rain":0.0,"pressure":996.5,"uv_index":7.6,"wind_gusts":26.3,"aqi":127,"pm10":53.6,"pm2_5":27.9,"mosquito_risk":4,"arthritis_risk":5,"migraine_risk":7,"frizz_risk":0,"updated_at":"2026-03-02T18:36:12.205167+05:30"},{"city":"Asansol","state":"West Bengal","latitude":23.6739,"longitude":86.9524,"temp":29.3,"humidity":20,"rain":0.0,"pressure":995.0,"uv_index":7.6,"wind_gusts":28.4,"aqi":106,"pm10":50.8,"pm2_5":25.7,"mosquito_risk":4,"arthritis_risk":5,"migraine_risk":7,"frizz_risk":0,"updated_at":"2026-03-02T18:36:12.205179+05:30"},{"city":"Pondicherry","state":"Puducherry","latitude":11.9139,"longitude":79.8145,"temp":26.9,"humidity":63,"rain":0.0,"pressure":1009.7,"uv_index":8.8,"wind_gusts":29.5,"aqi":124,"pm10":38.8,"pm2_5":34.5,"mosquito_risk":7,"arthritis_risk":0,"migraine_risk":4,"frizz_risk":1,"updated_at":"2026-03-02T18:36:12.205189+05:30"},{"city":"Port Blair","state":"Andaman and Nicobar Islands","latitude":11.6234,"longitude":92.7265,"temp":27.6,"humidity":74,"rain":0.0,"pressure":1007.8,"uv_index":8.75,"wind_gusts":16.2,"aqi":79,"pm10":33.5,"pm2_5":26.4,"mosquito_risk":7,"arthritis_risk":5,"migraine_risk":4,"frizz_risk":1,"updated_at":"2026-03-02T18:36:12.205199+05:30"},{"city":"Haridwar","state":"Uttarakhand","latitude":29.9457,"longitude":78.1642,"temp":24.2,"humidity":42,"rain":0.0,"pressure":976.0,"uv_index":5.55,"wind_gusts":41.8,"aqi":120,"pm10":31.5,"pm2_5":24.8,"mosquito_risk":0,"arthritis_risk":5,"migraine_risk":3,"frizz_risk":0,"updated_at":"2026-03-02T18:36:12.205208+05:30"},{"city":"Rishikesh","state":"Uttarakhand","latitude":30.0869,"longitude":78.2676,"temp":22.6,"humidity":53,"rain":0.0,"pressure":968.7,"uv_index":5.6,"wind_gusts":31.3,"aqi":120,"pm10":22.0,"pm2_5":19.1,"mosquito_risk":0,"arthritis_risk":5,"migraine_risk":3,"frizz_risk":0,"updated_at":"2026-03-02T18:36:12.205217+05:30"},{"city":"Nainital","state":"Uttarakhand","latitude":29.3919,"longitude":79.4542,"temp":16.1,"humidity":61,"rain":0.0,"pressure":805.9,"uv_index":6.4,"wind_gusts":45.7,"aqi":119,"pm10":26.4,"pm2_5":20.4,"mosquito_risk":3,"arthritis_risk":5,"migraine_risk":7,"frizz_risk":0,"updated_at":"2026-03-02T18:36:12.205227+05:30"},{"city":"Mussoorie","state":"Uttarakhand","latitude":30.4599,"longitude":78.0664,"temp":15.1,"humidity":58,"rain":0.0,"pressure":802.3,"uv_index":5.9,"wind_gusts":33.8,"aqi":118,"pm10":23.3,"pm2_5":20.8,"mosquito_risk":0,"arthritis_risk":5,"migraine_risk":3,"frizz_risk":0,"updated_at":"2026-03-02T18:36:12.205236+05:30"},{"city":"Dharamshala","state":"Himachal Pradesh","latitude":32.219,"longitude":76.3234,"temp":18.8,"humidity":59,"rain":0.0,"pressure":870.5,"uv_index":6.1,"wind_gusts":26.3,"aqi":108,"pm10":27.4,"pm2_5":20.3,"mosquito_risk":0,"arthritis_risk":5,"migraine_risk":7,"frizz_risk":0,"updated_at":"2026-03-02T18:36:12.205245+05:30"},{"city":"Dalhousie","state":"Himachal Pradesh","latitude":32.5387,"longitude":75.971,"temp":17.9,"humidity":36,"rain":0.0,"pressure":805.4,"uv_index":6.35,"wind_gusts":22.3,"aqi":116,"pm10":38.1,"pm2_5":30.5,"mosquito_risk":0,"arthritis_risk":5,"migraine_risk":7,"frizz_risk":0,"updated_at":"2026-03-02T18:36:12.205255+05:30"},{"city":"Patiala","state":"Punjab","latitude":30.3398,"longitude":76.3869,"temp":23.0,"humidity":51,"rain":0.0,"pressure":980.9,"uv_index":5.55,"wind_gusts":37.4,"aqi":158,"pm10":365.1,"pm2_5":68.5,"mosquito_risk":0,"arthritis_risk":5,"migraine_risk":3,"frizz_risk":0,"updated_at":"2026-03-02T18:36:12.205263+05:30"},{"city":"Bhatinda","state":"Punjab","latitude":30.211,"longitude":74.9455,"temp":24.2,"humidity":54,"rain":0.0,"pressure":987.1,"uv_index":6.2,"wind_gusts":24.8,"aqi":158,"pm10":49.9,"pm2_5":40.0,"mosquito_risk":0,"arthritis_risk":5,"migraine_risk":7,"frizz_risk":0,"updated_at":"2026-03-02T18:36:12.205272+05:30"},{"city":"Rohtak","state":"Haryana","latitude":28.8955,"longitude":76.6066,"temp":24.1,"humidity":50,"rain":0.0,"pressure":984.9,"uv_index":5.75,"wind_gusts":34.9,"aqi":295,"pm10":694.8,"pm2_5":107.6,"mosquito_risk":0,"arthritis_risk":5,"migraine_risk":3,"frizz_risk":0,"updated_at":"2026-03-02T18:36:12.205281+05:30"},{"city":"Panipat","state":"Haryana","latitude":29.3909,"longitude":76.9635,"temp":23.1,"humidity":51,"rain":0.0,"pressure":983.1,"uv_index":5.55,"wind_gusts":35.3,"aqi":701,"pm10":1259.1,"pm2_5":158.3,"mosquito_risk":0,"arthritis_risk":5,"migraine_risk":3,"frizz_risk":0,"updated_at":"2026-03-02T18:36:12.205289+05:30"},{"city":"Mathura","state":"Uttar Pradesh","latitude":27.4924,"longitude":77.6737,"temp":26.6,"humidity":47,"rain":0.0,"pressure":989.7,"uv_index":6.0,"wind_gusts":29.2,"aqi":412,"pm10":637.0,"pm2_5":99.9,"mosquito_risk":4,"arthritis_risk":5,"migraine_risk":3,"frizz_risk":0,"updated_at":"2026-03-02T18:36:12.205298+05:30"},{"city":"Vrindavan","state":"Uttar Pradesh","latitude":27.5823,"longitude":77.7027,"temp":25.7,"humidity":51,"rain":0.0,"pressure":990.1,"uv_index":5.95,"wind_gusts":31.3,"aqi":412,"pm10":637.0,"pm2_5":99.9,"mosquito_risk":4,"arthritis_risk":5,"migraine_risk":3,"frizz_risk":0,"updated_at":"2026-03-02T18:36:12.205307+05:30"},{"city":"Ayodhya","state":"Uttar Pradesh","latitude":26.7922,"longitude":82.1998,"temp":24.4,"humidity":39,"rain":0.0,"pressure":997.5,"uv_index":6.4,"wind_gusts":34.6,"aqi":128,"pm10":60.3,"pm2_5":39.0,"mosquito_risk":0,"arthritis_risk":5,"migraine_risk":7,"frizz_risk":0,"updated_at":"2026-03-02T18:36:12.205316+05:30"},{"city":"Ratlam","state":"Madhya Pradesh","latitude":23.3315,"longitude":75.0367,"temp":29.5,"humidity":45,"rain":0.0,"pressure":957.3,"uv_index":7.25,"wind_gusts":7.2,"aqi":105,"pm10":29.1,"pm2_5":24.4,"mosquito_risk":4,"arthritis_risk":5,"migraine_risk":7,"frizz_risk":1,"updated_at":"2026-03-02T18:36:12.205324+05:30"},{"city":"Sagar","state":"Madhya Pradesh","latitude":23.8388,"longitude":78.7378,"temp":27.6,"humidity":39,"rain":0.0,"pressure":953.3,"uv_index":7.2,"wind_gusts":25.2,"aqi":89,"pm10":24.4,"pm2_5":15.7,"mosquito_risk":4,"arthritis_risk":5,"migraine_risk":7,"frizz_risk":0,"updated_at":"2026-03-02T18:36:12.205333+05:30"},{"city":"Satna","state":"Madhya Pradesh","latitude":24.6005,"longitude":80.8322,"temp":26.5,"humidity":29,"rain":0.0,"pressure":974.5,"uv_index":7.15,"wind_gusts":38.2,"aqi":92,"pm10":32.2,"pm2_5":19.0,"mosquito_risk":4,"arthritis_risk":5,"migraine_risk":7,"frizz_risk":0,"updated_at":"2026-03-02T18:36:12.205341+05:30"},{"city":"Akola","state":"Maharashtra","latitude":20.7002,"longitude":77.0082,"temp":32.1,"humidity":31,"rain":0.0,"pressure":977.1,"uv_index":7.75,"wind_gusts":25.9,"aqi":121,"pm10":22.9,"pm2_5":21.7,"mosquito_risk":0,"arthritis_risk":5,"migraine_risk":7,"frizz_risk":0,"updated_at":"2026-03-02T18:36:12.205351+05:30"},{"city":"Amravati","state":"Maharashtra","latitude":20.9374,"longitude":77.7796,"temp":30.8,"humidity":29,"rain":0.0,"pressure":969.1,"uv_index":7.7,"wind_gusts":24.5,"aqi":117,"pm10":23.5,"pm2_5":21.9,"mosquito_risk":0,"arthritis_risk":5,"migraine_risk":7,"frizz_risk":0,"updated_at":"2026-03-02T18:36:12.205360+05:30"},{"city":"Latur","state":"Maharashtra","latitude":18.4088,"longitude":76.5604,"temp":30.1,"humidity":38,"rain":0.0,"pressure":941.5,"uv_index":8.15,"wind_gusts":26.3,"aqi":155,"pm10":32.0,"pm2_5":31.7,"mosquito_risk":0,"arthritis_risk":5,"migraine_risk":7,"frizz_risk":0,"updated_at":"2026-03-02T18:36:12.205369+05:30"},{"city":"Nanded","state":"Maharashtra","latitude":19.1383,"longitude":77.3091,"temp":32.0,"humidity":38,"rain":0.0,"pressure":970.5,"uv_index":7.95,"wind_gusts":17.3,"aqi":128,"pm10":27.1,"pm2_5":26.2,"mosquito_risk":0,"arthritis_risk":5,"migraine_risk":7,"frizz_risk":0,"updated_at":"2026-03-02T18:36:12.205378+05:30"},{"city":"Gulbarga","state":"Karnataka","latitude":17.3297,"longitude":76.8343,"temp":32.4,"humidity":34,"rain":0.0,"pressure":959.9,"uv_index":8.25,"wind_gusts":19.4,"aqi":170,"pm10":51.1,"pm2_5":50.4,"mosquito_risk":0,"arthritis_risk":5,"migraine_risk":7,"frizz_risk":0,"updated_at":"2026-03-02T18:36:12.205386+05:30"},{"city":"Bidar","state":"Karnataka","latitude":17.9104,"longitude":77.5199,"temp":30.4,"humidity":38,"rain":0.0,"pressure":937.0,"uv_index":8.2,"wind_gusts":16.2,"aqi":152,"pm10":30.6,"pm2_5":30.3,"mosquito_risk":0,"arthritis_risk":5,"migraine_risk":7,"frizz_risk":0,"updated_at":"2026-03-02T18:36:12.205395+05:30"},{"city":"Hospet","state":"Karnataka","latitude":15.2689,"longitude":76.3909,"temp":33.5,"humidity":28,"rain":0.0,"pressure":956.3,"uv_index":8.6,"wind_gusts":21.2,"aqi":170,"pm10":48.2,"pm2_5":47.7,"mosquito_risk":0,"arthritis_risk":5,"migraine_risk":7,"frizz_risk":0,"updated_at":"2026-03-02T18:36:12.205403+05:30"},{"city":"Tirupur","state":"Tamil Nadu","latitude":11.1085,"longitude":77.3411,"temp":33.6,"humidity":27,"rain":0.0,"pressure":974.4,"uv_index":9.1,"wind_gusts":33.5,"aqi":153,"pm10":50.5,"pm2_5":49.2,"mosquito_risk":0,"arthritis_risk":5,"migraine_risk":7,"frizz_risk":0,"updated_at":"2026-03-02T18:36:12.205411+05:30"},{"city":"Alappuzha","state":"Kerala","latitude":9.4981,"longitude":76.3388,"temp":28.1,"humidity":80,"rain":0.0,"pressure":1008.0,"uv_index":8.9,"wind_gusts":32.8,"aqi":157,"pm10":24.5,"pm2_5":22.5,"mosquito_risk":7,"arthritis_risk":0,"migraine_risk":4,"frizz_risk":1,"updated_at":"2026-03-02T18:36:12.205420+05:30"},{"city":"Munnar","state":"Kerala","latitude":10.0889,"longitude":77.0595,"temp":24.9,"humidity":62,"rain":0.0,"pressure":857.7,"uv_index":9.4,"wind_gusts":22.0,"aqi":127,"pm10":40.3,"pm2_5":39.3,"mosquito_risk":3,"arthritis_risk":5,"migraine_risk":7,"frizz_risk":1,"updated_at":"2026-03-02T18:36:12.205429+05:30"},{"city":"Silchar","state":"Assam","latitude":24.8333,"longitude":92.7789,"temp":25.2,"humidity":64,"rain":0.0,"pressure":1006.5,"uv_index":7.35,"wind_gusts":18.7,"aqi":153,"pm10":102.4,"pm2_5":81.0,"mosquito_risk":7,"arthritis_risk":5,"migraine_risk":4,"frizz_risk":1,"updated_at":"2026-03-02T18:36:12.205438+05:30"},{"city":"Dibrugarh","state":"Assam","latitude":27.4728,"longitude":94.912,"temp":22.2,"humidity":76,"rain":0.0,"pressure":999.0,"uv_index":7.05,"wind_gusts":12.6,"aqi":151,"pm10":108.3,"pm2_5":85.2,"mosquito_risk":3,"arthritis_risk":5,"migraine_risk":7,"frizz_risk":1,"updated_at":"2026-03-02T18:36:12.205446+05:30"}]