[{"city":"Delhi","state":"Delhi","latitude":28.6139,"longitude":77.209,"temp":18.2,"humidity":82,"rain":0.0,"pressure":988.0,"uv_index":6.45,"wind_gusts":30.6,"aqi":158,"pm10":160.7,"pm2_5":61.5,"mosquito_risk":3,"arthritis_risk":10,"migraine_risk":7,"frizz_risk":0,"updated_at":"2026-03-22T02:59:07.247389+05:30"},{"city":"Mumbai","state":"Maharashtra","latitude":19.076,"longitude":72.8777,"temp":28.1,"humidity":53,"rain":0.0,"pressure":1009.3,"uv_index":7.9,"wind_gusts":27.0,"aqi":77,"pm10":29.2,"pm2_5":26.1,"mosquito_risk":4,"arthritis_risk":0,"migraine_risk":4,"frizz_risk":1,"updated_at":"2026-03-22T02:59:07.247431+05:30"},{"city":"Bangalore","state":"Karnataka","latitude":12.9716,"longitude":77.5946,"temp":22.1,"humidity":85,"rain":0.0,"pressure":911.6,"uv_index":9.45,"wind_gusts":30.6,"aqi":90,"pm10":36.0,"pm2_5":33.8,"mosquito_risk":3,"arthritis_risk":5,"migraine_risk":7,"frizz_risk":1,"updated_at":"2026-03-22T02:59:07.247447+05:30"},{"city":"Hyderabad","state":"Telangana","latitude":17.385,"longitude":78.4867,"temp":23.5,"humidity":85,"rain":0.0,"pressure":953.3,"uv_index":8.9,"wind_gusts":24.1,"aqi":86,"pm10":29.0,"pm2_5":21.8,"mosquito_risk":3,"arthritis_risk":5,"migraine_risk":7,"frizz_risk":1,"updated_at":"2026-03-22T02:59:07.247457+05:30"},{"city":"Chennai","state":"Tamil Nadu","latitude":13.0827,"longitude":80.2707,"temp":26.8,"humidity":82,"rain":0.0,"pressure":1008.2,"uv_index":9.2,"wind_gusts":32.8,"aqi":39,"pm10":14.8,"pm2_5":10.0,"mosquito_risk":7,"arthritis_risk":0,"migraine_risk":4,"frizz_risk":1,"updated_at":"2026-03-22T02:59:07.247465+05:30"},{"city":"Kolkata","state":"West Bengal","latitude":22.5726,"longitude":88.3639,"temp":20.4,"humidity":90,"rain":0.0,"pressure":1009.4,"uv_index":8.25,"wind_gusts":20.9,"aqi":73,"pm10":50.1,"pm2_5":48.0,"mosquito_risk":3,"arthritis_risk":0,"migraine_risk":4,"frizz_risk":1,"updated_at":"2026-03-22T02:59:07.247475+05:30"},{"city":"Pune","state":"Maharashtra","latitude":18.5204,"longitude":73.8567,"temp":21.9,"humidity":74,"rain":0.0,"pressure":948.6,"uv_index":8.45,"wind_gusts":28.4,"aqi":86,"pm10":46.8,"pm2_5":41.3,"mosquito_risk":3,"arthritis_risk":5,"migraine_risk":7,"frizz_risk":1,"updated_at":"2026-03-22T02:59:07.247487+05:30"},{"city":"Ahmedabad","state":"Gujarat","latitude":23.0225,"longitude":72.5714,"temp":22.5,"humidity":51,"rain":0.0,"pressure":1005.1,"uv_index":7.8,"wind_gusts":22.0,"aqi":68,"pm10":36.2,"pm2_5":26.8,"mosquito_risk":0,"arthritis_risk":5,"migraine_risk":4,"frizz_risk":0,"updated_at":"2026-03-22T02:59:07.247495+05:30"},{"city":"Jaipur","state":"Rajasthan","latitude":26.9124,"longitude":75.7873,"temp":18.9,"humidity":74,"rain":0.0,"pressure":963.9,"uv_index":7.25,"wind_gusts":27.7,"aqi":78,"pm10":74.0,"pm2_5":35.6,"mosquito_risk":3,"arthritis_risk":5,"migraine_risk":7,"frizz_risk":0,"updated_at":"2026-03-22T02:59:07.247503+05:30"},{"city":"Lucknow","state":"Uttar Pradesh","latitude":26.8467,"longitude":80.9462,"temp":19.0,"humidity":87,"rain":0.0,"pressure":997.9,"uv_index":6.9,"wind_gusts":25.2,"aqi":106,"pm10":75.7,"pm2_5":58.4,"mosquito_risk":3,"arthritis_risk":10,"migraine_risk":7,"frizz_risk":1,"updated_at":"2026-03-22T02:59:07.247511+05:30"},{"city":"Kanpur","state":"Uttar Pradesh","latitude":26.4499,"longitude":80.3319,"temp":18.6,"humidity":77,"rain":0.0,"pressure":996.1,"uv_index":7.0,"wind_gusts":28.4,"aqi":120,"pm10":231.0,"pm2_5":55.6,"mosquito_risk":3,"arthritis_risk":5,"migraine_risk":7,"frizz_risk":0,"updated_at":"2026-03-22T02:59:07.247518+05:30"},{"city":"Chandigarh","state":"Chandigarh","latitude":30.7333,"longitude":76.7794,"temp":14.1,"humidity":94,"rain":0.0,"pressure":973.0,"uv_index":6.35,"wind_gusts":35.3,"aqi":82,"pm10":36.7,"pm2_5":34.8,"mosquito_risk":3,"arthritis_risk":10,"migraine_risk":7,"frizz_risk":0,"updated_at":"2026-03-22T02:59:07.247526+05:30"},{"city":"Srinagar","state":"Jammu and Kashmir","latitude":34.0837,"longitude":74.7973,"temp":4.5,"humidity":88,"rain":0.0,"pressure":839.7,"uv_index":7.45,"wind_gusts":13.7,"aqi":84,"pm10":30.4,"pm2_5":28.2,"mosquito_risk":3,"arthritis_risk":10,"migraine_risk":7,"frizz_risk":0,"updated_at":"2026-03-22T02:59:07.247533+05:30"},{"city":"Jammu","state":"Jammu and Kashmir","latitude":32.7266,"longitude":74.857,"temp":14.7,"humidity":93,"rain":0.0,"pressure":977.2,"uv_index":6.5,"wind_gusts":23.0,"aqi":104,"pm10":51.7,"pm2_5":46.7,"mosquito_risk":3,"arthritis_risk":10,"migraine_risk":7,"frizz_risk":0,"updated_at":"2026-03-22T02:59:07.247540+05:30"},{"city":"Amritsar","state":"Punjab","latitude":31.634,"longitude":74.8723,"temp":14.8,"humidity":90,"rain":0.0,"pressure":986.2,"uv_index":6.75,"wind_gusts":22.3,"aqi":137,"pm10":99.2,"pm2_5":89.6,"mosquito_risk":3,"arthritis_risk":10,"migraine_risk":7,"frizz_risk":0,"updated_at":"2026-03-22T02:59:07.247546+05:30"},{"city":"Ludhiana","state":"Punjab","latitude":30.901,"longitude":75.8573,"temp":15.5,"humidity":87,"rain":0.0,"pressure":983.6,"uv_index":6.45,"wind_gusts":28.4,"aqi":150,"pm10":52.0,"pm2_5":44.9,"mosquito_risk":3,"arthritis_risk":10,"migraine_risk":7,"frizz_risk":0,"updated_at":"2026-03-22T02:59:07.247553+05:30"},{"city":"Jalandhar","state":"Punjab","latitude":31.326,"longitude":75.5762,"temp":15.4,"humidity":87,"rain":0.0,"pressure":984.9,"uv_index":6.75,"wind_gusts":24.8,"aqi":130,"pm10":65.2,"pm2_5":56.6,"mosquito_risk":3,"arthritis_risk":10,"migraine_risk":7,"frizz_risk":0,"updated_at":"2026-03-22T02:59:07.247562+05:30"},{"city":"Dehradun","state":"Uttarakhand","latitude":30.6284,"longitude":78.0322,"temp":8.4,"humidity":91,"rain":0.0,"pressure":828.6,"uv_index":6.4,"wind_gusts":24.8,"aqi":43,"pm10":22.6,"pm2_5":18.3,"mosquito_risk":3,"arthritis_risk":10,"migraine_risk":7,"frizz_risk":0,"updated_at":"2026-03-22T02:59:07.247569+05:30"},{"city":"Shimla","state":"Himachal Pradesh","latitude":31.1048,"longitude":77.1734,"temp":6.3,"humidity":86,"rain":0.0,"pressure":781.6,"uv_index":6.65,"wind_gusts":41.0,"aqi":58,"pm10":36.0,"pm2_5":27.4,"mosquito_risk":3,"arthritis_risk":10,"migraine_risk":7,"frizz_risk":0,"updated_at":"2026-03-22T02:59:07.247575+05:30"},{"city":"Manali","state":"Himachal Pradesh","latitude":32.2396,"longitude":77.1887,"temp":9.2,"humidity":38,"rain":0.0,"pressure":816.6,"uv_index":8.8,"wind_gusts":30.2,"aqi":44,"pm10":18.7,"pm2_5":15.7,"mosquito_risk":0,"arthritis_risk":5,"migraine_risk":7,"frizz_risk":1,"updated_at":"2026-03-22T02:59:07.247582+05:30"},{"city":"Gurgaon","state":"Haryana","latitude":28.4595,"longitude":77.0266,"temp":16.8,"humidity":88,"rain":0.0,"pressure":986.4,"uv_index":6.55,"wind_gusts":27.7,"aqi":170,"pm10":175.1,"pm2_5":80.1,"mosquito_risk":3,"arthritis_risk":10,"migraine_risk":7,"frizz_risk":0,"updated_at":"2026-03-22T02:59:07.247588+05:30"},{"city":"Noida","state":"Uttar Pradesh","latitude":28.5355,"longitude":77.391,"temp":18.1,"humidity":83,"rain":0.0,"pressure":989.6,"uv_index":6.45,"wind_gusts":29.5,"aqi":170,"pm10":175.1,"pm2_5":80.1,"mosquito_risk":3,"arthritis_risk":10,"migraine_risk":7,"frizz_risk":0,"updated_at":"2026-03-22T02:59:07.247595+05:30"},{"city":"Ghaziabad","state":"Uttar Pradesh","latitude":28.6692,"longitude":77.4538,"temp":16.8,"humidity":87,"rain":0.0,"pressure":987.6,"uv_index":6.45,"wind_gusts":29.5,"aqi":155,"pm10":143.4,"pm2_5":59.6,"mosquito_risk":3,"arthritis_risk":10,"migraine_risk":7,"frizz_risk":0,"updated_at":"2026-03-22T02:59:07.247602+05:30"},{"city":"Faridabad","state":"Haryana","latitude":28.4089,"longitude":77.3178,"temp":17.3,"humidity":86,"rain":0.0,"pressure":988.9,"uv_index":6.5,"wind_gusts":28.1,"aqi":170,"pm10":175.1,"pm2_5":80.1,"mosquito_risk":3,"arthritis_risk":10,"migraine_risk":7,"frizz_risk":0,"updated_at":"2026-03-22T02:59:07.247609+05:30"},{"city":"Meerut","state":"Uttar Pradesh","latitude":28.9845,"longitude":77.7064,"temp":15.4,"humidity":91,"rain":0.0,"pressure":986.2,"uv_index":6.35,"wind_gusts":31.7,"aqi":155,"pm10":143.4,"pm2_5":59.6,"mosquito_risk":3,"arthritis_risk":10,"migraine_risk":7,"frizz_risk":0,"updated_at":"2026-03-22T02:59:07.247615+05:30"},{"city":"Agra","state":"Uttar Pradesh","latitude":27.1767,"longitude":78.0081,"temp":17.6,"humidity":80,"rain":0.0,"pressure":992.8,"uv_index":6.7,"wind_gusts":31.0,"aqi":257,"pm10":424.7,"pm2_5":113.9,"mosquito_risk":3,"arthritis_risk":5,"migraine_risk":7,"frizz_risk":0,"updated_at":"2026-03-22T02:59:07.247622+05:30"},{"city":"Varanasi","state":"Uttar Pradesh","latitude":25.3176,"longitude":82.9739,"temp":18.0,"humidity":92,"rain":0.0,"pressure":1001.8,"uv_index":7.6,"wind_gusts":27.4,"aqi":116,"pm10":92.0,"pm2_5":78.9,"mosquito_risk":3,"arthritis_risk":10,"migraine_risk":4,"frizz_risk":1,"updated_at":"2026-03-22T02:59:07.247631+05:30"},{"city":"Prayagraj","state":"Uttar Pradesh","latitude":25.4358,"longitude":81.8463,"temp":18.6,"humidity":86,"rain":0.0,"pressure":1000.5,"uv_index":7.5,"wind_gusts":24.1,"aqi":108,"pm10":85.0,"pm2_5":73.8,"mosquito_risk":3,"arthritis_risk":10,"migraine_risk":4,"frizz_risk":1,"updated_at":"2026-03-22T02:59:07.247640+05:30"},{"city":"Gorakhpur","state":"Uttar Pradesh","latitude":26.7606,"longitude":83.3732,"temp":15.7,"humidity":100,"rain":0.0,"pressure":1001.6,"uv_index":7.3,"wind_gusts":11.5,"aqi":120,"pm10":50.8,"pm2_5":47.7,"mosquito_risk":3,"arthritis_risk":10,"migraine_risk":4,"frizz_risk":0,"updated_at":"2026-03-22T02:59:07.247646+05:30"},{"city":"Bareilly","state":"Uttar Pradesh","latitude":28.367,"longitude":79.4304,"temp":16.1,"humidity":95,"rain":0.0,"pressure":991.6,"uv_index":6.65,"wind_gusts":27.7,"aqi":116,"pm10":53.1,"pm2_5":51.9,"mosquito_risk":3,"arthritis_risk":10,"migraine_risk":7,"frizz_risk":0,"updated_at":"2026-03-22T02:59:07.247653+05:30"},{"city":"Aligarh","state":"Uttar Pradesh","latitude":27.8974,"longitude":78.088,"temp":16.4,"humidity":87,"rain":0.0,"pressure":990.5,"uv_index":6.55,"wind_gusts":30.6,"aqi":164,"pm10":159.7,"pm2_5":84.3,"mosquito_risk":3,"arthritis_risk":10,"migraine_risk":7,"frizz_risk":0,"updated_at":"2026-03-22T02:59:07.247660+05:30"},{"city":"Moradabad","state":"Uttar Pradesh","latitude":28.8386,"longitude":78.7733,"temp":15.7,"humidity":87,"rain":0.0,"pressure":988.5,"uv_index":6.5,"wind_gusts":30.2,"aqi":138,"pm10":88.9,"pm2_5":54.4,"mosquito_risk":3,"arthritis_risk":10,"migraine_risk":7,"frizz_risk":0,"updated_at":"2026-03-22T02:59:07.247667+05:30"},{"city":"Saharanpur","state":"Uttar Pradesh","latitude":29.9637,"longitude":77.546,"temp":14.2,"humidity":95,"rain":0.0,"pressure":980.3,"uv_index":6.15,"wind_gusts":38.2,"aqi":145,"pm10":105.2,"pm2_5":67.3,"mosquito_risk":3,"arthritis_risk":10,"migraine_risk":7,"frizz_risk":0,"updated_at":"2026-03-22T02:59:07.247673+05:30"},{"city":"Jhansi","state":"Uttar Pradesh","latitude":25.4484,"longitude":78.5685,"temp":19.4,"humidity":64,"rain":0.0,"pressure":982.1,"uv_index":7.45,"wind_gusts":29.5,"aqi":79,"pm10":150.4,"pm2_5":40.7,"mosquito_risk":3,"arthritis_risk":5,"migraine_risk":7,"frizz_risk":0,"updated_at":"2026-03-22T02:59:10.698360+05:30"},{"city":"Surat","state":"Gujarat","latitude":21.1702,"longitude":72.8311,"temp":24.6,"humidity":69,"rain":0.0,"pressure":1008.9,"uv_index":7.65,"wind_gusts":24.8,"aqi":108,"pm10":36.2,"pm2_5":30.5,"mosquito_risk":3,"arthritis_risk":0,"migraine_risk":4,"frizz_risk":1,"updated_at":"2026-03-22T02:59:10.698390+05:30"},{"city":"Vadodara","state":"Gujarat","latitude":22.3072,"longitude":73.1812,"temp":24.2,"humidity":45,"rain":0.0,"pressure":1006.7,"uv_index":7.8,"wind_gusts":19.1,"aqi":62,"pm10":31.8,"pm2_5":26.0,"mosquito_risk":0,"arthritis_risk":5,"migraine_risk":4,"frizz_risk":0,"updated_at":"2026-03-22T02:59:10.698400+05:30"},{"city":"Rajkot","state":"Gujarat","latitude":22.3039,"longitude":70.8022,"temp":22.9,"humidity":77,"rain":0.0,"pressure":997.9,"uv_index":7.6,"wind_gusts":29.5,"aqi":59,"pm10":45.2,"pm2_5":21.2,"mosquito_risk":3,"arthritis_risk":5,"migraine_risk":7,"frizz_risk":1,"updated_at":"2026-03-22T02:59:10.698408+05:30"},{"city":"Thane","state":"Maharashtra","latitude":19.2183,"longitude":72.9781,"temp":25.3,"humidity":51,"rain":0.0,"pressure":1008.8,"uv_index":7.9,"wind_gusts":41.0,"aqi":77,"pm10":29.2,"pm2_5":26.1,"mosquito_risk":4,"arthritis_risk":0,"migraine_risk":4,"frizz_risk":0,"updated_at":"2026-03-22T02:59:10.698415+05:30"},{"city":"Nagpur","state":"Maharashtra","latitude":21.1458,"longitude":79.0882,"temp":22.7,"humidity":43,"rain":0.0,"pressure":975.6,"uv_index":8.2,"wind_gusts":23.4,"aqi":60,"pm10":17.3,"pm2_5":13.6,"mosquito_risk":0,"arthritis_risk":5,"migraine_risk":7,"frizz_risk":0,"updated_at":"2026-03-22T02:59:10.698423+05:30"},{"city":"Nashik","state":"Maharashtra","latitude":19.9975,"longitude":73.7898,"temp":22.4,"humidity":46,"rain":0.0,"pressure":946.6,"uv_index":8.05,"wind_gusts":29.9,"aqi":61,"pm10":24.6,"pm2_5":20.4,"mosquito_risk":0,"arthritis_risk":5,"migraine_risk":7,"frizz_risk":0,"updated_at":"2026-03-22T02:59:10.698430+05:30"},{"city":"Aurangabad","state":"Maharashtra","latitude":19.8762,"longitude":75.3433,"temp":22.5,"humidity":44,"rain":0.0,"pressure":944.8,"uv_index":8.6,"wind_gusts":27.0,"aqi":55,"pm10":25.6,"pm2_5":19.0,"mosquito_risk":0,"arthritis_risk":5,"migraine_risk":7,"frizz_risk":0,"updated_at":"2026-03-22T02:59:10.698437+05:30"},{"city":"Solapur","state":"Maharashtra","latitude":17.6599,"longitude":75.9064,"temp":24.8,"humidity":51,"rain":0.0,"pressure":956.8,"uv_index":8.75,"wind_gusts":26.6,"aqi":65,"pm10":24.6,"pm2_5":17.8,"mosquito_risk":0,"arthritis_risk":5,"migraine_risk":7,"frizz_risk":0,"updated_at":"2026-03-22T02:59:10.698444+05:30"},{"city":"Kolhapur","state":"Maharashtra","latitude":16.705,"longitude":74.2433,"temp":17.9,"humidity":70,"rain":0.0,"pressure":947.1,"uv_index":8.9,"wind_gusts":33.8,"aqi":89,"pm10":54.6,"pm2_5":37.8,"mosquito_risk":3,"arthritis_risk":5,"migraine_risk":7,"frizz_risk":0,"updated_at":"2026-03-22T02:59:10.698450+05:30"},{"city":"Goa","state":"Goa","latitude":15.2993,"longitude":74.124,"temp":23.5,"humidity":96,"rain":0.0,"pressure":997.5,"uv_index":8.85,"wind_gusts":32.0,"aqi":80,"pm10":65.2,"pm2_5":43.2,"mosquito_risk":3,"arthritis_risk":5,"migraine_risk":7,"frizz_risk":1,"updated_at":"2026-03-22T02:59:10.698457+05:30"},{"city":"Jodhpur","state":"Rajasthan","latitude":26.2389,"longitude":73.0243,"temp":21.2,"humidity":65,"rain":0.0,"pressure":987.2,"uv_index":7.55,"wind_gusts":27.4,"aqi":61,"pm10":34.3,"pm2_5":13.1,"mosquito_risk":3,"arthritis_risk":5,"migraine_risk":7,"frizz_risk":0,"updated_at":"2026-03-22T02:59:10.698464+05:30"},{"city":"Udaipur","state":"Rajasthan","latitude":24.5854,"longitude":73.7125,"temp":21.1,"humidity":50,"rain":0.0,"pressure":949.5,"uv_index":8.2,"wind_gusts":23.8,"aqi":51,"pm10":26.8,"pm2_5":14.8,"mosquito_risk":0,"arthritis_risk":5,"migraine_risk":7,"frizz_risk":0,"updated_at":"2026-03-22T02:59:10.698470+05:30"},{"city":"Kota","state":"Rajasthan","latitude":25.2138,"longitude":75.8648,"temp":20.8,"humidity":65,"rain":0.0,"pressure":983.0,"uv_index":7.6,"wind_gusts":17.3,"aqi":73,"pm10":38.0,"pm2_5":25.1,"mosquito_risk":3,"arthritis_risk":5,"migraine_risk":7,"frizz_risk":0,"updated_at":"2026-03-22T02:59:10.698477+05:30"},{"city":"Bikaner","state":"Rajasthan","latitude":28.0229,"longitude":73.3119,"temp":20.5,"humidity":69,"rain":0.0,"pressure":986.3,"uv_index":7.1,"wind_gusts":15.5,"aqi":52,"pm10":36.4,"pm2_5":14.0,"mosquito_risk":3,"arthritis_risk":5,"migraine_risk":7,"frizz_risk":0,"updated_at":"2026-03-22T02:59:10.698483+05:30"},{"city":"Ajmer","state":"Rajasthan","latitude":26.4499,"longitude":74.6399,"temp":20.1,"humidity":68,"rain":0.0,"pressure":958.4,"uv_index":7.5,"wind_gusts":24.5,"aqi":67,"pm10":65.7,"pm2_5":29.5,"mosquito_risk":3,"arthritis_risk":5,"migraine_risk":7,"frizz_risk":0,"updated_at":"2026-03-22T02:59:10.698490+05:30"},{"city":"Gwalior","state":"Madhya Pradesh","latitude":26.2183,"longitude":78.1828,"temp":20.9,"humidity":63,"rain":0.0,"pressure":988.0,"uv_index":6.95,"wind_gusts":33.8,"aqi":97,"pm10":329.7,"pm2_5":66.8,"mosquito_risk":3,"arthritis_risk":5,"migraine_risk":7,"frizz_risk":0,"updated_at":"2026-03-22T02:59:10.698496+05:30"},{"city":"Indore","state":"Madhya Pradesh","latitude":22.7196,"longitude":75.8577,"temp":20.1,"humidity":56,"rain":0.0,"pressure":949.9,"uv_index":8.05,"wind_gusts":20.5,"aqi":60,"pm10":24.7,"pm2_5":18.3,"mosquito_risk":0,"arthritis_risk":5,"migraine_risk":7,"frizz_risk":0,"updated_at":"2026-03-22T02:59:10.698503+05:30"},{"city":"Bhopal","state":"Madhya Pradesh","latitude":23.2599,"longitude":77.4126,"temp":20.0,"humidity":56,"rain":0.0,"pressure":956.0,"uv_index":7.9,"wind_gusts":22.7,"aqi":61,"pm10":20.9,"pm2_5":15.8,"mosquito_risk":0,"arthritis_risk":5,"migraine_risk":7,"frizz_risk":0,"updated_at":"2026-03-22T02:59:10.698509+05:30"},{"city":"Jabalpur","state":"Madhya Pradesh","latitude":23.1815,"longitude":79.9864,"temp":19.6,"humidity":59,"rain":0.0,"pressure":964.3,"uv_index":8.05,"wind_gusts":29.2,"aqi":63,"pm10":22.9,"pm2_5":16.9,"mosquito_risk":0,"arthritis_risk":5,"migraine_risk":7,"frizz_risk":0,"updated_at":"2026-03-22T02:59:10.698516+05:30"},{"city":"Ujjain","state":"Madhya Pradesh","latitude":23.1765,"longitude":75.7885,"temp":20.2,"humidity":59,"rain":0.0,"pressure":956.1,"uv_index":8.0,"wind_gusts":14.4,"aqi":65,"pm10":27.8,"pm2_5":22.3,"mosquito_risk":0,"arthritis_risk":5,"migraine_risk":7,"frizz_risk":0,"updated_at":"2026-03-22T02:59:10.698524+05:30"},{"city":"Visakhapatnam","state":"Andhra Pradesh","latitude":17.6868,"longitude":83.2185,"temp":23.9,"humidity":91,"rain":0.0,"pressure":1005.1,"uv_index":8.85,"wind_gusts":34.6,"aqi":69,"pm10":17.5,"pm2_5":15.0,"mosquito_risk":3,"arthritis_risk":5,"migraine_risk":4,"frizz_risk":1,"updated_at":"2026-03-22T02:59:10.698530+05:30"},{"city":"Vijayawada","state":"Andhra Pradesh","latitude":16.5062,"longitude":80.648,"temp":25.1,"humidity":91,"rain":0.0,"pressure":1004.1,"uv_index":8.25,"wind_gusts":22.0,"aqi":62,"pm10":15.9,"pm2_5":13.6,"mosquito_risk":7,"arthritis_risk":5,"migraine_risk":4,"frizz_risk":1,"updated_at":"2026-03-22T02:59:10.698537+05:30"},{"city":"Guntur","state":"Andhra Pradesh","latitude":16.3067,"longitude":80.4365,"temp":25.0,"humidity":94,"rain":0.0,"pressure":1005.2,"uv_index":8.25,"wind_gusts":18.4,"aqi":59,"pm10":14.6,"pm2_5":12.4,"mosquito_risk":7,"arthritis_risk":5,"migraine_risk":4,"frizz_risk":1,"updated_at":"2026-03-22T02:59:10.698543+05:30"},{"city":"Nellore","state":"Andhra Pradesh","latitude":14.4426,"longitude":79.9865,"temp":26.1,"humidity":85,"rain":0.0,"pressure":1006.9,"uv_index":9.1,"wind_gusts":32.0,"aqi":46,"pm10":12.3,"pm2_5":8.6,"mosquito_risk":7,"arthritis_risk":5,"migraine_risk":4,"frizz_risk":1,"updated_at":"2026-03-22T02:59:10.698550+05:30"},{"city":"Kurnool","state":"Andhra Pradesh","latitude":15.8281,"longitude":78.0373,"temp":25.9,"humidity":75,"rain":0.0,"pressure":977.1,"uv_index":8.95,"wind_gusts":24.5,"aqi":74,"pm10":18.5,"pm2_5":15.3,"mosquito_risk":7,"arthritis_risk":5,"migraine_risk":7,"frizz_risk":1,"updated_at":"2026-03-22T02:59:10.698557+05:30"},{"city":"Kakinada","state":"Andhra Pradesh","latitude":16.9891,"longitude":82.2475,"temp":22.3,"humidity":97,"rain":0.0,"pressure":1008.9,"uv_index":8.9,"wind_gusts":33.1,"aqi":36,"pm10":13.1,"pm2_5":9.7,"mosquito_risk":3,"arthritis_risk":0,"migraine_risk":4,"frizz_risk":1,"updated_at":"2026-03-22T02:59:10.698563+05:30"},{"city":"Tirupati","state":"Andhra Pradesh","latitude":13.6288,"longitude":79.4192,"temp":24.0,"humidity":89,"rain":0.0,"pressure":992.8,"uv_index":9.2,"wind_gusts":31.7,"aqi":74,"pm10":24.0,"pm2_5":20.7,"mosquito_risk":3,"arthritis_risk":5,"migraine_risk":7,"frizz_risk":1,"updated_at":"2026-03-22T02:59:10.698570+05:30"},{"city":"Warangal","state":"Telangana","latitude":17.9689,"longitude":79.5941,"temp":24.0,"humidity":85,"rain":0.0,"pressure":979.6,"uv_index":8.75,"wind_gusts":21.6,"aqi":88,"pm10":33.2,"pm2_5":27.5,"mosquito_risk":3,"arthritis_risk":5,"migraine_risk":7,"frizz_risk":1,"updated_at":"2026-03-22T02:59:10.698577+05:30"},{"city":"Nizamabad","state":"Telangana","latitude":18.6725,"longitude":78.0941,"temp":25.0,"humidity":68,"rain":0.0,"pressure":965.5,"uv_index":8.65,"wind_gusts":22.0,"aqi":79,"pm10":34.6,"pm2_5":23.7,"mosquito_risk":7,"arthritis_risk":5,"migraine_risk":7,"frizz_risk":1,"updated_at":"2026-03-22T02:59:10.698583+05:30"},{"city":"Mysore","state":"Karnataka","latitude":12.2958,"longitude":76.6396,"temp":22.7,"humidity":86,"rain":0.0,"pressure":928.3,"uv_index":9.4,"wind_gusts":29.5,"aqi":88,"pm10":49.5,"pm2_5":43.5,"mosquito_risk":3,"arthritis_risk":5,"migraine_risk":7,"frizz_risk":1,"updated_at":"2026-03-22T02:59:10.698589+05:30"},{"city":"Mangalore","state":"Karnataka","latitude":12.9141,"longitude":74.856,"temp":29.3,"humidity":77,"rain":0.0,"pressure":1006.3,"uv_index":9.1,"wind_gusts":24.8,"aqi":67,"pm10":37.1,"pm2_5":25.3,"mosquito_risk":7,"arthritis_risk":5,"migraine_risk":4,"frizz_risk":1,"updated_at":"2026-03-22T02:59:10.698595+05:30"},{"city":"Hubli-Dharwad","state":"Karnataka","latitude":15.3647,"longitude":75.124,"temp":21.4,"humidity":65,"rain":0.0,"pressure":940.3,"uv_index":9.05,"wind_gusts":28.8,"aqi":61,"pm10":27.4,"pm2_5":20.3,"mosquito_risk":3,"arthritis_risk":5,"migraine_risk":7,"frizz_risk":0,"updated_at":"2026-03-22T02:59:10.698602+05:30"},{"city":"Belgaum","state":"Karnataka","latitude":15.8497,"longitude":74.4977,"temp":21.6,"humidity":57,"rain":0.0,"pressure":925.0,"uv_index":9.1,"wind_gusts":34.6,"aqi":70,"pm10":62.9,"pm2_5":32.1,"mosquito_risk":0,"arthritis_risk":5,"migraine_risk":7,"frizz_risk":0,"updated_at":"2026-03-22T02:59:13.988663+05:30"},{"city":"Coimbatore","state":"Tamil Nadu","latitude":11.0168,"longitude":76.9558,"temp":23.5,"humidity":80,"rain":0.0,"pressure":962.5,"uv_index":9.4,"wind_gusts":33.5,"aqi":74,"pm10":32.8,"pm2_5":28.1,"mosquito_risk":3,"arthritis_risk":5,"migraine_risk":7,"frizz_risk":1,"updated_at":"2026-03-22T02:59:13.988694+05:30"},{"city":"Madurai","state":"Tamil Nadu","latitude":9.9252,"longitude":78.1198,"temp":24.8,"humidity":82,"rain":0.0,"pressure":993.6,"uv_index":9.35,"wind_gusts":28.4,"aqi":67,"pm10":23.2,"pm2_5":21.1,"mosquito_risk":3,"arthritis_risk":5,"migraine_risk":7,"frizz_risk":1,"updated_at":"2026-03-22T02:59:13.988705+05:30"},{"city":"Trichy","state":"Tamil Nadu","latitude":10.7905,"longitude":78.7047,"temp":25.5,"humidity":93,"rain":0.0,"pressure":1000.7,"uv_index":9.3,"wind_gusts":23.8,"aqi":56,"pm10":27.7,"pm2_5":23.9,"mosquito_risk":7,"arthritis_risk":5,"migraine_risk":4,"frizz_risk":1,"updated_at":"2026-03-22T02:59:13.988714+05:30"},{"city":"Salem","state":"Tamil Nadu","latitude":11.6643,"longitude":78.146,"temp":24.6,"humidity":85,"rain":0.0,"pressure":978.7,"uv_index":9.35,"wind_gusts":27.0,"aqi":77,"pm10":30.5,"pm2_5":27.0,"mosquito_risk":3,"arthritis_risk":5,"migraine_risk":7,"frizz_risk":1,"updated_at":"2026-03-22T02:59:13.988721+05:30"},{"city":"Tirunelveli","state":"Tamil Nadu","latitude":8.7139,"longitude":77.7567,"temp":24.8,"humidity":84,"rain":0.0,"pressure":1003.5,"uv_index":9.3,"wind_gusts":27.7,"aqi":86,"pm10":39.1,"pm2_5":36.9,"mosquito_risk":3,"arthritis_risk":5,"migraine_risk":4,"frizz_risk":1,"updated_at":"2026-03-22T02:59:13.988728+05:30"},{"city":"Vellore","state":"Tamil Nadu","latitude":12.9165,"longitude":79.1325,"temp":23.7,"humidity":88,"rain":0.0,"pressure":985.5,"uv_index":9.3,"wind_gusts":36.0,"aqi":90,"pm10":27.5,"pm2_5":24.9,"mosquito_risk":3,"arthritis_risk":5,"migraine_risk":7,"frizz_risk":1,"updated_at":"2026-03-22T02:59:13.988736+05:30"},{"city":"Erode","state":"Tamil Nadu","latitude":11.341,"longitude":77.7172,"temp":24.7,"humidity":82,"rain":0.0,"pressure":990.5,"uv_index":9.3,"wind_gusts":24.5,"aqi":55,"pm10":13.4,"pm2_5":10.9,"mosquito_risk":3,"arthritis_risk":5,"migraine_risk":7,"frizz_risk":1,"updated_at":"2026-03-22T02:59:13.988743+05:30"},{"city":"Kochi","state":"Kerala","latitude":9.9312,"longitude":76.2673,"temp":27.3,"humidity":82,"rain":0.0,"pressure":1008.9,"uv_index":9.15,"wind_gusts":34.2,"aqi":77,"pm10":28.5,"pm2_5":26.1,"mosquito_risk":7,"arthritis_risk":0,"migraine_risk":4,"frizz_risk":1,"updated_at":"2026-03-22T02:59:13.988750+05:30"},{"city":"Thiruvananthapuram","state":"Kerala","latitude":8.5241,"longitude":76.9366,"temp":27.3,"humidity":81,"rain":0.0,"pressure":1007.7,"uv_index":9.1,"wind_gusts":24.8,"aqi":80,"pm10":21.6,"pm2_5":18.3,"mosquito_risk":7,"arthritis_risk":5,"migraine_risk":4,"frizz_risk":1,"updated_at":"2026-03-22T02:59:13.988757+05:30"},{"city":"Kozhikode","state":"Kerala","latitude":11.2588,"longitude":75.7804,"temp":29.2,"humidity":77,"rain":0.0,"pressure":1007.5,"uv_index":9.1,"wind_gusts":27.0,"aqi":62,"pm10":28.2,"pm2_5":19.7,"mosquito_risk":7,"arthritis_risk":5,"migraine_risk":4,"frizz_risk":1,"updated_at":"2026-03-22T02:59:13.988764+05:30"},{"city":"Thrissur","state":"Kerala","latitude":10.5276,"longitude":76.2144,"temp":26.4,"humidity":81,"rain":0.0,"pressure":1007.3,"uv_index":9.15,"wind_gusts":36.0,"aqi":78,"pm10":36.7,"pm2_5":34.5,"mosquito_risk":7,"arthritis_risk":5,"migraine_risk":4,"frizz_risk":1,"updated_at":"2026-03-22T02:59:13.988772+05:30"},{"city":"Kannur","state":"Kerala","latitude":11.8745,"longitude":75.3704,"temp":28.0,"humidity":83,"rain":0.0,"pressure":1006.8,"uv_index":9.1,"wind_gusts":27.0,"aqi":64,"pm10":28.3,"pm2_5":21.4,"mosquito_risk":7,"arthritis_risk":5,"migraine_risk":4,"frizz_risk":1,"updated_at":"2026-03-22T02:59:13.988779+05:30"},{"city":"Patna","state":"Bihar","latitude":25.5941,"longitude":85.1376,"temp":18.7,"humidity":95,"rain":0.0,"pressure":1004.9,"uv_index":7.55,"wind_gusts":20.2,"aqi":144,"pm10":72.6,"pm2_5":69.2,"mosquito_risk":3,"arthritis_risk":10,"migraine_risk":4,"frizz_risk":1,"updated_at":"2026-03-22T02:59:13.988785+05:30"},{"city":"Gaya","state":"Bihar","latitude":24.7914,"longitude":85.0002,"temp":17.7,"humidity":95,"rain":0.0,"pressure":997.8,"uv_index":7.75,"wind_gusts":21.6,"aqi":109,"pm10":46.7,"pm2_5":42.7,"mosquito_risk":3,"arthritis_risk":10,"migraine_risk":7,"frizz_risk":1,"updated_at":"2026-03-22T02:59:13.988792+05:30"},{"city":"Muzaffarpur","state":"Bihar","latitude":26.1209,"longitude":85.3647,"temp":17.0,"humidity":100,"rain":0.0,"pressure":1004.9,"uv_index":7.65,"wind_gusts":16.6,"aqi":150,"pm10":66.1,"pm2_5":63.3,"mosquito_risk":3,"arthritis_risk":10,"migraine_risk":4,"frizz_risk":1,"updated_at":"2026-03-22T02:59:13.988798+05:30"},{"city":"Bhagalpur","state":"Bihar","latitude":25.2425,"longitude":87.0117,"temp":18.8,"humidity":97,"rain":0.0,"pressure":1005.2,"uv_index":7.2,"wind_gusts":16.9,"aqi":108,"pm10":46.3,"pm2_5":44.1,"mosquito_risk":3,"arthritis_risk":10,"migraine_risk":4,"frizz_risk":1,"updated_at":"2026-03-22T02:59:13.988804+05:30"},{"city":"Ranchi","state":"Jharkhand","latitude":23.3441,"longitude":85.3096,"temp":15.6,"humidity":95,"rain":0.0,"pressure":939.0,"uv_index":8.45,"wind_gusts":28.1,"aqi":92,"pm10":43.8,"pm2_5":40.7,"mosquito_risk":3,"arthritis_risk":10,"migraine_risk":7,"frizz_risk":0,"updated_at":"2026-03-22T02:59:13.988810+05:30"},{"city":"Jamshedpur","state":"Jharkhand","latitude":22.8046,"longitude":86.2029,"temp":20.6,"humidity":85,"rain":0.0,"pressure":994.0,"uv_index":8.35,"wind_gusts":20.5,"aqi":118,"pm10":74.0,"pm2_5":71.5,"mosquito_risk":3,"arthritis_risk":5,"migraine_risk":7,"frizz_risk":1,"updated_at":"2026-03-22T02:59:13.988816+05:30"},{"city":"Dhanbad","state":"Jharkhand","latitude":23.7957,"longitude":86.4304,"temp":18.8,"humidity":86,"rain":0.0,"pressure":982.7,"uv_index":7.7,"wind_gusts":23.0,"aqi":145,"pm10":75.9,"pm2_5":71.9,"mosquito_risk":3,"arthritis_risk":10,"migraine_risk":7,"frizz_risk":1,"updated_at":"2026-03-22T02:59:13.988822+05:30"},{"city":"Bokaro","state":"Jharkhand","latitude":23.6693,"longitude":86.1511,"temp":17.8,"humidity":94,"rain":0.0,"pressure":986.9,"uv_index":8.2,"wind_gusts":20.9,"aqi":147,"pm10":74.3,"pm2_5":71.2,"mosquito_risk":3,"arthritis_risk":10,"migraine_risk":7,"frizz_risk":1,"updated_at":"2026-03-22T02:59:13.988829+05:30"},{"city":"Bhubaneswar","state":"Odisha","latitude":20.2961,"longitude":85.8245,"temp":23.2,"humidity":92,"rain":0.0,"pressure":1004.7,"uv_index":8.6,"wind_gusts":31.3,"aqi":110,"pm10":51.6,"pm2_5":47.8,"mosquito_risk":3,"arthritis_risk":5,"migraine_risk":4,"frizz_risk":1,"updated_at":"2026-03-22T02:59:13.988835+05:30"},{"city":"Cuttack","state":"Odisha","latitude":20.4625,"longitude":85.8828,"temp":23.4,"humidity":87,"rain":0.0,"pressure":1006.9,"uv_index":8.35,"wind_gusts":25.2,"aqi":110,"pm10":51.6,"pm2_5":47.8,"mosquito_risk":3,"arthritis_risk":5,"migraine_risk":4,"frizz_risk":1,"updated_at":"2026-03-22T02:59:13.988841+05:30"},{"city":"Rourkela","state":"Odisha","latitude":22.2604,"longitude":84.8536,"temp":21.5,"humidity":74,"rain":0.0,"pressure":988.2,"uv_index":8.25,"wind_gusts":18.7,"aqi":103,"pm10":32.9,"pm2_5":30.6,"mosquito_risk":3,"arthritis_risk":5,"migraine_risk":7,"frizz_risk":1,"updated_at":"2026-03-22T02:59:13.988847+05:30"},{"city":"Raipur","state":"Chhattisgarh","latitude":21.2514,"longitude":81.6296,"temp":20.4,"humidity":57,"rain":0.0,"pressure":976.9,"uv_index":8.4,"wind_gusts":19.1,"aqi":107,"pm10":26.7,"pm2_5":23.5,"mosquito_risk":0,"arthritis_risk":5,"migraine_risk":7,"frizz_risk":0,"updated_at":"2026-03-22T02:59:13.988875+05:30"},{"city":"Bhilai","state":"Chhattisgarh","latitude":21.1938,"longitude":81.3509,"temp":19.9,"humidity":56,"rain":0.0,"pressure":977.2,"uv_index":8.4,"wind_gusts":15.5,"aqi":92,"pm10":26.0,"pm2_5":22.4,"mosquito_risk":0,"arthritis_risk":5,"migraine_risk":7,"frizz_risk":0,"updated_at":"2026-03-22T02:59:13.988884+05:30"},{"city":"Guwahati","state":"Assam","latitude":26.1158,"longitude":91.7086,"temp":19.9,"humidity":88,"rain":0.0,"pressure":1003.8,"uv_index":7.6,"wind_gusts":16.6,"aqi":82,"pm10":20.1,"pm2_5":16.0,"mosquito_risk":3,"arthritis_risk":10,"migraine_risk":4,"frizz_risk":1,"updated_at":"2026-03-22T02:59:13.988890+05:30"},{"city":"Agartala","state":"Tripura","latitude":23.8315,"longitude":91.2868,"temp":19.5,"humidity":87,"rain":0.0,"pressure":1008.3,"uv_index":8.0,"wind_gusts":22.7,"aqi":102,"pm10":37.0,"pm2_5":31.1,"mosquito_risk":3,"arthritis_risk":5,"migraine_risk":4,"frizz_risk":1,"updated_at":"2026-03-22T02:59:13.988897+05:30"},{"city":"Shillong","state":"Meghalaya","latitude":25.5788,"longitude":91.8933,"temp":10.1,"humidity":99,"rain":0.2,"pressure":853.8,"uv_index":7.95,"wind_gusts":29.2,"aqi":69,"pm10":37.4,"pm2_5":25.4,"mosquito_risk":6,"arthritis_risk":10,"migraine_risk":7,"frizz_risk":0,"updated_at":"2026-03-22T02:59:13.988904+05:30"},{"city":"Imphal","state":"Manipur","latitude":24.817,"longitude":93.9368,"temp":15.4,"humidity":93,"rain":0.3,"pressure":922.3,"uv_index":8.1,"wind_gusts":49.3,"aqi":87,"pm10":31.4,"pm2_5":26.0,"mosquito_risk":6,"arthritis_risk":10,"migraine_risk":7,"frizz_risk":0,"updated_at":"2026-03-22T02:59:13.988911+05:30"},{"city":"Aizawl","state":"Mizoram","latitude":23.7271,"longitude":92.7176,"temp":14.8,"humidity":95,"rain":0.1,"pressure":891.6,"uv_index":7.3,"wind_gusts":41.8,"aqi":110,"pm10":52.2,"pm2_5":42.1,"mosquito_risk":6,"arthritis_risk":10,"migraine_risk":7,"frizz_risk":0,"updated_at":"2026-03-22T02:59:13.988917+05:30"},{"city":"Kohima","state":"Nagaland","latitude":25.6701,"longitude":94.1077,"temp":12.1,"humidity":100,"rain":0.6,"pressure":853.0,"uv_index":7.05,"wind_gusts":50.4,"aqi":66,"pm10":14.1,"pm2_5":9.5,"mosquito_risk":6,"arthritis_risk":10,"migraine_risk":7,"frizz_risk":0,"updated_at":"2026-03-22T02:59:13.988923+05:30"},{"city":"Gangtok","state":"Sikkim","latitude":27.3314,"longitude":88.6138,"temp":8.4,"humidity":83,"rain":0.0,"pressure":833.5,"uv_index":7.6,"wind_gusts":20.5,"aqi":67,"pm10":27.8,"pm2_5":23.3,"mosquito_risk":3,"arthritis_risk":10,"migraine_risk":7,"frizz_risk":0,"updated_at":"2026-03-22T02:59:13.988930+05:30"},{"city":"Siliguri","state":"West Bengal","latitude":26.7271,"longitude":88.3953,"temp":15.6,"humidity":63,"rain":0.0,"pressure":996.2,"uv_index":6.95,"wind_gusts":18.4,"aqi":116,"pm10":77.5,"pm2_5":64.7,"mosquito_risk":3,"arthritis_risk":5,"migraine_risk":7,"frizz_risk":0,"updated_at":"2026-03-22T02:59:17.280161+05:30"},{"city":"Durgapur","state":"West Bengal","latitude":23.5204,"longitude":87.3119,"temp":20.4,"humidity":83,"rain":0.0,"pressure":998.3,"uv_index":8.2,"wind_gusts":23.0,"aqi":114,"pm10":60.1,"pm2_5":56.6,"mosquito_risk":3,"arthritis_risk":5,"migraine_risk":7,"frizz_risk":1,"updated_at":"2026-03-22T02:59:17.280193+05:30"},{"city":"Asansol","state":"West Bengal","latitude":23.6739,"longitude":86.9524,"temp":20.2,"humidity":83,"rain":0.0,"pressure":996.9,"uv_index":7.9,"wind_gusts":23.4,"aqi":116,"pm10":55.2,"pm2_5":50.9,"mosquito_risk":3,"arthritis_risk":5,"migraine_risk":7,"frizz_risk":1,"updated_at":"2026-03-22T02:59:17.280203+05:30"},{"city":"Pondicherry","state":"Puducherry","latitude":11.9139,"longitude":79.8145,"temp":24.7,"humidity":96,"rain":0.0,"pressure":1009.2,"uv_index":9.15,"wind_gusts":29.5,"aqi":33,"pm10":14.7,"pm2_5":9.7,"mosquito_risk":3,"arthritis_risk":0,"migraine_risk":4,"frizz_risk":1,"updated_at":"2026-03-22T02:59:17.280211+05:30"},{"city":"Port Blair","state":"Andaman and Nicobar Islands","latitude":11.6234,"longitude":92.7265,"temp":27.6,"humidity":83,"rain":0.0,"pressure":1007.0,"uv_index":9.1,"wind_gusts":18.4,"aqi":44,"pm10":14.1,"pm2_5":11.0,"mosquito_risk":7,"arthritis_risk":5,"migraine_risk":4,"frizz_risk":1,"updated_at":"2026-03-22T02:59:17.280219+05:30"},{"city":"Haridwar","state":"Uttarakhand","latitude":29.9457,"longitude":78.1642,"temp":14.9,"humidity":96,"rain":0.0,"pressure":978.6,"uv_index":6.25,"wind_gusts":25.9,"aqi":85,"pm10":61.2,"pm2_5":53.0,"mosquito_risk":3,"arthritis_risk":10,"migraine_risk":7,"frizz_risk":0,"updated_at":"2026-03-22T02:59:17.280228+05:30"},{"city":"Rishikesh","state":"Uttarakhand","latitude":30.0869,"longitude":78.2676,"temp":15.6,"humidity":82,"rain":0.0,"pressure":971.1,"uv_index":6.35,"wind_gusts":26.6,"aqi":56,"pm10":25.8,"pm2_5":23.2,"mosquito_risk":3,"arthritis_risk":10,"migraine_risk":7,"frizz_risk":0,"updated_at":"2026-03-22T02:59:17.280236+05:30"},{"city":"Nainital","state":"Uttarakhand","latitude":29.3919,"longitude":79.4542,"temp":11.4,"humidity":84,"rain":0.0,"pressure":805.0,"uv_index":7.15,"wind_gusts":35.3,"aqi":56,"pm10":26.3,"pm2_5":24.5,"mosquito_risk":3,"arthritis_risk":10,"migraine_risk":7,"frizz_risk":0,"updated_at":"2026-03-22T02:59:17.280243+05:30"},{"city":"Mussoorie","state":"Uttarakhand","latitude":30.4599,"longitude":78.0664,"temp":10.0,"humidity":75,"rain":0.0,"pressure":801.3,"uv_index":6.5,"wind_gusts":26.3,"aqi":63,"pm10":38.6,"pm2_5":34.7,"mosquito_risk":3,"arthritis_risk":5,"migraine_risk":7,"frizz_risk":0,"updated_at":"2026-03-22T02:59:17.280250+05:30"},{"city":"Dharamshala","state":"Himachal Pradesh","latitude":32.219,"longitude":76.3234,"temp":14.0,"humidity":43,"rain":0.0,"pressure":869.4,"uv_index":6.1,"wind_gusts":22.7,"aqi":60,"pm10":10.1,"pm2_5":6.4,"mosquito_risk":0,"arthritis_risk":5,"migraine_risk":7,"frizz_risk":0,"updated_at":"2026-03-22T02:59:17.280257+05:30"},{"city":"Dalhousie","state":"Himachal Pradesh","latitude":32.5387,"longitude":75.971,"temp":9.4,"humidity":54,"rain":0.0,"pressure":802.0,"uv_index":6.95,"wind_gusts":20.2,"aqi":78,"pm10":32.4,"pm2_5":28.2,"mosquito_risk":0,"arthritis_risk":5,"migraine_risk":7,"frizz_risk":0,"updated_at":"2026-03-22T02:59:17.280265+05:30"},{"city":"Patiala","state":"Punjab","latitude":30.3398,"longitude":76.3869,"temp":14.3,"humidity":94,"rain":0.0,"pressure":982.8,"uv_index":6.2,"wind_gusts":31.7,"aqi":152,"pm10":79.4,"pm2_5":43.3,"mosquito_risk":3,"arthritis_risk":10,"migraine_risk":7,"frizz_risk":0,"updated_at":"2026-03-22T02:59:17.280272+05:30"},{"city":"Bhatinda","state":"Punjab","latitude":30.211,"longitude":74.9455,"temp":16.3,"humidity":87,"rain":0.0,"pressure":988.9,"uv_index":6.95,"wind_gusts":21.6,"aqi":137,"pm10":88.0,"pm2_5":73.1,"mosquito_risk":3,"arthritis_risk":10,"migraine_risk":7,"frizz_risk":0,"updated_at":"2026-03-22T02:59:17.280279+05:30"},{"city":"Rohtak","state":"Haryana","latitude":28.8955,"longitude":76.6066,"temp":16.2,"humidity":89,"rain":0.0,"pressure":986.7,"uv_index":6.45,"wind_gusts":27.7,"aqi":163,"pm10":134.1,"pm2_5":61.5,"mosquito_risk":3,"arthritis_risk":10,"migraine_risk":7,"frizz_risk":0,"updated_at":"2026-03-22T02:59:17.280287+05:30"},{"city":"Panipat","state":"Haryana","latitude":29.3909,"longitude":76.9635,"temp":15.0,"humidity":92,"rain":0.0,"pressure":985.1,"uv_index":6.25,"wind_gusts":30.2,"aqi":162,"pm10":107.1,"pm2_5":52.4,"mosquito_risk":3,"arthritis_risk":10,"migraine_risk":7,"frizz_risk":0,"updated_at":"2026-03-22T02:59:17.280293+05:30"},{"city":"Mathura","state":"Uttar Pradesh","latitude":27.4924,"longitude":77.6737,"temp":17.2,"humidity":84,"rain":0.0,"pressure":992.0,"uv_index":5.95,"wind_gusts":26.3,"aqi":174,"pm10":279.4,"pm2_5":102.0,"mosquito_risk":3,"arthritis_risk":10,"migraine_risk":3,"frizz_risk":0,"updated_at":"2026-03-22T02:59:17.280300+05:30"},{"city":"Vrindavan","state":"Uttar Pradesh","latitude":27.5823,"longitude":77.7027,"temp":17.1,"humidity":85,"rain":0.0,"pressure":992.5,"uv_index":5.95,"wind_gusts":28.4,"aqi":174,"pm10":279.4,"pm2_5":102.0,"mosquito_risk":3,"arthritis_risk":10,"migraine_risk":3,"frizz_risk":0,"updated_at":"2026-03-22T02:59:17.280306+05:30"},{"city":"Ayodhya","state":"Uttar Pradesh","latitude":26.7922,"longitude":82.1998,"temp":17.1,"humidity":97,"rain":0.0,"pressure":999.8,"uv_index":7.1,"wind_gusts":20.9,"aqi":92,"pm10":65.2,"pm2_5":56.9,"mosquito_risk":3,"arthritis_risk":10,"migraine_risk":7,"frizz_risk":1,"updated_at":"2026-03-22T02:59:17.280313+05:30"},{"city":"Ratlam","state":"Madhya Pradesh","latitude":23.3315,"longitude":75.0367,"temp":20.1,"humidity":68,"rain":0.0,"pressure":956.8,"uv_index":7.85,"wind_gusts":18.4,"aqi":61,"pm10":31.1,"pm2_5":25.5,"mosquito_risk":3,"arthritis_risk":5,"migraine_risk":7,"frizz_risk":0,"updated_at":"2026-03-22T02:59:17.280320+05:30"},{"city":"Sagar","state":"Madhya Pradesh","latitude":23.8388,"longitude":78.7378,"temp":19.2,"humidity":53,"rain":0.0,"pressure":952.9,"uv_index":7.95,"wind_gusts":31.3,"aqi":67,"pm10":27.6,"pm2_5":19.2,"mosquito_risk":0,"arthritis_risk":5,"migraine_risk":7,"frizz_risk":0,"updated_at":"2026-03-22T02:59:17.280326+05:30"},{"city":"Satna","state":"Madhya Pradesh","latitude":24.6005,"longitude":80.8322,"temp":19.3,"humidity":63,"rain":0.0,"pressure":974.8,"uv_index":7.9,"wind_gusts":34.6,"aqi":68,"pm10":102.4,"pm2_5":26.5,"mosquito_risk":3,"arthritis_risk":5,"migraine_risk":7,"frizz_risk":0,"updated_at":"2026-03-22T02:59:17.280333+05:30"},{"city":"Akola","state":"Maharashtra","latitude":20.7002,"longitude":77.0082,"temp":22.4,"humidity":49,"rain":0.0,"pressure":976.9,"uv_index":8.3,"wind_gusts":24.5,"aqi":60,"pm10":20.7,"pm2_5":15.3,"mosquito_risk":0,"arthritis_risk":5,"migraine_risk":7,"frizz_risk":0,"updated_at":"2026-03-22T02:59:17.280340+05:30"},{"city":"Amravati","state":"Maharashtra","latitude":20.9374,"longitude":77.7796,"temp":21.5,"humidity":44,"rain":0.0,"pressure":969.0,"uv_index":8.1,"wind_gusts":24.1,"aqi":56,"pm10":17.9,"pm2_5":12.5,"mosquito_risk":0,"arthritis_risk":5,"migraine_risk":7,"frizz_risk":0,"updated_at":"2026-03-22T02:59:17.280348+05:30"},{"city":"Latur","state":"Maharashtra","latitude":18.4088,"longitude":76.5604,"temp":22.3,"humidity":52,"rain":0.0,"pressure":940.0,"uv_index":8.7,"wind_gusts":28.8,"aqi":64,"pm10":44.0,"pm2_5":24.3,"mosquito_risk":0,"arthritis_risk":5,"migraine_risk":7,"frizz_risk":0,"updated_at":"2026-03-22T02:59:17.280355+05:30"},{"city":"Nanded","state":"Maharashtra","latitude":19.1383,"longitude":77.3091,"temp":23.8,"humidity":46,"rain":0.0,"pressure":969.4,"uv_index":8.55,"wind_gusts":27.0,"aqi":69,"pm10":24.6,"pm2_5":19.3,"mosquito_risk":0,"arthritis_risk":5,"migraine_risk":7,"frizz_risk":0,"updated_at":"2026-03-22T02:59:17.280361+05:30"},{"city":"Gulbarga","state":"Karnataka","latitude":17.3297,"longitude":76.8343,"temp":26.2,"humidity":46,"rain":0.0,"pressure":958.9,"uv_index":8.75,"wind_gusts":26.6,"aqi":67,"pm10":26.0,"pm2_5":21.0,"mosquito_risk":4,"arthritis_risk":5,"migraine_risk":7,"frizz_risk":0,"updated_at":"2026-03-22T02:59:17.280367+05:30"},{"city":"Bidar","state":"Karnataka","latitude":17.9104,"longitude":77.5199,"temp":23.5,"humidity":73,"rain":0.0,"pressure":935.6,"uv_index":8.8,"wind_gusts":29.2,"aqi":74,"pm10":36.8,"pm2_5":27.0,"mosquito_risk":3,"arthritis_risk":5,"migraine_risk":7,"frizz_risk":1,"updated_at":"2026-03-22T02:59:17.280375+05:30"},{"city":"Hospet","state":"Karnataka","latitude":15.2689,"longitude":76.3909,"temp":24.7,"humidity":61,"rain":0.0,"pressure":955.5,"uv_index":9.0,"wind_gusts":19.4,"aqi":79,"pm10":32.8,"pm2_5":29.1,"mosquito_risk":3,"arthritis_risk":5,"migraine_risk":7,"frizz_risk":1,"updated_at":"2026-03-22T02:59:17.280381+05:30"},{"city":"Tirupur","state":"Tamil Nadu","latitude":11.1085,"longitude":77.3411,"temp":24.2,"humidity":79,"rain":0.0,"pressure":976.2,"uv_index":9.4,"wind_gusts":30.2,"aqi":70,"pm10":17.5,"pm2_5":14.1,"mosquito_risk":3,"arthritis_risk":5,"migraine_risk":7,"frizz_risk":1,"updated_at":"2026-03-22T02:59:17.280387+05:30"},{"city":"Alappuzha","state":"Kerala","latitude":9.4981,"longitude":76.3388,"temp":26.4,"humidity":84,"rain":0.0,"pressure":1009.0,"uv_index":9.1,"wind_gusts":34.9,"aqi":71,"pm10":23.1,"pm2_5":19.0,"mosquito_risk":7,"arthritis_risk":0,"migraine_risk":4,"frizz_risk":1,"updated_at":"2026-03-22T02:59:17.280394+05:30"},{"city":"Munnar","state":"Kerala","latitude":10.0889,"longitude":77.0595,"temp":19.3,"humidity":92,"rain":0.0,"pressure":855.9,"uv_index":8.7,"wind_gusts":26.3,"aqi":68,"pm10":24.4,"pm2_5":21.9,"mosquito_risk":3,"arthritis_risk":10,"migraine_risk":7,"frizz_risk":1,"updated_at":"2026-03-22T02:59:17.280400+05:30"},{"city":"Silchar","state":"Assam","latitude":24.8333,"longitude":92.7789,"temp":20.2,"humidity":94,"rain":0.2,"pressure":1007.0,"uv_index":7.95,"wind_gusts":20.5,"aqi":103,"pm10":38.5,"pm2_5":31.8,"mosquito_risk":6,"arthritis_risk":5,"migraine_risk":4,"frizz_risk":1,"updated_at":"2026-03-22T02:59:17.280407+05:30"},{"city":"Dibrugarh","state":"Assam","latitude":27.4728,"longitude":94.912,"temp":20.2,"humidity":92,"rain":0.1,"pressure":997.6,"uv_index":1.25,"wind_gusts":25.2,"aqi":88,"pm10":26.5,"pm2_5":20.4,"mosquito_risk":6,"arthritis_risk":5,"migraine_risk":3,"frizz_risk":1,"updated_at":"2026-03-22T02:59:17.280413+05:30"}]