[{"city":"Delhi","state":"Delhi","latitude":28.6139,"longitude":77.209,"temp":38.9,"humidity":27,"rain":0.0,"pressure":975.2,"uv_index":7.75,"wind_gusts":31.0,"aqi":261,"pm10":320.4,"pm2_5":73.3,"no2":4.6,"co":236.0,"o3":158.0,"so2":12.7,"mosquito_risk":0,"arthritis_risk":5,"migraine_risk":10,"frizz_risk":1,"updated_at":"2026-06-24T15:05:09.751290+05:30"},{"city":"Mumbai","state":"Maharashtra","latitude":19.076,"longitude":72.8777,"temp":27.7,"humidity":78,"rain":0.0,"pressure":1005.0,"uv_index":3.4,"wind_gusts":29.2,"aqi":49,"pm10":31.5,"pm2_5":16.2,"no2":18.1,"co":347.0,"o3":62.0,"so2":16.6,"mosquito_risk":7,"arthritis_risk":5,"migraine_risk":0,"frizz_risk":1,"updated_at":"2026-06-24T15:05:09.751348+05:30"},{"city":"Bangalore","state":"Karnataka","latitude":12.9716,"longitude":77.5946,"temp":28.6,"humidity":54,"rain":0.1,"pressure":910.1,"uv_index":7.95,"wind_gusts":49.3,"aqi":28,"pm10":8.3,"pm2_5":5.3,"no2":2.9,"co":228.0,"o3":81.0,"so2":2.4,"mosquito_risk":7,"arthritis_risk":5,"migraine_risk":7,"frizz_risk":1,"updated_at":"2026-06-24T15:05:09.751364+05:30"},{"city":"Hyderabad","state":"Telangana","latitude":17.385,"longitude":78.4867,"temp":32.4,"humidity":46,"rain":0.1,"pressure":948.3,"uv_index":5.8,"wind_gusts":45.7,"aqi":28,"pm10":5.6,"pm2_5":4.4,"no2":2.4,"co":226.0,"o3":83.0,"so2":1.8,"mosquito_risk":3,"arthritis_risk":5,"migraine_risk":3,"frizz_risk":1,"updated_at":"2026-06-24T15:05:09.751374+05:30"},{"city":"Chennai","state":"Tamil Nadu","latitude":13.0827,"longitude":80.2707,"temp":35.0,"humidity":47,"rain":0.0,"pressure":1002.7,"uv_index":8.85,"wind_gusts":40.3,"aqi":63,"pm10":25.6,"pm2_5":18.7,"no2":3.4,"co":250.0,"o3":139.0,"so2":5.9,"mosquito_risk":0,"arthritis_risk":5,"migraine_risk":4,"frizz_risk":1,"updated_at":"2026-06-24T15:05:09.751383+05:30"},{"city":"Kolkata","state":"West Bengal","latitude":22.5726,"longitude":88.3639,"temp":31.1,"humidity":77,"rain":0.0,"pressure":998.9,"uv_index":8.9,"wind_gusts":28.4,"aqi":151,"pm10":70.1,"pm2_5":54.9,"no2":4.4,"co":417.0,"o3":173.0,"so2":15.8,"mosquito_risk":3,"arthritis_risk":5,"migraine_risk":7,"frizz_risk":1,"updated_at":"2026-06-24T15:05:09.751392+05:30"},{"city":"Pune","state":"Maharashtra","latitude":18.5204,"longitude":73.8567,"temp":28.3,"humidity":63,"rain":0.0,"pressure":944.6,"uv_index":1.1,"wind_gusts":38.9,"aqi":25,"pm10":15.1,"pm2_5":7.5,"no2":5.9,"co":167.0,"o3":63.0,"so2":5.3,"mosquito_risk":7,"arthritis_risk":5,"migraine_risk":3,"frizz_risk":1,"updated_at":"2026-06-24T15:05:09.751399+05:30"},{"city":"Ahmedabad","state":"Gujarat","latitude":23.0225,"longitude":72.5714,"temp":39.2,"humidity":32,"rain":0.0,"pressure":994.4,"uv_index":8.0,"wind_gusts":46.8,"aqi":73,"pm10":71.7,"pm2_5":25.0,"no2":1.4,"co":129.0,"o3":85.0,"so2":2.7,"mosquito_risk":0,"arthritis_risk":5,"migraine_risk":10,"frizz_risk":1,"updated_at":"2026-06-24T15:05:09.751406+05:30"},{"city":"Jaipur","state":"Rajasthan","latitude":26.9124,"longitude":75.7873,"temp":34.4,"humidity":40,"rain":0.0,"pressure":954.0,"uv_index":8.2,"wind_gusts":49.3,"aqi":110,"pm10":234.7,"pm2_5":52.6,"no2":1.2,"co":162.0,"o3":107.0,"so2":4.0,"mosquito_risk":0,"arthritis_risk":5,"migraine_risk":7,"frizz_risk":1,"updated_at":"2026-06-24T15:05:09.751414+05:30"},{"city":"Lucknow","state":"Uttar Pradesh","latitude":26.8467,"longitude":80.9462,"temp":39.7,"humidity":28,"rain":0.0,"pressure":984.9,"uv_index":8.3,"wind_gusts":32.0,"aqi":153,"pm10":239.3,"pm2_5":55.1,"no2":1.4,"co":177.0,"o3":126.0,"so2":3.2,"mosquito_risk":0,"arthritis_risk":5,"migraine_risk":10,"frizz_risk":1,"updated_at":"2026-06-24T15:05:09.751425+05:30"},{"city":"Kanpur","state":"Uttar Pradesh","latitude":26.4499,"longitude":80.3319,"temp":40.0,"humidity":26,"rain":0.0,"pressure":983.2,"uv_index":8.3,"wind_gusts":31.7,"aqi":214,"pm10":215.1,"pm2_5":49.2,"no2":1.4,"co":152.0,"o3":125.0,"so2":3.4,"mosquito_risk":0,"arthritis_risk":5,"migraine_risk":10,"frizz_risk":1,"updated_at":"2026-06-24T15:05:09.751432+05:30"},{"city":"Chandigarh","state":"Chandigarh","latitude":30.7333,"longitude":76.7794,"temp":35.4,"humidity":38,"rain":0.0,"pressure":962.1,"uv_index":7.8,"wind_gusts":28.1,"aqi":133,"pm10":91.3,"pm2_5":40.2,"no2":2.3,"co":321.0,"o3":201.0,"so2":10.0,"mosquito_risk":0,"arthritis_risk":5,"migraine_risk":10,"frizz_risk":1,"updated_at":"2026-06-24T15:05:09.751440+05:30"},{"city":"Srinagar","state":"Jammu and Kashmir","latitude":34.0837,"longitude":74.7973,"temp":29.2,"humidity":40,"rain":0.0,"pressure":838.7,"uv_index":9.1,"wind_gusts":24.1,"aqi":75,"pm10":11.6,"pm2_5":9.5,"no2":1.5,"co":331.0,"o3":152.0,"so2":3.0,"mosquito_risk":4,"arthritis_risk":5,"migraine_risk":7,"frizz_risk":0,"updated_at":"2026-06-24T15:05:09.751447+05:30"},{"city":"Jammu","state":"Jammu and Kashmir","latitude":32.7266,"longitude":74.857,"temp":37.8,"humidity":30,"rain":0.0,"pressure":965.2,"uv_index":8.65,"wind_gusts":37.1,"aqi":103,"pm10":48.2,"pm2_5":27.2,"no2":1.6,"co":247.0,"o3":159.0,"so2":5.2,"mosquito_risk":0,"arthritis_risk":5,"migraine_risk":10,"frizz_risk":1,"updated_at":"2026-06-24T15:05:09.751453+05:30"},{"city":"Amritsar","state":"Punjab","latitude":31.634,"longitude":74.8723,"temp":36.9,"humidity":34,"rain":0.0,"pressure":973.0,"uv_index":8.45,"wind_gusts":41.4,"aqi":133,"pm10":76.4,"pm2_5":38.2,"no2":1.7,"co":265.0,"o3":176.0,"so2":7.8,"mosquito_risk":0,"arthritis_risk":5,"migraine_risk":10,"frizz_risk":1,"updated_at":"2026-06-24T15:05:09.751460+05:30"},{"city":"Ludhiana","state":"Punjab","latitude":30.901,"longitude":75.8573,"temp":37.4,"humidity":31,"rain":0.0,"pressure":971.4,"uv_index":8.05,"wind_gusts":33.5,"aqi":154,"pm10":226.3,"pm2_5":60.3,"no2":1.8,"co":331.0,"o3":165.0,"so2":6.6,"mosquito_risk":0,"arthritis_risk":5,"migraine_risk":10,"frizz_risk":1,"updated_at":"2026-06-24T15:05:09.751468+05:30"},{"city":"Jalandhar","state":"Punjab","latitude":31.326,"longitude":75.5762,"temp":38.9,"humidity":29,"rain":0.0,"pressure":971.8,"uv_index":8.25,"wind_gusts":27.0,"aqi":147,"pm10":95.5,"pm2_5":43.1,"no2":1.9,"co":345.0,"o3":186.0,"so2":6.8,"mosquito_risk":0,"arthritis_risk":5,"migraine_risk":10,"frizz_risk":1,"updated_at":"2026-06-24T15:05:09.751475+05:30"},{"city":"Dehradun","state":"Uttarakhand","latitude":30.6284,"longitude":78.0322,"temp":22.2,"humidity":70,"rain":0.1,"pressure":828.3,"uv_index":7.65,"wind_gusts":27.0,"aqi":96,"pm10":19.0,"pm2_5":17.0,"no2":1.1,"co":206.0,"o3":159.0,"so2":3.6,"mosquito_risk":6,"arthritis_risk":5,"migraine_risk":7,"frizz_risk":1,"updated_at":"2026-06-24T15:05:09.751482+05:30"},{"city":"Shimla","state":"Himachal Pradesh","latitude":31.1048,"longitude":77.1734,"temp":19.3,"humidity":70,"rain":0.0,"pressure":782.9,"uv_index":7.7,"wind_gusts":34.2,"aqi":86,"pm10":29.4,"pm2_5":23.9,"no2":1.2,"co":252.0,"o3":176.0,"so2":8.6,"mosquito_risk":3,"arthritis_risk":5,"migraine_risk":7,"frizz_risk":0,"updated_at":"2026-06-24T15:05:09.751488+05:30"},{"city":"Manali","state":"Himachal Pradesh","latitude":32.2396,"longitude":77.1887,"temp":23.8,"humidity":57,"rain":0.0,"pressure":817.3,"uv_index":9.05,"wind_gusts":35.3,"aqi":53,"pm10":11.4,"pm2_5":10.7,"no2":10.1,"co":148.0,"o3":115.0,"so2":0.3,"mosquito_risk":0,"arthritis_risk":5,"migraine_risk":7,"frizz_risk":0,"updated_at":"2026-06-24T15:05:09.751499+05:30"},{"city":"Gurgaon","state":"Haryana","latitude":28.4595,"longitude":77.0266,"temp":38.3,"humidity":29,"rain":0.0,"pressure":973.9,"uv_index":7.8,"wind_gusts":28.8,"aqi":582,"pm10":624.0,"pm2_5":102.9,"no2":4.0,"co":182.0,"o3":148.0,"so2":9.1,"mosquito_risk":0,"arthritis_risk":5,"migraine_risk":10,"frizz_risk":1,"updated_at":"2026-06-24T15:05:09.751506+05:30"},{"city":"Noida","state":"Uttar Pradesh","latitude":28.5355,"longitude":77.391,"temp":37.8,"humidity":33,"rain":0.0,"pressure":976.6,"uv_index":7.8,"wind_gusts":23.0,"aqi":582,"pm10":624.0,"pm2_5":102.9,"no2":4.0,"co":237.0,"o3":148.0,"so2":9.1,"mosquito_risk":0,"arthritis_risk":5,"migraine_risk":10,"frizz_risk":1,"updated_at":"2026-06-24T15:05:09.751513+05:30"},{"city":"Ghaziabad","state":"Uttar Pradesh","latitude":28.6692,"longitude":77.4538,"temp":37.7,"humidity":33,"rain":0.0,"pressure":975.0,"uv_index":7.75,"wind_gusts":23.0,"aqi":260,"pm10":323.2,"pm2_5":82.9,"no2":3.5,"co":219.0,"o3":189.0,"so2":18.1,"mosquito_risk":0,"arthritis_risk":5,"migraine_risk":10,"frizz_risk":1,"updated_at":"2026-06-24T15:05:09.751520+05:30"},{"city":"Faridabad","state":"Haryana","latitude":28.4089,"longitude":77.3178,"temp":37.7,"humidity":30,"rain":0.0,"pressure":976.1,"uv_index":7.8,"wind_gusts":27.0,"aqi":582,"pm10":624.0,"pm2_5":102.9,"no2":4.0,"co":191.0,"o3":148.0,"so2":9.1,"mosquito_risk":0,"arthritis_risk":5,"migraine_risk":10,"frizz_risk":1,"updated_at":"2026-06-24T15:05:09.751527+05:30"},{"city":"Meerut","state":"Uttar Pradesh","latitude":28.9845,"longitude":77.7064,"temp":36.5,"humidity":35,"rain":0.0,"pressure":974.3,"uv_index":7.7,"wind_gusts":29.9,"aqi":260,"pm10":323.2,"pm2_5":82.9,"no2":3.5,"co":170.0,"o3":189.0,"so2":18.1,"mosquito_risk":0,"arthritis_risk":5,"migraine_risk":10,"frizz_risk":1,"updated_at":"2026-06-24T15:05:09.751533+05:30"},{"city":"Agra","state":"Uttar Pradesh","latitude":27.1767,"longitude":78.0081,"temp":37.9,"humidity":31,"rain":0.0,"pressure":980.0,"uv_index":8.1,"wind_gusts":25.9,"aqi":229,"pm10":489.9,"pm2_5":68.9,"no2":1.7,"co":146.0,"o3":123.0,"so2":2.8,"mosquito_risk":0,"arthritis_risk":5,"migraine_risk":10,"frizz_risk":1,"updated_at":"2026-06-24T15:05:09.751540+05:30"},{"city":"Varanasi","state":"Uttar Pradesh","latitude":25.3176,"longitude":82.9739,"temp":40.3,"humidity":29,"rain":0.0,"pressure":988.5,"uv_index":8.75,"wind_gusts":37.8,"aqi":105,"pm10":161.6,"pm2_5":44.2,"no2":1.5,"co":204.0,"o3":147.0,"so2":6.9,"mosquito_risk":0,"arthritis_risk":5,"migraine_risk":10,"frizz_risk":1,"updated_at":"2026-06-24T15:05:09.751547+05:30"},{"city":"Prayagraj","state":"Uttar Pradesh","latitude":25.4358,"longitude":81.8463,"temp":40.1,"humidity":29,"rain":0.0,"pressure":987.0,"uv_index":8.7,"wind_gusts":37.4,"aqi":113,"pm10":220.7,"pm2_5":58.9,"no2":1.6,"co":162.0,"o3":161.0,"so2":7.9,"mosquito_risk":0,"arthritis_risk":5,"migraine_risk":10,"frizz_risk":1,"updated_at":"2026-06-24T15:05:09.751553+05:30"},{"city":"Gorakhpur","state":"Uttar Pradesh","latitude":26.7606,"longitude":83.3732,"temp":38.5,"humidity":34,"rain":0.0,"pressure":988.4,"uv_index":8.6,"wind_gusts":25.9,"aqi":157,"pm10":175.1,"pm2_5":62.4,"no2":1.8,"co":261.0,"o3":194.0,"so2":9.3,"mosquito_risk":0,"arthritis_risk":5,"migraine_risk":10,"frizz_risk":1,"updated_at":"2026-06-24T15:05:09.751559+05:30"},{"city":"Bareilly","state":"Uttar Pradesh","latitude":28.367,"longitude":79.4304,"temp":35.1,"humidity":41,"rain":0.0,"pressure":979.3,"uv_index":8.1,"wind_gusts":27.4,"aqi":154,"pm10":362.3,"pm2_5":83.6,"no2":1.6,"co":226.0,"o3":174.0,"so2":10.1,"mosquito_risk":0,"arthritis_risk":5,"migraine_risk":10,"frizz_risk":1,"updated_at":"2026-06-24T15:05:09.751567+05:30"},{"city":"Aligarh","state":"Uttar Pradesh","latitude":27.8974,"longitude":78.088,"temp":37.1,"humidity":32,"rain":0.0,"pressure":978.1,"uv_index":7.95,"wind_gusts":25.2,"aqi":385,"pm10":517.8,"pm2_5":86.1,"no2":1.9,"co":158.0,"o3":135.0,"so2":7.3,"mosquito_risk":0,"arthritis_risk":5,"migraine_risk":10,"frizz_risk":1,"updated_at":"2026-06-24T15:05:09.751574+05:30"},{"city":"Moradabad","state":"Uttar Pradesh","latitude":28.8386,"longitude":78.7733,"temp":36.9,"humidity":37,"rain":0.0,"pressure":976.1,"uv_index":7.9,"wind_gusts":33.8,"aqi":166,"pm10":295.2,"pm2_5":84.3,"no2":2.6,"co":184.0,"o3":197.0,"so2":12.4,"mosquito_risk":0,"arthritis_risk":5,"migraine_risk":10,"frizz_risk":1,"updated_at":"2026-06-24T15:05:09.751581+05:30"},{"city":"Saharanpur","state":"Uttar Pradesh","latitude":29.9637,"longitude":77.546,"temp":35.5,"humidity":37,"rain":0.0,"pressure":968.7,"uv_index":7.45,"wind_gusts":30.6,"aqi":156,"pm10":156.0,"pm2_5":54.0,"no2":2.4,"co":203.0,"o3":197.0,"so2":14.7,"mosquito_risk":0,"arthritis_risk":5,"migraine_risk":10,"frizz_risk":1,"updated_at":"2026-06-24T15:05:09.751587+05:30"},{"city":"Jhansi","state":"Uttar Pradesh","latitude":25.4484,"longitude":78.5685,"temp":38.0,"humidity":33,"rain":0.0,"pressure":970.4,"uv_index":8.45,"wind_gusts":29.9,"aqi":80,"pm10":53.0,"pm2_5":22.8,"no2":1.1,"co":138.0,"o3":115.0,"so2":5.0,"mosquito_risk":0,"arthritis_risk":5,"migraine_risk":10,"frizz_risk":1,"updated_at":"2026-06-24T15:05:13.089607+05:30"},{"city":"Surat","state":"Gujarat","latitude":21.1702,"longitude":72.8311,"temp":30.3,"humidity":71,"rain":0.0,"pressure":1001.7,"uv_index":6.15,"wind_gusts":51.1,"aqi":78,"pm10":53.2,"pm2_5":28.9,"no2":13.5,"co":217.0,"o3":67.0,"so2":43.1,"mosquito_risk":3,"arthritis_risk":5,"migraine_risk":4,"frizz_risk":1,"updated_at":"2026-06-24T15:05:13.089639+05:30"},{"city":"Vadodara","state":"Gujarat","latitude":22.3072,"longitude":73.1812,"temp":38.2,"humidity":34,"rain":0.0,"pressure":997.1,"uv_index":5.95,"wind_gusts":52.6,"aqi":71,"pm10":80.3,"pm2_5":28.1,"no2":1.7,"co":138.0,"o3":102.0,"so2":4.4,"mosquito_risk":0,"arthritis_risk":5,"migraine_risk":6,"frizz_risk":1,"updated_at":"2026-06-24T15:05:13.089649+05:30"},{"city":"Rajkot","state":"Gujarat","latitude":22.3039,"longitude":70.8022,"temp":36.6,"humidity":41,"rain":0.0,"pressure":987.5,"uv_index":7.55,"wind_gusts":47.9,"aqi":68,"pm10":64.3,"pm2_5":26.1,"no2":1.1,"co":105.0,"o3":97.0,"so2":4.6,"mosquito_risk":0,"arthritis_risk":5,"migraine_risk":10,"frizz_risk":1,"updated_at":"2026-06-24T15:05:13.089657+05:30"},{"city":"Thane","state":"Maharashtra","latitude":19.2183,"longitude":72.9781,"temp":27.1,"humidity":81,"rain":0.2,"pressure":1004.4,"uv_index":2.7,"wind_gusts":23.4,"aqi":49,"pm10":31.5,"pm2_5":16.2,"no2":18.1,"co":315.0,"o3":62.0,"so2":16.6,"mosquito_risk":10,"arthritis_risk":5,"migraine_risk":0,"frizz_risk":1,"updated_at":"2026-06-24T15:05:13.089664+05:30"},{"city":"Nagpur","state":"Maharashtra","latitude":21.1458,"longitude":79.0882,"temp":28.4,"humidity":75,"rain":0.1,"pressure":967.5,"uv_index":8.8,"wind_gusts":36.0,"aqi":40,"pm10":12.7,"pm2_5":12.7,"no2":13.1,"co":162.0,"o3":100.0,"so2":32.9,"mosquito_risk":10,"arthritis_risk":5,"migraine_risk":7,"frizz_risk":1,"updated_at":"2026-06-24T15:05:13.089671+05:30"},{"city":"Nashik","state":"Maharashtra","latitude":19.9975,"longitude":73.7898,"temp":28.5,"humidity":57,"rain":0.0,"pressure":941.5,"uv_index":1.5,"wind_gusts":36.7,"aqi":24,"pm10":21.5,"pm2_5":7.5,"no2":2.2,"co":142.0,"o3":64.0,"so2":1.3,"mosquito_risk":4,"arthritis_risk":5,"migraine_risk":3,"frizz_risk":1,"updated_at":"2026-06-24T15:05:13.089678+05:30"},{"city":"Aurangabad","state":"Maharashtra","latitude":19.8762,"longitude":75.3433,"temp":29.4,"humidity":52,"rain":0.0,"pressure":939.8,"uv_index":2.6,"wind_gusts":34.2,"aqi":27,"pm10":37.7,"pm2_5":13.9,"no2":1.5,"co":151.0,"o3":76.0,"so2":2.6,"mosquito_risk":4,"arthritis_risk":5,"migraine_risk":3,"frizz_risk":1,"updated_at":"2026-06-24T15:05:13.089684+05:30"},{"city":"Solapur","state":"Maharashtra","latitude":17.6599,"longitude":75.9064,"temp":32.0,"humidity":41,"rain":0.0,"pressure":953.1,"uv_index":5.0,"wind_gusts":60.8,"aqi":30,"pm10":14.7,"pm2_5":6.3,"no2":1.4,"co":155.0,"o3":82.0,"so2":1.2,"mosquito_risk":0,"arthritis_risk":5,"migraine_risk":3,"frizz_risk":1,"updated_at":"2026-06-24T15:05:13.089691+05:30"},{"city":"Kolhapur","state":"Maharashtra","latitude":16.705,"longitude":74.2433,"temp":26.0,"humidity":74,"rain":0.0,"pressure":945.1,"uv_index":4.65,"wind_gusts":51.5,"aqi":26,"pm10":7.7,"pm2_5":4.3,"no2":2.8,"co":143.0,"o3":63.0,"so2":1.4,"mosquito_risk":7,"arthritis_risk":5,"migraine_risk":3,"frizz_risk":1,"updated_at":"2026-06-24T15:05:13.089697+05:30"},{"city":"Goa","state":"Goa","latitude":15.2993,"longitude":74.124,"temp":26.2,"humidity":90,"rain":0.1,"pressure":996.9,"uv_index":4.6,"wind_gusts":29.5,"aqi":35,"pm10":17.5,"pm2_5":9.2,"no2":1.5,"co":159.0,"o3":59.0,"so2":1.1,"mosquito_risk":10,"arthritis_risk":5,"migraine_risk":3,"frizz_risk":1,"updated_at":"2026-06-24T15:05:13.089704+05:30"},{"city":"Jodhpur","state":"Rajasthan","latitude":26.2389,"longitude":73.0243,"temp":37.7,"humidity":36,"rain":0.0,"pressure":975.6,"uv_index":8.4,"wind_gusts":42.5,"aqi":140,"pm10":229.6,"pm2_5":48.1,"no2":0.7,"co":110.0,"o3":84.0,"so2":1.6,"mosquito_risk":0,"arthritis_risk":5,"migraine_risk":10,"frizz_risk":1,"updated_at":"2026-06-24T15:05:13.089711+05:30"},{"city":"Udaipur","state":"Rajasthan","latitude":24.5854,"longitude":73.7125,"temp":34.8,"humidity":37,"rain":0.0,"pressure":940.6,"uv_index":8.75,"wind_gusts":36.0,"aqi":71,"pm10":105.2,"pm2_5":28.6,"no2":0.6,"co":110.0,"o3":84.0,"so2":2.2,"mosquito_risk":0,"arthritis_risk":5,"migraine_risk":7,"frizz_risk":1,"updated_at":"2026-06-24T15:05:13.089718+05:30"},{"city":"Kota","state":"Rajasthan","latitude":25.2138,"longitude":75.8648,"temp":29.1,"humidity":75,"rain":0.1,"pressure":972.9,"uv_index":8.3,"wind_gusts":59.4,"aqi":81,"pm10":94.8,"pm2_5":30.4,"no2":1.0,"co":137.0,"o3":106.0,"so2":4.4,"mosquito_risk":10,"arthritis_risk":5,"migraine_risk":7,"frizz_risk":1,"updated_at":"2026-06-24T15:05:13.089724+05:30"},{"city":"Bikaner","state":"Rajasthan","latitude":28.0229,"longitude":73.3119,"temp":37.9,"humidity":34,"rain":0.1,"pressure":974.2,"uv_index":8.45,"wind_gusts":28.8,"aqi":156,"pm10":251.5,"pm2_5":65.9,"no2":0.4,"co":118.0,"o3":90.0,"so2":2.6,"mosquito_risk":3,"arthritis_risk":5,"migraine_risk":10,"frizz_risk":1,"updated_at":"2026-06-24T15:05:13.089730+05:30"},{"city":"Ajmer","state":"Rajasthan","latitude":26.4499,"longitude":74.6399,"temp":32.7,"humidity":52,"rain":0.0,"pressure":949.2,"uv_index":8.35,"wind_gusts":44.6,"aqi":85,"pm10":132.7,"pm2_5":36.2,"no2":0.7,"co":119.0,"o3":90.0,"so2":2.9,"mosquito_risk":0,"arthritis_risk":5,"migraine_risk":7,"frizz_risk":1,"updated_at":"2026-06-24T15:05:13.089737+05:30"},{"city":"Gwalior","state":"Madhya Pradesh","latitude":26.2183,"longitude":78.1828,"temp":38.5,"humidity":28,"rain":0.0,"pressure":975.5,"uv_index":8.25,"wind_gusts":31.7,"aqi":104,"pm10":96.2,"pm2_5":29.1,"no2":0.7,"co":138.0,"o3":108.0,"so2":2.5,"mosquito_risk":0,"arthritis_risk":5,"migraine_risk":10,"frizz_risk":1,"updated_at":"2026-06-24T15:05:13.089743+05:30"},{"city":"Indore","state":"Madhya Pradesh","latitude":22.7196,"longitude":75.8577,"temp":27.7,"humidity":78,"rain":0.2,"pressure":942.4,"uv_index":2.35,"wind_gusts":42.8,"aqi":72,"pm10":51.6,"pm2_5":25.0,"no2":1.7,"co":269.0,"o3":106.0,"so2":4.5,"mosquito_risk":10,"arthritis_risk":5,"migraine_risk":3,"frizz_risk":1,"updated_at":"2026-06-24T15:05:13.089750+05:30"},{"city":"Bhopal","state":"Madhya Pradesh","latitude":23.2599,"longitude":77.4126,"temp":25.5,"humidity":91,"rain":0.4,"pressure":947.8,"uv_index":8.25,"wind_gusts":33.5,"aqi":57,"pm10":51.8,"pm2_5":25.4,"no2":1.1,"co":190.0,"o3":119.0,"so2":4.4,"mosquito_risk":10,"arthritis_risk":5,"migraine_risk":7,"frizz_risk":1,"updated_at":"2026-06-24T15:05:13.089757+05:30"},{"city":"Jabalpur","state":"Madhya Pradesh","latitude":23.1815,"longitude":79.9864,"temp":34.1,"humidity":47,"rain":0.0,"pressure":955.3,"uv_index":8.8,"wind_gusts":27.7,"aqi":50,"pm10":22.2,"pm2_5":13.4,"no2":1.0,"co":146.0,"o3":115.0,"so2":3.0,"mosquito_risk":0,"arthritis_risk":5,"migraine_risk":7,"frizz_risk":1,"updated_at":"2026-06-24T15:05:13.089763+05:30"},{"city":"Ujjain","state":"Madhya Pradesh","latitude":23.1765,"longitude":75.7885,"temp":30.4,"humidity":60,"rain":0.0,"pressure":947.6,"uv_index":1.15,"wind_gusts":40.3,"aqi":76,"pm10":52.4,"pm2_5":24.1,"no2":1.1,"co":168.0,"o3":102.0,"so2":3.7,"mosquito_risk":0,"arthritis_risk":5,"migraine_risk":3,"frizz_risk":1,"updated_at":"2026-06-24T15:05:13.089770+05:30"},{"city":"Visakhapatnam","state":"Andhra Pradesh","latitude":17.6868,"longitude":83.2185,"temp":33.3,"humidity":56,"rain":0.0,"pressure":997.5,"uv_index":7.75,"wind_gusts":42.5,"aqi":73,"pm10":26.9,"pm2_5":22.4,"no2":7.1,"co":323.0,"o3":132.0,"so2":25.4,"mosquito_risk":0,"arthritis_risk":5,"migraine_risk":7,"frizz_risk":1,"updated_at":"2026-06-24T15:05:13.089776+05:30"},{"city":"Vijayawada","state":"Andhra Pradesh","latitude":16.5062,"longitude":80.648,"temp":34.7,"humidity":48,"rain":0.0,"pressure":997.0,"uv_index":8.6,"wind_gusts":36.4,"aqi":62,"pm10":6.0,"pm2_5":5.6,"no2":1.5,"co":124.0,"o3":93.0,"so2":3.5,"mosquito_risk":0,"arthritis_risk":5,"migraine_risk":7,"frizz_risk":1,"updated_at":"2026-06-24T15:05:13.089782+05:30"},{"city":"Guntur","state":"Andhra Pradesh","latitude":16.3067,"longitude":80.4365,"temp":35.2,"humidity":46,"rain":0.0,"pressure":998.2,"uv_index":8.25,"wind_gusts":40.3,"aqi":54,"pm10":5.3,"pm2_5":4.9,"no2":1.2,"co":120.0,"o3":91.0,"so2":3.0,"mosquito_risk":0,"arthritis_risk":5,"migraine_risk":10,"frizz_risk":1,"updated_at":"2026-06-24T15:05:13.089789+05:30"},{"city":"Nellore","state":"Andhra Pradesh","latitude":14.4426,"longitude":79.9865,"temp":36.2,"humidity":40,"rain":0.0,"pressure":1000.9,"uv_index":8.8,"wind_gusts":47.2,"aqi":48,"pm10":10.6,"pm2_5":7.1,"no2":1.9,"co":106.0,"o3":96.0,"so2":3.6,"mosquito_risk":0,"arthritis_risk":5,"migraine_risk":7,"frizz_risk":1,"updated_at":"2026-06-24T15:05:13.089796+05:30"},{"city":"Kurnool","state":"Andhra Pradesh","latitude":15.8281,"longitude":78.0373,"temp":34.4,"humidity":43,"rain":0.0,"pressure":972.5,"uv_index":7.05,"wind_gusts":52.9,"aqi":29,"pm10":10.5,"pm2_5":6.0,"no2":1.2,"co":112.0,"o3":81.0,"so2":1.2,"mosquito_risk":0,"arthritis_risk":5,"migraine_risk":7,"frizz_risk":1,"updated_at":"2026-06-24T15:05:13.089803+05:30"},{"city":"Kakinada","state":"Andhra Pradesh","latitude":16.9891,"longitude":82.2475,"temp":33.9,"humidity":50,"rain":0.0,"pressure":1001.7,"uv_index":8.2,"wind_gusts":36.7,"aqi":64,"pm10":19.4,"pm2_5":14.3,"no2":2.0,"co":171.0,"o3":106.0,"so2":4.3,"mosquito_risk":0,"arthritis_risk":5,"migraine_risk":4,"frizz_risk":1,"updated_at":"2026-06-24T15:05:13.089809+05:30"},{"city":"Tirupati","state":"Andhra Pradesh","latitude":13.6288,"longitude":79.4192,"temp":36.1,"humidity":38,"rain":0.0,"pressure":986.7,"uv_index":8.55,"wind_gusts":49.3,"aqi":50,"pm10":10.2,"pm2_5":5.8,"no2":1.2,"co":112.0,"o3":78.0,"so2":1.2,"mosquito_risk":0,"arthritis_risk":5,"migraine_risk":10,"frizz_risk":1,"updated_at":"2026-06-24T15:05:13.089816+05:30"},{"city":"Warangal","state":"Telangana","latitude":17.9689,"longitude":79.5941,"temp":33.6,"humidity":50,"rain":0.0,"pressure":973.0,"uv_index":8.65,"wind_gusts":42.5,"aqi":41,"pm10":8.9,"pm2_5":8.7,"no2":1.7,"co":133.0,"o3":80.0,"so2":1.5,"mosquito_risk":0,"arthritis_risk":5,"migraine_risk":7,"frizz_risk":1,"updated_at":"2026-06-24T15:05:13.089822+05:30"},{"city":"Nizamabad","state":"Telangana","latitude":18.6725,"longitude":78.0941,"temp":30.0,"humidity":65,"rain":0.1,"pressure":959.3,"uv_index":5.35,"wind_gusts":44.6,"aqi":25,"pm10":5.1,"pm2_5":4.6,"no2":2.5,"co":150.0,"o3":76.0,"so2":2.7,"mosquito_risk":10,"arthritis_risk":5,"migraine_risk":3,"frizz_risk":1,"updated_at":"2026-06-24T15:05:13.089829+05:30"},{"city":"Mysore","state":"Karnataka","latitude":12.2958,"longitude":76.6396,"temp":27.7,"humidity":60,"rain":0.1,"pressure":927.3,"uv_index":4.55,"wind_gusts":50.0,"aqi":26,"pm10":6.4,"pm2_5":3.9,"no2":1.7,"co":117.0,"o3":69.0,"so2":1.3,"mosquito_risk":7,"arthritis_risk":5,"migraine_risk":3,"frizz_risk":1,"updated_at":"2026-06-24T15:05:13.089835+05:30"},{"city":"Mangalore","state":"Karnataka","latitude":12.9141,"longitude":74.856,"temp":27.1,"humidity":85,"rain":0.0,"pressure":1006.4,"uv_index":8.65,"wind_gusts":45.4,"aqi":41,"pm10":10.9,"pm2_5":6.4,"no2":1.7,"co":101.0,"o3":55.0,"so2":1.4,"mosquito_risk":7,"arthritis_risk":5,"migraine_risk":4,"frizz_risk":1,"updated_at":"2026-06-24T15:05:13.089841+05:30"},{"city":"Hubli-Dharwad","state":"Karnataka","latitude":15.3647,"longitude":75.124,"temp":26.3,"humidity":70,"rain":0.1,"pressure":938.9,"uv_index":8.1,"wind_gusts":57.2,"aqi":25,"pm10":8.9,"pm2_5":4.8,"no2":2.1,"co":109.0,"o3":59.0,"so2":0.8,"mosquito_risk":10,"arthritis_risk":5,"migraine_risk":7,"frizz_risk":1,"updated_at":"2026-06-24T15:05:13.089847+05:30"},{"city":"Belgaum","state":"Karnataka","latitude":15.8497,"longitude":74.4977,"temp":22.6,"humidity":93,"rain":0.0,"pressure":923.4,"uv_index":6.15,"wind_gusts":46.1,"aqi":24,"pm10":10.3,"pm2_5":5.3,"no2":2.1,"co":104.0,"o3":57.0,"so2":1.0,"mosquito_risk":3,"arthritis_risk":5,"migraine_risk":7,"frizz_risk":1,"updated_at":"2026-06-24T15:05:16.426034+05:30"},{"city":"Coimbatore","state":"Tamil Nadu","latitude":11.0168,"longitude":76.9558,"temp":28.1,"humidity":68,"rain":0.0,"pressure":960.3,"uv_index":8.6,"wind_gusts":50.8,"aqi":30,"pm10":6.7,"pm2_5":5.0,"no2":1.6,"co":140.0,"o3":75.0,"so2":1.7,"mosquito_risk":7,"arthritis_risk":5,"migraine_risk":7,"frizz_risk":1,"updated_at":"2026-06-24T15:05:16.426070+05:30"},{"city":"Madurai","state":"Tamil Nadu","latitude":9.9252,"longitude":78.1198,"temp":34.3,"humidity":46,"rain":0.1,"pressure":990.5,"uv_index":8.05,"wind_gusts":33.1,"aqi":62,"pm10":13.4,"pm2_5":8.8,"no2":2.4,"co":157.0,"o3":92.0,"so2":2.1,"mosquito_risk":3,"arthritis_risk":5,"migraine_risk":7,"frizz_risk":1,"updated_at":"2026-06-24T15:05:16.426083+05:30"},{"city":"Trichy","state":"Tamil Nadu","latitude":10.7905,"longitude":78.7047,"temp":35.2,"humidity":43,"rain":0.0,"pressure":996.6,"uv_index":7.95,"wind_gusts":49.0,"aqi":31,"pm10":10.7,"pm2_5":7.5,"no2":1.9,"co":114.0,"o3":88.0,"so2":2.1,"mosquito_risk":0,"arthritis_risk":5,"migraine_risk":10,"frizz_risk":1,"updated_at":"2026-06-24T15:05:16.426093+05:30"},{"city":"Salem","state":"Tamil Nadu","latitude":11.6643,"longitude":78.146,"temp":31.2,"humidity":63,"rain":0.1,"pressure":974.9,"uv_index":8.85,"wind_gusts":39.2,"aqi":53,"pm10":18.9,"pm2_5":12.3,"no2":2.1,"co":202.0,"o3":113.0,"so2":5.4,"mosquito_risk":6,"arthritis_risk":5,"migraine_risk":7,"frizz_risk":1,"updated_at":"2026-06-24T15:05:16.426103+05:30"},{"city":"Tirunelveli","state":"Tamil Nadu","latitude":8.7139,"longitude":77.7567,"temp":35.9,"humidity":38,"rain":0.0,"pressure":1000.8,"uv_index":7.7,"wind_gusts":38.5,"aqi":28,"pm10":7.1,"pm2_5":5.5,"no2":1.7,"co":118.0,"o3":78.0,"so2":1.4,"mosquito_risk":0,"arthritis_risk":5,"migraine_risk":7,"frizz_risk":1,"updated_at":"2026-06-24T15:05:16.426113+05:30"},{"city":"Vellore","state":"Tamil Nadu","latitude":12.9165,"longitude":79.1325,"temp":34.7,"humidity":40,"rain":0.0,"pressure":980.7,"uv_index":8.2,"wind_gusts":49.0,"aqi":42,"pm10":16.9,"pm2_5":10.4,"no2":1.8,"co":126.0,"o3":94.0,"so2":2.8,"mosquito_risk":0,"arthritis_risk":5,"migraine_risk":7,"frizz_risk":1,"updated_at":"2026-06-24T15:05:16.426122+05:30"},{"city":"Erode","state":"Tamil Nadu","latitude":11.341,"longitude":77.7172,"temp":34.5,"humidity":42,"rain":0.0,"pressure":986.3,"uv_index":8.75,"wind_gusts":42.5,"aqi":48,"pm10":10.9,"pm2_5":7.6,"no2":2.0,"co":162.0,"o3":97.0,"so2":2.0,"mosquito_risk":0,"arthritis_risk":5,"migraine_risk":7,"frizz_risk":1,"updated_at":"2026-06-24T15:05:16.426131+05:30"},{"city":"Kochi","state":"Kerala","latitude":9.9312,"longitude":76.2673,"temp":28.3,"humidity":82,"rain":0.0,"pressure":1008.7,"uv_index":7.1,"wind_gusts":34.6,"aqi":48,"pm10":9.5,"pm2_5":6.5,"no2":2.7,"co":113.0,"o3":59.0,"so2":2.3,"mosquito_risk":7,"arthritis_risk":0,"migraine_risk":4,"frizz_risk":1,"updated_at":"2026-06-24T15:05:16.426140+05:30"},{"city":"Thiruvananthapuram","state":"Kerala","latitude":8.5241,"longitude":76.9366,"temp":28.5,"humidity":79,"rain":0.0,"pressure":1007.8,"uv_index":7.25,"wind_gusts":42.1,"aqi":31,"pm10":10.7,"pm2_5":6.5,"no2":0.9,"co":97.0,"o3":61.0,"so2":0.9,"mosquito_risk":7,"arthritis_risk":5,"migraine_risk":4,"frizz_risk":1,"updated_at":"2026-06-24T15:05:16.426149+05:30"},{"city":"Kozhikode","state":"Kerala","latitude":11.2588,"longitude":75.7804,"temp":26.4,"humidity":90,"rain":0.3,"pressure":1007.9,"uv_index":6.5,"wind_gusts":33.5,"aqi":25,"pm10":8.7,"pm2_5":5.0,"no2":0.4,"co":124.0,"o3":57.0,"so2":0.6,"mosquito_risk":10,"arthritis_risk":5,"migraine_risk":4,"frizz_risk":1,"updated_at":"2026-06-24T15:05:16.426158+05:30"},{"city":"Thrissur","state":"Kerala","latitude":10.5276,"longitude":76.2144,"temp":27.2,"humidity":86,"rain":0.0,"pressure":1007.0,"uv_index":7.5,"wind_gusts":31.3,"aqi":50,"pm10":8.2,"pm2_5":5.7,"no2":1.7,"co":126.0,"o3":55.0,"so2":1.1,"mosquito_risk":7,"arthritis_risk":5,"migraine_risk":4,"frizz_risk":1,"updated_at":"2026-06-24T15:05:16.426167+05:30"},{"city":"Kannur","state":"Kerala","latitude":11.8745,"longitude":75.3704,"temp":25.9,"humidity":91,"rain":0.1,"pressure":1007.4,"uv_index":7.7,"wind_gusts":34.6,"aqi":34,"pm10":8.0,"pm2_5":4.8,"no2":1.3,"co":141.0,"o3":55.0,"so2":0.9,"mosquito_risk":10,"arthritis_risk":5,"migraine_risk":4,"frizz_risk":1,"updated_at":"2026-06-24T15:05:16.426175+05:30"},{"city":"Patna","state":"Bihar","latitude":25.5941,"longitude":85.1376,"temp":38.6,"humidity":34,"rain":0.0,"pressure":991.6,"uv_index":8.85,"wind_gusts":32.0,"aqi":163,"pm10":120.6,"pm2_5":49.7,"no2":2.4,"co":211.0,"o3":179.0,"so2":7.8,"mosquito_risk":0,"arthritis_risk":5,"migraine_risk":10,"frizz_risk":1,"updated_at":"2026-06-24T15:05:16.426183+05:30"},{"city":"Gaya","state":"Bihar","latitude":24.7914,"longitude":85.0002,"temp":37.8,"humidity":39,"rain":0.0,"pressure":985.5,"uv_index":8.9,"wind_gusts":34.6,"aqi":128,"pm10":98.3,"pm2_5":38.2,"no2":1.5,"co":191.0,"o3":151.0,"so2":7.3,"mosquito_risk":0,"arthritis_risk":5,"migraine_risk":10,"frizz_risk":1,"updated_at":"2026-06-24T15:05:16.426192+05:30"},{"city":"Muzaffarpur","state":"Bihar","latitude":26.1209,"longitude":85.3647,"temp":36.2,"humidity":48,"rain":0.0,"pressure":991.7,"uv_index":8.8,"wind_gusts":30.2,"aqi":167,"pm10":129.0,"pm2_5":64.7,"no2":3.1,"co":344.0,"o3":219.0,"so2":13.0,"mosquito_risk":0,"arthritis_risk":5,"migraine_risk":10,"frizz_risk":1,"updated_at":"2026-06-24T15:05:16.426200+05:30"},{"city":"Bhagalpur","state":"Bihar","latitude":25.2425,"longitude":87.0117,"temp":36.4,"humidity":47,"rain":0.0,"pressure":992.4,"uv_index":8.8,"wind_gusts":26.6,"aqi":156,"pm10":113.4,"pm2_5":56.6,"no2":3.0,"co":255.0,"o3":199.0,"so2":18.0,"mosquito_risk":0,"arthritis_risk":5,"migraine_risk":10,"frizz_risk":1,"updated_at":"2026-06-24T15:05:16.426209+05:30"},{"city":"Ranchi","state":"Jharkhand","latitude":23.3441,"longitude":85.3096,"temp":31.4,"humidity":53,"rain":0.1,"pressure":932.1,"uv_index":7.65,"wind_gusts":33.5,"aqi":101,"pm10":52.2,"pm2_5":28.5,"no2":1.3,"co":191.0,"o3":141.0,"so2":8.0,"mosquito_risk":3,"arthritis_risk":5,"migraine_risk":7,"frizz_risk":1,"updated_at":"2026-06-24T15:05:16.426218+05:30"},{"city":"Jamshedpur","state":"Jharkhand","latitude":22.8046,"longitude":86.2029,"temp":34.2,"humidity":55,"rain":0.0,"pressure":983.6,"uv_index":9.1,"wind_gusts":32.4,"aqi":134,"pm10":75.4,"pm2_5":41.4,"no2":2.5,"co":189.0,"o3":173.0,"so2":17.8,"mosquito_risk":0,"arthritis_risk":5,"migraine_risk":7,"frizz_risk":1,"updated_at":"2026-06-24T15:05:16.426226+05:30"},{"city":"Dhanbad","state":"Jharkhand","latitude":23.7957,"longitude":86.4304,"temp":36.6,"humidity":40,"rain":0.0,"pressure":972.2,"uv_index":8.8,"wind_gusts":29.5,"aqi":152,"pm10":105.5,"pm2_5":51.8,"no2":7.7,"co":171.0,"o3":177.0,"so2":39.8,"mosquito_risk":0,"arthritis_risk":5,"migraine_risk":10,"frizz_risk":1,"updated_at":"2026-06-24T15:05:16.426234+05:30"},{"city":"Bokaro","state":"Jharkhand","latitude":23.6693,"longitude":86.1511,"temp":36.2,"humidity":41,"rain":0.0,"pressure":976.1,"uv_index":8.5,"wind_gusts":32.0,"aqi":139,"pm10":99.0,"pm2_5":52.6,"no2":8.5,"co":175.0,"o3":187.0,"so2":46.3,"mosquito_risk":0,"arthritis_risk":5,"migraine_risk":10,"frizz_risk":1,"updated_at":"2026-06-24T15:05:16.426241+05:30"},{"city":"Bhubaneswar","state":"Odisha","latitude":20.2961,"longitude":85.8245,"temp":31.5,"humidity":70,"rain":0.0,"pressure":996.5,"uv_index":9.05,"wind_gusts":33.8,"aqi":88,"pm10":25.3,"pm2_5":23.9,"no2":4.0,"co":197.0,"o3":159.0,"so2":10.6,"mosquito_risk":3,"arthritis_risk":5,"migraine_risk":7,"frizz_risk":1,"updated_at":"2026-06-24T15:05:16.426247+05:30"},{"city":"Cuttack","state":"Odisha","latitude":20.4625,"longitude":85.8828,"temp":32.6,"humidity":66,"rain":0.0,"pressure":998.1,"uv_index":9.1,"wind_gusts":30.6,"aqi":88,"pm10":25.3,"pm2_5":23.9,"no2":4.0,"co":221.0,"o3":159.0,"so2":10.6,"mosquito_risk":3,"arthritis_risk":5,"migraine_risk":7,"frizz_risk":1,"updated_at":"2026-06-24T15:05:16.426254+05:30"},{"city":"Rourkela","state":"Odisha","latitude":22.2604,"longitude":84.8536,"temp":34.6,"humidity":49,"rain":0.0,"pressure":978.2,"uv_index":8.95,"wind_gusts":28.8,"aqi":128,"pm10":30.3,"pm2_5":24.8,"no2":1.9,"co":196.0,"o3":152.0,"so2":9.4,"mosquito_risk":0,"arthritis_risk":5,"migraine_risk":7,"frizz_risk":1,"updated_at":"2026-06-24T15:05:16.426260+05:30"},{"city":"Raipur","state":"Chhattisgarh","latitude":21.2514,"longitude":81.6296,"temp":37.0,"humidity":38,"rain":0.0,"pressure":968.2,"uv_index":8.9,"wind_gusts":31.7,"aqi":64,"pm10":26.1,"pm2_5":26.0,"no2":7.8,"co":426.0,"o3":134.0,"so2":38.2,"mosquito_risk":0,"arthritis_risk":5,"migraine_risk":10,"frizz_risk":1,"updated_at":"2026-06-24T15:05:16.426268+05:30"},{"city":"Bhilai","state":"Chhattisgarh","latitude":21.1938,"longitude":81.3509,"temp":36.1,"humidity":40,"rain":0.0,"pressure":968.6,"uv_index":8.9,"wind_gusts":33.1,"aqi":58,"pm10":19.0,"pm2_5":18.9,"no2":9.2,"co":558.0,"o3":112.0,"so2":35.4,"mosquito_risk":0,"arthritis_risk":5,"migraine_risk":10,"frizz_risk":1,"updated_at":"2026-06-24T15:05:16.426274+05:30"},{"city":"Guwahati","state":"Assam","latitude":26.1158,"longitude":91.7086,"temp":32.3,"humidity":70,"rain":0.0,"pressure":993.2,"uv_index":8.75,"wind_gusts":31.0,"aqi":63,"pm10":24.3,"pm2_5":15.4,"no2":1.6,"co":279.0,"o3":124.0,"so2":2.7,"mosquito_risk":3,"arthritis_risk":5,"migraine_risk":7,"frizz_risk":1,"updated_at":"2026-06-24T15:05:16.426281+05:30"},{"city":"Agartala","state":"Tripura","latitude":23.8315,"longitude":91.2868,"temp":31.6,"humidity":70,"rain":0.0,"pressure":999.1,"uv_index":4.85,"wind_gusts":27.0,"aqi":68,"pm10":38.3,"pm2_5":25.9,"no2":4.4,"co":218.0,"o3":149.0,"so2":4.6,"mosquito_risk":3,"arthritis_risk":5,"migraine_risk":3,"frizz_risk":1,"updated_at":"2026-06-24T15:05:16.426288+05:30"},{"city":"Shillong","state":"Meghalaya","latitude":25.5788,"longitude":91.8933,"temp":22.8,"humidity":85,"rain":0.2,"pressure":853.1,"uv_index":8.1,"wind_gusts":19.1,"aqi":49,"pm10":16.7,"pm2_5":10.9,"no2":2.2,"co":240.0,"o3":117.0,"so2":1.9,"mosquito_risk":6,"arthritis_risk":5,"migraine_risk":7,"frizz_risk":1,"updated_at":"2026-06-24T15:05:16.426294+05:30"},{"city":"Imphal","state":"Manipur","latitude":24.817,"longitude":93.9368,"temp":27.7,"humidity":68,"rain":0.0,"pressure":917.2,"uv_index":5.35,"wind_gusts":24.5,"aqi":49,"pm10":7.3,"pm2_5":5.9,"no2":2.6,"co":189.0,"o3":92.0,"so2":1.4,"mosquito_risk":7,"arthritis_risk":5,"migraine_risk":3,"frizz_risk":1,"updated_at":"2026-06-24T15:05:16.426302+05:30"},{"city":"Aizawl","state":"Mizoram","latitude":23.7271,"longitude":92.7176,"temp":23.6,"humidity":77,"rain":0.0,"pressure":887.9,"uv_index":4.7,"wind_gusts":18.4,"aqi":39,"pm10":24.6,"pm2_5":13.3,"no2":0.7,"co":157.0,"o3":96.0,"so2":1.1,"mosquito_risk":3,"arthritis_risk":5,"migraine_risk":3,"frizz_risk":1,"updated_at":"2026-06-24T15:05:16.426309+05:30"},{"city":"Kohima","state":"Nagaland","latitude":25.6701,"longitude":94.1077,"temp":21.5,"humidity":98,"rain":0.0,"pressure":850.7,"uv_index":7.0,"wind_gusts":27.4,"aqi":43,"pm10":5.7,"pm2_5":4.7,"no2":2.2,"co":193.0,"o3":93.0,"so2":0.9,"mosquito_risk":3,"arthritis_risk":5,"migraine_risk":7,"frizz_risk":1,"updated_at":"2026-06-24T15:05:16.426315+05:30"},{"city":"Gangtok","state":"Sikkim","latitude":27.3314,"longitude":88.6138,"temp":23.3,"humidity":77,"rain":0.1,"pressure":833.9,"uv_index":9.2,"wind_gusts":32.0,"aqi":95,"pm10":23.1,"pm2_5":14.6,"no2":1.3,"co":320.0,"o3":142.0,"so2":4.1,"mosquito_risk":6,"arthritis_risk":5,"migraine_risk":7,"frizz_risk":1,"updated_at":"2026-06-24T15:05:16.426322+05:30"},{"city":"Siliguri","state":"West Bengal","latitude":26.7271,"longitude":88.3953,"temp":31.3,"humidity":72,"rain":0.0,"pressure":984.9,"uv_index":8.75,"wind_gusts":23.8,"aqi":118,"pm10":54.4,"pm2_5":34.3,"no2":2.4,"co":416.0,"o3":160.0,"so2":10.4,"mosquito_risk":3,"arthritis_risk":5,"migraine_risk":7,"frizz_risk":1,"updated_at":"2026-06-24T15:05:19.770505+05:30"},{"city":"Durgapur","state":"West Bengal","latitude":23.5204,"longitude":87.3119,"temp":34.9,"humidity":59,"rain":0.0,"pressure":987.2,"uv_index":8.95,"wind_gusts":28.8,"aqi":163,"pm10":122.0,"pm2_5":69.6,"no2":9.8,"co":409.0,"o3":219.0,"so2":51.2,"mosquito_risk":0,"arthritis_risk":5,"migraine_risk":7,"frizz_risk":1,"updated_at":"2026-06-24T15:05:19.770540+05:30"},{"city":"Asansol","state":"West Bengal","latitude":23.6739,"longitude":86.9524,"temp":36.2,"humidity":51,"rain":0.0,"pressure":985.6,"uv_index":9.0,"wind_gusts":28.1,"aqi":154,"pm10":114.8,"pm2_5":57.6,"no2":8.0,"co":244.0,"o3":186.0,"so2":38.1,"mosquito_risk":0,"arthritis_risk":5,"migraine_risk":10,"frizz_risk":1,"updated_at":"2026-06-24T15:05:19.770552+05:30"},{"city":"Pondicherry","state":"Puducherry","latitude":11.9139,"longitude":79.8145,"temp":34.3,"humidity":49,"rain":0.0,"pressure":1004.8,"uv_index":8.3,"wind_gusts":37.1,"aqi":65,"pm10":29.6,"pm2_5":22.8,"no2":7.6,"co":232.0,"o3":125.0,"so2":15.2,"mosquito_risk":0,"arthritis_risk":5,"migraine_risk":4,"frizz_risk":1,"updated_at":"2026-06-24T15:05:19.770561+05:30"},{"city":"Port Blair","state":"Andaman and Nicobar Islands","latitude":11.6234,"longitude":92.7265,"temp":30.4,"humidity":70,"rain":0.0,"pressure":1004.3,"uv_index":8.65,"wind_gusts":44.6,"aqi":28,"pm10":7.1,"pm2_5":4.4,"no2":0.3,"co":88.0,"o3":52.0,"so2":0.4,"mosquito_risk":3,"arthritis_risk":5,"migraine_risk":4,"frizz_risk":1,"updated_at":"2026-06-24T15:05:19.770569+05:30"},{"city":"Haridwar","state":"Uttarakhand","latitude":29.9457,"longitude":78.1642,"temp":35.6,"humidity":39,"rain":0.0,"pressure":967.1,"uv_index":7.6,"wind_gusts":27.4,"aqi":125,"pm10":124.3,"pm2_5":46.7,"no2":1.7,"co":240.0,"o3":196.0,"so2":9.6,"mosquito_risk":0,"arthritis_risk":5,"migraine_risk":10,"frizz_risk":1,"updated_at":"2026-06-24T15:05:19.770577+05:30"},{"city":"Rishikesh","state":"Uttarakhand","latitude":30.0869,"longitude":78.2676,"temp":33.4,"humidity":44,"rain":0.0,"pressure":960.2,"uv_index":7.7,"wind_gusts":25.2,"aqi":118,"pm10":82.9,"pm2_5":34.0,"no2":1.1,"co":278.0,"o3":184.0,"so2":6.5,"mosquito_risk":0,"arthritis_risk":5,"migraine_risk":7,"frizz_risk":1,"updated_at":"2026-06-24T15:05:19.770584+05:30"},{"city":"Nainital","state":"Uttarakhand","latitude":29.3919,"longitude":79.4542,"temp":22.9,"humidity":60,"rain":0.0,"pressure":804.4,"uv_index":8.05,"wind_gusts":27.7,"aqi":129,"pm10":117.6,"pm2_5":40.2,"no2":1.6,"co":244.0,"o3":194.0,"so2":10.0,"mosquito_risk":0,"arthritis_risk":5,"migraine_risk":7,"frizz_risk":0,"updated_at":"2026-06-24T15:05:19.770593+05:30"},{"city":"Mussoorie","state":"Uttarakhand","latitude":30.4599,"longitude":78.0664,"temp":18.5,"humidity":88,"rain":0.1,"pressure":800.5,"uv_index":7.55,"wind_gusts":38.2,"aqi":115,"pm10":51.8,"pm2_5":29.2,"no2":1.4,"co":238.0,"o3":187.0,"so2":8.1,"mosquito_risk":6,"arthritis_risk":10,"migraine_risk":7,"frizz_risk":1,"updated_at":"2026-06-24T15:05:19.770600+05:30"},{"city":"Dharamshala","state":"Himachal Pradesh","latitude":32.219,"longitude":76.3234,"temp":25.0,"humidity":63,"rain":0.1,"pressure":865.8,"uv_index":8.5,"wind_gusts":34.9,"aqi":76,"pm10":22.0,"pm2_5":17.1,"no2":1.4,"co":273.0,"o3":137.0,"so2":1.7,"mosquito_risk":10,"arthritis_risk":5,"migraine_risk":7,"frizz_risk":1,"updated_at":"2026-06-24T15:05:19.770608+05:30"},{"city":"Dalhousie","state":"Himachal Pradesh","latitude":32.5387,"longitude":75.971,"temp":22.6,"humidity":55,"rain":0.1,"pressure":803.7,"uv_index":8.1,"wind_gusts":33.5,"aqi":112,"pm10":44.1,"pm2_5":26.8,"no2":1.5,"co":250.0,"o3":168.0,"so2":5.6,"mosquito_risk":3,"arthritis_risk":5,"migraine_risk":7,"frizz_risk":0,"updated_at":"2026-06-24T15:05:19.770615+05:30"},{"city":"Patiala","state":"Punjab","latitude":30.3398,"longitude":76.3869,"temp":36.7,"humidity":33,"rain":0.0,"pressure":971.1,"uv_index":7.7,"wind_gusts":35.3,"aqi":161,"pm10":379.0,"pm2_5":78.0,"no2":1.7,"co":191.0,"o3":167.0,"so2":7.6,"mosquito_risk":0,"arthritis_risk":5,"migraine_risk":10,"frizz_risk":1,"updated_at":"2026-06-24T15:05:19.770623+05:30"},{"city":"Bhatinda","state":"Punjab","latitude":30.211,"longitude":74.9455,"temp":38.4,"humidity":30,"rain":0.0,"pressure":975.9,"uv_index":8.25,"wind_gusts":32.4,"aqi":140,"pm10":156.9,"pm2_5":51.1,"no2":2.3,"co":167.0,"o3":159.0,"so2":13.4,"mosquito_risk":0,"arthritis_risk":5,"migraine_risk":10,"frizz_risk":1,"updated_at":"2026-06-24T15:05:19.770629+05:30"},{"city":"Rohtak","state":"Haryana","latitude":28.8955,"longitude":76.6066,"temp":37.2,"humidity":34,"rain":0.0,"pressure":974.2,"uv_index":7.75,"wind_gusts":26.3,"aqi":273,"pm10":400.5,"pm2_5":69.4,"no2":1.9,"co":159.0,"o3":119.0,"so2":2.8,"mosquito_risk":0,"arthritis_risk":5,"migraine_risk":10,"frizz_risk":1,"updated_at":"2026-06-24T15:05:19.770636+05:30"},{"city":"Panipat","state":"Haryana","latitude":29.3909,"longitude":76.9635,"temp":37.0,"humidity":34,"rain":0.0,"pressure":972.9,"uv_index":7.65,"wind_gusts":28.8,"aqi":584,"pm10":687.3,"pm2_5":102.7,"no2":3.0,"co":168.0,"o3":141.0,"so2":15.5,"mosquito_risk":0,"arthritis_risk":5,"migraine_risk":10,"frizz_risk":1,"updated_at":"2026-06-24T15:05:19.770643+05:30"},{"city":"Mathura","state":"Uttar Pradesh","latitude":27.4924,"longitude":77.6737,"temp":37.6,"humidity":31,"rain":0.0,"pressure":979.1,"uv_index":8.05,"wind_gusts":26.6,"aqi":279,"pm10":499.2,"pm2_5":73.1,"no2":1.7,"co":145.0,"o3":116.0,"so2":2.3,"mosquito_risk":0,"arthritis_risk":5,"migraine_risk":10,"frizz_risk":1,"updated_at":"2026-06-24T15:05:19.770650+05:30"},{"city":"Vrindavan","state":"Uttar Pradesh","latitude":27.5823,"longitude":77.7027,"temp":37.2,"humidity":33,"rain":0.0,"pressure":979.6,"uv_index":8.0,"wind_gusts":25.6,"aqi":279,"pm10":499.2,"pm2_5":73.1,"no2":1.7,"co":144.0,"o3":116.0,"so2":2.3,"mosquito_risk":0,"arthritis_risk":5,"migraine_risk":10,"frizz_risk":1,"updated_at":"2026-06-24T15:05:19.770657+05:30"},{"city":"Ayodhya","state":"Uttar Pradesh","latitude":26.7922,"longitude":82.1998,"temp":37.6,"humidity":35,"rain":0.0,"pressure":986.8,"uv_index":8.4,"wind_gusts":27.0,"aqi":157,"pm10":164.8,"pm2_5":55.3,"no2":1.4,"co":206.0,"o3":175.0,"so2":8.5,"mosquito_risk":0,"arthritis_risk":5,"migraine_risk":10,"frizz_risk":1,"updated_at":"2026-06-24T15:05:19.770664+05:30"},{"city":"Ratlam","state":"Madhya Pradesh","latitude":23.3315,"longitude":75.0367,"temp":34.0,"humidity":44,"rain":0.0,"pressure":948.7,"uv_index":7.65,"wind_gusts":40.3,"aqi":77,"pm10":64.0,"pm2_5":27.8,"no2":0.9,"co":121.0,"o3":98.0,"so2":3.1,"mosquito_risk":0,"arthritis_risk":5,"migraine_risk":7,"frizz_risk":1,"updated_at":"2026-06-24T15:05:19.770670+05:30"},{"city":"Sagar","state":"Madhya Pradesh","latitude":23.8388,"longitude":78.7378,"temp":29.0,"humidity":71,"rain":0.0,"pressure":944.0,"uv_index":8.55,"wind_gusts":37.8,"aqi":58,"pm10":50.6,"pm2_5":23.7,"no2":0.8,"co":152.0,"o3":115.0,"so2":3.1,"mosquito_risk":7,"arthritis_risk":5,"migraine_risk":7,"frizz_risk":1,"updated_at":"2026-06-24T15:05:19.770677+05:30"},{"city":"Satna","state":"Madhya Pradesh","latitude":24.6005,"longitude":80.8322,"temp":37.7,"humidity":34,"rain":0.0,"pressure":963.9,"uv_index":8.75,"wind_gusts":38.5,"aqi":79,"pm10":108.5,"pm2_5":38.2,"no2":0.7,"co":141.0,"o3":119.0,"so2":3.6,"mosquito_risk":0,"arthritis_risk":5,"migraine_risk":10,"frizz_risk":1,"updated_at":"2026-06-24T15:05:19.770683+05:30"},{"city":"Akola","state":"Maharashtra","latitude":20.7002,"longitude":77.0082,"temp":26.3,"humidity":88,"rain":0.5,"pressure":970.1,"uv_index":8.5,"wind_gusts":42.5,"aqi":35,"pm10":17.6,"pm2_5":9.5,"no2":3.2,"co":145.0,"o3":94.0,"so2":5.5,"mosquito_risk":10,"arthritis_risk":5,"migraine_risk":7,"frizz_risk":1,"updated_at":"2026-06-24T15:05:19.770691+05:30"},{"city":"Amravati","state":"Maharashtra","latitude":20.9374,"longitude":77.7796,"temp":29.9,"humidity":68,"rain":0.0,"pressure":962.0,"uv_index":8.6,"wind_gusts":39.6,"aqi":36,"pm10":11.8,"pm2_5":8.5,"no2":4.7,"co":165.0,"o3":91.0,"so2":5.2,"mosquito_risk":7,"arthritis_risk":5,"migraine_risk":7,"frizz_risk":1,"updated_at":"2026-06-24T15:05:19.770698+05:30"},{"city":"Latur","state":"Maharashtra","latitude":18.4088,"longitude":76.5604,"temp":30.8,"humidity":51,"rain":0.0,"pressure":935.2,"uv_index":6.55,"wind_gusts":44.6,"aqi":29,"pm10":12.3,"pm2_5":6.3,"no2":2.8,"co":153.0,"o3":71.0,"so2":1.4,"mosquito_risk":0,"arthritis_risk":5,"migraine_risk":7,"frizz_risk":1,"updated_at":"2026-06-24T15:05:19.770705+05:30"},{"city":"Nanded","state":"Maharashtra","latitude":19.1383,"longitude":77.3091,"temp":30.0,"humidity":66,"rain":0.0,"pressure":963.6,"uv_index":8.2,"wind_gusts":42.1,"aqi":24,"pm10":6.2,"pm2_5":5.2,"no2":3.0,"co":160.0,"o3":77.0,"so2":1.0,"mosquito_risk":7,"arthritis_risk":5,"migraine_risk":7,"frizz_risk":1,"updated_at":"2026-06-24T15:05:19.770712+05:30"},{"city":"Gulbarga","state":"Karnataka","latitude":17.3297,"longitude":76.8343,"temp":32.9,"humidity":45,"rain":0.0,"pressure":954.0,"uv_index":5.15,"wind_gusts":61.6,"aqi":28,"pm10":8.2,"pm2_5":4.4,"no2":2.0,"co":114.0,"o3":79.0,"so2":1.2,"mosquito_risk":0,"arthritis_risk":5,"migraine_risk":3,"frizz_risk":1,"updated_at":"2026-06-24T15:05:19.770719+05:30"},{"city":"Bidar","state":"Karnataka","latitude":17.9104,"longitude":77.5199,"temp":29.2,"humidity":61,"rain":0.3,"pressure":931.0,"uv_index":6.95,"wind_gusts":48.6,"aqi":28,"pm10":9.1,"pm2_5":6.2,"no2":2.3,"co":131.0,"o3":82.0,"so2":1.4,"mosquito_risk":10,"arthritis_risk":5,"migraine_risk":7,"frizz_risk":1,"updated_at":"2026-06-24T15:05:19.770726+05:30"},{"city":"Hospet","state":"Karnataka","latitude":15.2689,"longitude":76.3909,"temp":29.1,"humidity":56,"rain":0.0,"pressure":953.1,"uv_index":6.75,"wind_gusts":55.4,"aqi":27,"pm10":12.7,"pm2_5":6.1,"no2":1.2,"co":109.0,"o3":71.0,"so2":1.2,"mosquito_risk":4,"arthritis_risk":5,"migraine_risk":7,"frizz_risk":1,"updated_at":"2026-06-24T15:05:19.770732+05:30"},{"city":"Tirupur","state":"Tamil Nadu","latitude":11.1085,"longitude":77.3411,"temp":31.2,"humidity":55,"rain":0.0,"pressure":973.3,"uv_index":8.7,"wind_gusts":56.2,"aqi":53,"pm10":11.0,"pm2_5":7.8,"no2":2.2,"co":136.0,"o3":94.0,"so2":2.4,"mosquito_risk":0,"arthritis_risk":5,"migraine_risk":7,"frizz_risk":1,"updated_at":"2026-06-24T15:05:19.770739+05:30"},{"city":"Alappuzha","state":"Kerala","latitude":9.4981,"longitude":76.3388,"temp":28.7,"humidity":78,"rain":0.0,"pressure":1008.8,"uv_index":7.8,"wind_gusts":34.9,"aqi":38,"pm10":11.6,"pm2_5":7.7,"no2":2.3,"co":86.0,"o3":63.0,"so2":2.1,"mosquito_risk":7,"arthritis_risk":0,"migraine_risk":4,"frizz_risk":1,"updated_at":"2026-06-24T15:05:19.770746+05:30"},{"city":"Munnar","state":"Kerala","latitude":10.0889,"longitude":77.0595,"temp":19.5,"humidity":90,"rain":0.1,"pressure":857.1,"uv_index":7.4,"wind_gusts":41.4,"aqi":23,"pm10":5.3,"pm2_5":3.9,"no2":1.5,"co":97.0,"o3":63.0,"so2":1.2,"mosquito_risk":6,"arthritis_risk":10,"migraine_risk":7,"frizz_risk":1,"updated_at":"2026-06-24T15:05:19.770753+05:30"},{"city":"Silchar","state":"Assam","latitude":24.8333,"longitude":92.7789,"temp":29.0,"humidity":82,"rain":0.2,"pressure":998.0,"uv_index":8.15,"wind_gusts":22.0,"aqi":66,"pm10":20.5,"pm2_5":15.1,"no2":1.6,"co":193.0,"o3":113.0,"so2":3.0,"mosquito_risk":10,"arthritis_risk":5,"migraine_risk":7,"frizz_risk":1,"updated_at":"2026-06-24T15:05:19.770760+05:30"},{"city":"Dibrugarh","state":"Assam","latitude":27.4728,"longitude":94.912,"temp":29.1,"humidity":85,"rain":0.0,"pressure":987.6,"uv_index":8.95,"wind_gusts":29.2,"aqi":73,"pm10":13.6,"pm2_5":10.9,"no2":1.4,"co":212.0,"o3":128.0,"so2":1.3,"mosquito_risk":7,"arthritis_risk":5,"migraine_risk":7,"frizz_risk":1,"updated_at":"2026-06-24T15:05:19.770767+05:30"}]