[{"city":"Delhi","state":"Delhi","latitude":28.6139,"longitude":77.209,"temp":32.8,"humidity":26,"rain":0.0,"pressure":981.9,"uv_index":7.4,"wind_gusts":33.1,"aqi":151,"pm10":353.9,"pm2_5":84.1,"mosquito_risk":0,"arthritis_risk":5,"migraine_risk":7,"frizz_risk":0,"updated_at":"2026-04-24T23:21:28.112371+05:30"},{"city":"Mumbai","state":"Maharashtra","latitude":19.076,"longitude":72.8777,"temp":29.9,"humidity":66,"rain":0.0,"pressure":1007.5,"uv_index":8.05,"wind_gusts":41.0,"aqi":89,"pm10":35.5,"pm2_5":19.3,"mosquito_risk":7,"arthritis_risk":5,"migraine_risk":4,"frizz_risk":1,"updated_at":"2026-04-24T23:21:28.112410+05:30"},{"city":"Bangalore","state":"Karnataka","latitude":12.9716,"longitude":77.5946,"temp":27.1,"humidity":42,"rain":0.0,"pressure":912.5,"uv_index":9.6,"wind_gusts":40.3,"aqi":96,"pm10":20.7,"pm2_5":19.4,"mosquito_risk":4,"arthritis_risk":5,"migraine_risk":7,"frizz_risk":0,"updated_at":"2026-04-24T23:21:28.112426+05:30"},{"city":"Hyderabad","state":"Telangana","latitude":17.385,"longitude":78.4867,"temp":29.8,"humidity":43,"rain":0.0,"pressure":954.2,"uv_index":9.25,"wind_gusts":29.5,"aqi":127,"pm10":42.1,"pm2_5":37.5,"mosquito_risk":4,"arthritis_risk":5,"migraine_risk":7,"frizz_risk":0,"updated_at":"2026-04-24T23:21:28.112436+05:30"},{"city":"Chennai","state":"Tamil Nadu","latitude":13.0827,"longitude":80.2707,"temp":29.2,"humidity":79,"rain":0.0,"pressure":1007.1,"uv_index":9.25,"wind_gusts":51.1,"aqi":28,"pm10":9.0,"pm2_5":6.4,"mosquito_risk":7,"arthritis_risk":5,"migraine_risk":4,"frizz_risk":1,"updated_at":"2026-04-24T23:21:28.112445+05:30"},{"city":"Kolkata","state":"West Bengal","latitude":22.5726,"longitude":88.3639,"temp":27.6,"humidity":87,"rain":0.0,"pressure":1005.5,"uv_index":8.9,"wind_gusts":33.8,"aqi":75,"pm10":25.0,"pm2_5":21.0,"mosquito_risk":7,"arthritis_risk":5,"migraine_risk":4,"frizz_risk":1,"updated_at":"2026-04-24T23:21:28.112490+05:30"},{"city":"Pune","state":"Maharashtra","latitude":18.5204,"longitude":73.8567,"temp":29.9,"humidity":30,"rain":0.0,"pressure":948.5,"uv_index":8.65,"wind_gusts":47.2,"aqi":119,"pm10":44.7,"pm2_5":41.9,"mosquito_risk":4,"arthritis_risk":5,"migraine_risk":7,"frizz_risk":0,"updated_at":"2026-04-24T23:21:28.112502+05:30"},{"city":"Ahmedabad","state":"Gujarat","latitude":23.0225,"longitude":72.5714,"temp":35.0,"humidity":16,"rain":0.0,"pressure":1001.5,"uv_index":8.2,"wind_gusts":30.2,"aqi":54,"pm10":88.7,"pm2_5":44.7,"mosquito_risk":0,"arthritis_risk":5,"migraine_risk":4,"frizz_risk":0,"updated_at":"2026-04-24T23:21:28.112511+05:30"},{"city":"Jaipur","state":"Rajasthan","latitude":26.9124,"longitude":75.7873,"temp":32.5,"humidity":22,"rain":0.0,"pressure":959.7,"uv_index":8.05,"wind_gusts":32.4,"aqi":104,"pm10":183.9,"pm2_5":40.6,"mosquito_risk":0,"arthritis_risk":5,"migraine_risk":7,"frizz_risk":0,"updated_at":"2026-04-24T23:21:28.112519+05:30"},{"city":"Lucknow","state":"Uttar Pradesh","latitude":26.8467,"longitude":80.9462,"temp":32.8,"humidity":20,"rain":0.0,"pressure":991.9,"uv_index":7.9,"wind_gusts":36.7,"aqi":132,"pm10":242.1,"pm2_5":60.3,"mosquito_risk":0,"arthritis_risk":5,"migraine_risk":7,"frizz_risk":0,"updated_at":"2026-04-24T23:21:28.112527+05:30"},{"city":"Kanpur","state":"Uttar Pradesh","latitude":26.4499,"longitude":80.3319,"temp":33.0,"humidity":19,"rain":0.0,"pressure":990.2,"uv_index":7.95,"wind_gusts":31.0,"aqi":132,"pm10":216.1,"pm2_5":50.1,"mosquito_risk":0,"arthritis_risk":5,"migraine_risk":7,"frizz_risk":0,"updated_at":"2026-04-24T23:21:28.112534+05:30"},{"city":"Chandigarh","state":"Chandigarh","latitude":30.7333,"longitude":76.7794,"temp":29.5,"humidity":31,"rain":0.0,"pressure":968.2,"uv_index":7.4,"wind_gusts":44.6,"aqi":91,"pm10":33.3,"pm2_5":22.8,"mosquito_risk":4,"arthritis_risk":5,"migraine_risk":7,"frizz_risk":0,"updated_at":"2026-04-24T23:21:28.112541+05:30"},{"city":"Srinagar","state":"Jammu and Kashmir","latitude":34.0837,"longitude":74.7973,"temp":12.7,"humidity":95,"rain":0.0,"pressure":845.2,"uv_index":8.6,"wind_gusts":38.2,"aqi":77,"pm10":46.8,"pm2_5":25.6,"mosquito_risk":3,"arthritis_risk":10,"migraine_risk":7,"frizz_risk":0,"updated_at":"2026-04-24T23:21:28.112551+05:30"},{"city":"Jammu","state":"Jammu and Kashmir","latitude":32.7266,"longitude":74.857,"temp":27.8,"humidity":37,"rain":0.0,"pressure":972.7,"uv_index":8.15,"wind_gusts":36.4,"aqi":76,"pm10":48.7,"pm2_5":30.4,"mosquito_risk":4,"arthritis_risk":5,"migraine_risk":7,"frizz_risk":0,"updated_at":"2026-04-24T23:21:28.112558+05:30"},{"city":"Amritsar","state":"Punjab","latitude":31.634,"longitude":74.8723,"temp":29.8,"humidity":35,"rain":0.0,"pressure":981.0,"uv_index":8.05,"wind_gusts":42.5,"aqi":96,"pm10":82.2,"pm2_5":35.3,"mosquito_risk":4,"arthritis_risk":5,"migraine_risk":7,"frizz_risk":0,"updated_at":"2026-04-24T23:21:28.112566+05:30"},{"city":"Ludhiana","state":"Punjab","latitude":30.901,"longitude":75.8573,"temp":30.2,"humidity":31,"rain":0.0,"pressure":978.8,"uv_index":7.7,"wind_gusts":38.9,"aqi":82,"pm10":64.7,"pm2_5":26.4,"mosquito_risk":0,"arthritis_risk":5,"migraine_risk":7,"frizz_risk":0,"updated_at":"2026-04-24T23:21:28.112574+05:30"},{"city":"Jalandhar","state":"Punjab","latitude":31.326,"longitude":75.5762,"temp":30.5,"humidity":31,"rain":0.0,"pressure":979.7,"uv_index":7.85,"wind_gusts":33.5,"aqi":88,"pm10":98.5,"pm2_5":31.5,"mosquito_risk":0,"arthritis_risk":5,"migraine_risk":7,"frizz_risk":0,"updated_at":"2026-04-24T23:21:28.112581+05:30"},{"city":"Dehradun","state":"Uttarakhand","latitude":30.6284,"longitude":78.0322,"temp":15.5,"humidity":62,"rain":0.0,"pressure":829.8,"uv_index":7.85,"wind_gusts":40.7,"aqi":90,"pm10":28.6,"pm2_5":19.2,"mosquito_risk":3,"arthritis_risk":5,"migraine_risk":7,"frizz_risk":0,"updated_at":"2026-04-24T23:21:28.112588+05:30"},{"city":"Shimla","state":"Himachal Pradesh","latitude":31.1048,"longitude":77.1734,"temp":15.4,"humidity":47,"rain":0.0,"pressure":785.9,"uv_index":7.9,"wind_gusts":46.4,"aqi":89,"pm10":44.8,"pm2_5":20.1,"mosquito_risk":0,"arthritis_risk":5,"migraine_risk":7,"frizz_risk":0,"updated_at":"2026-04-24T23:21:28.112595+05:30"},{"city":"Manali","state":"Himachal Pradesh","latitude":32.2396,"longitude":77.1887,"temp":9.6,"humidity":75,"rain":0.0,"pressure":817.3,"uv_index":9.95,"wind_gusts":42.1,"aqi":102,"pm10":31.7,"pm2_5":17.5,"mosquito_risk":3,"arthritis_risk":5,"migraine_risk":7,"frizz_risk":0,"updated_at":"2026-04-24T23:21:28.112602+05:30"},{"city":"Gurgaon","state":"Haryana","latitude":28.4595,"longitude":77.0266,"temp":30.9,"humidity":26,"rain":0.0,"pressure":980.4,"uv_index":7.5,"wind_gusts":31.3,"aqi":593,"pm10":423.8,"pm2_5":88.7,"mosquito_risk":0,"arthritis_risk":5,"migraine_risk":7,"frizz_risk":0,"updated_at":"2026-04-24T23:21:28.112608+05:30"},{"city":"Noida","state":"Uttar Pradesh","latitude":28.5355,"longitude":77.391,"temp":31.3,"humidity":26,"rain":0.0,"pressure":983.0,"uv_index":7.45,"wind_gusts":20.5,"aqi":593,"pm10":423.8,"pm2_5":88.7,"mosquito_risk":0,"arthritis_risk":5,"migraine_risk":7,"frizz_risk":0,"updated_at":"2026-04-24T23:21:28.112614+05:30"},{"city":"Ghaziabad","state":"Uttar Pradesh","latitude":28.6692,"longitude":77.4538,"temp":29.8,"humidity":36,"rain":0.0,"pressure":981.2,"uv_index":7.4,"wind_gusts":35.3,"aqi":151,"pm10":336.2,"pm2_5":75.9,"mosquito_risk":4,"arthritis_risk":5,"migraine_risk":7,"frizz_risk":0,"updated_at":"2026-04-24T23:21:28.112621+05:30"},{"city":"Faridabad","state":"Haryana","latitude":28.4089,"longitude":77.3178,"temp":33.5,"humidity":22,"rain":0.0,"pressure":982.5,"uv_index":7.5,"wind_gusts":40.0,"aqi":593,"pm10":423.8,"pm2_5":88.7,"mosquito_risk":0,"arthritis_risk":5,"migraine_risk":7,"frizz_risk":0,"updated_at":"2026-04-24T23:21:28.112627+05:30"},{"city":"Meerut","state":"Uttar Pradesh","latitude":28.9845,"longitude":77.7064,"temp":27.8,"humidity":52,"rain":0.0,"pressure":979.9,"uv_index":7.35,"wind_gusts":27.4,"aqi":151,"pm10":336.2,"pm2_5":75.9,"mosquito_risk":4,"arthritis_risk":5,"migraine_risk":7,"frizz_risk":1,"updated_at":"2026-04-24T23:21:28.112633+05:30"},{"city":"Agra","state":"Uttar Pradesh","latitude":27.1767,"longitude":78.0081,"temp":32.7,"humidity":26,"rain":0.0,"pressure":986.3,"uv_index":7.8,"wind_gusts":30.2,"aqi":427,"pm10":263.6,"pm2_5":104.8,"mosquito_risk":0,"arthritis_risk":5,"migraine_risk":7,"frizz_risk":0,"updated_at":"2026-04-24T23:21:28.112644+05:30"},{"city":"Varanasi","state":"Uttar Pradesh","latitude":25.3176,"longitude":82.9739,"temp":32.0,"humidity":16,"rain":0.0,"pressure":995.9,"uv_index":8.45,"wind_gusts":34.6,"aqi":130,"pm10":66.1,"pm2_5":41.6,"mosquito_risk":0,"arthritis_risk":5,"migraine_risk":7,"frizz_risk":0,"updated_at":"2026-04-24T23:21:28.112650+05:30"},{"city":"Prayagraj","state":"Uttar Pradesh","latitude":25.4358,"longitude":81.8463,"temp":30.6,"humidity":23,"rain":0.0,"pressure":994.1,"uv_index":8.35,"wind_gusts":39.2,"aqi":123,"pm10":38.9,"pm2_5":29.0,"mosquito_risk":0,"arthritis_risk":5,"migraine_risk":7,"frizz_risk":0,"updated_at":"2026-04-24T23:21:28.112657+05:30"},{"city":"Gorakhpur","state":"Uttar Pradesh","latitude":26.7606,"longitude":83.3732,"temp":29.4,"humidity":52,"rain":0.0,"pressure":996.3,"uv_index":8.3,"wind_gusts":31.3,"aqi":144,"pm10":187.7,"pm2_5":84.5,"mosquito_risk":4,"arthritis_risk":5,"migraine_risk":7,"frizz_risk":1,"updated_at":"2026-04-24T23:21:28.112663+05:30"},{"city":"Bareilly","state":"Uttar Pradesh","latitude":28.367,"longitude":79.4304,"temp":30.8,"humidity":30,"rain":0.0,"pressure":984.9,"uv_index":7.65,"wind_gusts":38.2,"aqi":129,"pm10":73.3,"pm2_5":54.6,"mosquito_risk":0,"arthritis_risk":5,"migraine_risk":7,"frizz_risk":0,"updated_at":"2026-04-24T23:21:28.112670+05:30"},{"city":"Aligarh","state":"Uttar Pradesh","latitude":27.8974,"longitude":78.088,"temp":30.7,"humidity":28,"rain":0.0,"pressure":983.8,"uv_index":7.6,"wind_gusts":30.6,"aqi":255,"pm10":384.6,"pm2_5":109.0,"mosquito_risk":0,"arthritis_risk":5,"migraine_risk":7,"frizz_risk":0,"updated_at":"2026-04-24T23:21:28.112676+05:30"},{"city":"Moradabad","state":"Uttar Pradesh","latitude":28.8386,"longitude":78.7733,"temp":30.4,"humidity":35,"rain":0.0,"pressure":981.8,"uv_index":7.5,"wind_gusts":39.6,"aqi":154,"pm10":121.5,"pm2_5":86.8,"mosquito_risk":0,"arthritis_risk":5,"migraine_risk":7,"frizz_risk":0,"updated_at":"2026-04-24T23:21:28.112681+05:30"},{"city":"Saharanpur","state":"Uttar Pradesh","latitude":29.9637,"longitude":77.546,"temp":28.6,"humidity":32,"rain":0.0,"pressure":974.0,"uv_index":7.15,"wind_gusts":30.2,"aqi":104,"pm10":116.9,"pm2_5":58.9,"mosquito_risk":4,"arthritis_risk":5,"migraine_risk":7,"frizz_risk":0,"updated_at":"2026-04-24T23:21:28.112687+05:30"},{"city":"Jhansi","state":"Uttar Pradesh","latitude":25.4484,"longitude":78.5685,"temp":30.8,"humidity":22,"rain":0.0,"pressure":976.9,"uv_index":8.3,"wind_gusts":26.6,"aqi":102,"pm10":34.2,"pm2_5":26.4,"mosquito_risk":0,"arthritis_risk":5,"migraine_risk":7,"frizz_risk":0,"updated_at":"2026-04-24T23:21:31.339353+05:30"},{"city":"Surat","state":"Gujarat","latitude":21.1702,"longitude":72.8311,"temp":30.5,"humidity":48,"rain":0.0,"pressure":1006.5,"uv_index":7.9,"wind_gusts":33.5,"aqi":96,"pm10":34.7,"pm2_5":23.8,"mosquito_risk":0,"arthritis_risk":5,"migraine_risk":4,"frizz_risk":1,"updated_at":"2026-04-24T23:21:31.339383+05:30"},{"city":"Vadodara","state":"Gujarat","latitude":22.3072,"longitude":73.1812,"temp":31.9,"humidity":34,"rain":0.0,"pressure":1003.9,"uv_index":8.15,"wind_gusts":34.2,"aqi":76,"pm10":50.9,"pm2_5":39.9,"mosquito_risk":0,"arthritis_risk":5,"migraine_risk":4,"frizz_risk":0,"updated_at":"2026-04-24T23:21:31.339393+05:30"},{"city":"Rajkot","state":"Gujarat","latitude":22.3039,"longitude":70.8022,"temp":26.6,"humidity":58,"rain":0.0,"pressure":994.8,"uv_index":7.9,"wind_gusts":43.6,"aqi":48,"pm10":24.3,"pm2_5":9.6,"mosquito_risk":4,"arthritis_risk":5,"migraine_risk":7,"frizz_risk":1,"updated_at":"2026-04-24T23:21:31.339400+05:30"},{"city":"Thane","state":"Maharashtra","latitude":19.2183,"longitude":72.9781,"temp":30.5,"humidity":55,"rain":0.0,"pressure":1006.9,"uv_index":7.4,"wind_gusts":37.1,"aqi":89,"pm10":35.5,"pm2_5":19.3,"mosquito_risk":0,"arthritis_risk":5,"migraine_risk":4,"frizz_risk":1,"updated_at":"2026-04-24T23:21:31.339408+05:30"},{"city":"Nagpur","state":"Maharashtra","latitude":21.1458,"longitude":79.0882,"temp":34.1,"humidity":18,"rain":0.0,"pressure":972.7,"uv_index":8.6,"wind_gusts":29.2,"aqi":118,"pm10":61.7,"pm2_5":55.2,"mosquito_risk":0,"arthritis_risk":5,"migraine_risk":7,"frizz_risk":0,"updated_at":"2026-04-24T23:21:31.339415+05:30"},{"city":"Nashik","state":"Maharashtra","latitude":19.9975,"longitude":73.7898,"temp":29.9,"humidity":32,"rain":0.0,"pressure":946.0,"uv_index":8.35,"wind_gusts":34.6,"aqi":126,"pm10":30.5,"pm2_5":22.4,"mosquito_risk":4,"arthritis_risk":5,"migraine_risk":7,"frizz_risk":0,"updated_at":"2026-04-24T23:21:31.339421+05:30"},{"city":"Aurangabad","state":"Maharashtra","latitude":19.8762,"longitude":75.3433,"temp":31.6,"humidity":22,"rain":0.0,"pressure":944.8,"uv_index":9.1,"wind_gusts":43.2,"aqi":111,"pm10":25.3,"pm2_5":21.5,"mosquito_risk":0,"arthritis_risk":5,"migraine_risk":7,"frizz_risk":0,"updated_at":"2026-04-24T23:21:31.339428+05:30"},{"city":"Solapur","state":"Maharashtra","latitude":17.6599,"longitude":75.9064,"temp":31.8,"humidity":31,"rain":0.0,"pressure":957.4,"uv_index":9.0,"wind_gusts":55.4,"aqi":138,"pm10":40.4,"pm2_5":35.5,"mosquito_risk":0,"arthritis_risk":5,"migraine_risk":7,"frizz_risk":0,"updated_at":"2026-04-24T23:21:31.339436+05:30"},{"city":"Kolhapur","state":"Maharashtra","latitude":16.705,"longitude":74.2433,"temp":26.8,"humidity":57,"rain":0.0,"pressure":948.2,"uv_index":9.05,"wind_gusts":37.4,"aqi":150,"pm10":81.7,"pm2_5":74.3,"mosquito_risk":4,"arthritis_risk":5,"migraine_risk":7,"frizz_risk":1,"updated_at":"2026-04-24T23:21:31.339443+05:30"},{"city":"Goa","state":"Goa","latitude":15.2993,"longitude":74.124,"temp":28.7,"humidity":82,"rain":0.0,"pressure":997.5,"uv_index":9.0,"wind_gusts":37.1,"aqi":97,"pm10":41.1,"pm2_5":32.9,"mosquito_risk":7,"arthritis_risk":5,"migraine_risk":7,"frizz_risk":1,"updated_at":"2026-04-24T23:21:31.339450+05:30"},{"city":"Jodhpur","state":"Rajasthan","latitude":26.2389,"longitude":73.0243,"temp":34.5,"humidity":22,"rain":0.0,"pressure":982.2,"uv_index":8.25,"wind_gusts":23.0,"aqi":69,"pm10":127.1,"pm2_5":28.3,"mosquito_risk":0,"arthritis_risk":5,"migraine_risk":7,"frizz_risk":0,"updated_at":"2026-04-24T23:21:31.339477+05:30"},{"city":"Udaipur","state":"Rajasthan","latitude":24.5854,"longitude":73.7125,"temp":29.8,"humidity":23,"rain":0.0,"pressure":946.7,"uv_index":8.8,"wind_gusts":33.5,"aqi":59,"pm10":46.4,"pm2_5":16.7,"mosquito_risk":4,"arthritis_risk":5,"migraine_risk":7,"frizz_risk":0,"updated_at":"2026-04-24T23:21:31.339486+05:30"},{"city":"Kota","state":"Rajasthan","latitude":25.2138,"longitude":75.8648,"temp":31.1,"humidity":23,"rain":0.0,"pressure":977.9,"uv_index":8.3,"wind_gusts":32.0,"aqi":81,"pm10":54.1,"pm2_5":35.3,"mosquito_risk":0,"arthritis_risk":5,"migraine_risk":7,"frizz_risk":0,"updated_at":"2026-04-24T23:21:31.339493+05:30"},{"city":"Bikaner","state":"Rajasthan","latitude":28.0229,"longitude":73.3119,"temp":32.2,"humidity":23,"rain":0.0,"pressure":981.4,"uv_index":8.05,"wind_gusts":26.6,"aqi":58,"pm10":53.0,"pm2_5":18.5,"mosquito_risk":0,"arthritis_risk":5,"migraine_risk":7,"frizz_risk":0,"updated_at":"2026-04-24T23:21:31.339500+05:30"},{"city":"Ajmer","state":"Rajasthan","latitude":26.4499,"longitude":74.6399,"temp":31.0,"humidity":22,"rain":0.0,"pressure":954.7,"uv_index":8.2,"wind_gusts":33.8,"aqi":53,"pm10":73.3,"pm2_5":24.0,"mosquito_risk":0,"arthritis_risk":5,"migraine_risk":7,"frizz_risk":0,"updated_at":"2026-04-24T23:21:31.339506+05:30"},{"city":"Gwalior","state":"Madhya Pradesh","latitude":26.2183,"longitude":78.1828,"temp":32.3,"humidity":22,"rain":0.0,"pressure":982.0,"uv_index":8.05,"wind_gusts":34.2,"aqi":74,"pm10":119.2,"pm2_5":35.6,"mosquito_risk":0,"arthritis_risk":5,"migraine_risk":7,"frizz_risk":0,"updated_at":"2026-04-24T23:21:31.339513+05:30"},{"city":"Indore","state":"Madhya Pradesh","latitude":22.7196,"longitude":75.8577,"temp":31.0,"humidity":18,"rain":0.0,"pressure":948.6,"uv_index":8.65,"wind_gusts":46.8,"aqi":63,"pm10":27.6,"pm2_5":19.4,"mosquito_risk":0,"arthritis_risk":5,"migraine_risk":7,"frizz_risk":0,"updated_at":"2026-04-24T23:21:31.339520+05:30"},{"city":"Bhopal","state":"Madhya Pradesh","latitude":23.2599,"longitude":77.4126,"temp":31.1,"humidity":21,"rain":0.0,"pressure":953.5,"uv_index":8.65,"wind_gusts":38.9,"aqi":53,"pm10":33.3,"pm2_5":21.5,"mosquito_risk":0,"arthritis_risk":5,"migraine_risk":7,"frizz_risk":0,"updated_at":"2026-04-24T23:21:31.339526+05:30"},{"city":"Jabalpur","state":"Madhya Pradesh","latitude":23.1815,"longitude":79.9864,"temp":31.5,"humidity":17,"rain":0.0,"pressure":960.6,"uv_index":8.75,"wind_gusts":36.4,"aqi":96,"pm10":22.5,"pm2_5":15.7,"mosquito_risk":0,"arthritis_risk":5,"migraine_risk":7,"frizz_risk":0,"updated_at":"2026-04-24T23:21:31.339532+05:30"},{"city":"Ujjain","state":"Madhya Pradesh","latitude":23.1765,"longitude":75.7885,"temp":30.6,"humidity":19,"rain":0.0,"pressure":954.0,"uv_index":8.55,"wind_gusts":40.3,"aqi":55,"pm10":33.4,"pm2_5":23.1,"mosquito_risk":0,"arthritis_risk":5,"migraine_risk":7,"frizz_risk":0,"updated_at":"2026-04-24T23:21:31.339539+05:30"},{"city":"Visakhapatnam","state":"Andhra Pradesh","latitude":17.6868,"longitude":83.2185,"temp":28.1,"humidity":87,"rain":0.0,"pressure":1003.2,"uv_index":9.2,"wind_gusts":42.5,"aqi":58,"pm10":15.5,"pm2_5":12.3,"mosquito_risk":7,"arthritis_risk":5,"migraine_risk":4,"frizz_risk":1,"updated_at":"2026-04-24T23:21:31.339546+05:30"},{"city":"Vijayawada","state":"Andhra Pradesh","latitude":16.5062,"longitude":80.648,"temp":28.7,"humidity":81,"rain":0.0,"pressure":1002.7,"uv_index":9.15,"wind_gusts":27.4,"aqi":52,"pm10":13.6,"pm2_5":11.7,"mosquito_risk":7,"arthritis_risk":5,"migraine_risk":4,"frizz_risk":1,"updated_at":"2026-04-24T23:21:31.339553+05:30"},{"city":"Guntur","state":"Andhra Pradesh","latitude":16.3067,"longitude":80.4365,"temp":28.4,"humidity":84,"rain":0.0,"pressure":1004.2,"uv_index":9.25,"wind_gusts":36.0,"aqi":53,"pm10":13.9,"pm2_5":11.9,"mosquito_risk":7,"arthritis_risk":5,"migraine_risk":4,"frizz_risk":1,"updated_at":"2026-04-24T23:21:31.339560+05:30"},{"city":"Nellore","state":"Andhra Pradesh","latitude":14.4426,"longitude":79.9865,"temp":28.1,"humidity":84,"rain":0.0,"pressure":1005.9,"uv_index":9.3,"wind_gusts":40.0,"aqi":40,"pm10":8.9,"pm2_5":7.0,"mosquito_risk":7,"arthritis_risk":5,"migraine_risk":4,"frizz_risk":1,"updated_at":"2026-04-24T23:21:31.339567+05:30"},{"city":"Kurnool","state":"Andhra Pradesh","latitude":15.8281,"longitude":78.0373,"temp":32.5,"humidity":37,"rain":0.0,"pressure":977.3,"uv_index":9.25,"wind_gusts":41.4,"aqi":105,"pm10":30.4,"pm2_5":26.9,"mosquito_risk":0,"arthritis_risk":5,"migraine_risk":7,"frizz_risk":0,"updated_at":"2026-04-24T23:21:31.339574+05:30"},{"city":"Kakinada","state":"Andhra Pradesh","latitude":16.9891,"longitude":82.2475,"temp":28.5,"humidity":81,"rain":0.0,"pressure":1007.2,"uv_index":9.05,"wind_gusts":36.4,"aqi":37,"pm10":11.9,"pm2_5":8.3,"mosquito_risk":7,"arthritis_risk":5,"migraine_risk":4,"frizz_risk":1,"updated_at":"2026-04-24T23:21:31.339581+05:30"},{"city":"Tirupati","state":"Andhra Pradesh","latitude":13.6288,"longitude":79.4192,"temp":28.8,"humidity":64,"rain":0.0,"pressure":991.6,"uv_index":9.35,"wind_gusts":33.8,"aqi":54,"pm10":17.5,"pm2_5":16.1,"mosquito_risk":7,"arthritis_risk":5,"migraine_risk":7,"frizz_risk":1,"updated_at":"2026-04-24T23:21:31.339587+05:30"},{"city":"Warangal","state":"Telangana","latitude":17.9689,"longitude":79.5941,"temp":30.0,"humidity":49,"rain":0.0,"pressure":978.6,"uv_index":9.2,"wind_gusts":34.9,"aqi":149,"pm10":38.5,"pm2_5":35.5,"mosquito_risk":4,"arthritis_risk":5,"migraine_risk":7,"frizz_risk":1,"updated_at":"2026-04-24T23:21:31.339593+05:30"},{"city":"Nizamabad","state":"Telangana","latitude":18.6725,"longitude":78.0941,"temp":30.4,"humidity":34,"rain":0.0,"pressure":964.7,"uv_index":8.8,"wind_gusts":27.7,"aqi":122,"pm10":79.6,"pm2_5":72.4,"mosquito_risk":0,"arthritis_risk":5,"migraine_risk":7,"frizz_risk":0,"updated_at":"2026-04-24T23:21:31.339600+05:30"},{"city":"Mysore","state":"Karnataka","latitude":12.2958,"longitude":76.6396,"temp":26.8,"humidity":46,"rain":0.0,"pressure":928.2,"uv_index":9.5,"wind_gusts":35.3,"aqi":103,"pm10":28.5,"pm2_5":25.4,"mosquito_risk":4,"arthritis_risk":5,"migraine_risk":7,"frizz_risk":0,"updated_at":"2026-04-24T23:21:31.339606+05:30"},{"city":"Mangalore","state":"Karnataka","latitude":12.9141,"longitude":74.856,"temp":29.5,"humidity":80,"rain":0.0,"pressure":1006.2,"uv_index":9.1,"wind_gusts":40.0,"aqi":71,"pm10":26.4,"pm2_5":18.9,"mosquito_risk":7,"arthritis_risk":5,"migraine_risk":4,"frizz_risk":1,"updated_at":"2026-04-24T23:21:31.339612+05:30"},{"city":"Hubli-Dharwad","state":"Karnataka","latitude":15.3647,"longitude":75.124,"temp":26.6,"humidity":64,"rain":0.0,"pressure":940.7,"uv_index":9.2,"wind_gusts":36.0,"aqi":106,"pm10":53.2,"pm2_5":48.7,"mosquito_risk":7,"arthritis_risk":5,"migraine_risk":7,"frizz_risk":1,"updated_at":"2026-04-24T23:21:31.339619+05:30"},{"city":"Belgaum","state":"Karnataka","latitude":15.8497,"longitude":74.4977,"temp":25.8,"humidity":65,"rain":0.0,"pressure":925.5,"uv_index":9.25,"wind_gusts":36.0,"aqi":120,"pm10":70.5,"pm2_5":63.1,"mosquito_risk":7,"arthritis_risk":5,"migraine_risk":7,"frizz_risk":1,"updated_at":"2026-04-24T23:21:34.564420+05:30"},{"city":"Coimbatore","state":"Tamil Nadu","latitude":11.0168,"longitude":76.9558,"temp":28.4,"humidity":64,"rain":0.0,"pressure":961.7,"uv_index":9.4,"wind_gusts":42.1,"aqi":87,"pm10":26.4,"pm2_5":24.4,"mosquito_risk":7,"arthritis_risk":5,"migraine_risk":7,"frizz_risk":1,"updated_at":"2026-04-24T23:21:34.564445+05:30"},{"city":"Madurai","state":"Tamil Nadu","latitude":9.9252,"longitude":78.1198,"temp":28.4,"humidity":78,"rain":0.0,"pressure":993.5,"uv_index":9.3,"wind_gusts":38.5,"aqi":46,"pm10":10.0,"pm2_5":9.4,"mosquito_risk":7,"arthritis_risk":5,"migraine_risk":7,"frizz_risk":1,"updated_at":"2026-04-24T23:21:34.564491+05:30"},{"city":"Trichy","state":"Tamil Nadu","latitude":10.7905,"longitude":78.7047,"temp":28.7,"humidity":74,"rain":0.0,"pressure":999.8,"uv_index":9.3,"wind_gusts":29.5,"aqi":48,"pm10":10.5,"pm2_5":10.2,"mosquito_risk":7,"arthritis_risk":5,"migraine_risk":7,"frizz_risk":1,"updated_at":"2026-04-24T23:21:34.564503+05:30"},{"city":"Salem","state":"Tamil Nadu","latitude":11.6643,"longitude":78.146,"temp":29.6,"humidity":56,"rain":0.0,"pressure":977.2,"uv_index":9.35,"wind_gusts":40.7,"aqi":90,"pm10":21.4,"pm2_5":20.7,"mosquito_risk":4,"arthritis_risk":5,"migraine_risk":7,"frizz_risk":1,"updated_at":"2026-04-24T23:21:34.564510+05:30"},{"city":"Tirunelveli","state":"Tamil Nadu","latitude":8.7139,"longitude":77.7567,"temp":27.4,"humidity":81,"rain":0.0,"pressure":1003.5,"uv_index":9.2,"wind_gusts":41.8,"aqi":74,"pm10":19.5,"pm2_5":18.5,"mosquito_risk":7,"arthritis_risk":5,"migraine_risk":4,"frizz_risk":1,"updated_at":"2026-04-24T23:21:34.564517+05:30"},{"city":"Vellore","state":"Tamil Nadu","latitude":12.9165,"longitude":79.1325,"temp":28.0,"humidity":71,"rain":0.0,"pressure":984.7,"uv_index":9.4,"wind_gusts":36.4,"aqi":70,"pm10":30.2,"pm2_5":29.5,"mosquito_risk":7,"arthritis_risk":5,"migraine_risk":7,"frizz_risk":1,"updated_at":"2026-04-24T23:21:34.564524+05:30"},{"city":"Erode","state":"Tamil Nadu","latitude":11.341,"longitude":77.7172,"temp":31.0,"humidity":47,"rain":0.0,"pressure":988.8,"uv_index":9.35,"wind_gusts":44.3,"aqi":66,"pm10":13.2,"pm2_5":12.5,"mosquito_risk":0,"arthritis_risk":5,"migraine_risk":7,"frizz_risk":1,"updated_at":"2026-04-24T23:21:34.564530+05:30"},{"city":"Kochi","state":"Kerala","latitude":9.9312,"longitude":76.2673,"temp":27.5,"humidity":86,"rain":0.1,"pressure":1008.4,"uv_index":8.5,"wind_gusts":38.2,"aqi":88,"pm10":42.4,"pm2_5":39.6,"mosquito_risk":10,"arthritis_risk":0,"migraine_risk":4,"frizz_risk":1,"updated_at":"2026-04-24T23:21:34.564537+05:30"},{"city":"Thiruvananthapuram","state":"Kerala","latitude":8.5241,"longitude":76.9366,"temp":26.0,"humidity":95,"rain":0.0,"pressure":1008.0,"uv_index":8.9,"wind_gusts":34.9,"aqi":67,"pm10":24.5,"pm2_5":19.1,"mosquito_risk":7,"arthritis_risk":0,"migraine_risk":4,"frizz_risk":1,"updated_at":"2026-04-24T23:21:34.564543+05:30"},{"city":"Kozhikode","state":"Kerala","latitude":11.2588,"longitude":75.7804,"temp":27.8,"humidity":90,"rain":0.0,"pressure":1007.2,"uv_index":9.1,"wind_gusts":36.4,"aqi":80,"pm10":29.3,"pm2_5":21.7,"mosquito_risk":7,"arthritis_risk":5,"migraine_risk":4,"frizz_risk":1,"updated_at":"2026-04-24T23:21:34.564549+05:30"},{"city":"Thrissur","state":"Kerala","latitude":10.5276,"longitude":76.2144,"temp":27.9,"humidity":87,"rain":0.0,"pressure":1006.4,"uv_index":9.15,"wind_gusts":37.4,"aqi":95,"pm10":43.8,"pm2_5":40.2,"mosquito_risk":7,"arthritis_risk":5,"migraine_risk":4,"frizz_risk":1,"updated_at":"2026-04-24T23:21:34.564555+05:30"},{"city":"Kannur","state":"Kerala","latitude":11.8745,"longitude":75.3704,"temp":29.4,"humidity":80,"rain":0.0,"pressure":1006.5,"uv_index":9.1,"wind_gusts":39.6,"aqi":79,"pm10":29.6,"pm2_5":22.6,"mosquito_risk":7,"arthritis_risk":5,"migraine_risk":4,"frizz_risk":1,"updated_at":"2026-04-24T23:21:34.564561+05:30"},{"city":"Patna","state":"Bihar","latitude":25.5941,"longitude":85.1376,"temp":30.0,"humidity":70,"rain":0.0,"pressure":999.8,"uv_index":8.6,"wind_gusts":30.2,"aqi":154,"pm10":105.0,"pm2_5":58.0,"mosquito_risk":7,"arthritis_risk":5,"migraine_risk":7,"frizz_risk":1,"updated_at":"2026-04-24T23:21:34.564567+05:30"},{"city":"Gaya","state":"Bihar","latitude":24.7914,"longitude":85.0002,"temp":29.6,"humidity":43,"rain":0.0,"pressure":992.8,"uv_index":8.7,"wind_gusts":32.4,"aqi":140,"pm10":103.6,"pm2_5":47.8,"mosquito_risk":4,"arthritis_risk":5,"migraine_risk":7,"frizz_risk":0,"updated_at":"2026-04-24T23:21:34.564573+05:30"},{"city":"Muzaffarpur","state":"Bihar","latitude":26.1209,"longitude":85.3647,"temp":28.4,"humidity":74,"rain":0.0,"pressure":1000.1,"uv_index":8.6,"wind_gusts":32.4,"aqi":154,"pm10":104.5,"pm2_5":63.3,"mosquito_risk":7,"arthritis_risk":5,"migraine_risk":4,"frizz_risk":1,"updated_at":"2026-04-24T23:21:34.564580+05:30"},{"city":"Bhagalpur","state":"Bihar","latitude":25.2425,"longitude":87.0117,"temp":29.2,"humidity":73,"rain":0.0,"pressure":1001.1,"uv_index":8.65,"wind_gusts":37.8,"aqi":152,"pm10":64.3,"pm2_5":59.0,"mosquito_risk":7,"arthritis_risk":5,"migraine_risk":4,"frizz_risk":1,"updated_at":"2026-04-24T23:21:34.564587+05:30"},{"city":"Ranchi","state":"Jharkhand","latitude":23.3441,"longitude":85.3096,"temp":26.7,"humidity":31,"rain":0.0,"pressure":937.8,"uv_index":9.15,"wind_gusts":31.0,"aqi":118,"pm10":113.2,"pm2_5":43.3,"mosquito_risk":4,"arthritis_risk":5,"migraine_risk":7,"frizz_risk":0,"updated_at":"2026-04-24T23:21:34.564593+05:30"},{"city":"Jamshedpur","state":"Jharkhand","latitude":22.8046,"longitude":86.2029,"temp":29.0,"humidity":82,"rain":0.0,"pressure":990.6,"uv_index":8.65,"wind_gusts":37.8,"aqi":153,"pm10":57.5,"pm2_5":39.9,"mosquito_risk":7,"arthritis_risk":5,"migraine_risk":7,"frizz_risk":1,"updated_at":"2026-04-24T23:21:34.564598+05:30"},{"city":"Dhanbad","state":"Jharkhand","latitude":23.7957,"longitude":86.4304,"temp":31.0,"humidity":49,"rain":0.0,"pressure":979.7,"uv_index":8.95,"wind_gusts":37.8,"aqi":166,"pm10":125.3,"pm2_5":71.0,"mosquito_risk":0,"arthritis_risk":5,"migraine_risk":7,"frizz_risk":1,"updated_at":"2026-04-24T23:21:34.564604+05:30"},{"city":"Bokaro","state":"Jharkhand","latitude":23.6693,"longitude":86.1511,"temp":28.7,"humidity":46,"rain":0.0,"pressure":983.1,"uv_index":8.95,"wind_gusts":22.7,"aqi":161,"pm10":129.0,"pm2_5":65.0,"mosquito_risk":4,"arthritis_risk":5,"migraine_risk":7,"frizz_risk":0,"updated_at":"2026-04-24T23:21:34.564610+05:30"},{"city":"Bhubaneswar","state":"Odisha","latitude":20.2961,"longitude":85.8245,"temp":26.9,"humidity":96,"rain":0.0,"pressure":1002.7,"uv_index":9.1,"wind_gusts":39.2,"aqi":72,"pm10":18.3,"pm2_5":14.4,"mosquito_risk":7,"arthritis_risk":5,"migraine_risk":4,"frizz_risk":1,"updated_at":"2026-04-24T23:21:34.564615+05:30"},{"city":"Cuttack","state":"Odisha","latitude":20.4625,"longitude":85.8828,"temp":27.2,"humidity":95,"rain":0.0,"pressure":1004.4,"uv_index":9.15,"wind_gusts":33.1,"aqi":72,"pm10":18.3,"pm2_5":14.4,"mosquito_risk":7,"arthritis_risk":5,"migraine_risk":4,"frizz_risk":1,"updated_at":"2026-04-24T23:21:34.564621+05:30"},{"city":"Rourkela","state":"Odisha","latitude":22.2604,"longitude":84.8536,"temp":29.4,"humidity":41,"rain":0.0,"pressure":984.7,"uv_index":8.85,"wind_gusts":30.2,"aqi":129,"pm10":122.9,"pm2_5":54.5,"mosquito_risk":4,"arthritis_risk":5,"migraine_risk":7,"frizz_risk":0,"updated_at":"2026-04-24T23:21:34.564627+05:30"},{"city":"Raipur","state":"Chhattisgarh","latitude":21.2514,"longitude":81.6296,"temp":29.9,"humidity":27,"rain":0.0,"pressure":973.5,"uv_index":8.95,"wind_gusts":42.1,"aqi":139,"pm10":65.9,"pm2_5":56.1,"mosquito_risk":4,"arthritis_risk":5,"migraine_risk":7,"frizz_risk":0,"updated_at":"2026-04-24T23:21:34.564634+05:30"},{"city":"Bhilai","state":"Chhattisgarh","latitude":21.1938,"longitude":81.3509,"temp":32.0,"humidity":26,"rain":0.0,"pressure":973.7,"uv_index":8.9,"wind_gusts":42.1,"aqi":108,"pm10":58.7,"pm2_5":53.3,"mosquito_risk":0,"arthritis_risk":5,"migraine_risk":7,"frizz_risk":0,"updated_at":"2026-04-24T23:21:34.564644+05:30"},{"city":"Guwahati","state":"Assam","latitude":26.1158,"longitude":91.7086,"temp":24.2,"humidity":84,"rain":0.0,"pressure":1002.0,"uv_index":8.55,"wind_gusts":23.4,"aqi":151,"pm10":90.1,"pm2_5":70.5,"mosquito_risk":3,"arthritis_risk":5,"migraine_risk":4,"frizz_risk":1,"updated_at":"2026-04-24T23:21:34.564650+05:30"},{"city":"Agartala","state":"Tripura","latitude":23.8315,"longitude":91.2868,"temp":27.7,"humidity":74,"rain":0.0,"pressure":1006.0,"uv_index":8.65,"wind_gusts":26.3,"aqi":125,"pm10":85.9,"pm2_5":65.7,"mosquito_risk":7,"arthritis_risk":5,"migraine_risk":4,"frizz_risk":1,"updated_at":"2026-04-24T23:21:34.564656+05:30"},{"city":"Shillong","state":"Meghalaya","latitude":25.5788,"longitude":91.8933,"temp":18.2,"humidity":78,"rain":0.0,"pressure":858.1,"uv_index":6.3,"wind_gusts":26.6,"aqi":127,"pm10":65.7,"pm2_5":48.8,"mosquito_risk":3,"arthritis_risk":5,"migraine_risk":7,"frizz_risk":0,"updated_at":"2026-04-24T23:21:34.564661+05:30"},{"city":"Imphal","state":"Manipur","latitude":24.817,"longitude":93.9368,"temp":19.9,"humidity":88,"rain":0.0,"pressure":923.3,"uv_index":9.1,"wind_gusts":31.7,"aqi":151,"pm10":115.0,"pm2_5":73.8,"mosquito_risk":3,"arthritis_risk":10,"migraine_risk":7,"frizz_risk":1,"updated_at":"2026-04-24T23:21:34.564667+05:30"},{"city":"Aizawl","state":"Mizoram","latitude":23.7271,"longitude":92.7176,"temp":20.4,"humidity":74,"rain":0.0,"pressure":892.7,"uv_index":8.45,"wind_gusts":28.4,"aqi":117,"pm10":112.5,"pm2_5":50.6,"mosquito_risk":3,"arthritis_risk":5,"migraine_risk":7,"frizz_risk":0,"updated_at":"2026-04-24T23:21:34.564673+05:30"},{"city":"Kohima","state":"Nagaland","latitude":25.6701,"longitude":94.1077,"temp":17.2,"humidity":94,"rain":0.0,"pressure":855.9,"uv_index":8.55,"wind_gusts":35.3,"aqi":141,"pm10":112.2,"pm2_5":66.4,"mosquito_risk":3,"arthritis_risk":10,"migraine_risk":7,"frizz_risk":1,"updated_at":"2026-04-24T23:21:34.564679+05:30"},{"city":"Gangtok","state":"Sikkim","latitude":27.3314,"longitude":88.6138,"temp":14.9,"humidity":80,"rain":0.0,"pressure":838.2,"uv_index":6.7,"wind_gusts":38.5,"aqi":99,"pm10":52.9,"pm2_5":39.5,"mosquito_risk":3,"arthritis_risk":5,"migraine_risk":7,"frizz_risk":0,"updated_at":"2026-04-24T23:21:34.564685+05:30"},{"city":"Siliguri","state":"West Bengal","latitude":26.7271,"longitude":88.3953,"temp":24.0,"humidity":83,"rain":0.0,"pressure":993.9,"uv_index":8.45,"wind_gusts":23.8,"aqi":156,"pm10":113.9,"pm2_5":79.6,"mosquito_risk":3,"arthritis_risk":5,"migraine_risk":7,"frizz_risk":1,"updated_at":"2026-04-24T23:21:37.790177+05:30"},{"city":"Durgapur","state":"West Bengal","latitude":23.5204,"longitude":87.3119,"temp":28.1,"humidity":88,"rain":0.0,"pressure":995.2,"uv_index":8.5,"wind_gusts":31.3,"aqi":151,"pm10":61.0,"pm2_5":48.8,"mosquito_risk":7,"arthritis_risk":5,"migraine_risk":7,"frizz_risk":1,"updated_at":"2026-04-24T23:21:37.790213+05:30"},{"city":"Asansol","state":"West Bengal","latitude":23.6739,"longitude":86.9524,"temp":29.4,"humidity":83,"rain":0.0,"pressure":993.6,"uv_index":8.9,"wind_gusts":35.6,"aqi":153,"pm10":79.9,"pm2_5":49.2,"mosquito_risk":7,"arthritis_risk":5,"migraine_risk":7,"frizz_risk":1,"updated_at":"2026-04-24T23:21:37.790225+05:30"},{"city":"Pondicherry","state":"Puducherry","latitude":11.9139,"longitude":79.8145,"temp":29.2,"humidity":79,"rain":0.0,"pressure":1008.4,"uv_index":9.15,"wind_gusts":40.3,"aqi":24,"pm10":7.4,"pm2_5":4.8,"mosquito_risk":7,"arthritis_risk":0,"migraine_risk":4,"frizz_risk":1,"updated_at":"2026-04-24T23:21:37.790234+05:30"},{"city":"Port Blair","state":"Andaman and Nicobar Islands","latitude":11.6234,"longitude":92.7265,"temp":26.6,"humidity":81,"rain":0.0,"pressure":1007.2,"uv_index":9.15,"wind_gusts":30.6,"aqi":38,"pm10":11.4,"pm2_5":6.1,"mosquito_risk":7,"arthritis_risk":5,"migraine_risk":4,"frizz_risk":1,"updated_at":"2026-04-24T23:21:37.790243+05:30"},{"city":"Haridwar","state":"Uttarakhand","latitude":29.9457,"longitude":78.1642,"temp":21.9,"humidity":68,"rain":0.0,"pressure":971.9,"uv_index":7.25,"wind_gusts":23.8,"aqi":92,"pm10":55.6,"pm2_5":42.7,"mosquito_risk":3,"arthritis_risk":5,"migraine_risk":7,"frizz_risk":0,"updated_at":"2026-04-24T23:21:37.790254+05:30"},{"city":"Rishikesh","state":"Uttarakhand","latitude":30.0869,"longitude":78.2676,"temp":20.5,"humidity":65,"rain":0.0,"pressure":964.5,"uv_index":7.35,"wind_gusts":23.8,"aqi":106,"pm10":34.8,"pm2_5":25.0,"mosquito_risk":3,"arthritis_risk":5,"migraine_risk":7,"frizz_risk":0,"updated_at":"2026-04-24T23:21:37.790262+05:30"},{"city":"Nainital","state":"Uttarakhand","latitude":29.3919,"longitude":79.4542,"temp":15.9,"humidity":53,"rain":0.0,"pressure":806.3,"uv_index":8.2,"wind_gusts":43.9,"aqi":149,"pm10":47.6,"pm2_5":35.5,"mosquito_risk":0,"arthritis_risk":5,"migraine_risk":7,"frizz_risk":0,"updated_at":"2026-04-24T23:21:37.790271+05:30"},{"city":"Mussoorie","state":"Uttarakhand","latitude":30.4599,"longitude":78.0664,"temp":16.1,"humidity":47,"rain":0.0,"pressure":803.4,"uv_index":7.75,"wind_gusts":46.1,"aqi":110,"pm10":48.3,"pm2_5":34.9,"mosquito_risk":0,"arthritis_risk":5,"migraine_risk":7,"frizz_risk":0,"updated_at":"2026-04-24T23:21:37.790279+05:30"},{"city":"Dharamshala","state":"Himachal Pradesh","latitude":32.219,"longitude":76.3234,"temp":22.0,"humidity":39,"rain":0.0,"pressure":870.7,"uv_index":8.05,"wind_gusts":50.4,"aqi":72,"pm10":30.7,"pm2_5":18.3,"mosquito_risk":0,"arthritis_risk":5,"migraine_risk":7,"frizz_risk":0,"updated_at":"2026-04-24T23:21:37.790286+05:30"},{"city":"Dalhousie","state":"Himachal Pradesh","latitude":32.5387,"longitude":75.971,"temp":14.9,"humidity":58,"rain":0.0,"pressure":805.0,"uv_index":8.3,"wind_gusts":37.4,"aqi":67,"pm10":42.0,"pm2_5":27.1,"mosquito_risk":0,"arthritis_risk":5,"migraine_risk":7,"frizz_risk":0,"updated_at":"2026-04-24T23:21:37.790294+05:30"},{"city":"Patiala","state":"Punjab","latitude":30.3398,"longitude":76.3869,"temp":31.1,"humidity":31,"rain":0.0,"pressure":977.9,"uv_index":7.35,"wind_gusts":44.6,"aqi":228,"pm10":1043.1,"pm2_5":120.1,"mosquito_risk":0,"arthritis_risk":5,"migraine_risk":7,"frizz_risk":0,"updated_at":"2026-04-24T23:21:37.790301+05:30"},{"city":"Bhatinda","state":"Punjab","latitude":30.211,"longitude":74.9455,"temp":31.8,"humidity":28,"rain":0.0,"pressure":984.0,"uv_index":8.0,"wind_gusts":34.9,"aqi":86,"pm10":92.9,"pm2_5":31.8,"mosquito_risk":0,"arthritis_risk":5,"migraine_risk":7,"frizz_risk":0,"updated_at":"2026-04-24T23:21:37.790307+05:30"},{"city":"Rohtak","state":"Haryana","latitude":28.8955,"longitude":76.6066,"temp":29.8,"humidity":29,"rain":0.0,"pressure":980.8,"uv_index":7.45,"wind_gusts":31.0,"aqi":170,"pm10":421.0,"pm2_5":85.9,"mosquito_risk":4,"arthritis_risk":5,"migraine_risk":7,"frizz_risk":0,"updated_at":"2026-04-24T23:21:37.790314+05:30"},{"city":"Panipat","state":"Haryana","latitude":29.3909,"longitude":76.9635,"temp":29.2,"humidity":33,"rain":0.0,"pressure":979.3,"uv_index":7.3,"wind_gusts":34.2,"aqi":336,"pm10":819.6,"pm2_5":116.2,"mosquito_risk":4,"arthritis_risk":5,"migraine_risk":7,"frizz_risk":0,"updated_at":"2026-04-24T23:21:37.790320+05:30"},{"city":"Mathura","state":"Uttar Pradesh","latitude":27.4924,"longitude":77.6737,"temp":29.8,"humidity":29,"rain":0.0,"pressure":985.2,"uv_index":7.75,"wind_gusts":26.3,"aqi":375,"pm10":432.1,"pm2_5":82.0,"mosquito_risk":4,"arthritis_risk":5,"migraine_risk":7,"frizz_risk":0,"updated_at":"2026-04-24T23:21:37.790326+05:30"},{"city":"Vrindavan","state":"Uttar Pradesh","latitude":27.5823,"longitude":77.7027,"temp":29.4,"humidity":30,"rain":0.0,"pressure":985.7,"uv_index":7.7,"wind_gusts":25.9,"aqi":375,"pm10":432.1,"pm2_5":82.0,"mosquito_risk":4,"arthritis_risk":5,"migraine_risk":7,"frizz_risk":0,"updated_at":"2026-04-24T23:21:37.790333+05:30"},{"city":"Ayodhya","state":"Uttar Pradesh","latitude":26.7922,"longitude":82.1998,"temp":29.8,"humidity":37,"rain":0.0,"pressure":993.9,"uv_index":8.05,"wind_gusts":31.3,"aqi":139,"pm10":144.8,"pm2_5":53.1,"mosquito_risk":4,"arthritis_risk":5,"migraine_risk":7,"frizz_risk":0,"updated_at":"2026-04-24T23:21:37.790340+05:30"},{"city":"Ratlam","state":"Madhya Pradesh","latitude":23.3315,"longitude":75.0367,"temp":28.1,"humidity":25,"rain":0.0,"pressure":954.9,"uv_index":8.5,"wind_gusts":37.4,"aqi":53,"pm10":25.5,"pm2_5":14.0,"mosquito_risk":4,"arthritis_risk":5,"migraine_risk":7,"frizz_risk":0,"updated_at":"2026-04-24T23:21:37.790346+05:30"},{"city":"Sagar","state":"Madhya Pradesh","latitude":23.8388,"longitude":78.7378,"temp":28.2,"humidity":22,"rain":0.0,"pressure":949.4,"uv_index":8.65,"wind_gusts":44.6,"aqi":87,"pm10":20.8,"pm2_5":13.0,"mosquito_risk":4,"arthritis_risk":5,"migraine_risk":7,"frizz_risk":0,"updated_at":"2026-04-24T23:21:37.790352+05:30"},{"city":"Satna","state":"Madhya Pradesh","latitude":24.6005,"longitude":80.8322,"temp":29.4,"humidity":22,"rain":0.0,"pressure":970.3,"uv_index":8.65,"wind_gusts":41.8,"aqi":102,"pm10":32.2,"pm2_5":30.0,"mosquito_risk":4,"arthritis_risk":5,"migraine_risk":7,"frizz_risk":0,"updated_at":"2026-04-24T23:21:37.790359+05:30"},{"city":"Akola","state":"Maharashtra","latitude":20.7002,"longitude":77.0082,"temp":32.3,"humidity":20,"rain":0.0,"pressure":974.3,"uv_index":8.85,"wind_gusts":30.2,"aqi":96,"pm10":31.8,"pm2_5":27.4,"mosquito_risk":0,"arthritis_risk":5,"migraine_risk":7,"frizz_risk":0,"updated_at":"2026-04-24T23:21:37.790366+05:30"},{"city":"Amravati","state":"Maharashtra","latitude":20.9374,"longitude":77.7796,"temp":33.1,"humidity":21,"rain":0.0,"pressure":967.0,"uv_index":8.75,"wind_gusts":29.9,"aqi":95,"pm10":42.3,"pm2_5":34.9,"mosquito_risk":0,"arthritis_risk":5,"migraine_risk":7,"frizz_risk":0,"updated_at":"2026-04-24T23:21:37.790373+05:30"},{"city":"Latur","state":"Maharashtra","latitude":18.4088,"longitude":76.5604,"temp":30.2,"humidity":33,"rain":0.0,"pressure":940.4,"uv_index":8.3,"wind_gusts":29.2,"aqi":141,"pm10":47.0,"pm2_5":42.4,"mosquito_risk":0,"arthritis_risk":5,"migraine_risk":7,"frizz_risk":0,"updated_at":"2026-04-24T23:21:37.790380+05:30"},{"city":"Nanded","state":"Maharashtra","latitude":19.1383,"longitude":77.3091,"temp":30.4,"humidity":32,"rain":0.0,"pressure":968.4,"uv_index":8.1,"wind_gusts":27.7,"aqi":113,"pm10":50.5,"pm2_5":45.5,"mosquito_risk":0,"arthritis_risk":5,"migraine_risk":7,"frizz_risk":0,"updated_at":"2026-04-24T23:21:37.790386+05:30"},{"city":"Gulbarga","state":"Karnataka","latitude":17.3297,"longitude":76.8343,"temp":30.1,"humidity":38,"rain":0.0,"pressure":958.9,"uv_index":8.7,"wind_gusts":65.9,"aqi":127,"pm10":49.8,"pm2_5":41.8,"mosquito_risk":0,"arthritis_risk":5,"migraine_risk":7,"frizz_risk":0,"updated_at":"2026-04-24T23:21:37.790392+05:30"},{"city":"Bidar","state":"Karnataka","latitude":17.9104,"longitude":77.5199,"temp":27.5,"humidity":42,"rain":0.0,"pressure":935.9,"uv_index":8.9,"wind_gusts":43.9,"aqi":117,"pm10":64.0,"pm2_5":57.2,"mosquito_risk":4,"arthritis_risk":5,"migraine_risk":7,"frizz_risk":0,"updated_at":"2026-04-24T23:21:37.790398+05:30"},{"city":"Hospet","state":"Karnataka","latitude":15.2689,"longitude":76.3909,"temp":31.2,"humidity":29,"rain":0.0,"pressure":955.7,"uv_index":9.25,"wind_gusts":27.0,"aqi":123,"pm10":32.8,"pm2_5":29.0,"mosquito_risk":0,"arthritis_risk":5,"migraine_risk":7,"frizz_risk":0,"updated_at":"2026-04-24T23:21:37.790405+05:30"},{"city":"Tirupur","state":"Tamil Nadu","latitude":11.1085,"longitude":77.3411,"temp":31.6,"humidity":41,"rain":0.0,"pressure":974.9,"uv_index":9.4,"wind_gusts":42.5,"aqi":69,"pm10":17.1,"pm2_5":15.9,"mosquito_risk":0,"arthritis_risk":5,"migraine_risk":7,"frizz_risk":1,"updated_at":"2026-04-24T23:21:37.790411+05:30"},{"city":"Alappuzha","state":"Kerala","latitude":9.4981,"longitude":76.3388,"temp":27.0,"humidity":88,"rain":0.0,"pressure":1008.6,"uv_index":9.0,"wind_gusts":36.0,"aqi":81,"pm10":44.1,"pm2_5":38.6,"mosquito_risk":7,"arthritis_risk":0,"migraine_risk":4,"frizz_risk":1,"updated_at":"2026-04-24T23:21:37.790418+05:30"},{"city":"Munnar","state":"Kerala","latitude":10.0889,"longitude":77.0595,"temp":18.7,"humidity":70,"rain":0.0,"pressure":856.8,"uv_index":9.6,"wind_gusts":20.9,"aqi":66,"pm10":26.8,"pm2_5":25.8,"mosquito_risk":3,"arthritis_risk":5,"migraine_risk":7,"frizz_risk":0,"updated_at":"2026-04-24T23:21:37.790425+05:30"},{"city":"Silchar","state":"Assam","latitude":24.8333,"longitude":92.7789,"temp":25.1,"humidity":93,"rain":0.0,"pressure":1005.0,"uv_index":8.75,"wind_gusts":19.8,"aqi":158,"pm10":147.1,"pm2_5":94.5,"mosquito_risk":7,"arthritis_risk":5,"migraine_risk":4,"frizz_risk":1,"updated_at":"2026-04-24T23:21:37.790432+05:30"},{"city":"Dibrugarh","state":"Assam","latitude":27.4728,"longitude":94.912,"temp":25.1,"humidity":85,"rain":0.0,"pressure":995.9,"uv_index":8.65,"wind_gusts":16.6,"aqi":88,"pm10":39.1,"pm2_5":31.7,"mosquito_risk":7,"arthritis_risk":5,"migraine_risk":7,"frizz_risk":1,"updated_at":"2026-04-24T23:21:37.790438+05:30"}]