[{"city":"Delhi","state":"Delhi","latitude":28.6139,"longitude":77.209,"temp":27.8,"humidity":46,"rain":0.0,"pressure":981.7,"uv_index":7.3,"wind_gusts":30.2,"aqi":447,"pm10":395.8,"pm2_5":99.4,"mosquito_risk":4,"arthritis_risk":5,"migraine_risk":7,"frizz_risk":0,"updated_at":"2026-04-22T08:20:17.362831+05:30"},{"city":"Mumbai","state":"Maharashtra","latitude":19.076,"longitude":72.8777,"temp":29.3,"humidity":76,"rain":0.0,"pressure":1008.8,"uv_index":8.0,"wind_gusts":32.4,"aqi":96,"pm10":62.4,"pm2_5":38.4,"mosquito_risk":7,"arthritis_risk":0,"migraine_risk":4,"frizz_risk":1,"updated_at":"2026-04-22T08:20:17.362876+05:30"},{"city":"Bangalore","state":"Karnataka","latitude":12.9716,"longitude":77.5946,"temp":25.0,"humidity":67,"rain":0.0,"pressure":912.8,"uv_index":9.6,"wind_gusts":28.8,"aqi":68,"pm10":35.3,"pm2_5":33.3,"mosquito_risk":7,"arthritis_risk":5,"migraine_risk":7,"frizz_risk":1,"updated_at":"2026-04-22T08:20:17.362893+05:30"},{"city":"Hyderabad","state":"Telangana","latitude":17.385,"longitude":78.4867,"temp":29.6,"humidity":53,"rain":0.0,"pressure":954.8,"uv_index":9.2,"wind_gusts":20.2,"aqi":115,"pm10":58.1,"pm2_5":54.2,"mosquito_risk":4,"arthritis_risk":5,"migraine_risk":7,"frizz_risk":1,"updated_at":"2026-04-22T08:20:17.362903+05:30"},{"city":"Chennai","state":"Tamil Nadu","latitude":13.0827,"longitude":80.2707,"temp":30.9,"humidity":68,"rain":0.0,"pressure":1008.1,"uv_index":9.25,"wind_gusts":32.4,"aqi":44,"pm10":9.3,"pm2_5":7.1,"mosquito_risk":3,"arthritis_risk":0,"migraine_risk":4,"frizz_risk":1,"updated_at":"2026-04-22T08:20:17.362912+05:30"},{"city":"Kolkata","state":"West Bengal","latitude":22.5726,"longitude":88.3639,"temp":30.4,"humidity":82,"rain":0.0,"pressure":1004.2,"uv_index":8.95,"wind_gusts":27.4,"aqi":87,"pm10":34.6,"pm2_5":32.7,"mosquito_risk":3,"arthritis_risk":5,"migraine_risk":4,"frizz_risk":1,"updated_at":"2026-04-22T08:20:17.362924+05:30"},{"city":"Pune","state":"Maharashtra","latitude":18.5204,"longitude":73.8567,"temp":29.7,"humidity":56,"rain":0.0,"pressure":949.7,"uv_index":8.6,"wind_gusts":41.4,"aqi":92,"pm10":52.5,"pm2_5":47.4,"mosquito_risk":4,"arthritis_risk":5,"migraine_risk":7,"frizz_risk":1,"updated_at":"2026-04-22T08:20:17.362932+05:30"},{"city":"Ahmedabad","state":"Gujarat","latitude":23.0225,"longitude":72.5714,"temp":26.2,"humidity":45,"rain":0.0,"pressure":1003.6,"uv_index":8.2,"wind_gusts":24.8,"aqi":39,"pm10":19.6,"pm2_5":12.5,"mosquito_risk":4,"arthritis_risk":5,"migraine_risk":4,"frizz_risk":0,"updated_at":"2026-04-22T08:20:17.362939+05:30"},{"city":"Jaipur","state":"Rajasthan","latitude":26.9124,"longitude":75.7873,"temp":29.7,"humidity":20,"rain":0.0,"pressure":960.5,"uv_index":8.0,"wind_gusts":34.9,"aqi":136,"pm10":244.0,"pm2_5":35.0,"mosquito_risk":4,"arthritis_risk":5,"migraine_risk":7,"frizz_risk":0,"updated_at":"2026-04-22T08:20:17.362948+05:30"},{"city":"Lucknow","state":"Uttar Pradesh","latitude":26.8467,"longitude":80.9462,"temp":30.0,"humidity":41,"rain":0.0,"pressure":991.9,"uv_index":7.85,"wind_gusts":44.6,"aqi":192,"pm10":350.2,"pm2_5":77.3,"mosquito_risk":4,"arthritis_risk":5,"migraine_risk":7,"frizz_risk":0,"updated_at":"2026-04-22T08:20:17.362956+05:30"},{"city":"Kanpur","state":"Uttar Pradesh","latitude":26.4499,"longitude":80.3319,"temp":28.4,"humidity":54,"rain":0.0,"pressure":990.3,"uv_index":7.9,"wind_gusts":36.4,"aqi":409,"pm10":379.0,"pm2_5":64.7,"mosquito_risk":4,"arthritis_risk":5,"migraine_risk":7,"frizz_risk":1,"updated_at":"2026-04-22T08:20:17.362964+05:30"},{"city":"Chandigarh","state":"Chandigarh","latitude":30.7333,"longitude":76.7794,"temp":25.8,"humidity":52,"rain":0.0,"pressure":966.8,"uv_index":7.35,"wind_gusts":31.3,"aqi":57,"pm10":21.2,"pm2_5":17.6,"mosquito_risk":4,"arthritis_risk":5,"migraine_risk":7,"frizz_risk":0,"updated_at":"2026-04-22T08:20:17.362971+05:30"},{"city":"Srinagar","state":"Jammu and Kashmir","latitude":34.0837,"longitude":74.7973,"temp":14.7,"humidity":86,"rain":0.0,"pressure":842.3,"uv_index":8.5,"wind_gusts":16.2,"aqi":70,"pm10":39.7,"pm2_5":27.3,"mosquito_risk":3,"arthritis_risk":10,"migraine_risk":7,"frizz_risk":0,"updated_at":"2026-04-22T08:20:17.362978+05:30"},{"city":"Jammu","state":"Jammu and Kashmir","latitude":32.7266,"longitude":74.857,"temp":26.5,"humidity":64,"rain":0.0,"pressure":970.3,"uv_index":8.1,"wind_gusts":28.8,"aqi":71,"pm10":31.5,"pm2_5":27.5,"mosquito_risk":7,"arthritis_risk":5,"migraine_risk":7,"frizz_risk":1,"updated_at":"2026-04-22T08:20:17.362985+05:30"},{"city":"Amritsar","state":"Punjab","latitude":31.634,"longitude":74.8723,"temp":26.0,"humidity":58,"rain":0.0,"pressure":978.8,"uv_index":8.05,"wind_gusts":28.8,"aqi":84,"pm10":68.7,"pm2_5":61.9,"mosquito_risk":4,"arthritis_risk":5,"migraine_risk":7,"frizz_risk":1,"updated_at":"2026-04-22T08:20:17.362992+05:30"},{"city":"Ludhiana","state":"Punjab","latitude":30.901,"longitude":75.8573,"temp":27.4,"humidity":43,"rain":0.0,"pressure":977.0,"uv_index":7.6,"wind_gusts":29.9,"aqi":80,"pm10":39.0,"pm2_5":33.2,"mosquito_risk":4,"arthritis_risk":5,"migraine_risk":7,"frizz_risk":0,"updated_at":"2026-04-22T08:20:17.363001+05:30"},{"city":"Jalandhar","state":"Punjab","latitude":31.326,"longitude":75.5762,"temp":26.8,"humidity":47,"rain":0.0,"pressure":977.9,"uv_index":7.8,"wind_gusts":31.0,"aqi":81,"pm10":52.2,"pm2_5":40.2,"mosquito_risk":4,"arthritis_risk":5,"migraine_risk":7,"frizz_risk":0,"updated_at":"2026-04-22T08:20:17.363007+05:30"},{"city":"Dehradun","state":"Uttarakhand","latitude":30.6284,"longitude":78.0322,"temp":20.0,"humidity":46,"rain":0.0,"pressure":830.9,"uv_index":7.75,"wind_gusts":31.0,"aqi":46,"pm10":11.5,"pm2_5":9.1,"mosquito_risk":0,"arthritis_risk":5,"migraine_risk":7,"frizz_risk":0,"updated_at":"2026-04-22T08:20:17.363014+05:30"},{"city":"Shimla","state":"Himachal Pradesh","latitude":31.1048,"longitude":77.1734,"temp":19.4,"humidity":44,"rain":0.0,"pressure":786.2,"uv_index":7.85,"wind_gusts":51.1,"aqi":45,"pm10":18.2,"pm2_5":13.9,"mosquito_risk":0,"arthritis_risk":5,"migraine_risk":7,"frizz_risk":0,"updated_at":"2026-04-22T08:20:17.363020+05:30"},{"city":"Manali","state":"Himachal Pradesh","latitude":32.2396,"longitude":77.1887,"temp":23.3,"humidity":17,"rain":0.0,"pressure":822.2,"uv_index":9.3,"wind_gusts":30.6,"aqi":49,"pm10":26.4,"pm2_5":10.8,"mosquito_risk":0,"arthritis_risk":5,"migraine_risk":7,"frizz_risk":1,"updated_at":"2026-04-22T08:20:17.363027+05:30"},{"city":"Gurgaon","state":"Haryana","latitude":28.4595,"longitude":77.0266,"temp":26.1,"humidity":58,"rain":0.0,"pressure":980.0,"uv_index":7.45,"wind_gusts":27.7,"aqi":1141,"pm10":1549.7,"pm2_5":210.9,"mosquito_risk":4,"arthritis_risk":5,"migraine_risk":7,"frizz_risk":1,"updated_at":"2026-04-22T08:20:17.363034+05:30"},{"city":"Noida","state":"Uttar Pradesh","latitude":28.5355,"longitude":77.391,"temp":28.4,"humidity":46,"rain":0.0,"pressure":983.1,"uv_index":7.35,"wind_gusts":31.7,"aqi":1141,"pm10":1549.7,"pm2_5":210.9,"mosquito_risk":4,"arthritis_risk":5,"migraine_risk":7,"frizz_risk":0,"updated_at":"2026-04-22T08:20:17.363040+05:30"},{"city":"Ghaziabad","state":"Uttar Pradesh","latitude":28.6692,"longitude":77.4538,"temp":27.4,"humidity":50,"rain":0.0,"pressure":981.1,"uv_index":7.35,"wind_gusts":31.3,"aqi":345,"pm10":335.3,"pm2_5":89.9,"mosquito_risk":4,"arthritis_risk":5,"migraine_risk":7,"frizz_risk":0,"updated_at":"2026-04-22T08:20:17.363046+05:30"},{"city":"Faridabad","state":"Haryana","latitude":28.4089,"longitude":77.3178,"temp":29.1,"humidity":41,"rain":0.0,"pressure":982.6,"uv_index":7.4,"wind_gusts":32.8,"aqi":1141,"pm10":1549.7,"pm2_5":210.9,"mosquito_risk":4,"arthritis_risk":5,"migraine_risk":7,"frizz_risk":0,"updated_at":"2026-04-22T08:20:17.363052+05:30"},{"city":"Meerut","state":"Uttar Pradesh","latitude":28.9845,"longitude":77.7064,"temp":26.0,"humidity":53,"rain":0.0,"pressure":979.6,"uv_index":7.25,"wind_gusts":36.0,"aqi":345,"pm10":335.3,"pm2_5":89.9,"mosquito_risk":4,"arthritis_risk":5,"migraine_risk":7,"frizz_risk":0,"updated_at":"2026-04-22T08:20:17.363058+05:30"},{"city":"Agra","state":"Uttar Pradesh","latitude":27.1767,"longitude":78.0081,"temp":29.7,"humidity":44,"rain":0.0,"pressure":987.1,"uv_index":7.75,"wind_gusts":36.4,"aqi":629,"pm10":855.0,"pm2_5":111.1,"mosquito_risk":4,"arthritis_risk":5,"migraine_risk":7,"frizz_risk":1,"updated_at":"2026-04-22T08:20:17.363067+05:30"},{"city":"Varanasi","state":"Uttar Pradesh","latitude":25.3176,"longitude":82.9739,"temp":32.3,"humidity":34,"rain":0.0,"pressure":995.8,"uv_index":8.55,"wind_gusts":42.5,"aqi":107,"pm10":156.9,"pm2_5":44.4,"mosquito_risk":0,"arthritis_risk":5,"migraine_risk":7,"frizz_risk":0,"updated_at":"2026-04-22T08:20:17.363074+05:30"},{"city":"Prayagraj","state":"Uttar Pradesh","latitude":25.4358,"longitude":81.8463,"temp":32.0,"humidity":37,"rain":0.0,"pressure":994.8,"uv_index":8.4,"wind_gusts":38.5,"aqi":123,"pm10":177.4,"pm2_5":53.4,"mosquito_risk":0,"arthritis_risk":5,"migraine_risk":7,"frizz_risk":0,"updated_at":"2026-04-22T08:20:17.363080+05:30"},{"city":"Gorakhpur","state":"Uttar Pradesh","latitude":26.7606,"longitude":83.3732,"temp":30.5,"humidity":33,"rain":0.0,"pressure":994.9,"uv_index":8.25,"wind_gusts":41.0,"aqi":90,"pm10":201.6,"pm2_5":59.0,"mosquito_risk":0,"arthritis_risk":5,"migraine_risk":7,"frizz_risk":0,"updated_at":"2026-04-22T08:20:17.363089+05:30"},{"city":"Bareilly","state":"Uttar Pradesh","latitude":28.367,"longitude":79.4304,"temp":26.8,"humidity":47,"rain":0.0,"pressure":985.3,"uv_index":7.6,"wind_gusts":38.5,"aqi":95,"pm10":108.5,"pm2_5":48.9,"mosquito_risk":4,"arthritis_risk":5,"migraine_risk":7,"frizz_risk":0,"updated_at":"2026-04-22T08:20:17.363095+05:30"},{"city":"Aligarh","state":"Uttar Pradesh","latitude":27.8974,"longitude":78.088,"temp":29.2,"humidity":39,"rain":0.0,"pressure":984.6,"uv_index":7.5,"wind_gusts":36.0,"aqi":734,"pm10":927.6,"pm2_5":146.7,"mosquito_risk":4,"arthritis_risk":5,"migraine_risk":7,"frizz_risk":0,"updated_at":"2026-04-22T08:20:17.363101+05:30"},{"city":"Moradabad","state":"Uttar Pradesh","latitude":28.8386,"longitude":78.7733,"temp":26.5,"humidity":49,"rain":0.0,"pressure":981.9,"uv_index":7.45,"wind_gusts":36.4,"aqi":113,"pm10":94.3,"pm2_5":48.8,"mosquito_risk":4,"arthritis_risk":5,"migraine_risk":7,"frizz_risk":0,"updated_at":"2026-04-22T08:20:17.363106+05:30"},{"city":"Saharanpur","state":"Uttar Pradesh","latitude":29.9637,"longitude":77.546,"temp":23.5,"humidity":68,"rain":0.0,"pressure":973.8,"uv_index":6.95,"wind_gusts":32.8,"aqi":85,"pm10":58.7,"pm2_5":54.8,"mosquito_risk":3,"arthritis_risk":5,"migraine_risk":7,"frizz_risk":1,"updated_at":"2026-04-22T08:20:17.363112+05:30"},{"city":"Jhansi","state":"Uttar Pradesh","latitude":25.4484,"longitude":78.5685,"temp":32.2,"humidity":28,"rain":0.0,"pressure":978.1,"uv_index":8.3,"wind_gusts":30.2,"aqi":105,"pm10":30.6,"pm2_5":15.4,"mosquito_risk":0,"arthritis_risk":5,"migraine_risk":7,"frizz_risk":0,"updated_at":"2026-04-22T08:20:20.578591+05:30"},{"city":"Surat","state":"Gujarat","latitude":21.1702,"longitude":72.8311,"temp":27.9,"humidity":63,"rain":0.0,"pressure":1007.7,"uv_index":7.9,"wind_gusts":21.2,"aqi":111,"pm10":33.5,"pm2_5":29.5,"mosquito_risk":7,"arthritis_risk":5,"migraine_risk":4,"frizz_risk":1,"updated_at":"2026-04-22T08:20:20.578625+05:30"},{"city":"Vadodara","state":"Gujarat","latitude":22.3072,"longitude":73.1812,"temp":28.0,"humidity":37,"rain":0.0,"pressure":1005.9,"uv_index":8.15,"wind_gusts":24.8,"aqi":92,"pm10":18.2,"pm2_5":16.5,"mosquito_risk":4,"arthritis_risk":5,"migraine_risk":4,"frizz_risk":0,"updated_at":"2026-04-22T08:20:20.578636+05:30"},{"city":"Rajkot","state":"Gujarat","latitude":22.3039,"longitude":70.8022,"temp":24.4,"humidity":85,"rain":0.0,"pressure":995.8,"uv_index":7.85,"wind_gusts":29.9,"aqi":54,"pm10":49.8,"pm2_5":18.6,"mosquito_risk":3,"arthritis_risk":5,"migraine_risk":7,"frizz_risk":1,"updated_at":"2026-04-22T08:20:20.578643+05:30"},{"city":"Thane","state":"Maharashtra","latitude":19.2183,"longitude":72.9781,"temp":28.9,"humidity":72,"rain":0.0,"pressure":1008.4,"uv_index":8.05,"wind_gusts":43.6,"aqi":96,"pm10":62.4,"pm2_5":38.4,"mosquito_risk":7,"arthritis_risk":0,"migraine_risk":4,"frizz_risk":1,"updated_at":"2026-04-22T08:20:20.578650+05:30"},{"city":"Nagpur","state":"Maharashtra","latitude":21.1458,"longitude":79.0882,"temp":31.4,"humidity":41,"rain":0.0,"pressure":973.9,"uv_index":8.95,"wind_gusts":30.6,"aqi":86,"pm10":32.8,"pm2_5":30.0,"mosquito_risk":0,"arthritis_risk":5,"migraine_risk":7,"frizz_risk":1,"updated_at":"2026-04-22T08:20:20.578656+05:30"},{"city":"Nashik","state":"Maharashtra","latitude":19.9975,"longitude":73.7898,"temp":27.7,"humidity":51,"rain":0.0,"pressure":946.9,"uv_index":8.3,"wind_gusts":37.1,"aqi":87,"pm10":60.5,"pm2_5":45.3,"mosquito_risk":4,"arthritis_risk":5,"migraine_risk":7,"frizz_risk":1,"updated_at":"2026-04-22T08:20:20.578661+05:30"},{"city":"Aurangabad","state":"Maharashtra","latitude":19.8762,"longitude":75.3433,"temp":29.6,"humidity":41,"rain":0.0,"pressure":945.9,"uv_index":9.05,"wind_gusts":34.6,"aqi":82,"pm10":41.2,"pm2_5":35.4,"mosquito_risk":4,"arthritis_risk":5,"migraine_risk":7,"frizz_risk":0,"updated_at":"2026-04-22T08:20:20.578667+05:30"},{"city":"Solapur","state":"Maharashtra","latitude":17.6599,"longitude":75.9064,"temp":28.6,"humidity":63,"rain":0.0,"pressure":958.4,"uv_index":9.1,"wind_gusts":28.1,"aqi":109,"pm10":55.6,"pm2_5":50.9,"mosquito_risk":7,"arthritis_risk":5,"migraine_risk":7,"frizz_risk":1,"updated_at":"2026-04-22T08:20:20.578674+05:30"},{"city":"Kolhapur","state":"Maharashtra","latitude":16.705,"longitude":74.2433,"temp":26.7,"humidity":72,"rain":0.0,"pressure":949.4,"uv_index":9.05,"wind_gusts":43.9,"aqi":99,"pm10":50.3,"pm2_5":44.4,"mosquito_risk":7,"arthritis_risk":5,"migraine_risk":7,"frizz_risk":1,"updated_at":"2026-04-22T08:20:20.578680+05:30"},{"city":"Goa","state":"Goa","latitude":15.2993,"longitude":74.124,"temp":29.1,"humidity":78,"rain":0.0,"pressure":998.4,"uv_index":9.0,"wind_gusts":29.5,"aqi":73,"pm10":39.6,"pm2_5":28.4,"mosquito_risk":7,"arthritis_risk":5,"migraine_risk":7,"frizz_risk":1,"updated_at":"2026-04-22T08:20:20.578687+05:30"},{"city":"Jodhpur","state":"Rajasthan","latitude":26.2389,"longitude":73.0243,"temp":28.2,"humidity":33,"rain":0.0,"pressure":983.6,"uv_index":8.2,"wind_gusts":29.2,"aqi":107,"pm10":92.0,"pm2_5":18.1,"mosquito_risk":4,"arthritis_risk":5,"migraine_risk":7,"frizz_risk":0,"updated_at":"2026-04-22T08:20:20.578693+05:30"},{"city":"Udaipur","state":"Rajasthan","latitude":24.5854,"longitude":73.7125,"temp":27.8,"humidity":33,"rain":0.0,"pressure":947.7,"uv_index":8.75,"wind_gusts":42.5,"aqi":39,"pm10":9.5,"pm2_5":8.2,"mosquito_risk":4,"arthritis_risk":5,"migraine_risk":7,"frizz_risk":0,"updated_at":"2026-04-22T08:20:20.578699+05:30"},{"city":"Kota","state":"Rajasthan","latitude":25.2138,"longitude":75.8648,"temp":30.0,"humidity":24,"rain":0.0,"pressure":979.7,"uv_index":8.25,"wind_gusts":29.5,"aqi":56,"pm10":8.7,"pm2_5":8.3,"mosquito_risk":4,"arthritis_risk":5,"migraine_risk":7,"frizz_risk":0,"updated_at":"2026-04-22T08:20:20.578705+05:30"},{"city":"Bikaner","state":"Rajasthan","latitude":28.0229,"longitude":73.3119,"temp":31.1,"humidity":30,"rain":0.0,"pressure":981.4,"uv_index":8.05,"wind_gusts":30.2,"aqi":59,"pm10":160.7,"pm2_5":46.1,"mosquito_risk":0,"arthritis_risk":5,"migraine_risk":7,"frizz_risk":0,"updated_at":"2026-04-22T08:20:20.578711+05:30"},{"city":"Ajmer","state":"Rajasthan","latitude":26.4499,"longitude":74.6399,"temp":27.5,"humidity":29,"rain":0.0,"pressure":955.7,"uv_index":8.2,"wind_gusts":34.9,"aqi":55,"pm10":14.7,"pm2_5":6.5,"mosquito_risk":4,"arthritis_risk":5,"migraine_risk":7,"frizz_risk":0,"updated_at":"2026-04-22T08:20:20.578717+05:30"},{"city":"Gwalior","state":"Madhya Pradesh","latitude":26.2183,"longitude":78.1828,"temp":32.4,"humidity":28,"rain":0.0,"pressure":983.3,"uv_index":8.0,"wind_gusts":39.6,"aqi":94,"pm10":39.2,"pm2_5":17.8,"mosquito_risk":0,"arthritis_risk":5,"migraine_risk":7,"frizz_risk":0,"updated_at":"2026-04-22T08:20:20.578723+05:30"},{"city":"Indore","state":"Madhya Pradesh","latitude":22.7196,"longitude":75.8577,"temp":28.0,"humidity":36,"rain":0.0,"pressure":949.6,"uv_index":8.65,"wind_gusts":35.6,"aqi":56,"pm10":15.3,"pm2_5":13.4,"mosquito_risk":4,"arthritis_risk":5,"migraine_risk":7,"frizz_risk":0,"updated_at":"2026-04-22T08:20:20.578729+05:30"},{"city":"Bhopal","state":"Madhya Pradesh","latitude":23.2599,"longitude":77.4126,"temp":29.3,"humidity":32,"rain":0.0,"pressure":955.1,"uv_index":8.65,"wind_gusts":36.7,"aqi":54,"pm10":11.8,"pm2_5":10.9,"mosquito_risk":4,"arthritis_risk":5,"migraine_risk":7,"frizz_risk":0,"updated_at":"2026-04-22T08:20:20.578735+05:30"},{"city":"Jabalpur","state":"Madhya Pradesh","latitude":23.1815,"longitude":79.9864,"temp":29.4,"humidity":39,"rain":0.0,"pressure":962.3,"uv_index":8.8,"wind_gusts":32.0,"aqi":63,"pm10":34.5,"pm2_5":22.6,"mosquito_risk":4,"arthritis_risk":5,"migraine_risk":7,"frizz_risk":0,"updated_at":"2026-04-22T08:20:20.578741+05:30"},{"city":"Ujjain","state":"Madhya Pradesh","latitude":23.1765,"longitude":75.7885,"temp":28.7,"humidity":33,"rain":0.0,"pressure":955.2,"uv_index":8.55,"wind_gusts":36.4,"aqi":56,"pm10":16.2,"pm2_5":14.4,"mosquito_risk":4,"arthritis_risk":5,"migraine_risk":7,"frizz_risk":0,"updated_at":"2026-04-22T08:20:20.578766+05:30"},{"city":"Visakhapatnam","state":"Andhra Pradesh","latitude":17.6868,"longitude":83.2185,"temp":30.1,"humidity":74,"rain":0.0,"pressure":1003.8,"uv_index":9.2,"wind_gusts":40.0,"aqi":61,"pm10":22.8,"pm2_5":19.9,"mosquito_risk":3,"arthritis_risk":5,"migraine_risk":4,"frizz_risk":1,"updated_at":"2026-04-22T08:20:20.578773+05:30"},{"city":"Vijayawada","state":"Andhra Pradesh","latitude":16.5062,"longitude":80.648,"temp":29.3,"humidity":77,"rain":0.0,"pressure":1003.3,"uv_index":9.25,"wind_gusts":27.4,"aqi":59,"pm10":13.2,"pm2_5":10.0,"mosquito_risk":7,"arthritis_risk":5,"migraine_risk":4,"frizz_risk":1,"updated_at":"2026-04-22T08:20:20.578780+05:30"},{"city":"Guntur","state":"Andhra Pradesh","latitude":16.3067,"longitude":80.4365,"temp":29.5,"humidity":76,"rain":0.0,"pressure":1004.5,"uv_index":9.25,"wind_gusts":31.0,"aqi":64,"pm10":12.5,"pm2_5":9.6,"mosquito_risk":7,"arthritis_risk":5,"migraine_risk":4,"frizz_risk":1,"updated_at":"2026-04-22T08:20:20.578786+05:30"},{"city":"Nellore","state":"Andhra Pradesh","latitude":14.4426,"longitude":79.9865,"temp":30.6,"humidity":68,"rain":0.0,"pressure":1006.4,"uv_index":9.3,"wind_gusts":34.2,"aqi":52,"pm10":11.1,"pm2_5":10.2,"mosquito_risk":3,"arthritis_risk":5,"migraine_risk":4,"frizz_risk":1,"updated_at":"2026-04-22T08:20:20.578793+05:30"},{"city":"Kurnool","state":"Andhra Pradesh","latitude":15.8281,"longitude":78.0373,"temp":31.3,"humidity":53,"rain":0.0,"pressure":977.8,"uv_index":9.25,"wind_gusts":21.2,"aqi":105,"pm10":24.8,"pm2_5":22.9,"mosquito_risk":0,"arthritis_risk":5,"migraine_risk":7,"frizz_risk":1,"updated_at":"2026-04-22T08:20:20.578799+05:30"},{"city":"Kakinada","state":"Andhra Pradesh","latitude":16.9891,"longitude":82.2475,"temp":30.2,"humidity":75,"rain":0.0,"pressure":1008.3,"uv_index":9.2,"wind_gusts":29.2,"aqi":44,"pm10":14.8,"pm2_5":10.3,"mosquito_risk":3,"arthritis_risk":0,"migraine_risk":4,"frizz_risk":1,"updated_at":"2026-04-22T08:20:20.578806+05:30"},{"city":"Tirupati","state":"Andhra Pradesh","latitude":13.6288,"longitude":79.4192,"temp":28.3,"humidity":74,"rain":0.0,"pressure":993.1,"uv_index":9.35,"wind_gusts":32.4,"aqi":63,"pm10":18.8,"pm2_5":17.9,"mosquito_risk":7,"arthritis_risk":5,"migraine_risk":7,"frizz_risk":1,"updated_at":"2026-04-22T08:20:20.578812+05:30"},{"city":"Warangal","state":"Telangana","latitude":17.9689,"longitude":79.5941,"temp":29.0,"humidity":66,"rain":0.0,"pressure":979.9,"uv_index":9.2,"wind_gusts":33.1,"aqi":96,"pm10":22.2,"pm2_5":20.5,"mosquito_risk":7,"arthritis_risk":5,"migraine_risk":7,"frizz_risk":1,"updated_at":"2026-04-22T08:20:20.578818+05:30"},{"city":"Nizamabad","state":"Telangana","latitude":18.6725,"longitude":78.0941,"temp":30.9,"humidity":49,"rain":0.0,"pressure":965.9,"uv_index":8.95,"wind_gusts":33.5,"aqi":106,"pm10":46.1,"pm2_5":44.1,"mosquito_risk":0,"arthritis_risk":5,"migraine_risk":7,"frizz_risk":1,"updated_at":"2026-04-22T08:20:20.578823+05:30"},{"city":"Mysore","state":"Karnataka","latitude":12.2958,"longitude":76.6396,"temp":25.9,"humidity":74,"rain":0.0,"pressure":929.7,"uv_index":9.45,"wind_gusts":37.8,"aqi":82,"pm10":35.4,"pm2_5":32.7,"mosquito_risk":7,"arthritis_risk":5,"migraine_risk":7,"frizz_risk":1,"updated_at":"2026-04-22T08:20:20.578829+05:30"},{"city":"Mangalore","state":"Karnataka","latitude":12.9141,"longitude":74.856,"temp":28.4,"humidity":86,"rain":0.0,"pressure":1006.9,"uv_index":9.1,"wind_gusts":25.9,"aqi":79,"pm10":36.0,"pm2_5":31.9,"mosquito_risk":7,"arthritis_risk":5,"migraine_risk":4,"frizz_risk":1,"updated_at":"2026-04-22T08:20:20.578836+05:30"},{"city":"Hubli-Dharwad","state":"Karnataka","latitude":15.3647,"longitude":75.124,"temp":25.8,"humidity":82,"rain":0.0,"pressure":942.0,"uv_index":9.2,"wind_gusts":38.2,"aqi":98,"pm10":47.4,"pm2_5":43.8,"mosquito_risk":7,"arthritis_risk":5,"migraine_risk":7,"frizz_risk":1,"updated_at":"2026-04-22T08:20:20.578842+05:30"},{"city":"Belgaum","state":"Karnataka","latitude":15.8497,"longitude":74.4977,"temp":25.4,"humidity":81,"rain":0.0,"pressure":927.1,"uv_index":9.25,"wind_gusts":33.1,"aqi":89,"pm10":40.0,"pm2_5":32.9,"mosquito_risk":7,"arthritis_risk":5,"migraine_risk":7,"frizz_risk":1,"updated_at":"2026-04-22T08:20:23.795869+05:30"},{"city":"Coimbatore","state":"Tamil Nadu","latitude":11.0168,"longitude":76.9558,"temp":27.3,"humidity":76,"rain":0.0,"pressure":962.9,"uv_index":9.4,"wind_gusts":36.4,"aqi":79,"pm10":31.7,"pm2_5":28.4,"mosquito_risk":7,"arthritis_risk":5,"migraine_risk":7,"frizz_risk":1,"updated_at":"2026-04-22T08:20:23.795903+05:30"},{"city":"Madurai","state":"Tamil Nadu","latitude":9.9252,"longitude":78.1198,"temp":28.7,"humidity":76,"rain":0.0,"pressure":993.9,"uv_index":9.3,"wind_gusts":37.4,"aqi":60,"pm10":23.3,"pm2_5":21.9,"mosquito_risk":7,"arthritis_risk":5,"migraine_risk":7,"frizz_risk":1,"updated_at":"2026-04-22T08:20:23.795914+05:30"},{"city":"Trichy","state":"Tamil Nadu","latitude":10.7905,"longitude":78.7047,"temp":30.0,"humidity":74,"rain":0.0,"pressure":1000.7,"uv_index":9.3,"wind_gusts":19.1,"aqi":59,"pm10":24.6,"pm2_5":23.3,"mosquito_risk":7,"arthritis_risk":5,"migraine_risk":4,"frizz_risk":1,"updated_at":"2026-04-22T08:20:23.795922+05:30"},{"city":"Salem","state":"Tamil Nadu","latitude":11.6643,"longitude":78.146,"temp":29.7,"humidity":68,"rain":0.0,"pressure":978.3,"uv_index":9.25,"wind_gusts":25.6,"aqi":60,"pm10":17.8,"pm2_5":17.1,"mosquito_risk":7,"arthritis_risk":5,"migraine_risk":7,"frizz_risk":1,"updated_at":"2026-04-22T08:20:23.795929+05:30"},{"city":"Tirunelveli","state":"Tamil Nadu","latitude":8.7139,"longitude":77.7567,"temp":30.0,"humidity":65,"rain":0.0,"pressure":1003.8,"uv_index":9.25,"wind_gusts":45.7,"aqi":65,"pm10":25.6,"pm2_5":23.5,"mosquito_risk":7,"arthritis_risk":5,"migraine_risk":4,"frizz_risk":1,"updated_at":"2026-04-22T08:20:23.795937+05:30"},{"city":"Vellore","state":"Tamil Nadu","latitude":12.9165,"longitude":79.1325,"temp":27.9,"humidity":73,"rain":0.0,"pressure":986.1,"uv_index":9.35,"wind_gusts":28.8,"aqi":71,"pm10":31.3,"pm2_5":30.3,"mosquito_risk":7,"arthritis_risk":5,"migraine_risk":7,"frizz_risk":1,"updated_at":"2026-04-22T08:20:23.795944+05:30"},{"city":"Erode","state":"Tamil Nadu","latitude":11.341,"longitude":77.7172,"temp":30.5,"humidity":71,"rain":0.0,"pressure":989.9,"uv_index":9.2,"wind_gusts":24.5,"aqi":52,"pm10":13.7,"pm2_5":13.2,"mosquito_risk":3,"arthritis_risk":5,"migraine_risk":7,"frizz_risk":1,"updated_at":"2026-04-22T08:20:23.795951+05:30"},{"city":"Kochi","state":"Kerala","latitude":9.9312,"longitude":76.2673,"temp":28.3,"humidity":84,"rain":0.0,"pressure":1008.9,"uv_index":9.0,"wind_gusts":28.4,"aqi":73,"pm10":28.9,"pm2_5":26.1,"mosquito_risk":7,"arthritis_risk":0,"migraine_risk":4,"frizz_risk":1,"updated_at":"2026-04-22T08:20:23.795958+05:30"},{"city":"Thiruvananthapuram","state":"Kerala","latitude":8.5241,"longitude":76.9366,"temp":28.2,"humidity":85,"rain":0.0,"pressure":1008.1,"uv_index":8.9,"wind_gusts":29.5,"aqi":53,"pm10":15.4,"pm2_5":13.5,"mosquito_risk":7,"arthritis_risk":0,"migraine_risk":4,"frizz_risk":1,"updated_at":"2026-04-22T08:20:23.795965+05:30"},{"city":"Kozhikode","state":"Kerala","latitude":11.2588,"longitude":75.7804,"temp":29.2,"humidity":82,"rain":0.0,"pressure":1007.9,"uv_index":9.05,"wind_gusts":29.5,"aqi":67,"pm10":22.8,"pm2_5":18.5,"mosquito_risk":7,"arthritis_risk":5,"migraine_risk":4,"frizz_risk":1,"updated_at":"2026-04-22T08:20:23.795972+05:30"},{"city":"Thrissur","state":"Kerala","latitude":10.5276,"longitude":76.2144,"temp":29.5,"humidity":75,"rain":0.0,"pressure":1007.3,"uv_index":9.05,"wind_gusts":35.6,"aqi":72,"pm10":29.6,"pm2_5":25.7,"mosquito_risk":7,"arthritis_risk":5,"migraine_risk":4,"frizz_risk":1,"updated_at":"2026-04-22T08:20:23.795979+05:30"},{"city":"Kannur","state":"Kerala","latitude":11.8745,"longitude":75.3704,"temp":29.2,"humidity":83,"rain":0.0,"pressure":1007.2,"uv_index":9.1,"wind_gusts":32.8,"aqi":77,"pm10":29.5,"pm2_5":26.3,"mosquito_risk":7,"arthritis_risk":5,"migraine_risk":4,"frizz_risk":1,"updated_at":"2026-04-22T08:20:23.795986+05:30"},{"city":"Patna","state":"Bihar","latitude":25.5941,"longitude":85.1376,"temp":30.8,"humidity":39,"rain":0.0,"pressure":998.1,"uv_index":8.65,"wind_gusts":41.4,"aqi":90,"pm10":135.5,"pm2_5":43.8,"mosquito_risk":0,"arthritis_risk":5,"migraine_risk":7,"frizz_risk":0,"updated_at":"2026-04-22T08:20:23.795993+05:30"},{"city":"Gaya","state":"Bihar","latitude":24.7914,"longitude":85.0002,"temp":32.3,"humidity":37,"rain":0.0,"pressure":992.2,"uv_index":8.75,"wind_gusts":40.3,"aqi":91,"pm10":110.8,"pm2_5":34.0,"mosquito_risk":0,"arthritis_risk":5,"migraine_risk":7,"frizz_risk":0,"updated_at":"2026-04-22T08:20:23.795999+05:30"},{"city":"Muzaffarpur","state":"Bihar","latitude":26.1209,"longitude":85.3647,"temp":29.2,"humidity":46,"rain":0.0,"pressure":998.0,"uv_index":8.65,"wind_gusts":15.8,"aqi":86,"pm10":148.1,"pm2_5":46.8,"mosquito_risk":4,"arthritis_risk":5,"migraine_risk":7,"frizz_risk":1,"updated_at":"2026-04-22T08:20:23.796005+05:30"},{"city":"Bhagalpur","state":"Bihar","latitude":25.2425,"longitude":87.0117,"temp":29.6,"humidity":55,"rain":0.0,"pressure":998.8,"uv_index":8.7,"wind_gusts":22.0,"aqi":88,"pm10":79.9,"pm2_5":28.8,"mosquito_risk":4,"arthritis_risk":5,"migraine_risk":7,"frizz_risk":1,"updated_at":"2026-04-22T08:20:23.796011+05:30"},{"city":"Ranchi","state":"Jharkhand","latitude":23.3441,"longitude":85.3096,"temp":31.8,"humidity":28,"rain":0.0,"pressure":938.3,"uv_index":9.25,"wind_gusts":41.4,"aqi":76,"pm10":85.9,"pm2_5":31.5,"mosquito_risk":0,"arthritis_risk":5,"migraine_risk":7,"frizz_risk":0,"updated_at":"2026-04-22T08:20:23.796017+05:30"},{"city":"Jamshedpur","state":"Jharkhand","latitude":22.8046,"longitude":86.2029,"temp":32.3,"humidity":59,"rain":0.0,"pressure":989.5,"uv_index":9.05,"wind_gusts":25.6,"aqi":107,"pm10":74.7,"pm2_5":45.2,"mosquito_risk":0,"arthritis_risk":5,"migraine_risk":7,"frizz_risk":1,"updated_at":"2026-04-22T08:20:23.796023+05:30"},{"city":"Dhanbad","state":"Jharkhand","latitude":23.7957,"longitude":86.4304,"temp":32.9,"humidity":31,"rain":0.0,"pressure":978.6,"uv_index":9.0,"wind_gusts":38.5,"aqi":142,"pm10":98.7,"pm2_5":61.7,"mosquito_risk":0,"arthritis_risk":5,"migraine_risk":7,"frizz_risk":0,"updated_at":"2026-04-22T08:20:23.796030+05:30"},{"city":"Bokaro","state":"Jharkhand","latitude":23.6693,"longitude":86.1511,"temp":33.1,"humidity":36,"rain":0.0,"pressure":982.7,"uv_index":9.05,"wind_gusts":40.7,"aqi":125,"pm10":91.7,"pm2_5":57.3,"mosquito_risk":0,"arthritis_risk":5,"migraine_risk":7,"frizz_risk":0,"updated_at":"2026-04-22T08:20:23.796036+05:30"},{"city":"Bhubaneswar","state":"Odisha","latitude":20.2961,"longitude":85.8245,"temp":29.5,"humidity":87,"rain":0.0,"pressure":1001.8,"uv_index":9.15,"wind_gusts":31.7,"aqi":86,"pm10":31.5,"pm2_5":27.4,"mosquito_risk":7,"arthritis_risk":5,"migraine_risk":4,"frizz_risk":1,"updated_at":"2026-04-22T08:20:23.796042+05:30"},{"city":"Cuttack","state":"Odisha","latitude":20.4625,"longitude":85.8828,"temp":30.4,"humidity":81,"rain":0.0,"pressure":1003.7,"uv_index":9.2,"wind_gusts":43.2,"aqi":86,"pm10":31.5,"pm2_5":27.4,"mosquito_risk":3,"arthritis_risk":5,"migraine_risk":4,"frizz_risk":1,"updated_at":"2026-04-22T08:20:23.796048+05:30"},{"city":"Rourkela","state":"Odisha","latitude":22.2604,"longitude":84.8536,"temp":33.1,"humidity":49,"rain":0.0,"pressure":984.4,"uv_index":9.0,"wind_gusts":40.7,"aqi":102,"pm10":65.0,"pm2_5":51.3,"mosquito_risk":0,"arthritis_risk":5,"migraine_risk":7,"frizz_risk":1,"updated_at":"2026-04-22T08:20:23.796054+05:30"},{"city":"Raipur","state":"Chhattisgarh","latitude":21.2514,"longitude":81.6296,"temp":32.3,"humidity":52,"rain":0.0,"pressure":975.3,"uv_index":9.05,"wind_gusts":33.5,"aqi":127,"pm10":55.1,"pm2_5":53.2,"mosquito_risk":0,"arthritis_risk":5,"migraine_risk":7,"frizz_risk":1,"updated_at":"2026-04-22T08:20:23.796060+05:30"},{"city":"Bhilai","state":"Chhattisgarh","latitude":21.1938,"longitude":81.3509,"temp":32.1,"humidity":55,"rain":0.0,"pressure":975.7,"uv_index":9.05,"wind_gusts":30.2,"aqi":115,"pm10":51.8,"pm2_5":50.1,"mosquito_risk":0,"arthritis_risk":5,"migraine_risk":7,"frizz_risk":1,"updated_at":"2026-04-22T08:20:23.796066+05:30"},{"city":"Guwahati","state":"Assam","latitude":26.1158,"longitude":91.7086,"temp":24.9,"humidity":81,"rain":0.0,"pressure":1001.1,"uv_index":8.6,"wind_gusts":36.7,"aqi":114,"pm10":44.7,"pm2_5":34.3,"mosquito_risk":3,"arthritis_risk":5,"migraine_risk":4,"frizz_risk":1,"updated_at":"2026-04-22T08:20:23.796071+05:30"},{"city":"Agartala","state":"Tripura","latitude":23.8315,"longitude":91.2868,"temp":30.3,"humidity":76,"rain":0.0,"pressure":1005.3,"uv_index":8.75,"wind_gusts":36.0,"aqi":80,"pm10":24.2,"pm2_5":19.8,"mosquito_risk":3,"arthritis_risk":5,"migraine_risk":4,"frizz_risk":1,"updated_at":"2026-04-22T08:20:23.796077+05:30"},{"city":"Shillong","state":"Meghalaya","latitude":25.5788,"longitude":91.8933,"temp":20.3,"humidity":74,"rain":0.0,"pressure":857.4,"uv_index":9.05,"wind_gusts":70.6,"aqi":70,"pm10":8.1,"pm2_5":5.8,"mosquito_risk":3,"arthritis_risk":5,"migraine_risk":7,"frizz_risk":0,"updated_at":"2026-04-22T08:20:23.796084+05:30"},{"city":"Imphal","state":"Manipur","latitude":24.817,"longitude":93.9368,"temp":21.9,"humidity":82,"rain":0.0,"pressure":924.6,"uv_index":9.2,"wind_gusts":77.0,"aqi":148,"pm10":61.7,"pm2_5":46.7,"mosquito_risk":3,"arthritis_risk":5,"migraine_risk":7,"frizz_risk":1,"updated_at":"2026-04-22T08:20:23.796090+05:30"},{"city":"Aizawl","state":"Mizoram","latitude":23.7271,"longitude":92.7176,"temp":24.3,"humidity":71,"rain":0.0,"pressure":894.2,"uv_index":9.05,"wind_gusts":56.2,"aqi":104,"pm10":39.3,"pm2_5":30.2,"mosquito_risk":3,"arthritis_risk":5,"migraine_risk":7,"frizz_risk":1,"updated_at":"2026-04-22T08:20:23.796096+05:30"},{"city":"Kohima","state":"Nagaland","latitude":25.6701,"longitude":94.1077,"temp":21.1,"humidity":68,"rain":0.0,"pressure":856.4,"uv_index":9.15,"wind_gusts":105.5,"aqi":112,"pm10":59.5,"pm2_5":38.3,"mosquito_risk":3,"arthritis_risk":5,"migraine_risk":7,"frizz_risk":0,"updated_at":"2026-04-22T08:20:23.796102+05:30"},{"city":"Gangtok","state":"Sikkim","latitude":27.3314,"longitude":88.6138,"temp":20.0,"humidity":73,"rain":0.0,"pressure":838.2,"uv_index":8.9,"wind_gusts":20.2,"aqi":64,"pm10":14.1,"pm2_5":8.9,"mosquito_risk":3,"arthritis_risk":5,"migraine_risk":7,"frizz_risk":0,"updated_at":"2026-04-22T08:20:23.796108+05:30"},{"city":"Siliguri","state":"West Bengal","latitude":26.7271,"longitude":88.3953,"temp":26.0,"humidity":69,"rain":0.0,"pressure":992.1,"uv_index":8.55,"wind_gusts":23.0,"aqi":140,"pm10":31.2,"pm2_5":25.3,"mosquito_risk":7,"arthritis_risk":5,"migraine_risk":7,"frizz_risk":1,"updated_at":"2026-04-22T08:20:27.013501+05:30"},{"city":"Durgapur","state":"West Bengal","latitude":23.5204,"longitude":87.3119,"temp":31.4,"humidity":76,"rain":0.0,"pressure":993.4,"uv_index":8.95,"wind_gusts":28.4,"aqi":152,"pm10":104.3,"pm2_5":73.1,"mosquito_risk":3,"arthritis_risk":5,"migraine_risk":7,"frizz_risk":1,"updated_at":"2026-04-22T08:20:27.013534+05:30"},{"city":"Asansol","state":"West Bengal","latitude":23.6739,"longitude":86.9524,"temp":32.4,"humidity":69,"rain":0.0,"pressure":991.9,"uv_index":9.0,"wind_gusts":28.1,"aqi":130,"pm10":82.0,"pm2_5":44.1,"mosquito_risk":3,"arthritis_risk":5,"migraine_risk":7,"frizz_risk":1,"updated_at":"2026-04-22T08:20:27.013545+05:30"},{"city":"Pondicherry","state":"Puducherry","latitude":11.9139,"longitude":79.8145,"temp":30.5,"humidity":73,"rain":0.0,"pressure":1009.3,"uv_index":9.25,"wind_gusts":30.6,"aqi":43,"pm10":10.1,"pm2_5":7.5,"mosquito_risk":3,"arthritis_risk":0,"migraine_risk":4,"frizz_risk":1,"updated_at":"2026-04-22T08:20:27.013553+05:30"},{"city":"Port Blair","state":"Andaman and Nicobar Islands","latitude":11.6234,"longitude":92.7265,"temp":29.6,"humidity":73,"rain":0.0,"pressure":1008.1,"uv_index":9.1,"wind_gusts":18.4,"aqi":48,"pm10":11.1,"pm2_5":8.6,"mosquito_risk":7,"arthritis_risk":0,"migraine_risk":4,"frizz_risk":1,"updated_at":"2026-04-22T08:20:27.013561+05:30"},{"city":"Haridwar","state":"Uttarakhand","latitude":29.9457,"longitude":78.1642,"temp":27.6,"humidity":54,"rain":0.0,"pressure":972.7,"uv_index":7.15,"wind_gusts":34.6,"aqi":66,"pm10":28.8,"pm2_5":28.6,"mosquito_risk":4,"arthritis_risk":5,"migraine_risk":7,"frizz_risk":1,"updated_at":"2026-04-22T08:20:27.013568+05:30"},{"city":"Rishikesh","state":"Uttarakhand","latitude":30.0869,"longitude":78.2676,"temp":27.9,"humidity":50,"rain":0.0,"pressure":965.6,"uv_index":7.25,"wind_gusts":33.8,"aqi":56,"pm10":19.1,"pm2_5":18.9,"mosquito_risk":4,"arthritis_risk":5,"migraine_risk":7,"frizz_risk":1,"updated_at":"2026-04-22T08:20:27.013575+05:30"},{"city":"Nainital","state":"Uttarakhand","latitude":29.3919,"longitude":79.4542,"temp":25.1,"humidity":33,"rain":0.0,"pressure":808.1,"uv_index":8.05,"wind_gusts":38.5,"aqi":58,"pm10":18.6,"pm2_5":16.6,"mosquito_risk":4,"arthritis_risk":5,"migraine_risk":7,"frizz_risk":0,"updated_at":"2026-04-22T08:20:27.013582+05:30"},{"city":"Mussoorie","state":"Uttarakhand","latitude":30.4599,"longitude":78.0664,"temp":22.2,"humidity":43,"rain":0.0,"pressure":804.1,"uv_index":7.65,"wind_gusts":38.5,"aqi":60,"pm10":21.5,"pm2_5":20.6,"mosquito_risk":0,"arthritis_risk":5,"migraine_risk":7,"frizz_risk":0,"updated_at":"2026-04-22T08:20:27.013589+05:30"},{"city":"Dharamshala","state":"Himachal Pradesh","latitude":32.219,"longitude":76.3234,"temp":26.0,"humidity":42,"rain":0.0,"pressure":869.2,"uv_index":7.95,"wind_gusts":29.2,"aqi":38,"pm10":14.7,"pm2_5":7.2,"mosquito_risk":4,"arthritis_risk":5,"migraine_risk":7,"frizz_risk":0,"updated_at":"2026-04-22T08:20:27.013595+05:30"},{"city":"Dalhousie","state":"Himachal Pradesh","latitude":32.5387,"longitude":75.971,"temp":22.7,"humidity":30,"rain":0.0,"pressure":804.6,"uv_index":8.25,"wind_gusts":25.2,"aqi":56,"pm10":17.9,"pm2_5":13.4,"mosquito_risk":0,"arthritis_risk":5,"migraine_risk":7,"frizz_risk":0,"updated_at":"2026-04-22T08:20:27.013604+05:30"},{"city":"Patiala","state":"Punjab","latitude":30.3398,"longitude":76.3869,"temp":25.8,"humidity":53,"rain":0.0,"pressure":976.4,"uv_index":7.25,"wind_gusts":23.0,"aqi":275,"pm10":307.3,"pm2_5":54.1,"mosquito_risk":4,"arthritis_risk":5,"migraine_risk":7,"frizz_risk":0,"updated_at":"2026-04-22T08:20:27.013611+05:30"},{"city":"Bhatinda","state":"Punjab","latitude":30.211,"longitude":74.9455,"temp":29.4,"humidity":36,"rain":0.0,"pressure":982.2,"uv_index":7.95,"wind_gusts":32.4,"aqi":72,"pm10":50.5,"pm2_5":42.5,"mosquito_risk":4,"arthritis_risk":5,"migraine_risk":7,"frizz_risk":0,"updated_at":"2026-04-22T08:20:27.013617+05:30"},{"city":"Rohtak","state":"Haryana","latitude":28.8955,"longitude":76.6066,"temp":26.5,"humidity":56,"rain":0.0,"pressure":980.1,"uv_index":7.4,"wind_gusts":31.7,"aqi":606,"pm10":624.0,"pm2_5":105.0,"mosquito_risk":4,"arthritis_risk":5,"migraine_risk":7,"frizz_risk":1,"updated_at":"2026-04-22T08:20:27.013624+05:30"},{"city":"Panipat","state":"Haryana","latitude":29.3909,"longitude":76.9635,"temp":26.3,"humidity":49,"rain":0.0,"pressure":978.7,"uv_index":7.2,"wind_gusts":31.0,"aqi":990,"pm10":841.9,"pm2_5":122.0,"mosquito_risk":4,"arthritis_risk":5,"migraine_risk":7,"frizz_risk":0,"updated_at":"2026-04-22T08:20:27.013630+05:30"},{"city":"Mathura","state":"Uttar Pradesh","latitude":27.4924,"longitude":77.6737,"temp":30.0,"humidity":41,"rain":0.0,"pressure":986.0,"uv_index":7.7,"wind_gusts":34.9,"aqi":693,"pm10":754.4,"pm2_5":95.0,"mosquito_risk":4,"arthritis_risk":5,"migraine_risk":7,"frizz_risk":0,"updated_at":"2026-04-22T08:20:27.013636+05:30"},{"city":"Vrindavan","state":"Uttar Pradesh","latitude":27.5823,"longitude":77.7027,"temp":29.9,"humidity":41,"rain":0.0,"pressure":986.4,"uv_index":7.65,"wind_gusts":35.3,"aqi":693,"pm10":754.4,"pm2_5":95.0,"mosquito_risk":4,"arthritis_risk":5,"migraine_risk":7,"frizz_risk":0,"updated_at":"2026-04-22T08:20:27.013642+05:30"},{"city":"Ayodhya","state":"Uttar Pradesh","latitude":26.7922,"longitude":82.1998,"temp":31.1,"humidity":35,"rain":0.0,"pressure":993.4,"uv_index":8.05,"wind_gusts":46.1,"aqi":119,"pm10":273.8,"pm2_5":72.4,"mosquito_risk":0,"arthritis_risk":5,"migraine_risk":7,"frizz_risk":0,"updated_at":"2026-04-22T08:20:27.013648+05:30"},{"city":"Ratlam","state":"Madhya Pradesh","latitude":23.3315,"longitude":75.0367,"temp":28.2,"humidity":42,"rain":0.0,"pressure":955.8,"uv_index":8.45,"wind_gusts":31.0,"aqi":54,"pm10":15.7,"pm2_5":13.6,"mosquito_risk":4,"arthritis_risk":5,"migraine_risk":7,"frizz_risk":0,"updated_at":"2026-04-22T08:20:27.013655+05:30"},{"city":"Sagar","state":"Madhya Pradesh","latitude":23.8388,"longitude":78.7378,"temp":29.3,"humidity":31,"rain":0.0,"pressure":951.6,"uv_index":8.7,"wind_gusts":37.8,"aqi":58,"pm10":18.2,"pm2_5":13.9,"mosquito_risk":4,"arthritis_risk":5,"migraine_risk":7,"frizz_risk":0,"updated_at":"2026-04-22T08:20:27.013661+05:30"},{"city":"Satna","state":"Madhya Pradesh","latitude":24.6005,"longitude":80.8322,"temp":32.1,"humidity":33,"rain":0.0,"pressure":971.3,"uv_index":8.7,"wind_gusts":43.6,"aqi":90,"pm10":41.2,"pm2_5":19.7,"mosquito_risk":0,"arthritis_risk":5,"migraine_risk":7,"frizz_risk":0,"updated_at":"2026-04-22T08:20:27.013667+05:30"},{"city":"Akola","state":"Maharashtra","latitude":20.7002,"longitude":77.0082,"temp":31.4,"humidity":41,"rain":0.0,"pressure":976.4,"uv_index":8.85,"wind_gusts":32.0,"aqi":81,"pm10":29.9,"pm2_5":27.5,"mosquito_risk":0,"arthritis_risk":5,"migraine_risk":7,"frizz_risk":1,"updated_at":"2026-04-22T08:20:27.013674+05:30"},{"city":"Amravati","state":"Maharashtra","latitude":20.9374,"longitude":77.7796,"temp":30.5,"humidity":42,"rain":0.0,"pressure":968.4,"uv_index":8.9,"wind_gusts":22.0,"aqi":85,"pm10":28.6,"pm2_5":26.6,"mosquito_risk":0,"arthritis_risk":5,"migraine_risk":7,"frizz_risk":1,"updated_at":"2026-04-22T08:20:27.013681+05:30"},{"city":"Latur","state":"Maharashtra","latitude":18.4088,"longitude":76.5604,"temp":29.4,"humidity":46,"rain":0.0,"pressure":941.4,"uv_index":9.1,"wind_gusts":33.1,"aqi":110,"pm10":47.1,"pm2_5":43.5,"mosquito_risk":4,"arthritis_risk":5,"migraine_risk":7,"frizz_risk":1,"updated_at":"2026-04-22T08:20:27.013687+05:30"},{"city":"Nanded","state":"Maharashtra","latitude":19.1383,"longitude":77.3091,"temp":30.0,"humidity":52,"rain":0.0,"pressure":969.9,"uv_index":9.0,"wind_gusts":24.8,"aqi":98,"pm10":39.5,"pm2_5":37.8,"mosquito_risk":4,"arthritis_risk":5,"migraine_risk":7,"frizz_risk":1,"updated_at":"2026-04-22T08:20:27.013693+05:30"},{"city":"Gulbarga","state":"Karnataka","latitude":17.3297,"longitude":76.8343,"temp":29.9,"humidity":56,"rain":0.0,"pressure":960.1,"uv_index":9.15,"wind_gusts":33.5,"aqi":101,"pm10":47.4,"pm2_5":43.7,"mosquito_risk":4,"arthritis_risk":5,"migraine_risk":7,"frizz_risk":1,"updated_at":"2026-04-22T08:20:27.013699+05:30"},{"city":"Bidar","state":"Karnataka","latitude":17.9104,"longitude":77.5199,"temp":29.9,"humidity":50,"rain":0.0,"pressure":937.1,"uv_index":8.35,"wind_gusts":46.8,"aqi":105,"pm10":46.2,"pm2_5":43.0,"mosquito_risk":4,"arthritis_risk":5,"migraine_risk":7,"frizz_risk":1,"updated_at":"2026-04-22T08:20:27.013705+05:30"},{"city":"Hospet","state":"Karnataka","latitude":15.2689,"longitude":76.3909,"temp":27.1,"humidity":68,"rain":0.0,"pressure":957.0,"uv_index":9.25,"wind_gusts":25.9,"aqi":107,"pm10":60.3,"pm2_5":55.6,"mosquito_risk":7,"arthritis_risk":5,"migraine_risk":7,"frizz_risk":1,"updated_at":"2026-04-22T08:20:27.013711+05:30"},{"city":"Tirupur","state":"Tamil Nadu","latitude":11.1085,"longitude":77.3411,"temp":29.2,"humidity":69,"rain":0.0,"pressure":976.3,"uv_index":9.4,"wind_gusts":29.5,"aqi":65,"pm10":24.0,"pm2_5":21.8,"mosquito_risk":7,"arthritis_risk":5,"migraine_risk":7,"frizz_risk":1,"updated_at":"2026-04-22T08:20:27.013716+05:30"},{"city":"Alappuzha","state":"Kerala","latitude":9.4981,"longitude":76.3388,"temp":28.1,"humidity":82,"rain":0.0,"pressure":1009.0,"uv_index":8.75,"wind_gusts":25.2,"aqi":67,"pm10":29.4,"pm2_5":26.0,"mosquito_risk":7,"arthritis_risk":0,"migraine_risk":4,"frizz_risk":1,"updated_at":"2026-04-22T08:20:27.013722+05:30"},{"city":"Munnar","state":"Kerala","latitude":10.0889,"longitude":77.0595,"temp":23.9,"humidity":77,"rain":0.0,"pressure":858.2,"uv_index":9.65,"wind_gusts":34.9,"aqi":76,"pm10":28.9,"pm2_5":27.1,"mosquito_risk":3,"arthritis_risk":5,"migraine_risk":7,"frizz_risk":1,"updated_at":"2026-04-22T08:20:27.013728+05:30"},{"city":"Silchar","state":"Assam","latitude":24.8333,"longitude":92.7789,"temp":25.1,"humidity":89,"rain":0.0,"pressure":1006.3,"uv_index":8.8,"wind_gusts":44.6,"aqi":152,"pm10":46.6,"pm2_5":40.0,"mosquito_risk":7,"arthritis_risk":5,"migraine_risk":4,"frizz_risk":1,"updated_at":"2026-04-22T08:20:27.013734+05:30"},{"city":"Dibrugarh","state":"Assam","latitude":27.4728,"longitude":94.912,"temp":23.1,"humidity":93,"rain":0.0,"pressure":995.6,"uv_index":8.45,"wind_gusts":21.6,"aqi":57,"pm10":11.0,"pm2_5":7.9,"mosquito_risk":3,"arthritis_risk":5,"migraine_risk":7,"frizz_risk":1,"updated_at":"2026-04-22T08:20:27.013740+05:30"}]