[{"city":"Delhi","state":"Delhi","latitude":28.6139,"longitude":77.209,"temp":20.7,"humidity":67,"rain":0.0,"pressure":984.0,"uv_index":5.75,"wind_gusts":29.2,"aqi":391,"pm10":627.7,"pm2_5":111.8,"mosquito_risk":3,"arthritis_risk":5,"migraine_risk":3,"frizz_risk":0,"updated_at":"2026-03-14T00:18:57.078439+05:30"},{"city":"Mumbai","state":"Maharashtra","latitude":19.076,"longitude":72.8777,"temp":29.1,"humidity":68,"rain":0.0,"pressure":1008.2,"uv_index":7.65,"wind_gusts":23.8,"aqi":167,"pm10":36.1,"pm2_5":26.6,"mosquito_risk":7,"arthritis_risk":0,"migraine_risk":4,"frizz_risk":1,"updated_at":"2026-03-14T00:18:57.078474+05:30"},{"city":"Bangalore","state":"Karnataka","latitude":12.9716,"longitude":77.5946,"temp":22.6,"humidity":63,"rain":0.0,"pressure":912.3,"uv_index":9.3,"wind_gusts":28.8,"aqi":96,"pm10":40.2,"pm2_5":36.6,"mosquito_risk":3,"arthritis_risk":5,"migraine_risk":7,"frizz_risk":0,"updated_at":"2026-03-14T00:18:57.078489+05:30"},{"city":"Hyderabad","state":"Telangana","latitude":17.385,"longitude":78.4867,"temp":24.4,"humidity":57,"rain":0.0,"pressure":954.1,"uv_index":8.65,"wind_gusts":19.1,"aqi":117,"pm10":34.7,"pm2_5":28.9,"mosquito_risk":0,"arthritis_risk":5,"migraine_risk":7,"frizz_risk":0,"updated_at":"2026-03-14T00:18:57.078498+05:30"},{"city":"Chennai","state":"Tamil Nadu","latitude":13.0827,"longitude":80.2707,"temp":26.0,"humidity":85,"rain":0.0,"pressure":1008.9,"uv_index":9.05,"wind_gusts":32.4,"aqi":60,"pm10":20.4,"pm2_5":16.2,"mosquito_risk":7,"arthritis_risk":0,"migraine_risk":4,"frizz_risk":1,"updated_at":"2026-03-14T00:18:57.078507+05:30"},{"city":"Kolkata","state":"West Bengal","latitude":22.5726,"longitude":88.3639,"temp":25.6,"humidity":89,"rain":0.0,"pressure":1006.4,"uv_index":8.0,"wind_gusts":29.2,"aqi":112,"pm10":24.6,"pm2_5":20.8,"mosquito_risk":7,"arthritis_risk":5,"migraine_risk":4,"frizz_risk":1,"updated_at":"2026-03-14T00:18:57.078515+05:30"},{"city":"Pune","state":"Maharashtra","latitude":18.5204,"longitude":73.8567,"temp":23.8,"humidity":64,"rain":0.0,"pressure":948.6,"uv_index":8.2,"wind_gusts":36.0,"aqi":149,"pm10":54.2,"pm2_5":52.7,"mosquito_risk":3,"arthritis_risk":5,"migraine_risk":7,"frizz_risk":1,"updated_at":"2026-03-14T00:18:57.078527+05:30"},{"city":"Ahmedabad","state":"Gujarat","latitude":23.0225,"longitude":72.5714,"temp":26.3,"humidity":45,"rain":0.0,"pressure":1002.5,"uv_index":7.45,"wind_gusts":22.3,"aqi":110,"pm10":58.2,"pm2_5":42.8,"mosquito_risk":4,"arthritis_risk":5,"migraine_risk":4,"frizz_risk":0,"updated_at":"2026-03-14T00:18:57.078534+05:30"},{"city":"Jaipur","state":"Rajasthan","latitude":26.9124,"longitude":75.7873,"temp":24.1,"humidity":34,"rain":0.0,"pressure":960.6,"uv_index":6.95,"wind_gusts":23.8,"aqi":120,"pm10":274.7,"pm2_5":54.2,"mosquito_risk":0,"arthritis_risk":5,"migraine_risk":7,"frizz_risk":0,"updated_at":"2026-03-14T00:18:57.078541+05:30"},{"city":"Lucknow","state":"Uttar Pradesh","latitude":26.8467,"longitude":80.9462,"temp":23.4,"humidity":65,"rain":0.0,"pressure":993.6,"uv_index":6.05,"wind_gusts":28.4,"aqi":158,"pm10":279.4,"pm2_5":70.5,"mosquito_risk":3,"arthritis_risk":5,"migraine_risk":7,"frizz_risk":1,"updated_at":"2026-03-14T00:18:57.078548+05:30"},{"city":"Kanpur","state":"Uttar Pradesh","latitude":26.4499,"longitude":80.3319,"temp":22.7,"humidity":74,"rain":0.0,"pressure":992.0,"uv_index":6.35,"wind_gusts":18.7,"aqi":216,"pm10":482.4,"pm2_5":89.9,"mosquito_risk":3,"arthritis_risk":5,"migraine_risk":7,"frizz_risk":1,"updated_at":"2026-03-14T00:18:57.078556+05:30"},{"city":"Chandigarh","state":"Chandigarh","latitude":30.7333,"longitude":76.7794,"temp":18.6,"humidity":75,"rain":0.0,"pressure":969.3,"uv_index":5.35,"wind_gusts":29.5,"aqi":76,"pm10":29.0,"pm2_5":26.7,"mosquito_risk":3,"arthritis_risk":5,"migraine_risk":3,"frizz_risk":0,"updated_at":"2026-03-14T00:18:57.078564+05:30"},{"city":"Srinagar","state":"Jammu and Kashmir","latitude":34.0837,"longitude":74.7973,"temp":6.8,"humidity":79,"rain":0.0,"pressure":839.6,"uv_index":6.75,"wind_gusts":15.1,"aqi":81,"pm10":73.3,"pm2_5":58.1,"mosquito_risk":3,"arthritis_risk":5,"migraine_risk":7,"frizz_risk":0,"updated_at":"2026-03-14T00:18:57.078571+05:30"},{"city":"Jammu","state":"Jammu and Kashmir","latitude":32.7266,"longitude":74.857,"temp":18.4,"humidity":65,"rain":0.0,"pressure":973.7,"uv_index":6.45,"wind_gusts":24.8,"aqi":69,"pm10":43.3,"pm2_5":39.3,"mosquito_risk":3,"arthritis_risk":5,"migraine_risk":7,"frizz_risk":0,"updated_at":"2026-03-14T00:18:57.078578+05:30"},{"city":"Amritsar","state":"Punjab","latitude":31.634,"longitude":74.8723,"temp":18.9,"humidity":66,"rain":0.0,"pressure":982.3,"uv_index":5.85,"wind_gusts":25.6,"aqi":85,"pm10":38.8,"pm2_5":31.7,"mosquito_risk":3,"arthritis_risk":5,"migraine_risk":3,"frizz_risk":0,"updated_at":"2026-03-14T00:18:57.078584+05:30"},{"city":"Ludhiana","state":"Punjab","latitude":30.901,"longitude":75.8573,"temp":19.2,"humidity":67,"rain":0.0,"pressure":980.2,"uv_index":5.7,"wind_gusts":27.7,"aqi":97,"pm10":34.5,"pm2_5":30.0,"mosquito_risk":3,"arthritis_risk":5,"migraine_risk":3,"frizz_risk":0,"updated_at":"2026-03-14T00:18:57.078591+05:30"},{"city":"Jalandhar","state":"Punjab","latitude":31.326,"longitude":75.5762,"temp":19.0,"humidity":64,"rain":0.0,"pressure":981.3,"uv_index":5.7,"wind_gusts":25.6,"aqi":95,"pm10":48.5,"pm2_5":34.3,"mosquito_risk":3,"arthritis_risk":5,"migraine_risk":3,"frizz_risk":0,"updated_at":"2026-03-14T00:18:57.078599+05:30"},{"city":"Dehradun","state":"Uttarakhand","latitude":30.6284,"longitude":78.0322,"temp":13.4,"humidity":67,"rain":0.0,"pressure":829.0,"uv_index":5.7,"wind_gusts":28.8,"aqi":49,"pm10":42.4,"pm2_5":25.1,"mosquito_risk":3,"arthritis_risk":5,"migraine_risk":3,"frizz_risk":0,"updated_at":"2026-03-14T00:18:57.078605+05:30"},{"city":"Shimla","state":"Himachal Pradesh","latitude":31.1048,"longitude":77.1734,"temp":10.8,"humidity":66,"rain":0.0,"pressure":782.5,"uv_index":5.15,"wind_gusts":39.2,"aqi":52,"pm10":34.1,"pm2_5":24.4,"mosquito_risk":3,"arthritis_risk":5,"migraine_risk":3,"frizz_risk":0,"updated_at":"2026-03-14T00:18:57.078611+05:30"},{"city":"Manali","state":"Himachal Pradesh","latitude":32.2396,"longitude":77.1887,"temp":12.4,"humidity":30,"rain":0.0,"pressure":819.0,"uv_index":8.05,"wind_gusts":38.5,"aqi":49,"pm10":29.9,"pm2_5":13.8,"mosquito_risk":0,"arthritis_risk":5,"migraine_risk":7,"frizz_risk":1,"updated_at":"2026-03-14T00:18:57.078618+05:30"},{"city":"Gurgaon","state":"Haryana","latitude":28.4595,"longitude":77.0266,"temp":18.1,"humidity":77,"rain":0.0,"pressure":982.4,"uv_index":6.15,"wind_gusts":28.1,"aqi":1241,"pm10":1471.5,"pm2_5":193.7,"mosquito_risk":3,"arthritis_risk":5,"migraine_risk":7,"frizz_risk":0,"updated_at":"2026-03-14T00:18:57.078625+05:30"},{"city":"Noida","state":"Uttar Pradesh","latitude":28.5355,"longitude":77.391,"temp":20.7,"humidity":68,"rain":0.0,"pressure":985.5,"uv_index":5.95,"wind_gusts":28.8,"aqi":1241,"pm10":1471.5,"pm2_5":193.7,"mosquito_risk":3,"arthritis_risk":5,"migraine_risk":3,"frizz_risk":0,"updated_at":"2026-03-14T00:18:57.078632+05:30"},{"city":"Ghaziabad","state":"Uttar Pradesh","latitude":28.6692,"longitude":77.4538,"temp":19.8,"humidity":72,"rain":0.0,"pressure":983.6,"uv_index":5.75,"wind_gusts":27.7,"aqi":196,"pm10":543.9,"pm2_5":100.1,"mosquito_risk":3,"arthritis_risk":5,"migraine_risk":3,"frizz_risk":0,"updated_at":"2026-03-14T00:18:57.078640+05:30"},{"city":"Faridabad","state":"Haryana","latitude":28.4089,"longitude":77.3178,"temp":19.3,"humidity":69,"rain":0.0,"pressure":984.7,"uv_index":6.2,"wind_gusts":27.7,"aqi":1241,"pm10":1471.5,"pm2_5":193.7,"mosquito_risk":3,"arthritis_risk":5,"migraine_risk":7,"frizz_risk":0,"updated_at":"2026-03-14T00:18:57.078647+05:30"},{"city":"Meerut","state":"Uttar Pradesh","latitude":28.9845,"longitude":77.7064,"temp":18.3,"humidity":77,"rain":0.0,"pressure":982.1,"uv_index":4.85,"wind_gusts":27.7,"aqi":196,"pm10":543.9,"pm2_5":100.1,"mosquito_risk":3,"arthritis_risk":5,"migraine_risk":3,"frizz_risk":0,"updated_at":"2026-03-14T00:18:57.078669+05:30"},{"city":"Agra","state":"Uttar Pradesh","latitude":27.1767,"longitude":78.0081,"temp":21.2,"humidity":53,"rain":0.0,"pressure":988.6,"uv_index":6.25,"wind_gusts":24.8,"aqi":598,"pm10":1236.8,"pm2_5":159.7,"mosquito_risk":0,"arthritis_risk":5,"migraine_risk":7,"frizz_risk":0,"updated_at":"2026-03-14T00:18:57.078677+05:30"},{"city":"Varanasi","state":"Uttar Pradesh","latitude":25.3176,"longitude":82.9739,"temp":21.4,"humidity":70,"rain":0.0,"pressure":997.5,"uv_index":7.35,"wind_gusts":25.2,"aqi":131,"pm10":149.9,"pm2_5":64.5,"mosquito_risk":3,"arthritis_risk":5,"migraine_risk":7,"frizz_risk":0,"updated_at":"2026-03-14T00:18:57.078687+05:30"},{"city":"Prayagraj","state":"Uttar Pradesh","latitude":25.4358,"longitude":81.8463,"temp":23.2,"humidity":62,"rain":0.0,"pressure":996.2,"uv_index":7.1,"wind_gusts":21.6,"aqi":150,"pm10":137.8,"pm2_5":58.8,"mosquito_risk":3,"arthritis_risk":5,"migraine_risk":7,"frizz_risk":0,"updated_at":"2026-03-14T00:18:57.078695+05:30"},{"city":"Gorakhpur","state":"Uttar Pradesh","latitude":26.7606,"longitude":83.3732,"temp":21.7,"humidity":67,"rain":0.0,"pressure":996.6,"uv_index":7.05,"wind_gusts":28.4,"aqi":178,"pm10":61.5,"pm2_5":42.5,"mosquito_risk":3,"arthritis_risk":5,"migraine_risk":7,"frizz_risk":0,"updated_at":"2026-03-14T00:18:57.078702+05:30"},{"city":"Bareilly","state":"Uttar Pradesh","latitude":28.367,"longitude":79.4304,"temp":19.5,"humidity":72,"rain":0.0,"pressure":986.9,"uv_index":6.35,"wind_gusts":26.6,"aqi":138,"pm10":107.8,"pm2_5":43.0,"mosquito_risk":3,"arthritis_risk":5,"migraine_risk":7,"frizz_risk":0,"updated_at":"2026-03-14T00:18:57.078708+05:30"},{"city":"Aligarh","state":"Uttar Pradesh","latitude":27.8974,"longitude":78.088,"temp":17.5,"humidity":69,"rain":0.0,"pressure":986.2,"uv_index":5.9,"wind_gusts":28.8,"aqi":610,"pm10":1087.8,"pm2_5":163.4,"mosquito_risk":3,"arthritis_risk":5,"migraine_risk":3,"frizz_risk":0,"updated_at":"2026-03-14T00:18:57.078714+05:30"},{"city":"Moradabad","state":"Uttar Pradesh","latitude":28.8386,"longitude":78.7733,"temp":19.4,"humidity":69,"rain":0.0,"pressure":983.9,"uv_index":5.75,"wind_gusts":27.4,"aqi":140,"pm10":218.4,"pm2_5":61.7,"mosquito_risk":3,"arthritis_risk":5,"migraine_risk":3,"frizz_risk":0,"updated_at":"2026-03-14T00:18:57.078720+05:30"},{"city":"Saharanpur","state":"Uttar Pradesh","latitude":29.9637,"longitude":77.546,"temp":18.4,"humidity":77,"rain":0.0,"pressure":976.2,"uv_index":4.95,"wind_gusts":27.4,"aqi":128,"pm10":104.3,"pm2_5":49.0,"mosquito_risk":3,"arthritis_risk":5,"migraine_risk":3,"frizz_risk":0,"updated_at":"2026-03-14T00:18:57.078726+05:30"},{"city":"Jhansi","state":"Uttar Pradesh","latitude":25.4484,"longitude":78.5685,"temp":23.6,"humidity":61,"rain":0.0,"pressure":978.3,"uv_index":6.75,"wind_gusts":20.9,"aqi":74,"pm10":93.1,"pm2_5":41.6,"mosquito_risk":3,"arthritis_risk":5,"migraine_risk":7,"frizz_risk":0,"updated_at":"2026-03-14T00:19:00.414792+05:30"},{"city":"Surat","state":"Gujarat","latitude":21.1702,"longitude":72.8311,"temp":25.9,"humidity":73,"rain":0.0,"pressure":1006.6,"uv_index":7.35,"wind_gusts":23.8,"aqi":145,"pm10":50.2,"pm2_5":42.5,"mosquito_risk":7,"arthritis_risk":5,"migraine_risk":4,"frizz_risk":1,"updated_at":"2026-03-14T00:19:00.414824+05:30"},{"city":"Vadodara","state":"Gujarat","latitude":22.3072,"longitude":73.1812,"temp":26.5,"humidity":48,"rain":0.0,"pressure":1004.4,"uv_index":7.5,"wind_gusts":23.8,"aqi":114,"pm10":67.1,"pm2_5":58.1,"mosquito_risk":4,"arthritis_risk":5,"migraine_risk":4,"frizz_risk":0,"updated_at":"2026-03-14T00:19:00.414834+05:30"},{"city":"Rajkot","state":"Gujarat","latitude":22.3039,"longitude":70.8022,"temp":24.6,"humidity":45,"rain":0.0,"pressure":995.5,"uv_index":7.3,"wind_gusts":29.5,"aqi":84,"pm10":95.7,"pm2_5":31.1,"mosquito_risk":0,"arthritis_risk":5,"migraine_risk":7,"frizz_risk":0,"updated_at":"2026-03-14T00:19:00.414842+05:30"},{"city":"Thane","state":"Maharashtra","latitude":19.2183,"longitude":72.9781,"temp":27.4,"humidity":63,"rain":0.0,"pressure":1007.6,"uv_index":7.65,"wind_gusts":38.2,"aqi":167,"pm10":36.1,"pm2_5":26.6,"mosquito_risk":7,"arthritis_risk":5,"migraine_risk":4,"frizz_risk":1,"updated_at":"2026-03-14T00:19:00.414849+05:30"},{"city":"Nagpur","state":"Maharashtra","latitude":21.1458,"longitude":79.0882,"temp":26.2,"humidity":50,"rain":0.0,"pressure":973.1,"uv_index":8.05,"wind_gusts":19.4,"aqi":88,"pm10":59.3,"pm2_5":55.5,"mosquito_risk":4,"arthritis_risk":5,"migraine_risk":7,"frizz_risk":0,"updated_at":"2026-03-14T00:19:00.414855+05:30"},{"city":"Nashik","state":"Maharashtra","latitude":19.9975,"longitude":73.7898,"temp":24.4,"humidity":50,"rain":0.0,"pressure":945.8,"uv_index":7.85,"wind_gusts":34.9,"aqi":125,"pm10":34.1,"pm2_5":31.1,"mosquito_risk":0,"arthritis_risk":5,"migraine_risk":7,"frizz_risk":0,"updated_at":"2026-03-14T00:19:00.414862+05:30"},{"city":"Aurangabad","state":"Maharashtra","latitude":19.8762,"longitude":75.3433,"temp":25.1,"humidity":44,"rain":0.0,"pressure":943.7,"uv_index":8.35,"wind_gusts":29.5,"aqi":109,"pm10":39.8,"pm2_5":38.1,"mosquito_risk":4,"arthritis_risk":5,"migraine_risk":7,"frizz_risk":0,"updated_at":"2026-03-14T00:19:00.414868+05:30"},{"city":"Solapur","state":"Maharashtra","latitude":17.6599,"longitude":75.9064,"temp":25.6,"humidity":56,"rain":0.0,"pressure":956.7,"uv_index":8.6,"wind_gusts":24.1,"aqi":110,"pm10":44.6,"pm2_5":40.6,"mosquito_risk":4,"arthritis_risk":5,"migraine_risk":7,"frizz_risk":1,"updated_at":"2026-03-14T00:19:00.414874+05:30"},{"city":"Kolhapur","state":"Maharashtra","latitude":16.705,"longitude":74.2433,"temp":22.1,"humidity":95,"rain":0.0,"pressure":948.1,"uv_index":8.7,"wind_gusts":47.9,"aqi":150,"pm10":57.5,"pm2_5":56.3,"mosquito_risk":3,"arthritis_risk":5,"migraine_risk":7,"frizz_risk":1,"updated_at":"2026-03-14T00:19:00.414881+05:30"},{"city":"Goa","state":"Goa","latitude":15.2993,"longitude":74.124,"temp":27.7,"humidity":84,"rain":0.0,"pressure":998.8,"uv_index":8.7,"wind_gusts":31.3,"aqi":132,"pm10":59.3,"pm2_5":54.5,"mosquito_risk":7,"arthritis_risk":5,"migraine_risk":7,"frizz_risk":1,"updated_at":"2026-03-14T00:19:00.414887+05:30"},{"city":"Jodhpur","state":"Rajasthan","latitude":26.2389,"longitude":73.0243,"temp":27.5,"humidity":39,"rain":0.0,"pressure":983.0,"uv_index":6.8,"wind_gusts":18.7,"aqi":89,"pm10":136.0,"pm2_5":35.4,"mosquito_risk":4,"arthritis_risk":5,"migraine_risk":7,"frizz_risk":0,"updated_at":"2026-03-14T00:19:00.414894+05:30"},{"city":"Udaipur","state":"Rajasthan","latitude":24.5854,"longitude":73.7125,"temp":22.9,"humidity":32,"rain":0.0,"pressure":947.1,"uv_index":7.8,"wind_gusts":30.2,"aqi":79,"pm10":42.6,"pm2_5":21.2,"mosquito_risk":0,"arthritis_risk":5,"migraine_risk":7,"frizz_risk":0,"updated_at":"2026-03-14T00:19:00.414899+05:30"},{"city":"Kota","state":"Rajasthan","latitude":25.2138,"longitude":75.8648,"temp":23.3,"humidity":53,"rain":0.0,"pressure":978.3,"uv_index":7.1,"wind_gusts":17.6,"aqi":65,"pm10":44.5,"pm2_5":22.7,"mosquito_risk":0,"arthritis_risk":5,"migraine_risk":7,"frizz_risk":0,"updated_at":"2026-03-14T00:19:00.414905+05:30"},{"city":"Bikaner","state":"Rajasthan","latitude":28.0229,"longitude":73.3119,"temp":25.3,"humidity":34,"rain":0.0,"pressure":982.6,"uv_index":6.75,"wind_gusts":24.8,"aqi":75,"pm10":19.0,"pm2_5":15.3,"mosquito_risk":4,"arthritis_risk":5,"migraine_risk":7,"frizz_risk":0,"updated_at":"2026-03-14T00:19:00.414911+05:30"},{"city":"Ajmer","state":"Rajasthan","latitude":26.4499,"longitude":74.6399,"temp":23.4,"humidity":32,"rain":0.0,"pressure":955.0,"uv_index":7.05,"wind_gusts":22.0,"aqi":78,"pm10":61.2,"pm2_5":28.9,"mosquito_risk":0,"arthritis_risk":5,"migraine_risk":7,"frizz_risk":0,"updated_at":"2026-03-14T00:19:00.414917+05:30"},{"city":"Gwalior","state":"Madhya Pradesh","latitude":26.2183,"longitude":78.1828,"temp":25.0,"humidity":67,"rain":0.0,"pressure":983.9,"uv_index":6.8,"wind_gusts":21.2,"aqi":106,"pm10":245.9,"pm2_5":60.1,"mosquito_risk":7,"arthritis_risk":5,"migraine_risk":7,"frizz_risk":1,"updated_at":"2026-03-14T00:19:00.414923+05:30"},{"city":"Indore","state":"Madhya Pradesh","latitude":22.7196,"longitude":75.8577,"temp":21.7,"humidity":44,"rain":0.0,"pressure":948.1,"uv_index":7.75,"wind_gusts":32.4,"aqi":62,"pm10":51.5,"pm2_5":47.6,"mosquito_risk":0,"arthritis_risk":5,"migraine_risk":7,"frizz_risk":0,"updated_at":"2026-03-14T00:19:00.414928+05:30"},{"city":"Bhopal","state":"Madhya Pradesh","latitude":23.2599,"longitude":77.4126,"temp":22.9,"humidity":32,"rain":0.0,"pressure":953.7,"uv_index":7.55,"wind_gusts":31.0,"aqi":70,"pm10":26.4,"pm2_5":25.7,"mosquito_risk":0,"arthritis_risk":5,"migraine_risk":7,"frizz_risk":0,"updated_at":"2026-03-14T00:19:00.414934+05:30"},{"city":"Jabalpur","state":"Madhya Pradesh","latitude":23.1815,"longitude":79.9864,"temp":23.9,"humidity":49,"rain":0.0,"pressure":961.1,"uv_index":7.75,"wind_gusts":20.2,"aqi":80,"pm10":26.4,"pm2_5":25.8,"mosquito_risk":0,"arthritis_risk":5,"migraine_risk":7,"frizz_risk":0,"updated_at":"2026-03-14T00:19:00.414940+05:30"},{"city":"Ujjain","state":"Madhya Pradesh","latitude":23.1765,"longitude":75.7885,"temp":21.8,"humidity":46,"rain":0.0,"pressure":953.8,"uv_index":7.65,"wind_gusts":26.3,"aqi":62,"pm10":40.4,"pm2_5":37.1,"mosquito_risk":0,"arthritis_risk":5,"migraine_risk":7,"frizz_risk":0,"updated_at":"2026-03-14T00:19:00.414946+05:30"},{"city":"Visakhapatnam","state":"Andhra Pradesh","latitude":17.6868,"longitude":83.2185,"temp":25.7,"humidity":86,"rain":0.0,"pressure":1005.4,"uv_index":8.65,"wind_gusts":40.3,"aqi":81,"pm10":19.9,"pm2_5":16.6,"mosquito_risk":7,"arthritis_risk":5,"migraine_risk":4,"frizz_risk":1,"updated_at":"2026-03-14T00:19:00.414952+05:30"},{"city":"Vijayawada","state":"Andhra Pradesh","latitude":16.5062,"longitude":80.648,"temp":24.8,"humidity":91,"rain":0.0,"pressure":1004.3,"uv_index":8.75,"wind_gusts":31.3,"aqi":84,"pm10":15.4,"pm2_5":13.3,"mosquito_risk":3,"arthritis_risk":5,"migraine_risk":4,"frizz_risk":1,"updated_at":"2026-03-14T00:19:00.414958+05:30"},{"city":"Guntur","state":"Andhra Pradesh","latitude":16.3067,"longitude":80.4365,"temp":25.0,"humidity":92,"rain":0.0,"pressure":1005.4,"uv_index":8.75,"wind_gusts":33.8,"aqi":79,"pm10":14.2,"pm2_5":12.2,"mosquito_risk":7,"arthritis_risk":5,"migraine_risk":4,"frizz_risk":1,"updated_at":"2026-03-14T00:19:00.414964+05:30"},{"city":"Nellore","state":"Andhra Pradesh","latitude":14.4426,"longitude":79.9865,"temp":25.1,"humidity":94,"rain":0.0,"pressure":1007.6,"uv_index":8.9,"wind_gusts":30.2,"aqi":70,"pm10":14.9,"pm2_5":12.1,"mosquito_risk":7,"arthritis_risk":5,"migraine_risk":4,"frizz_risk":1,"updated_at":"2026-03-14T00:19:00.414970+05:30"},{"city":"Kurnool","state":"Andhra Pradesh","latitude":15.8281,"longitude":78.0373,"temp":28.1,"humidity":44,"rain":0.0,"pressure":977.2,"uv_index":8.7,"wind_gusts":23.8,"aqi":116,"pm10":34.5,"pm2_5":30.9,"mosquito_risk":4,"arthritis_risk":5,"migraine_risk":7,"frizz_risk":0,"updated_at":"2026-03-14T00:19:00.414977+05:30"},{"city":"Kakinada","state":"Andhra Pradesh","latitude":16.9891,"longitude":82.2475,"temp":24.7,"humidity":91,"rain":0.0,"pressure":1009.4,"uv_index":8.65,"wind_gusts":34.6,"aqi":70,"pm10":16.8,"pm2_5":12.6,"mosquito_risk":3,"arthritis_risk":0,"migraine_risk":4,"frizz_risk":1,"updated_at":"2026-03-14T00:19:00.414982+05:30"},{"city":"Tirupati","state":"Andhra Pradesh","latitude":13.6288,"longitude":79.4192,"temp":24.4,"humidity":83,"rain":0.0,"pressure":993.7,"uv_index":9.05,"wind_gusts":33.5,"aqi":89,"pm10":28.8,"pm2_5":26.0,"mosquito_risk":3,"arthritis_risk":5,"migraine_risk":7,"frizz_risk":1,"updated_at":"2026-03-14T00:19:00.414988+05:30"},{"city":"Warangal","state":"Telangana","latitude":17.9689,"longitude":79.5941,"temp":24.7,"humidity":81,"rain":0.0,"pressure":979.1,"uv_index":8.5,"wind_gusts":28.8,"aqi":118,"pm10":32.2,"pm2_5":29.6,"mosquito_risk":3,"arthritis_risk":5,"migraine_risk":7,"frizz_risk":1,"updated_at":"2026-03-14T00:19:00.414997+05:30"},{"city":"Nizamabad","state":"Telangana","latitude":18.6725,"longitude":78.0941,"temp":27.2,"humidity":43,"rain":0.0,"pressure":964.7,"uv_index":8.4,"wind_gusts":19.1,"aqi":121,"pm10":69.6,"pm2_5":60.5,"mosquito_risk":4,"arthritis_risk":5,"migraine_risk":7,"frizz_risk":0,"updated_at":"2026-03-14T00:19:00.415005+05:30"},{"city":"Mysore","state":"Karnataka","latitude":12.2958,"longitude":76.6396,"temp":22.4,"humidity":89,"rain":0.0,"pressure":929.0,"uv_index":9.3,"wind_gusts":29.9,"aqi":91,"pm10":42.1,"pm2_5":37.7,"mosquito_risk":3,"arthritis_risk":5,"migraine_risk":7,"frizz_risk":1,"updated_at":"2026-03-14T00:19:00.415011+05:30"},{"city":"Mangalore","state":"Karnataka","latitude":12.9141,"longitude":74.856,"temp":28.9,"humidity":81,"rain":0.0,"pressure":1007.5,"uv_index":8.95,"wind_gusts":23.0,"aqi":115,"pm10":50.4,"pm2_5":43.4,"mosquito_risk":7,"arthritis_risk":5,"migraine_risk":4,"frizz_risk":1,"updated_at":"2026-03-14T00:19:00.415017+05:30"},{"city":"Hubli-Dharwad","state":"Karnataka","latitude":15.3647,"longitude":75.124,"temp":23.7,"humidity":84,"rain":0.0,"pressure":941.3,"uv_index":8.9,"wind_gusts":29.2,"aqi":106,"pm10":41.6,"pm2_5":39.1,"mosquito_risk":3,"arthritis_risk":5,"migraine_risk":7,"frizz_risk":1,"updated_at":"2026-03-14T00:19:00.415023+05:30"},{"city":"Belgaum","state":"Karnataka","latitude":15.8497,"longitude":74.4977,"temp":22.8,"humidity":92,"rain":0.0,"pressure":926.1,"uv_index":8.95,"wind_gusts":41.0,"aqi":118,"pm10":51.6,"pm2_5":48.9,"mosquito_risk":3,"arthritis_risk":5,"migraine_risk":7,"frizz_risk":1,"updated_at":"2026-03-14T00:19:03.764062+05:30"},{"city":"Coimbatore","state":"Tamil Nadu","latitude":11.0168,"longitude":76.9558,"temp":23.3,"humidity":86,"rain":0.0,"pressure":962.9,"uv_index":9.3,"wind_gusts":42.8,"aqi":86,"pm10":37.5,"pm2_5":33.1,"mosquito_risk":3,"arthritis_risk":5,"migraine_risk":7,"frizz_risk":1,"updated_at":"2026-03-14T00:19:03.764090+05:30"},{"city":"Madurai","state":"Tamil Nadu","latitude":9.9252,"longitude":78.1198,"temp":25.4,"humidity":76,"rain":0.0,"pressure":994.7,"uv_index":9.25,"wind_gusts":26.6,"aqi":77,"pm10":26.8,"pm2_5":24.9,"mosquito_risk":7,"arthritis_risk":5,"migraine_risk":7,"frizz_risk":1,"updated_at":"2026-03-14T00:19:03.764100+05:30"},{"city":"Trichy","state":"Tamil Nadu","latitude":10.7905,"longitude":78.7047,"temp":24.5,"humidity":89,"rain":0.0,"pressure":1001.3,"uv_index":9.15,"wind_gusts":23.0,"aqi":80,"pm10":23.1,"pm2_5":21.4,"mosquito_risk":3,"arthritis_risk":5,"migraine_risk":4,"frizz_risk":1,"updated_at":"2026-03-14T00:19:03.764108+05:30"},{"city":"Salem","state":"Tamil Nadu","latitude":11.6643,"longitude":78.146,"temp":24.6,"humidity":82,"rain":0.0,"pressure":978.3,"uv_index":9.2,"wind_gusts":24.8,"aqi":109,"pm10":46.4,"pm2_5":41.9,"mosquito_risk":3,"arthritis_risk":5,"migraine_risk":7,"frizz_risk":1,"updated_at":"2026-03-14T00:19:03.764115+05:30"},{"city":"Tirunelveli","state":"Tamil Nadu","latitude":8.7139,"longitude":77.7567,"temp":24.6,"humidity":84,"rain":0.0,"pressure":1004.9,"uv_index":9.2,"wind_gusts":29.9,"aqi":61,"pm10":21.2,"pm2_5":19.3,"mosquito_risk":3,"arthritis_risk":5,"migraine_risk":4,"frizz_risk":1,"updated_at":"2026-03-14T00:19:03.764122+05:30"},{"city":"Vellore","state":"Tamil Nadu","latitude":12.9165,"longitude":79.1325,"temp":23.4,"humidity":86,"rain":0.0,"pressure":986.5,"uv_index":9.1,"wind_gusts":33.1,"aqi":103,"pm10":43.8,"pm2_5":41.4,"mosquito_risk":3,"arthritis_risk":5,"migraine_risk":7,"frizz_risk":1,"updated_at":"2026-03-14T00:19:03.764128+05:30"},{"city":"Erode","state":"Tamil Nadu","latitude":11.341,"longitude":77.7172,"temp":25.9,"humidity":74,"rain":0.0,"pressure":990.3,"uv_index":9.15,"wind_gusts":23.8,"aqi":85,"pm10":23.1,"pm2_5":20.8,"mosquito_risk":7,"arthritis_risk":5,"migraine_risk":7,"frizz_risk":1,"updated_at":"2026-03-14T00:19:03.764134+05:30"},{"city":"Kochi","state":"Kerala","latitude":9.9312,"longitude":76.2673,"temp":27.4,"humidity":83,"rain":0.0,"pressure":1010.0,"uv_index":9.1,"wind_gusts":33.8,"aqi":82,"pm10":30.3,"pm2_5":29.3,"mosquito_risk":7,"arthritis_risk":0,"migraine_risk":4,"frizz_risk":1,"updated_at":"2026-03-14T00:19:03.764141+05:30"},{"city":"Thiruvananthapuram","state":"Kerala","latitude":8.5241,"longitude":76.9366,"temp":27.7,"humidity":82,"rain":0.0,"pressure":1009.1,"uv_index":9.1,"wind_gusts":24.1,"aqi":79,"pm10":20.4,"pm2_5":15.7,"mosquito_risk":7,"arthritis_risk":0,"migraine_risk":4,"frizz_risk":1,"updated_at":"2026-03-14T00:19:03.764147+05:30"},{"city":"Kozhikode","state":"Kerala","latitude":11.2588,"longitude":75.7804,"temp":27.4,"humidity":84,"rain":0.0,"pressure":1009.2,"uv_index":9.0,"wind_gusts":29.9,"aqi":91,"pm10":32.2,"pm2_5":28.2,"mosquito_risk":7,"arthritis_risk":0,"migraine_risk":4,"frizz_risk":1,"updated_at":"2026-03-14T00:19:03.764153+05:30"},{"city":"Thrissur","state":"Kerala","latitude":10.5276,"longitude":76.2144,"temp":26.3,"humidity":88,"rain":0.0,"pressure":1008.3,"uv_index":9.05,"wind_gusts":37.1,"aqi":99,"pm10":26.1,"pm2_5":24.7,"mosquito_risk":7,"arthritis_risk":0,"migraine_risk":4,"frizz_risk":1,"updated_at":"2026-03-14T00:19:03.764159+05:30"},{"city":"Kannur","state":"Kerala","latitude":11.8745,"longitude":75.3704,"temp":28.0,"humidity":84,"rain":0.0,"pressure":1008.1,"uv_index":9.0,"wind_gusts":28.1,"aqi":104,"pm10":41.0,"pm2_5":36.9,"mosquito_risk":7,"arthritis_risk":0,"migraine_risk":4,"frizz_risk":1,"updated_at":"2026-03-14T00:19:03.764166+05:30"},{"city":"Patna","state":"Bihar","latitude":25.5941,"longitude":85.1376,"temp":24.7,"humidity":65,"rain":0.0,"pressure":999.8,"uv_index":7.5,"wind_gusts":23.0,"aqi":172,"pm10":145.3,"pm2_5":61.7,"mosquito_risk":3,"arthritis_risk":5,"migraine_risk":7,"frizz_risk":1,"updated_at":"2026-03-14T00:19:03.764172+05:30"},{"city":"Gaya","state":"Bihar","latitude":24.7914,"longitude":85.0002,"temp":25.7,"humidity":48,"rain":0.0,"pressure":994.0,"uv_index":7.6,"wind_gusts":19.4,"aqi":148,"pm10":178.8,"pm2_5":64.3,"mosquito_risk":4,"arthritis_risk":5,"migraine_risk":7,"frizz_risk":0,"updated_at":"2026-03-14T00:19:03.764178+05:30"},{"city":"Muzaffarpur","state":"Bihar","latitude":26.1209,"longitude":85.3647,"temp":22.8,"humidity":87,"rain":0.0,"pressure":999.7,"uv_index":7.45,"wind_gusts":24.8,"aqi":174,"pm10":175.1,"pm2_5":109.4,"mosquito_risk":3,"arthritis_risk":5,"migraine_risk":7,"frizz_risk":1,"updated_at":"2026-03-14T00:19:03.764184+05:30"},{"city":"Bhagalpur","state":"Bihar","latitude":25.2425,"longitude":87.0117,"temp":24.2,"humidity":85,"rain":0.0,"pressure":1000.8,"uv_index":7.5,"wind_gusts":26.6,"aqi":164,"pm10":131.3,"pm2_5":87.3,"mosquito_risk":3,"arthritis_risk":5,"migraine_risk":4,"frizz_risk":1,"updated_at":"2026-03-14T00:19:03.764190+05:30"},{"city":"Ranchi","state":"Jharkhand","latitude":23.3441,"longitude":85.3096,"temp":22.1,"humidity":41,"rain":0.0,"pressure":938.0,"uv_index":8.2,"wind_gusts":26.3,"aqi":73,"pm10":52.3,"pm2_5":26.4,"mosquito_risk":0,"arthritis_risk":5,"migraine_risk":7,"frizz_risk":0,"updated_at":"2026-03-14T00:19:03.764196+05:30"},{"city":"Jamshedpur","state":"Jharkhand","latitude":22.8046,"longitude":86.2029,"temp":26.3,"humidity":58,"rain":0.0,"pressure":991.2,"uv_index":8.05,"wind_gusts":16.6,"aqi":149,"pm10":75.2,"pm2_5":58.3,"mosquito_risk":4,"arthritis_risk":5,"migraine_risk":7,"frizz_risk":1,"updated_at":"2026-03-14T00:19:03.764202+05:30"},{"city":"Dhanbad","state":"Jharkhand","latitude":23.7957,"longitude":86.4304,"temp":24.0,"humidity":53,"rain":0.0,"pressure":979.8,"uv_index":7.95,"wind_gusts":26.3,"aqi":162,"pm10":121.5,"pm2_5":60.8,"mosquito_risk":0,"arthritis_risk":5,"migraine_risk":7,"frizz_risk":0,"updated_at":"2026-03-14T00:19:03.764208+05:30"},{"city":"Bokaro","state":"Jharkhand","latitude":23.6693,"longitude":86.1511,"temp":23.6,"humidity":49,"rain":0.0,"pressure":984.3,"uv_index":7.95,"wind_gusts":26.6,"aqi":148,"pm10":111.8,"pm2_5":60.8,"mosquito_risk":0,"arthritis_risk":5,"migraine_risk":7,"frizz_risk":0,"updated_at":"2026-03-14T00:19:03.764214+05:30"},{"city":"Bhubaneswar","state":"Odisha","latitude":20.2961,"longitude":85.8245,"temp":25.7,"humidity":85,"rain":0.0,"pressure":1003.5,"uv_index":8.4,"wind_gusts":33.5,"aqi":92,"pm10":20.8,"pm2_5":18.0,"mosquito_risk":7,"arthritis_risk":5,"migraine_risk":4,"frizz_risk":1,"updated_at":"2026-03-14T00:19:03.764220+05:30"},{"city":"Cuttack","state":"Odisha","latitude":20.4625,"longitude":85.8828,"temp":25.7,"humidity":86,"rain":0.0,"pressure":1005.3,"uv_index":8.4,"wind_gusts":28.1,"aqi":92,"pm10":20.8,"pm2_5":18.0,"mosquito_risk":7,"arthritis_risk":5,"migraine_risk":4,"frizz_risk":1,"updated_at":"2026-03-14T00:19:03.764226+05:30"},{"city":"Rourkela","state":"Odisha","latitude":22.2604,"longitude":84.8536,"temp":23.1,"humidity":64,"rain":0.0,"pressure":984.7,"uv_index":8.0,"wind_gusts":19.4,"aqi":91,"pm10":64.7,"pm2_5":44.7,"mosquito_risk":3,"arthritis_risk":5,"migraine_risk":7,"frizz_risk":0,"updated_at":"2026-03-14T00:19:03.764232+05:30"},{"city":"Raipur","state":"Chhattisgarh","latitude":21.2514,"longitude":81.6296,"temp":25.9,"humidity":41,"rain":0.0,"pressure":974.1,"uv_index":8.15,"wind_gusts":18.0,"aqi":129,"pm10":48.7,"pm2_5":43.2,"mosquito_risk":4,"arthritis_risk":5,"migraine_risk":7,"frizz_risk":0,"updated_at":"2026-03-14T00:19:03.764238+05:30"},{"city":"Bhilai","state":"Chhattisgarh","latitude":21.1938,"longitude":81.3509,"temp":23.0,"humidity":43,"rain":0.0,"pressure":974.4,"uv_index":8.15,"wind_gusts":14.8,"aqi":123,"pm10":53.9,"pm2_5":48.0,"mosquito_risk":0,"arthritis_risk":5,"migraine_risk":7,"frizz_risk":0,"updated_at":"2026-03-14T00:19:03.764243+05:30"},{"city":"Guwahati","state":"Assam","latitude":26.1158,"longitude":91.7086,"temp":21.9,"humidity":95,"rain":0.0,"pressure":1002.1,"uv_index":6.6,"wind_gusts":29.9,"aqi":133,"pm10":29.7,"pm2_5":23.2,"mosquito_risk":3,"arthritis_risk":5,"migraine_risk":4,"frizz_risk":1,"updated_at":"2026-03-14T00:19:03.764249+05:30"},{"city":"Agartala","state":"Tripura","latitude":23.8315,"longitude":91.2868,"temp":21.6,"humidity":94,"rain":0.0,"pressure":1007.2,"uv_index":7.6,"wind_gusts":32.8,"aqi":107,"pm10":20.6,"pm2_5":18.3,"mosquito_risk":3,"arthritis_risk":5,"migraine_risk":4,"frizz_risk":1,"updated_at":"2026-03-14T00:19:03.764255+05:30"},{"city":"Shillong","state":"Meghalaya","latitude":25.5788,"longitude":91.8933,"temp":13.3,"humidity":89,"rain":0.0,"pressure":854.8,"uv_index":7.0,"wind_gusts":54.7,"aqi":98,"pm10":20.7,"pm2_5":14.0,"mosquito_risk":3,"arthritis_risk":10,"migraine_risk":7,"frizz_risk":0,"updated_at":"2026-03-14T00:19:03.764261+05:30"},{"city":"Imphal","state":"Manipur","latitude":24.817,"longitude":93.9368,"temp":16.0,"humidity":94,"rain":0.0,"pressure":923.9,"uv_index":7.3,"wind_gusts":61.2,"aqi":156,"pm10":61.9,"pm2_5":55.8,"mosquito_risk":3,"arthritis_risk":10,"migraine_risk":7,"frizz_risk":0,"updated_at":"2026-03-14T00:19:03.764267+05:30"},{"city":"Aizawl","state":"Mizoram","latitude":23.7271,"longitude":92.7176,"temp":17.7,"humidity":85,"rain":0.0,"pressure":893.4,"uv_index":7.15,"wind_gusts":76.0,"aqi":138,"pm10":33.8,"pm2_5":29.9,"mosquito_risk":3,"arthritis_risk":10,"migraine_risk":7,"frizz_risk":0,"updated_at":"2026-03-14T00:19:03.764273+05:30"},{"city":"Kohima","state":"Nagaland","latitude":25.6701,"longitude":94.1077,"temp":14.2,"humidity":85,"rain":0.0,"pressure":853.8,"uv_index":6.25,"wind_gusts":82.8,"aqi":121,"pm10":19.8,"pm2_5":17.9,"mosquito_risk":3,"arthritis_risk":10,"migraine_risk":7,"frizz_risk":0,"updated_at":"2026-03-14T00:19:03.764279+05:30"},{"city":"Gangtok","state":"Sikkim","latitude":27.3314,"longitude":88.6138,"temp":13.3,"humidity":93,"rain":0.0,"pressure":834.8,"uv_index":5.15,"wind_gusts":15.8,"aqi":88,"pm10":22.1,"pm2_5":21.1,"mosquito_risk":3,"arthritis_risk":10,"migraine_risk":3,"frizz_risk":0,"updated_at":"2026-03-14T00:19:03.764285+05:30"},{"city":"Siliguri","state":"West Bengal","latitude":26.7271,"longitude":88.3953,"temp":18.7,"humidity":92,"rain":0.0,"pressure":994.2,"uv_index":7.3,"wind_gusts":29.5,"aqi":139,"pm10":56.1,"pm2_5":48.1,"mosquito_risk":3,"arthritis_risk":10,"migraine_risk":7,"frizz_risk":1,"updated_at":"2026-03-14T00:19:07.103699+05:30"},{"city":"Durgapur","state":"West Bengal","latitude":23.5204,"longitude":87.3119,"temp":25.0,"humidity":83,"rain":0.0,"pressure":995.0,"uv_index":7.95,"wind_gusts":26.3,"aqi":159,"pm10":115.7,"pm2_5":82.2,"mosquito_risk":7,"arthritis_risk":5,"migraine_risk":7,"frizz_risk":1,"updated_at":"2026-03-14T00:19:07.103733+05:30"},{"city":"Asansol","state":"West Bengal","latitude":23.6739,"longitude":86.9524,"temp":26.0,"humidity":55,"rain":0.0,"pressure":993.6,"uv_index":7.95,"wind_gusts":23.4,"aqi":157,"pm10":106.9,"pm2_5":53.7,"mosquito_risk":4,"arthritis_risk":5,"migraine_risk":7,"frizz_risk":1,"updated_at":"2026-03-14T00:19:07.103743+05:30"},{"city":"Pondicherry","state":"Puducherry","latitude":11.9139,"longitude":79.8145,"temp":24.4,"humidity":90,"rain":0.0,"pressure":1010.1,"uv_index":9.0,"wind_gusts":27.7,"aqi":57,"pm10":19.2,"pm2_5":14.8,"mosquito_risk":3,"arthritis_risk":0,"migraine_risk":4,"frizz_risk":1,"updated_at":"2026-03-14T00:19:07.103750+05:30"},{"city":"Port Blair","state":"Andaman and Nicobar Islands","latitude":11.6234,"longitude":92.7265,"temp":27.7,"humidity":81,"rain":0.0,"pressure":1008.3,"uv_index":8.95,"wind_gusts":21.6,"aqi":66,"pm10":12.6,"pm2_5":9.7,"mosquito_risk":7,"arthritis_risk":0,"migraine_risk":4,"frizz_risk":1,"updated_at":"2026-03-14T00:19:07.103758+05:30"},{"city":"Haridwar","state":"Uttarakhand","latitude":29.9457,"longitude":78.1642,"temp":18.0,"humidity":84,"rain":0.0,"pressure":974.6,"uv_index":5.6,"wind_gusts":29.5,"aqi":85,"pm10":72.2,"pm2_5":50.3,"mosquito_risk":3,"arthritis_risk":10,"migraine_risk":3,"frizz_risk":0,"updated_at":"2026-03-14T00:19:07.103765+05:30"},{"city":"Rishikesh","state":"Uttarakhand","latitude":30.0869,"longitude":78.2676,"temp":18.9,"humidity":70,"rain":0.0,"pressure":967.2,"uv_index":5.8,"wind_gusts":30.2,"aqi":62,"pm10":46.0,"pm2_5":31.2,"mosquito_risk":3,"arthritis_risk":5,"migraine_risk":3,"frizz_risk":0,"updated_at":"2026-03-14T00:19:07.103773+05:30"},{"city":"Nainital","state":"Uttarakhand","latitude":29.3919,"longitude":79.4542,"temp":17.8,"humidity":32,"rain":0.0,"pressure":805.2,"uv_index":6.55,"wind_gusts":44.3,"aqi":80,"pm10":39.2,"pm2_5":27.8,"mosquito_risk":0,"arthritis_risk":5,"migraine_risk":7,"frizz_risk":0,"updated_at":"2026-03-14T00:19:07.103780+05:30"},{"city":"Mussoorie","state":"Uttarakhand","latitude":30.4599,"longitude":78.0664,"temp":15.6,"humidity":53,"rain":0.0,"pressure":802.0,"uv_index":5.75,"wind_gusts":30.6,"aqi":70,"pm10":58.7,"pm2_5":47.4,"mosquito_risk":0,"arthritis_risk":5,"migraine_risk":3,"frizz_risk":0,"updated_at":"2026-03-14T00:19:07.103787+05:30"},{"city":"Dharamshala","state":"Himachal Pradesh","latitude":32.219,"longitude":76.3234,"temp":18.7,"humidity":31,"rain":0.0,"pressure":869.2,"uv_index":6.0,"wind_gusts":24.8,"aqi":50,"pm10":24.9,"pm2_5":16.4,"mosquito_risk":0,"arthritis_risk":5,"migraine_risk":3,"frizz_risk":0,"updated_at":"2026-03-14T00:19:07.103793+05:30"},{"city":"Dalhousie","state":"Himachal Pradesh","latitude":32.5387,"longitude":75.971,"temp":15.0,"humidity":31,"rain":0.0,"pressure":803.0,"uv_index":6.4,"wind_gusts":31.0,"aqi":65,"pm10":43.0,"pm2_5":36.1,"mosquito_risk":0,"arthritis_risk":5,"migraine_risk":7,"frizz_risk":1,"updated_at":"2026-03-14T00:19:07.103801+05:30"},{"city":"Patiala","state":"Punjab","latitude":30.3398,"longitude":76.3869,"temp":18.1,"humidity":80,"rain":0.0,"pressure":979.3,"uv_index":5.2,"wind_gusts":27.0,"aqi":377,"pm10":424.7,"pm2_5":62.2,"mosquito_risk":3,"arthritis_risk":5,"migraine_risk":3,"frizz_risk":0,"updated_at":"2026-03-14T00:19:07.103809+05:30"},{"city":"Bhatinda","state":"Punjab","latitude":30.211,"longitude":74.9455,"temp":20.3,"humidity":71,"rain":0.0,"pressure":985.5,"uv_index":6.25,"wind_gusts":27.7,"aqi":107,"pm10":48.3,"pm2_5":41.7,"mosquito_risk":3,"arthritis_risk":5,"migraine_risk":7,"frizz_risk":0,"updated_at":"2026-03-14T00:19:07.103816+05:30"},{"city":"Rohtak","state":"Haryana","latitude":28.8955,"longitude":76.6066,"temp":18.3,"humidity":78,"rain":0.0,"pressure":983.0,"uv_index":5.3,"wind_gusts":26.6,"aqi":556,"pm10":676.1,"pm2_5":113.9,"mosquito_risk":3,"arthritis_risk":5,"migraine_risk":3,"frizz_risk":0,"updated_at":"2026-03-14T00:19:07.103823+05:30"},{"city":"Panipat","state":"Haryana","latitude":29.3909,"longitude":76.9635,"temp":17.7,"humidity":80,"rain":0.0,"pressure":981.3,"uv_index":4.9,"wind_gusts":24.8,"aqi":1033,"pm10":1113.9,"pm2_5":147.6,"mosquito_risk":3,"arthritis_risk":5,"migraine_risk":3,"frizz_risk":0,"updated_at":"2026-03-14T00:19:07.103829+05:30"},{"city":"Mathura","state":"Uttar Pradesh","latitude":27.4924,"longitude":77.6737,"temp":20.0,"humidity":58,"rain":0.0,"pressure":987.8,"uv_index":5.65,"wind_gusts":25.6,"aqi":725,"pm10":1438.0,"pm2_5":190.9,"mosquito_risk":0,"arthritis_risk":5,"migraine_risk":3,"frizz_risk":0,"updated_at":"2026-03-14T00:19:07.103835+05:30"},{"city":"Vrindavan","state":"Uttar Pradesh","latitude":27.5823,"longitude":77.7027,"temp":18.8,"humidity":63,"rain":0.0,"pressure":988.1,"uv_index":5.75,"wind_gusts":28.8,"aqi":725,"pm10":1438.0,"pm2_5":190.9,"mosquito_risk":3,"arthritis_risk":5,"migraine_risk":3,"frizz_risk":0,"updated_at":"2026-03-14T00:19:07.103841+05:30"},{"city":"Ayodhya","state":"Uttar Pradesh","latitude":26.7922,"longitude":82.1998,"temp":21.8,"humidity":67,"rain":0.0,"pressure":994.9,"uv_index":6.35,"wind_gusts":30.2,"aqi":155,"pm10":112.9,"pm2_5":49.4,"mosquito_risk":3,"arthritis_risk":5,"migraine_risk":7,"frizz_risk":0,"updated_at":"2026-03-14T00:19:07.103847+05:30"},{"city":"Ratlam","state":"Madhya Pradesh","latitude":23.3315,"longitude":75.0367,"temp":25.9,"humidity":38,"rain":0.0,"pressure":954.8,"uv_index":7.6,"wind_gusts":30.6,"aqi":90,"pm10":25.1,"pm2_5":22.6,"mosquito_risk":4,"arthritis_risk":5,"migraine_risk":7,"frizz_risk":0,"updated_at":"2026-03-14T00:19:07.103854+05:30"},{"city":"Sagar","state":"Madhya Pradesh","latitude":23.8388,"longitude":78.7378,"temp":24.0,"humidity":35,"rain":0.0,"pressure":950.4,"uv_index":7.6,"wind_gusts":29.2,"aqi":77,"pm10":15.3,"pm2_5":14.9,"mosquito_risk":0,"arthritis_risk":5,"migraine_risk":7,"frizz_risk":0,"updated_at":"2026-03-14T00:19:07.103860+05:30"},{"city":"Satna","state":"Madhya Pradesh","latitude":24.6005,"longitude":80.8322,"temp":23.9,"humidity":35,"rain":0.0,"pressure":971.6,"uv_index":7.2,"wind_gusts":29.9,"aqi":66,"pm10":42.6,"pm2_5":19.4,"mosquito_risk":0,"arthritis_risk":5,"migraine_risk":7,"frizz_risk":0,"updated_at":"2026-03-14T00:19:07.103866+05:30"},{"city":"Akola","state":"Maharashtra","latitude":20.7002,"longitude":77.0082,"temp":28.1,"humidity":37,"rain":0.0,"pressure":974.5,"uv_index":8.05,"wind_gusts":24.8,"aqi":99,"pm10":52.0,"pm2_5":48.3,"mosquito_risk":4,"arthritis_risk":5,"migraine_risk":7,"frizz_risk":0,"updated_at":"2026-03-14T00:19:07.103873+05:30"},{"city":"Amravati","state":"Maharashtra","latitude":20.9374,"longitude":77.7796,"temp":25.3,"humidity":47,"rain":0.0,"pressure":966.8,"uv_index":8.0,"wind_gusts":15.1,"aqi":105,"pm10":51.7,"pm2_5":46.6,"mosquito_risk":4,"arthritis_risk":5,"migraine_risk":7,"frizz_risk":0,"updated_at":"2026-03-14T00:19:07.103879+05:30"},{"city":"Latur","state":"Maharashtra","latitude":18.4088,"longitude":76.5604,"temp":25.6,"humidity":48,"rain":0.0,"pressure":939.6,"uv_index":8.5,"wind_gusts":21.2,"aqi":120,"pm10":45.5,"pm2_5":40.6,"mosquito_risk":4,"arthritis_risk":5,"migraine_risk":7,"frizz_risk":0,"updated_at":"2026-03-14T00:19:07.103886+05:30"},{"city":"Nanded","state":"Maharashtra","latitude":19.1383,"longitude":77.3091,"temp":28.3,"humidity":40,"rain":0.0,"pressure":968.3,"uv_index":8.25,"wind_gusts":21.6,"aqi":121,"pm10":60.1,"pm2_5":52.5,"mosquito_risk":4,"arthritis_risk":5,"migraine_risk":7,"frizz_risk":0,"updated_at":"2026-03-14T00:19:07.103892+05:30"},{"city":"Gulbarga","state":"Karnataka","latitude":17.3297,"longitude":76.8343,"temp":28.0,"humidity":45,"rain":0.0,"pressure":958.9,"uv_index":8.6,"wind_gusts":32.0,"aqi":122,"pm10":44.4,"pm2_5":37.7,"mosquito_risk":4,"arthritis_risk":5,"migraine_risk":7,"frizz_risk":0,"updated_at":"2026-03-14T00:19:07.103898+05:30"},{"city":"Bidar","state":"Karnataka","latitude":17.9104,"longitude":77.5199,"temp":25.4,"humidity":47,"rain":0.0,"pressure":935.8,"uv_index":8.55,"wind_gusts":26.6,"aqi":111,"pm10":46.9,"pm2_5":39.8,"mosquito_risk":4,"arthritis_risk":5,"migraine_risk":7,"frizz_risk":0,"updated_at":"2026-03-14T00:19:07.103903+05:30"},{"city":"Hospet","state":"Karnataka","latitude":15.2689,"longitude":76.3909,"temp":28.6,"humidity":50,"rain":0.0,"pressure":956.3,"uv_index":8.9,"wind_gusts":24.1,"aqi":123,"pm10":51.8,"pm2_5":43.5,"mosquito_risk":4,"arthritis_risk":5,"migraine_risk":7,"frizz_risk":1,"updated_at":"2026-03-14T00:19:07.103909+05:30"},{"city":"Tirupur","state":"Tamil Nadu","latitude":11.1085,"longitude":77.3411,"temp":26.3,"humidity":64,"rain":0.0,"pressure":976.7,"uv_index":9.3,"wind_gusts":30.6,"aqi":94,"pm10":28.2,"pm2_5":24.8,"mosquito_risk":7,"arthritis_risk":5,"migraine_risk":7,"frizz_risk":1,"updated_at":"2026-03-14T00:19:07.103915+05:30"},{"city":"Alappuzha","state":"Kerala","latitude":9.4981,"longitude":76.3388,"temp":27.0,"humidity":85,"rain":0.0,"pressure":1010.2,"uv_index":9.1,"wind_gusts":28.1,"aqi":82,"pm10":28.1,"pm2_5":25.4,"mosquito_risk":7,"arthritis_risk":0,"migraine_risk":4,"frizz_risk":1,"updated_at":"2026-03-14T00:19:07.103922+05:30"},{"city":"Munnar","state":"Kerala","latitude":10.0889,"longitude":77.0595,"temp":20.1,"humidity":84,"rain":0.0,"pressure":857.0,"uv_index":9.55,"wind_gusts":24.5,"aqi":72,"pm10":31.4,"pm2_5":29.0,"mosquito_risk":3,"arthritis_risk":5,"migraine_risk":7,"frizz_risk":1,"updated_at":"2026-03-14T00:19:07.103928+05:30"},{"city":"Silchar","state":"Assam","latitude":24.8333,"longitude":92.7789,"temp":20.9,"humidity":95,"rain":0.0,"pressure":1007.7,"uv_index":7.75,"wind_gusts":42.8,"aqi":157,"pm10":48.9,"pm2_5":42.0,"mosquito_risk":3,"arthritis_risk":5,"migraine_risk":4,"frizz_risk":1,"updated_at":"2026-03-14T00:19:07.103935+05:30"},{"city":"Dibrugarh","state":"Assam","latitude":27.4728,"longitude":94.912,"temp":20.5,"humidity":87,"rain":0.0,"pressure":996.4,"uv_index":5.5,"wind_gusts":25.2,"aqi":136,"pm10":39.9,"pm2_5":35.7,"mosquito_risk":3,"arthritis_risk":5,"migraine_risk":3,"frizz_risk":1,"updated_at":"2026-03-14T00:19:07.103941+05:30"}]