[{"city":"Delhi","state":"Delhi","latitude":28.6139,"longitude":77.209,"temp":28.8,"humidity":76,"rain":0.0,"pressure":976.8,"uv_index":7.7,"wind_gusts":24.1,"aqi":272,"pm10":130.4,"pm2_5":64.5,"no2":35.1,"co":559.0,"o3":38.0,"so2":15.7,"mosquito_risk":7,"arthritis_risk":5,"migraine_risk":7,"frizz_risk":1,"updated_at":"2026-07-15T01:44:16.252473+05:30"},{"city":"Mumbai","state":"Maharashtra","latitude":19.076,"longitude":72.8777,"temp":27.7,"humidity":79,"rain":0.0,"pressure":1007.2,"uv_index":7.6,"wind_gusts":46.1,"aqi":72,"pm10":36.8,"pm2_5":16.3,"no2":4.9,"co":150.0,"o3":47.0,"so2":4.2,"mosquito_risk":7,"arthritis_risk":5,"migraine_risk":4,"frizz_risk":1,"updated_at":"2026-07-15T01:44:16.252519+05:30"},{"city":"Bangalore","state":"Karnataka","latitude":12.9716,"longitude":77.5946,"temp":21.6,"humidity":78,"rain":0.0,"pressure":910.7,"uv_index":8.9,"wind_gusts":42.1,"aqi":59,"pm10":18.8,"pm2_5":14.3,"no2":15.7,"co":229.0,"o3":45.0,"so2":5.3,"mosquito_risk":3,"arthritis_risk":5,"migraine_risk":7,"frizz_risk":1,"updated_at":"2026-07-15T01:44:16.252535+05:30"},{"city":"Hyderabad","state":"Telangana","latitude":17.385,"longitude":78.4867,"temp":27.5,"humidity":66,"rain":0.0,"pressure":950.8,"uv_index":9.05,"wind_gusts":44.6,"aqi":64,"pm10":27.2,"pm2_5":21.1,"no2":16.1,"co":311.0,"o3":44.0,"so2":6.5,"mosquito_risk":7,"arthritis_risk":5,"migraine_risk":7,"frizz_risk":1,"updated_at":"2026-07-15T01:44:16.252544+05:30"},{"city":"Chennai","state":"Tamil Nadu","latitude":13.0827,"longitude":80.2707,"temp":29.8,"humidity":75,"rain":0.0,"pressure":1004.1,"uv_index":8.9,"wind_gusts":36.0,"aqi":75,"pm10":29.2,"pm2_5":19.3,"no2":9.9,"co":236.0,"o3":84.0,"so2":7.7,"mosquito_risk":7,"arthritis_risk":5,"migraine_risk":4,"frizz_risk":1,"updated_at":"2026-07-15T01:44:16.252552+05:30"},{"city":"Kolkata","state":"West Bengal","latitude":22.5726,"longitude":88.3639,"temp":27.1,"humidity":96,"rain":0.0,"pressure":999.0,"uv_index":8.2,"wind_gusts":36.0,"aqi":135,"pm10":85.9,"pm2_5":83.6,"no2":50.3,"co":1195.0,"o3":12.0,"so2":22.9,"mosquito_risk":7,"arthritis_risk":5,"migraine_risk":7,"frizz_risk":1,"updated_at":"2026-07-15T01:44:16.252559+05:30"},{"city":"Pune","state":"Maharashtra","latitude":18.5204,"longitude":73.8567,"temp":23.5,"humidity":87,"rain":0.0,"pressure":947.1,"uv_index":8.35,"wind_gusts":48.2,"aqi":57,"pm10":11.7,"pm2_5":6.7,"no2":7.8,"co":133.0,"o3":36.0,"so2":6.5,"mosquito_risk":3,"arthritis_risk":5,"migraine_risk":7,"frizz_risk":1,"updated_at":"2026-07-15T01:44:16.252566+05:30"},{"city":"Ahmedabad","state":"Gujarat","latitude":23.0225,"longitude":72.5714,"temp":29.0,"humidity":71,"rain":0.0,"pressure":998.6,"uv_index":8.1,"wind_gusts":40.3,"aqi":64,"pm10":24.3,"pm2_5":14.1,"no2":8.1,"co":134.0,"o3":35.0,"so2":4.4,"mosquito_risk":7,"arthritis_risk":5,"migraine_risk":7,"frizz_risk":1,"updated_at":"2026-07-15T01:44:16.252572+05:30"},{"city":"Jaipur","state":"Rajasthan","latitude":26.9124,"longitude":75.7873,"temp":29.3,"humidity":58,"rain":0.0,"pressure":955.1,"uv_index":8.05,"wind_gusts":38.5,"aqi":439,"pm10":499.2,"pm2_5":95.7,"no2":10.5,"co":197.0,"o3":43.0,"so2":4.7,"mosquito_risk":4,"arthritis_risk":5,"migraine_risk":7,"frizz_risk":1,"updated_at":"2026-07-15T01:44:16.252579+05:30"},{"city":"Lucknow","state":"Uttar Pradesh","latitude":26.8467,"longitude":80.9462,"temp":29.7,"humidity":78,"rain":0.0,"pressure":986.7,"uv_index":8.2,"wind_gusts":21.2,"aqi":161,"pm10":158.3,"pm2_5":93.1,"no2":42.6,"co":261.0,"o3":20.0,"so2":12.0,"mosquito_risk":7,"arthritis_risk":5,"migraine_risk":7,"frizz_risk":1,"updated_at":"2026-07-15T01:44:16.252590+05:30"},{"city":"Kanpur","state":"Uttar Pradesh","latitude":26.4499,"longitude":80.3319,"temp":29.6,"humidity":71,"rain":0.0,"pressure":985.4,"uv_index":7.6,"wind_gusts":27.7,"aqi":149,"pm10":98.0,"pm2_5":45.9,"no2":13.7,"co":165.0,"o3":51.0,"so2":5.3,"mosquito_risk":7,"arthritis_risk":5,"migraine_risk":7,"frizz_risk":1,"updated_at":"2026-07-15T01:44:16.252597+05:30"},{"city":"Chandigarh","state":"Chandigarh","latitude":30.7333,"longitude":76.7794,"temp":27.4,"humidity":81,"rain":0.0,"pressure":962.3,"uv_index":7.7,"wind_gusts":26.6,"aqi":173,"pm10":136.0,"pm2_5":114.6,"no2":59.4,"co":1017.0,"o3":31.0,"so2":17.9,"mosquito_risk":7,"arthritis_risk":5,"migraine_risk":7,"frizz_risk":1,"updated_at":"2026-07-15T01:44:16.252605+05:30"},{"city":"Srinagar","state":"Jammu and Kashmir","latitude":34.0837,"longitude":74.7973,"temp":19.3,"humidity":85,"rain":0.0,"pressure":837.4,"uv_index":8.95,"wind_gusts":16.6,"aqi":82,"pm10":37.1,"pm2_5":35.3,"no2":33.6,"co":703.0,"o3":16.0,"so2":2.9,"mosquito_risk":3,"arthritis_risk":10,"migraine_risk":7,"frizz_risk":1,"updated_at":"2026-07-15T01:44:16.252613+05:30"},{"city":"Jammu","state":"Jammu and Kashmir","latitude":32.7266,"longitude":74.857,"temp":25.7,"humidity":89,"rain":0.0,"pressure":966.0,"uv_index":8.55,"wind_gusts":23.8,"aqi":153,"pm10":88.9,"pm2_5":70.3,"no2":61.2,"co":792.0,"o3":6.0,"so2":6.2,"mosquito_risk":7,"arthritis_risk":5,"migraine_risk":7,"frizz_risk":1,"updated_at":"2026-07-15T01:44:16.252620+05:30"},{"city":"Amritsar","state":"Punjab","latitude":31.634,"longitude":74.8723,"temp":28.6,"humidity":81,"rain":0.0,"pressure":974.1,"uv_index":8.4,"wind_gusts":20.2,"aqi":184,"pm10":162.1,"pm2_5":126.2,"no2":71.0,"co":1488.0,"o3":9.0,"so2":10.6,"mosquito_risk":7,"arthritis_risk":5,"migraine_risk":7,"frizz_risk":1,"updated_at":"2026-07-15T01:44:16.252650+05:30"},{"city":"Ludhiana","state":"Punjab","latitude":30.901,"longitude":75.8573,"temp":28.6,"humidity":85,"rain":0.0,"pressure":972.2,"uv_index":7.95,"wind_gusts":23.0,"aqi":188,"pm10":213.3,"pm2_5":160.2,"no2":91.3,"co":1664.0,"o3":12.0,"so2":16.8,"mosquito_risk":7,"arthritis_risk":5,"migraine_risk":7,"frizz_risk":1,"updated_at":"2026-07-15T01:44:16.252661+05:30"},{"city":"Jalandhar","state":"Punjab","latitude":31.326,"longitude":75.5762,"temp":27.7,"humidity":87,"rain":0.0,"pressure":973.2,"uv_index":8.15,"wind_gusts":22.3,"aqi":197,"pm10":244.0,"pm2_5":193.7,"no2":104.9,"co":1568.0,"o3":0.0,"so2":14.5,"mosquito_risk":7,"arthritis_risk":5,"migraine_risk":7,"frizz_risk":1,"updated_at":"2026-07-15T01:44:16.252668+05:30"},{"city":"Dehradun","state":"Uttarakhand","latitude":30.6284,"longitude":78.0322,"temp":18.3,"humidity":98,"rain":0.1,"pressure":827.4,"uv_index":7.7,"wind_gusts":27.4,"aqi":115,"pm10":68.2,"pm2_5":36.4,"no2":30.6,"co":286.0,"o3":45.0,"so2":2.5,"mosquito_risk":6,"arthritis_risk":10,"migraine_risk":7,"frizz_risk":1,"updated_at":"2026-07-15T01:44:16.252675+05:30"},{"city":"Shimla","state":"Himachal Pradesh","latitude":31.1048,"longitude":77.1734,"temp":14.1,"humidity":99,"rain":0.0,"pressure":780.5,"uv_index":8.2,"wind_gusts":38.2,"aqi":151,"pm10":97.6,"pm2_5":71.0,"no2":27.3,"co":430.0,"o3":52.0,"so2":2.0,"mosquito_risk":3,"arthritis_risk":10,"migraine_risk":7,"frizz_risk":0,"updated_at":"2026-07-15T01:44:16.252682+05:30"},{"city":"Manali","state":"Himachal Pradesh","latitude":32.2396,"longitude":77.1887,"temp":18.3,"humidity":90,"rain":0.0,"pressure":816.3,"uv_index":9.25,"wind_gusts":32.0,"aqi":55,"pm10":17.9,"pm2_5":13.3,"no2":30.5,"co":246.0,"o3":79.0,"so2":0.0,"mosquito_risk":3,"arthritis_risk":10,"migraine_risk":7,"frizz_risk":1,"updated_at":"2026-07-15T01:44:16.252691+05:30"},{"city":"Gurgaon","state":"Haryana","latitude":28.4595,"longitude":77.0266,"temp":29.1,"humidity":71,"rain":0.0,"pressure":975.3,"uv_index":7.75,"wind_gusts":29.5,"aqi":309,"pm10":108.3,"pm2_5":55.3,"no2":32.8,"co":461.0,"o3":39.0,"so2":11.8,"mosquito_risk":7,"arthritis_risk":5,"migraine_risk":7,"frizz_risk":1,"updated_at":"2026-07-15T01:44:16.252699+05:30"},{"city":"Noida","state":"Uttar Pradesh","latitude":28.5355,"longitude":77.391,"temp":28.6,"humidity":78,"rain":0.0,"pressure":978.2,"uv_index":7.7,"wind_gusts":20.2,"aqi":309,"pm10":108.3,"pm2_5":55.3,"no2":32.8,"co":714.0,"o3":39.0,"so2":11.8,"mosquito_risk":7,"arthritis_risk":5,"migraine_risk":7,"frizz_risk":1,"updated_at":"2026-07-15T01:44:16.252705+05:30"},{"city":"Ghaziabad","state":"Uttar Pradesh","latitude":28.6692,"longitude":77.4538,"temp":28.5,"humidity":79,"rain":0.0,"pressure":976.5,"uv_index":7.7,"wind_gusts":19.1,"aqi":192,"pm10":139.2,"pm2_5":78.0,"no2":47.1,"co":392.0,"o3":22.0,"so2":18.8,"mosquito_risk":7,"arthritis_risk":5,"migraine_risk":7,"frizz_risk":1,"updated_at":"2026-07-15T01:44:16.252712+05:30"},{"city":"Faridabad","state":"Haryana","latitude":28.4089,"longitude":77.3178,"temp":28.7,"humidity":76,"rain":0.0,"pressure":977.5,"uv_index":7.75,"wind_gusts":23.8,"aqi":309,"pm10":108.3,"pm2_5":55.3,"no2":32.8,"co":598.0,"o3":39.0,"so2":11.8,"mosquito_risk":7,"arthritis_risk":5,"migraine_risk":7,"frizz_risk":1,"updated_at":"2026-07-15T01:44:16.252718+05:30"},{"city":"Meerut","state":"Uttar Pradesh","latitude":28.9845,"longitude":77.7064,"temp":28.2,"humidity":79,"rain":0.0,"pressure":975.2,"uv_index":7.6,"wind_gusts":22.7,"aqi":192,"pm10":139.2,"pm2_5":78.0,"no2":47.1,"co":474.0,"o3":22.0,"so2":18.8,"mosquito_risk":7,"arthritis_risk":5,"migraine_risk":7,"frizz_risk":1,"updated_at":"2026-07-15T01:44:16.252724+05:30"},{"city":"Agra","state":"Uttar Pradesh","latitude":27.1767,"longitude":78.0081,"temp":28.7,"humidity":74,"rain":0.0,"pressure":981.9,"uv_index":5.35,"wind_gusts":34.6,"aqi":152,"pm10":144.4,"pm2_5":55.8,"no2":20.6,"co":161.0,"o3":40.0,"so2":6.2,"mosquito_risk":7,"arthritis_risk":5,"migraine_risk":3,"frizz_risk":1,"updated_at":"2026-07-15T01:44:16.252731+05:30"},{"city":"Varanasi","state":"Uttar Pradesh","latitude":25.3176,"longitude":82.9739,"temp":29.1,"humidity":93,"rain":0.0,"pressure":991.1,"uv_index":7.5,"wind_gusts":28.1,"aqi":157,"pm10":156.9,"pm2_5":84.3,"no2":32.3,"co":736.0,"o3":39.0,"so2":16.4,"mosquito_risk":7,"arthritis_risk":5,"migraine_risk":7,"frizz_risk":1,"updated_at":"2026-07-15T01:44:16.252738+05:30"},{"city":"Prayagraj","state":"Uttar Pradesh","latitude":25.4358,"longitude":81.8463,"temp":30.0,"humidity":72,"rain":0.0,"pressure":989.7,"uv_index":8.6,"wind_gusts":27.0,"aqi":153,"pm10":94.3,"pm2_5":54.4,"no2":20.0,"co":252.0,"o3":49.0,"so2":9.2,"mosquito_risk":7,"arthritis_risk":5,"migraine_risk":7,"frizz_risk":1,"updated_at":"2026-07-15T01:44:16.252744+05:30"},{"city":"Gorakhpur","state":"Uttar Pradesh","latitude":26.7606,"longitude":83.3732,"temp":26.7,"humidity":95,"rain":0.0,"pressure":991.1,"uv_index":8.25,"wind_gusts":27.0,"aqi":156,"pm10":98.5,"pm2_5":57.7,"no2":16.5,"co":642.0,"o3":84.0,"so2":8.6,"mosquito_risk":7,"arthritis_risk":5,"migraine_risk":7,"frizz_risk":1,"updated_at":"2026-07-15T01:44:16.252751+05:30"},{"city":"Bareilly","state":"Uttar Pradesh","latitude":28.367,"longitude":79.4304,"temp":28.1,"humidity":79,"rain":0.0,"pressure":980.4,"uv_index":7.9,"wind_gusts":20.2,"aqi":181,"pm10":203.0,"pm2_5":88.5,"no2":16.5,"co":291.0,"o3":79.0,"so2":8.8,"mosquito_risk":7,"arthritis_risk":5,"migraine_risk":7,"frizz_risk":1,"updated_at":"2026-07-15T01:44:16.252760+05:30"},{"city":"Aligarh","state":"Uttar Pradesh","latitude":27.8974,"longitude":78.088,"temp":27.9,"humidity":74,"rain":0.0,"pressure":979.6,"uv_index":7.55,"wind_gusts":34.2,"aqi":205,"pm10":142.5,"pm2_5":71.9,"no2":28.0,"co":203.0,"o3":37.0,"so2":7.8,"mosquito_risk":7,"arthritis_risk":5,"migraine_risk":7,"frizz_risk":1,"updated_at":"2026-07-15T01:44:16.252766+05:30"},{"city":"Moradabad","state":"Uttar Pradesh","latitude":28.8386,"longitude":78.7733,"temp":27.8,"humidity":76,"rain":0.0,"pressure":977.5,"uv_index":7.8,"wind_gusts":22.3,"aqi":191,"pm10":258.0,"pm2_5":102.2,"no2":18.9,"co":657.0,"o3":74.0,"so2":13.7,"mosquito_risk":7,"arthritis_risk":5,"migraine_risk":7,"frizz_risk":1,"updated_at":"2026-07-15T01:44:16.252774+05:30"},{"city":"Saharanpur","state":"Uttar Pradesh","latitude":29.9637,"longitude":77.546,"temp":28.4,"humidity":85,"rain":0.0,"pressure":969.7,"uv_index":7.35,"wind_gusts":24.8,"aqi":194,"pm10":257.0,"pm2_5":151.8,"no2":84.8,"co":872.0,"o3":8.0,"so2":26.8,"mosquito_risk":7,"arthritis_risk":5,"migraine_risk":7,"frizz_risk":1,"updated_at":"2026-07-15T01:44:16.252781+05:30"},{"city":"Jhansi","state":"Uttar Pradesh","latitude":25.4484,"longitude":78.5685,"temp":28.5,"humidity":69,"rain":0.0,"pressure":972.9,"uv_index":7.35,"wind_gusts":37.4,"aqi":104,"pm10":54.1,"pm2_5":31.4,"no2":11.4,"co":171.0,"o3":49.0,"so2":8.2,"mosquito_risk":7,"arthritis_risk":5,"migraine_risk":7,"frizz_risk":1,"updated_at":"2026-07-15T01:44:19.654613+05:30"},{"city":"Surat","state":"Gujarat","latitude":21.1702,"longitude":72.8311,"temp":26.7,"humidity":88,"rain":0.1,"pressure":1004.5,"uv_index":7.75,"wind_gusts":47.2,"aqi":70,"pm10":24.7,"pm2_5":16.4,"no2":20.1,"co":337.0,"o3":27.0,"so2":31.7,"mosquito_risk":10,"arthritis_risk":5,"migraine_risk":4,"frizz_risk":1,"updated_at":"2026-07-15T01:44:19.654672+05:30"},{"city":"Vadodara","state":"Gujarat","latitude":22.3072,"longitude":73.1812,"temp":28.1,"humidity":78,"rain":0.0,"pressure":1001.3,"uv_index":7.0,"wind_gusts":42.1,"aqi":63,"pm10":16.9,"pm2_5":11.1,"no2":9.3,"co":136.0,"o3":33.0,"so2":6.0,"mosquito_risk":7,"arthritis_risk":5,"migraine_risk":4,"frizz_risk":1,"updated_at":"2026-07-15T01:44:19.654683+05:30"},{"city":"Rajkot","state":"Gujarat","latitude":22.3039,"longitude":70.8022,"temp":26.5,"humidity":89,"rain":0.0,"pressure":991.0,"uv_index":7.25,"wind_gusts":40.7,"aqi":56,"pm10":14.0,"pm2_5":7.8,"no2":4.9,"co":101.0,"o3":38.0,"so2":3.6,"mosquito_risk":7,"arthritis_risk":5,"migraine_risk":7,"frizz_risk":1,"updated_at":"2026-07-15T01:44:19.654692+05:30"},{"city":"Thane","state":"Maharashtra","latitude":19.2183,"longitude":72.9781,"temp":26.3,"humidity":86,"rain":0.0,"pressure":1006.6,"uv_index":7.25,"wind_gusts":36.0,"aqi":72,"pm10":36.8,"pm2_5":16.3,"no2":4.9,"co":189.0,"o3":47.0,"so2":4.2,"mosquito_risk":7,"arthritis_risk":5,"migraine_risk":4,"frizz_risk":1,"updated_at":"2026-07-15T01:44:19.654700+05:30"},{"city":"Nagpur","state":"Maharashtra","latitude":21.1458,"longitude":79.0882,"temp":27.6,"humidity":64,"rain":0.0,"pressure":970.0,"uv_index":8.8,"wind_gusts":51.5,"aqi":76,"pm10":31.4,"pm2_5":23.2,"no2":15.0,"co":242.0,"o3":42.0,"so2":8.8,"mosquito_risk":7,"arthritis_risk":5,"migraine_risk":7,"frizz_risk":1,"updated_at":"2026-07-15T01:44:19.654708+05:30"},{"city":"Nashik","state":"Maharashtra","latitude":19.9975,"longitude":73.7898,"temp":22.8,"humidity":94,"rain":0.0,"pressure":943.7,"uv_index":7.9,"wind_gusts":43.9,"aqi":57,"pm10":6.1,"pm2_5":3.4,"no2":7.5,"co":116.0,"o3":36.0,"so2":6.0,"mosquito_risk":3,"arthritis_risk":5,"migraine_risk":7,"frizz_risk":1,"updated_at":"2026-07-15T01:44:19.654716+05:30"},{"city":"Aurangabad","state":"Maharashtra","latitude":19.8762,"longitude":75.3433,"temp":23.6,"humidity":84,"rain":0.0,"pressure":942.4,"uv_index":8.4,"wind_gusts":45.4,"aqi":61,"pm10":15.9,"pm2_5":9.7,"no2":9.6,"co":159.0,"o3":41.0,"so2":11.2,"mosquito_risk":3,"arthritis_risk":5,"migraine_risk":7,"frizz_risk":1,"updated_at":"2026-07-15T01:44:19.654724+05:30"},{"city":"Solapur","state":"Maharashtra","latitude":17.6599,"longitude":75.9064,"temp":25.7,"humidity":70,"rain":0.0,"pressure":956.1,"uv_index":8.5,"wind_gusts":67.3,"aqi":59,"pm10":24.2,"pm2_5":15.4,"no2":6.0,"co":141.0,"o3":43.0,"so2":2.5,"mosquito_risk":7,"arthritis_risk":5,"migraine_risk":7,"frizz_risk":1,"updated_at":"2026-07-15T01:44:19.654732+05:30"},{"city":"Kolhapur","state":"Maharashtra","latitude":16.705,"longitude":74.2433,"temp":22.4,"humidity":92,"rain":0.0,"pressure":947.7,"uv_index":8.35,"wind_gusts":51.8,"aqi":55,"pm10":22.4,"pm2_5":12.3,"no2":5.2,"co":130.0,"o3":38.0,"so2":2.7,"mosquito_risk":3,"arthritis_risk":5,"migraine_risk":7,"frizz_risk":1,"updated_at":"2026-07-15T01:44:19.654740+05:30"},{"city":"Goa","state":"Goa","latitude":15.2993,"longitude":74.124,"temp":24.8,"humidity":96,"rain":0.0,"pressure":998.5,"uv_index":8.05,"wind_gusts":33.5,"aqi":72,"pm10":48.7,"pm2_5":28.3,"no2":7.7,"co":690.0,"o3":41.0,"so2":2.3,"mosquito_risk":3,"arthritis_risk":5,"migraine_risk":7,"frizz_risk":1,"updated_at":"2026-07-15T01:44:19.654748+05:30"},{"city":"Jodhpur","state":"Rajasthan","latitude":26.2389,"longitude":73.0243,"temp":30.2,"humidity":57,"rain":0.0,"pressure":977.6,"uv_index":8.15,"wind_gusts":38.9,"aqi":188,"pm10":198.4,"pm2_5":51.2,"no2":5.3,"co":115.0,"o3":51.0,"so2":2.3,"mosquito_risk":0,"arthritis_risk":5,"migraine_risk":7,"frizz_risk":1,"updated_at":"2026-07-15T01:44:19.654755+05:30"},{"city":"Udaipur","state":"Rajasthan","latitude":24.5854,"longitude":73.7125,"temp":25.3,"humidity":77,"rain":0.0,"pressure":942.5,"uv_index":8.8,"wind_gusts":34.9,"aqi":72,"pm10":38.1,"pm2_5":20.5,"no2":7.2,"co":117.0,"o3":50.0,"so2":4.5,"mosquito_risk":7,"arthritis_risk":5,"migraine_risk":7,"frizz_risk":1,"updated_at":"2026-07-15T01:44:19.654763+05:30"},{"city":"Kota","state":"Rajasthan","latitude":25.2138,"longitude":75.8648,"temp":29.2,"humidity":63,"rain":0.0,"pressure":974.5,"uv_index":8.3,"wind_gusts":34.9,"aqi":87,"pm10":42.1,"pm2_5":24.4,"no2":8.5,"co":180.0,"o3":61.0,"so2":6.5,"mosquito_risk":7,"arthritis_risk":5,"migraine_risk":7,"frizz_risk":1,"updated_at":"2026-07-15T01:44:19.654771+05:30"},{"city":"Bikaner","state":"Rajasthan","latitude":28.0229,"longitude":73.3119,"temp":31.5,"humidity":50,"rain":0.0,"pressure":975.7,"uv_index":8.4,"wind_gusts":38.5,"aqi":172,"pm10":332.5,"pm2_5":96.6,"no2":3.2,"co":123.0,"o3":56.0,"so2":3.2,"mosquito_risk":0,"arthritis_risk":5,"migraine_risk":7,"frizz_risk":1,"updated_at":"2026-07-15T01:44:19.654778+05:30"},{"city":"Ajmer","state":"Rajasthan","latitude":26.4499,"longitude":74.6399,"temp":26.9,"humidity":67,"rain":0.0,"pressure":950.0,"uv_index":8.3,"wind_gusts":46.8,"aqi":102,"pm10":51.8,"pm2_5":25.8,"no2":7.1,"co":147.0,"o3":50.0,"so2":3.8,"mosquito_risk":7,"arthritis_risk":5,"migraine_risk":7,"frizz_risk":1,"updated_at":"2026-07-15T01:44:19.654786+05:30"},{"city":"Gwalior","state":"Madhya Pradesh","latitude":26.2183,"longitude":78.1828,"temp":29.3,"humidity":71,"rain":0.0,"pressure":977.6,"uv_index":2.05,"wind_gusts":41.0,"aqi":107,"pm10":70.5,"pm2_5":34.9,"no2":10.6,"co":146.0,"o3":43.0,"so2":3.2,"mosquito_risk":7,"arthritis_risk":5,"migraine_risk":3,"frizz_risk":1,"updated_at":"2026-07-15T01:44:19.654794+05:30"},{"city":"Indore","state":"Madhya Pradesh","latitude":22.7196,"longitude":75.8577,"temp":24.2,"humidity":87,"rain":0.0,"pressure":945.2,"uv_index":8.6,"wind_gusts":38.9,"aqi":67,"pm10":19.7,"pm2_5":13.9,"no2":9.4,"co":203.0,"o3":46.0,"so2":10.2,"mosquito_risk":3,"arthritis_risk":5,"migraine_risk":7,"frizz_risk":1,"updated_at":"2026-07-15T01:44:19.654802+05:30"},{"city":"Bhopal","state":"Madhya Pradesh","latitude":23.2599,"longitude":77.4126,"temp":25.5,"humidity":73,"rain":0.0,"pressure":950.2,"uv_index":7.55,"wind_gusts":43.6,"aqi":74,"pm10":31.1,"pm2_5":22.5,"no2":10.2,"co":282.0,"o3":52.0,"so2":4.6,"mosquito_risk":7,"arthritis_risk":5,"migraine_risk":7,"frizz_risk":1,"updated_at":"2026-07-15T01:44:19.654809+05:30"},{"city":"Jabalpur","state":"Madhya Pradesh","latitude":23.1815,"longitude":79.9864,"temp":26.2,"humidity":77,"rain":0.0,"pressure":957.5,"uv_index":8.8,"wind_gusts":32.4,"aqi":90,"pm10":33.9,"pm2_5":24.2,"no2":8.4,"co":245.0,"o3":55.0,"so2":4.0,"mosquito_risk":7,"arthritis_risk":5,"migraine_risk":7,"frizz_risk":1,"updated_at":"2026-07-15T01:44:19.654816+05:30"},{"city":"Ujjain","state":"Madhya Pradesh","latitude":23.1765,"longitude":75.7885,"temp":24.7,"humidity":86,"rain":0.0,"pressure":950.8,"uv_index":8.45,"wind_gusts":38.2,"aqi":67,"pm10":19.8,"pm2_5":13.6,"no2":8.9,"co":200.0,"o3":43.0,"so2":9.7,"mosquito_risk":3,"arthritis_risk":5,"migraine_risk":7,"frizz_risk":1,"updated_at":"2026-07-15T01:44:19.654824+05:30"},{"city":"Visakhapatnam","state":"Andhra Pradesh","latitude":17.6868,"longitude":83.2185,"temp":29.9,"humidity":70,"rain":0.0,"pressure":997.4,"uv_index":1.55,"wind_gusts":26.3,"aqi":135,"pm10":47.1,"pm2_5":34.5,"no2":36.4,"co":319.0,"o3":40.0,"so2":50.1,"mosquito_risk":7,"arthritis_risk":5,"migraine_risk":3,"frizz_risk":1,"updated_at":"2026-07-15T01:44:19.654832+05:30"},{"city":"Vijayawada","state":"Andhra Pradesh","latitude":16.5062,"longitude":80.648,"temp":29.8,"humidity":62,"rain":0.0,"pressure":998.6,"uv_index":6.2,"wind_gusts":45.4,"aqi":78,"pm10":33.1,"pm2_5":27.1,"no2":16.7,"co":204.0,"o3":41.0,"so2":9.3,"mosquito_risk":7,"arthritis_risk":5,"migraine_risk":7,"frizz_risk":1,"updated_at":"2026-07-15T01:44:19.654839+05:30"},{"city":"Guntur","state":"Andhra Pradesh","latitude":16.3067,"longitude":80.4365,"temp":30.6,"humidity":56,"rain":0.0,"pressure":999.7,"uv_index":6.85,"wind_gusts":48.2,"aqi":72,"pm10":35.4,"pm2_5":29.8,"no2":20.5,"co":221.0,"o3":33.0,"so2":9.5,"mosquito_risk":0,"arthritis_risk":5,"migraine_risk":7,"frizz_risk":1,"updated_at":"2026-07-15T01:44:19.654846+05:30"},{"city":"Nellore","state":"Andhra Pradesh","latitude":14.4426,"longitude":79.9865,"temp":30.2,"humidity":50,"rain":0.0,"pressure":1002.2,"uv_index":8.25,"wind_gusts":49.7,"aqi":68,"pm10":34.5,"pm2_5":25.8,"no2":12.3,"co":278.0,"o3":81.0,"so2":5.6,"mosquito_risk":0,"arthritis_risk":5,"migraine_risk":4,"frizz_risk":1,"updated_at":"2026-07-15T01:44:19.654854+05:30"},{"city":"Kurnool","state":"Andhra Pradesh","latitude":15.8281,"longitude":78.0373,"temp":30.1,"humidity":51,"rain":0.0,"pressure":975.1,"uv_index":8.8,"wind_gusts":64.1,"aqi":60,"pm10":20.3,"pm2_5":14.1,"no2":8.0,"co":158.0,"o3":55.0,"so2":4.9,"mosquito_risk":0,"arthritis_risk":5,"migraine_risk":7,"frizz_risk":1,"updated_at":"2026-07-15T01:44:19.654862+05:30"},{"city":"Kakinada","state":"Andhra Pradesh","latitude":16.9891,"longitude":82.2475,"temp":30.1,"humidity":67,"rain":0.0,"pressure":1002.1,"uv_index":5.75,"wind_gusts":52.2,"aqi":91,"pm10":38.2,"pm2_5":26.5,"no2":9.1,"co":222.0,"o3":70.0,"so2":9.0,"mosquito_risk":3,"arthritis_risk":5,"migraine_risk":0,"frizz_risk":1,"updated_at":"2026-07-15T01:44:19.654869+05:30"},{"city":"Tirupati","state":"Andhra Pradesh","latitude":13.6288,"longitude":79.4192,"temp":29.4,"humidity":44,"rain":0.0,"pressure":988.4,"uv_index":8.9,"wind_gusts":35.6,"aqi":82,"pm10":62.2,"pm2_5":50.4,"no2":56.8,"co":171.0,"o3":2.0,"so2":6.1,"mosquito_risk":4,"arthritis_risk":5,"migraine_risk":7,"frizz_risk":0,"updated_at":"2026-07-15T01:44:19.654876+05:30"},{"city":"Warangal","state":"Telangana","latitude":17.9689,"longitude":79.5941,"temp":27.9,"humidity":67,"rain":0.0,"pressure":975.2,"uv_index":9.0,"wind_gusts":45.0,"aqi":70,"pm10":28.1,"pm2_5":22.4,"no2":10.4,"co":207.0,"o3":57.0,"so2":5.4,"mosquito_risk":7,"arthritis_risk":5,"migraine_risk":7,"frizz_risk":1,"updated_at":"2026-07-15T01:44:19.654884+05:30"},{"city":"Nizamabad","state":"Telangana","latitude":18.6725,"longitude":78.0941,"temp":27.9,"humidity":59,"rain":0.0,"pressure":962.3,"uv_index":8.9,"wind_gusts":42.8,"aqi":68,"pm10":29.2,"pm2_5":22.2,"no2":9.8,"co":222.0,"o3":63.0,"so2":6.0,"mosquito_risk":4,"arthritis_risk":5,"migraine_risk":7,"frizz_risk":1,"updated_at":"2026-07-15T01:44:19.654891+05:30"},{"city":"Mysore","state":"Karnataka","latitude":12.2958,"longitude":76.6396,"temp":20.7,"humidity":96,"rain":0.0,"pressure":927.8,"uv_index":8.8,"wind_gusts":44.3,"aqi":57,"pm10":20.9,"pm2_5":15.0,"no2":12.0,"co":162.0,"o3":42.0,"so2":3.1,"mosquito_risk":3,"arthritis_risk":5,"migraine_risk":7,"frizz_risk":1,"updated_at":"2026-07-15T01:44:19.654898+05:30"},{"city":"Mangalore","state":"Karnataka","latitude":12.9141,"longitude":74.856,"temp":26.1,"humidity":87,"rain":0.0,"pressure":1007.6,"uv_index":8.75,"wind_gusts":38.2,"aqi":62,"pm10":31.1,"pm2_5":19.3,"no2":9.4,"co":174.0,"o3":32.0,"so2":3.1,"mosquito_risk":7,"arthritis_risk":5,"migraine_risk":4,"frizz_risk":1,"updated_at":"2026-07-15T01:44:19.654905+05:30"},{"city":"Hubli-Dharwad","state":"Karnataka","latitude":15.3647,"longitude":75.124,"temp":21.2,"humidity":99,"rain":0.0,"pressure":940.6,"uv_index":7.0,"wind_gusts":51.8,"aqi":54,"pm10":17.5,"pm2_5":10.4,"no2":5.2,"co":134.0,"o3":38.0,"so2":1.9,"mosquito_risk":3,"arthritis_risk":5,"migraine_risk":7,"frizz_risk":1,"updated_at":"2026-07-15T01:44:19.654912+05:30"},{"city":"Belgaum","state":"Karnataka","latitude":15.8497,"longitude":74.4977,"temp":20.4,"humidity":99,"rain":0.0,"pressure":925.3,"uv_index":6.8,"wind_gusts":51.5,"aqi":54,"pm10":18.3,"pm2_5":10.0,"no2":5.5,"co":113.0,"o3":36.0,"so2":2.1,"mosquito_risk":3,"arthritis_risk":5,"migraine_risk":7,"frizz_risk":1,"updated_at":"2026-07-15T01:44:23.021757+05:30"},{"city":"Coimbatore","state":"Tamil Nadu","latitude":11.0168,"longitude":76.9558,"temp":24.2,"humidity":91,"rain":0.0,"pressure":961.0,"uv_index":6.8,"wind_gusts":51.5,"aqi":57,"pm10":17.3,"pm2_5":12.7,"no2":8.0,"co":188.0,"o3":40.0,"so2":3.8,"mosquito_risk":3,"arthritis_risk":5,"migraine_risk":7,"frizz_risk":1,"updated_at":"2026-07-15T01:44:23.021791+05:30"},{"city":"Madurai","state":"Tamil Nadu","latitude":9.9252,"longitude":78.1198,"temp":29.8,"humidity":64,"rain":0.0,"pressure":991.5,"uv_index":8.8,"wind_gusts":33.5,"aqi":76,"pm10":43.9,"pm2_5":34.5,"no2":42.9,"co":187.0,"o3":15.0,"so2":8.9,"mosquito_risk":7,"arthritis_risk":5,"migraine_risk":7,"frizz_risk":1,"updated_at":"2026-07-15T01:44:23.021803+05:30"},{"city":"Trichy","state":"Tamil Nadu","latitude":10.7905,"longitude":78.7047,"temp":29.3,"humidity":68,"rain":0.0,"pressure":998.3,"uv_index":8.8,"wind_gusts":47.5,"aqi":69,"pm10":26.3,"pm2_5":20.1,"no2":17.8,"co":152.0,"o3":37.0,"so2":5.5,"mosquito_risk":7,"arthritis_risk":5,"migraine_risk":7,"frizz_risk":1,"updated_at":"2026-07-15T01:44:23.021812+05:30"},{"city":"Salem","state":"Tamil Nadu","latitude":11.6643,"longitude":78.146,"temp":26.3,"humidity":81,"rain":0.0,"pressure":976.2,"uv_index":7.35,"wind_gusts":21.6,"aqi":72,"pm10":28.6,"pm2_5":21.9,"no2":21.6,"co":305.0,"o3":33.0,"so2":6.9,"mosquito_risk":7,"arthritis_risk":5,"migraine_risk":7,"frizz_risk":1,"updated_at":"2026-07-15T01:44:23.021820+05:30"},{"city":"Tirunelveli","state":"Tamil Nadu","latitude":8.7139,"longitude":77.7567,"temp":29.1,"humidity":64,"rain":0.0,"pressure":1001.7,"uv_index":8.55,"wind_gusts":44.3,"aqi":52,"pm10":17.0,"pm2_5":12.0,"no2":7.5,"co":140.0,"o3":37.0,"so2":2.8,"mosquito_risk":7,"arthritis_risk":5,"migraine_risk":4,"frizz_risk":1,"updated_at":"2026-07-15T01:44:23.021830+05:30"},{"city":"Vellore","state":"Tamil Nadu","latitude":12.9165,"longitude":79.1325,"temp":29.1,"humidity":45,"rain":0.0,"pressure":982.1,"uv_index":8.75,"wind_gusts":39.2,"aqi":81,"pm10":58.2,"pm2_5":46.1,"no2":43.8,"co":273.0,"o3":19.0,"so2":10.2,"mosquito_risk":4,"arthritis_risk":5,"migraine_risk":7,"frizz_risk":1,"updated_at":"2026-07-15T01:44:23.021838+05:30"},{"city":"Erode","state":"Tamil Nadu","latitude":11.341,"longitude":77.7172,"temp":26.7,"humidity":78,"rain":0.0,"pressure":988.0,"uv_index":8.35,"wind_gusts":45.7,"aqi":62,"pm10":23.7,"pm2_5":17.5,"no2":16.1,"co":170.0,"o3":33.0,"so2":4.5,"mosquito_risk":7,"arthritis_risk":5,"migraine_risk":7,"frizz_risk":1,"updated_at":"2026-07-15T01:44:23.021846+05:30"},{"city":"Kochi","state":"Kerala","latitude":9.9312,"longitude":76.2673,"temp":27.3,"humidity":88,"rain":0.0,"pressure":1009.7,"uv_index":8.6,"wind_gusts":41.8,"aqi":60,"pm10":28.3,"pm2_5":20.6,"no2":15.8,"co":102.0,"o3":22.0,"so2":4.4,"mosquito_risk":7,"arthritis_risk":0,"migraine_risk":4,"frizz_risk":1,"updated_at":"2026-07-15T01:44:23.021855+05:30"},{"city":"Thiruvananthapuram","state":"Kerala","latitude":8.5241,"longitude":76.9366,"temp":25.9,"humidity":92,"rain":0.0,"pressure":1009.1,"uv_index":8.45,"wind_gusts":47.9,"aqi":56,"pm10":25.0,"pm2_5":13.6,"no2":3.7,"co":155.0,"o3":46.0,"so2":1.4,"mosquito_risk":7,"arthritis_risk":0,"migraine_risk":4,"frizz_risk":1,"updated_at":"2026-07-15T01:44:23.021863+05:30"},{"city":"Kozhikode","state":"Kerala","latitude":11.2588,"longitude":75.7804,"temp":25.1,"humidity":91,"rain":0.0,"pressure":1008.7,"uv_index":7.4,"wind_gusts":40.7,"aqi":56,"pm10":25.8,"pm2_5":13.3,"no2":2.4,"co":206.0,"o3":52.0,"so2":1.5,"mosquito_risk":7,"arthritis_risk":0,"migraine_risk":4,"frizz_risk":1,"updated_at":"2026-07-15T01:44:23.021871+05:30"},{"city":"Thrissur","state":"Kerala","latitude":10.5276,"longitude":76.2144,"temp":25.7,"humidity":90,"rain":0.0,"pressure":1008.0,"uv_index":8.3,"wind_gusts":38.9,"aqi":57,"pm10":21.6,"pm2_5":13.9,"no2":7.2,"co":173.0,"o3":32.0,"so2":2.8,"mosquito_risk":7,"arthritis_risk":0,"migraine_risk":4,"frizz_risk":1,"updated_at":"2026-07-15T01:44:23.021879+05:30"},{"city":"Kannur","state":"Kerala","latitude":11.8745,"longitude":75.3704,"temp":25.9,"humidity":89,"rain":0.0,"pressure":1007.8,"uv_index":8.7,"wind_gusts":40.3,"aqi":58,"pm10":22.8,"pm2_5":14.2,"no2":9.7,"co":239.0,"o3":29.0,"so2":2.6,"mosquito_risk":7,"arthritis_risk":5,"migraine_risk":4,"frizz_risk":1,"updated_at":"2026-07-15T01:44:23.021887+05:30"},{"city":"Patna","state":"Bihar","latitude":25.5941,"longitude":85.1376,"temp":29.2,"humidity":91,"rain":0.0,"pressure":994.3,"uv_index":8.3,"wind_gusts":25.6,"aqi":156,"pm10":120.6,"pm2_5":71.2,"no2":24.6,"co":455.0,"o3":71.0,"so2":11.7,"mosquito_risk":7,"arthritis_risk":5,"migraine_risk":7,"frizz_risk":1,"updated_at":"2026-07-15T01:44:23.021894+05:30"},{"city":"Gaya","state":"Bihar","latitude":24.7914,"longitude":85.0002,"temp":27.9,"humidity":94,"rain":0.0,"pressure":987.9,"uv_index":7.65,"wind_gusts":27.0,"aqi":160,"pm10":117.3,"pm2_5":77.3,"no2":28.7,"co":343.0,"o3":47.0,"so2":10.9,"mosquito_risk":7,"arthritis_risk":5,"migraine_risk":7,"frizz_risk":1,"updated_at":"2026-07-15T01:44:23.021902+05:30"},{"city":"Muzaffarpur","state":"Bihar","latitude":26.1209,"longitude":85.3647,"temp":28.2,"humidity":95,"rain":0.0,"pressure":994.4,"uv_index":7.0,"wind_gusts":22.3,"aqi":156,"pm10":105.0,"pm2_5":73.3,"no2":24.1,"co":539.0,"o3":74.0,"so2":11.3,"mosquito_risk":7,"arthritis_risk":5,"migraine_risk":7,"frizz_risk":1,"updated_at":"2026-07-15T01:44:23.021910+05:30"},{"city":"Bhagalpur","state":"Bihar","latitude":25.2425,"longitude":87.0117,"temp":26.9,"humidity":99,"rain":0.1,"pressure":995.3,"uv_index":6.85,"wind_gusts":23.4,"aqi":106,"pm10":42.1,"pm2_5":39.1,"no2":15.3,"co":400.0,"o3":75.0,"so2":10.8,"mosquito_risk":10,"arthritis_risk":5,"migraine_risk":7,"frizz_risk":1,"updated_at":"2026-07-15T01:44:23.021918+05:30"},{"city":"Ranchi","state":"Jharkhand","latitude":23.3441,"longitude":85.3096,"temp":25.0,"humidity":87,"rain":0.0,"pressure":932.5,"uv_index":7.65,"wind_gusts":31.7,"aqi":147,"pm10":121.1,"pm2_5":71.2,"no2":27.0,"co":314.0,"o3":32.0,"so2":8.2,"mosquito_risk":7,"arthritis_risk":5,"migraine_risk":7,"frizz_risk":1,"updated_at":"2026-07-15T01:44:23.021926+05:30"},{"city":"Jamshedpur","state":"Jharkhand","latitude":22.8046,"longitude":86.2029,"temp":26.7,"humidity":94,"rain":0.0,"pressure":984.6,"uv_index":7.15,"wind_gusts":24.8,"aqi":152,"pm10":80.8,"pm2_5":60.5,"no2":26.6,"co":1027.0,"o3":51.0,"so2":28.9,"mosquito_risk":7,"arthritis_risk":5,"migraine_risk":7,"frizz_risk":1,"updated_at":"2026-07-15T01:44:23.021933+05:30"},{"city":"Dhanbad","state":"Jharkhand","latitude":23.7957,"longitude":86.4304,"temp":25.8,"humidity":99,"rain":0.1,"pressure":974.1,"uv_index":8.3,"wind_gusts":23.4,"aqi":162,"pm10":126.2,"pm2_5":100.6,"no2":72.4,"co":770.0,"o3":9.0,"so2":259.2,"mosquito_risk":10,"arthritis_risk":5,"migraine_risk":7,"frizz_risk":1,"updated_at":"2026-07-15T01:44:23.021941+05:30"},{"city":"Bokaro","state":"Jharkhand","latitude":23.6693,"longitude":86.1511,"temp":26.3,"humidity":96,"rain":0.1,"pressure":978.0,"uv_index":7.75,"wind_gusts":28.8,"aqi":164,"pm10":134.1,"pm2_5":98.5,"no2":50.0,"co":335.0,"o3":23.0,"so2":212.5,"mosquito_risk":10,"arthritis_risk":5,"migraine_risk":7,"frizz_risk":1,"updated_at":"2026-07-15T01:44:23.021949+05:30"},{"city":"Bhubaneswar","state":"Odisha","latitude":20.2961,"longitude":85.8245,"temp":26.7,"humidity":93,"rain":0.0,"pressure":995.7,"uv_index":7.2,"wind_gusts":38.5,"aqi":118,"pm10":58.3,"pm2_5":42.0,"no2":16.6,"co":302.0,"o3":61.0,"so2":14.1,"mosquito_risk":7,"arthritis_risk":5,"migraine_risk":7,"frizz_risk":1,"updated_at":"2026-07-15T01:44:23.021957+05:30"},{"city":"Cuttack","state":"Odisha","latitude":20.4625,"longitude":85.8828,"temp":27.1,"humidity":89,"rain":0.0,"pressure":997.2,"uv_index":7.55,"wind_gusts":37.1,"aqi":118,"pm10":58.3,"pm2_5":42.0,"no2":16.6,"co":236.0,"o3":61.0,"so2":14.1,"mosquito_risk":7,"arthritis_risk":5,"migraine_risk":7,"frizz_risk":1,"updated_at":"2026-07-15T01:44:23.021964+05:30"},{"city":"Rourkela","state":"Odisha","latitude":22.2604,"longitude":84.8536,"temp":27.1,"humidity":94,"rain":0.0,"pressure":979.3,"uv_index":7.65,"wind_gusts":42.8,"aqi":146,"pm10":116.2,"pm2_5":63.8,"no2":23.4,"co":1025.0,"o3":67.0,"so2":23.6,"mosquito_risk":7,"arthritis_risk":5,"migraine_risk":7,"frizz_risk":1,"updated_at":"2026-07-15T01:44:23.021972+05:30"},{"city":"Raipur","state":"Chhattisgarh","latitude":21.2514,"longitude":81.6296,"temp":28.0,"humidity":79,"rain":0.0,"pressure":970.1,"uv_index":8.35,"wind_gusts":34.2,"aqi":124,"pm10":64.3,"pm2_5":43.0,"no2":37.2,"co":578.0,"o3":34.0,"so2":57.9,"mosquito_risk":7,"arthritis_risk":5,"migraine_risk":7,"frizz_risk":1,"updated_at":"2026-07-15T01:44:23.021980+05:30"},{"city":"Bhilai","state":"Chhattisgarh","latitude":21.1938,"longitude":81.3509,"temp":27.8,"humidity":76,"rain":0.0,"pressure":970.6,"uv_index":7.8,"wind_gusts":33.5,"aqi":108,"pm10":51.2,"pm2_5":35.7,"no2":26.0,"co":912.0,"o3":46.0,"so2":42.0,"mosquito_risk":7,"arthritis_risk":5,"migraine_risk":7,"frizz_risk":1,"updated_at":"2026-07-15T01:44:23.021988+05:30"},{"city":"Guwahati","state":"Assam","latitude":26.1158,"longitude":91.7086,"temp":26.3,"humidity":97,"rain":0.1,"pressure":995.2,"uv_index":4.65,"wind_gusts":27.4,"aqi":53,"pm10":9.3,"pm2_5":8.9,"no2":8.4,"co":276.0,"o3":42.0,"so2":1.2,"mosquito_risk":10,"arthritis_risk":5,"migraine_risk":3,"frizz_risk":1,"updated_at":"2026-07-15T01:44:23.021996+05:30"},{"city":"Agartala","state":"Tripura","latitude":23.8315,"longitude":91.2868,"temp":26.7,"humidity":90,"rain":0.0,"pressure":1000.1,"uv_index":7.25,"wind_gusts":40.0,"aqi":73,"pm10":25.1,"pm2_5":23.9,"no2":19.1,"co":232.0,"o3":26.0,"so2":2.7,"mosquito_risk":7,"arthritis_risk":5,"migraine_risk":4,"frizz_risk":1,"updated_at":"2026-07-15T01:44:23.022004+05:30"},{"city":"Shillong","state":"Meghalaya","latitude":25.5788,"longitude":91.8933,"temp":18.7,"humidity":99,"rain":0.0,"pressure":852.5,"uv_index":5.45,"wind_gusts":29.5,"aqi":55,"pm10":6.7,"pm2_5":6.4,"no2":5.5,"co":281.0,"o3":68.0,"so2":2.3,"mosquito_risk":3,"arthritis_risk":10,"migraine_risk":3,"frizz_risk":1,"updated_at":"2026-07-15T01:44:23.022011+05:30"},{"city":"Imphal","state":"Manipur","latitude":24.817,"longitude":93.9368,"temp":23.3,"humidity":96,"rain":0.1,"pressure":919.4,"uv_index":9.1,"wind_gusts":29.2,"aqi":49,"pm10":10.5,"pm2_5":9.6,"no2":7.5,"co":365.0,"o3":41.0,"so2":1.6,"mosquito_risk":6,"arthritis_risk":5,"migraine_risk":7,"frizz_risk":1,"updated_at":"2026-07-15T01:44:23.022020+05:30"},{"city":"Aizawl","state":"Mizoram","latitude":23.7271,"longitude":92.7176,"temp":19.7,"humidity":99,"rain":0.1,"pressure":887.6,"uv_index":8.35,"wind_gusts":36.0,"aqi":40,"pm10":1.7,"pm2_5":1.5,"no2":4.2,"co":160.0,"o3":35.0,"so2":0.4,"mosquito_risk":6,"arthritis_risk":10,"migraine_risk":7,"frizz_risk":1,"updated_at":"2026-07-15T01:44:23.022028+05:30"},{"city":"Kohima","state":"Nagaland","latitude":25.6701,"longitude":94.1077,"temp":19.5,"humidity":96,"rain":0.0,"pressure":851.1,"uv_index":6.9,"wind_gusts":24.1,"aqi":39,"pm10":7.1,"pm2_5":6.7,"no2":10.3,"co":237.0,"o3":24.0,"so2":0.8,"mosquito_risk":3,"arthritis_risk":10,"migraine_risk":7,"frizz_risk":1,"updated_at":"2026-07-15T01:44:23.022035+05:30"},{"city":"Gangtok","state":"Sikkim","latitude":27.3314,"longitude":88.6138,"temp":18.0,"humidity":94,"rain":0.1,"pressure":834.3,"uv_index":5.95,"wind_gusts":32.8,"aqi":37,"pm10":6.9,"pm2_5":6.4,"no2":6.5,"co":375.0,"o3":76.0,"so2":1.5,"mosquito_risk":6,"arthritis_risk":10,"migraine_risk":3,"frizz_risk":1,"updated_at":"2026-07-15T01:44:23.022043+05:30"},{"city":"Siliguri","state":"West Bengal","latitude":26.7271,"longitude":88.3953,"temp":27.3,"humidity":92,"rain":0.0,"pressure":987.1,"uv_index":4.4,"wind_gusts":20.5,"aqi":69,"pm10":36.1,"pm2_5":33.5,"no2":21.5,"co":831.0,"o3":56.0,"so2":6.2,"mosquito_risk":7,"arthritis_risk":5,"migraine_risk":3,"frizz_risk":1,"updated_at":"2026-07-15T01:44:26.460346+05:30"},{"city":"Durgapur","state":"West Bengal","latitude":23.5204,"longitude":87.3119,"temp":25.5,"humidity":99,"rain":0.0,"pressure":989.1,"uv_index":8.65,"wind_gusts":33.1,"aqi":160,"pm10":108.0,"pm2_5":90.6,"no2":51.0,"co":510.0,"o3":30.0,"so2":60.4,"mosquito_risk":7,"arthritis_risk":5,"migraine_risk":7,"frizz_risk":1,"updated_at":"2026-07-15T01:44:26.460380+05:30"},{"city":"Asansol","state":"West Bengal","latitude":23.6739,"longitude":86.9524,"temp":25.7,"humidity":99,"rain":0.1,"pressure":987.6,"uv_index":8.25,"wind_gusts":21.6,"aqi":156,"pm10":93.4,"pm2_5":72.2,"no2":60.4,"co":831.0,"o3":18.0,"so2":81.2,"mosquito_risk":10,"arthritis_risk":5,"migraine_risk":7,"frizz_risk":1,"updated_at":"2026-07-15T01:44:26.460392+05:30"},{"city":"Pondicherry","state":"Puducherry","latitude":11.9139,"longitude":79.8145,"temp":28.8,"humidity":79,"rain":0.0,"pressure":1005.9,"uv_index":7.4,"wind_gusts":46.1,"aqi":73,"pm10":17.3,"pm2_5":11.8,"no2":8.3,"co":168.0,"o3":63.0,"so2":5.8,"mosquito_risk":7,"arthritis_risk":5,"migraine_risk":4,"frizz_risk":1,"updated_at":"2026-07-15T01:44:26.460402+05:30"},{"city":"Port Blair","state":"Andaman and Nicobar Islands","latitude":11.6234,"longitude":92.7265,"temp":27.8,"humidity":78,"rain":0.0,"pressure":1005.1,"uv_index":8.45,"wind_gusts":56.2,"aqi":48,"pm10":19.3,"pm2_5":9.1,"no2":0.2,"co":85.0,"o3":52.0,"so2":0.3,"mosquito_risk":7,"arthritis_risk":5,"migraine_risk":4,"frizz_risk":1,"updated_at":"2026-07-15T01:44:26.460411+05:30"},{"city":"Haridwar","state":"Uttarakhand","latitude":29.9457,"longitude":78.1642,"temp":25.8,"humidity":95,"rain":0.2,"pressure":967.9,"uv_index":7.5,"wind_gusts":24.5,"aqi":181,"pm10":231.0,"pm2_5":126.2,"no2":46.7,"co":399.0,"o3":45.0,"so2":18.7,"mosquito_risk":10,"arthritis_risk":5,"migraine_risk":7,"frizz_risk":1,"updated_at":"2026-07-15T01:44:26.460419+05:30"},{"city":"Rishikesh","state":"Uttarakhand","latitude":30.0869,"longitude":78.2676,"temp":24.9,"humidity":95,"rain":0.2,"pressure":961.4,"uv_index":7.6,"wind_gusts":24.5,"aqi":164,"pm10":174.6,"pm2_5":76.4,"no2":8.8,"co":441.0,"o3":112.0,"so2":9.2,"mosquito_risk":6,"arthritis_risk":5,"migraine_risk":7,"frizz_risk":1,"updated_at":"2026-07-15T01:44:26.460428+05:30"},{"city":"Nainital","state":"Uttarakhand","latitude":29.3919,"longitude":79.4542,"temp":16.2,"humidity":100,"rain":0.0,"pressure":802.3,"uv_index":7.7,"wind_gusts":24.8,"aqi":166,"pm10":170.4,"pm2_5":73.1,"no2":16.5,"co":361.0,"o3":73.0,"so2":7.8,"mosquito_risk":3,"arthritis_risk":10,"migraine_risk":7,"frizz_risk":1,"updated_at":"2026-07-15T01:44:26.460437+05:30"},{"city":"Mussoorie","state":"Uttarakhand","latitude":30.4599,"longitude":78.0664,"temp":16.6,"humidity":99,"rain":0.0,"pressure":800.0,"uv_index":7.75,"wind_gusts":32.8,"aqi":160,"pm10":115.9,"pm2_5":61.2,"no2":28.6,"co":369.0,"o3":72.0,"so2":10.0,"mosquito_risk":3,"arthritis_risk":10,"migraine_risk":7,"frizz_risk":1,"updated_at":"2026-07-15T01:44:26.460446+05:30"},{"city":"Dharamshala","state":"Himachal Pradesh","latitude":32.219,"longitude":76.3234,"temp":22.2,"humidity":81,"rain":0.0,"pressure":865.6,"uv_index":8.25,"wind_gusts":33.1,"aqi":74,"pm10":21.6,"pm2_5":13.8,"no2":17.5,"co":384.0,"o3":19.0,"so2":0.5,"mosquito_risk":3,"arthritis_risk":5,"migraine_risk":7,"frizz_risk":1,"updated_at":"2026-07-15T01:44:26.460454+05:30"},{"city":"Dalhousie","state":"Himachal Pradesh","latitude":32.5387,"longitude":75.971,"temp":15.4,"humidity":92,"rain":0.0,"pressure":800.2,"uv_index":8.4,"wind_gusts":30.2,"aqi":153,"pm10":99.7,"pm2_5":63.6,"no2":52.0,"co":450.0,"o3":41.0,"so2":5.0,"mosquito_risk":3,"arthritis_risk":10,"migraine_risk":7,"frizz_risk":0,"updated_at":"2026-07-15T01:44:26.460466+05:30"},{"city":"Patiala","state":"Punjab","latitude":30.3398,"longitude":76.3869,"temp":28.4,"humidity":88,"rain":0.0,"pressure":971.7,"uv_index":7.6,"wind_gusts":24.5,"aqi":193,"pm10":242.1,"pm2_5":125.7,"no2":45.7,"co":1003.0,"o3":34.0,"so2":10.6,"mosquito_risk":7,"arthritis_risk":5,"migraine_risk":7,"frizz_risk":1,"updated_at":"2026-07-15T01:44:26.460477+05:30"},{"city":"Bhatinda","state":"Punjab","latitude":30.211,"longitude":74.9455,"temp":31.9,"humidity":61,"rain":0.0,"pressure":976.9,"uv_index":8.25,"wind_gusts":24.5,"aqi":181,"pm10":177.4,"pm2_5":116.2,"no2":50.5,"co":616.0,"o3":43.0,"so2":11.5,"mosquito_risk":3,"arthritis_risk":5,"migraine_risk":7,"frizz_risk":1,"updated_at":"2026-07-15T01:44:26.460485+05:30"},{"city":"Rohtak","state":"Haryana","latitude":28.8955,"longitude":76.6066,"temp":29.4,"humidity":75,"rain":0.0,"pressure":975.5,"uv_index":7.65,"wind_gusts":25.6,"aqi":463,"pm10":106.9,"pm2_5":57.4,"no2":30.5,"co":443.0,"o3":32.0,"so2":4.3,"mosquito_risk":7,"arthritis_risk":5,"migraine_risk":7,"frizz_risk":1,"updated_at":"2026-07-15T01:44:26.460493+05:30"},{"city":"Panipat","state":"Haryana","latitude":29.3909,"longitude":76.9635,"temp":28.8,"humidity":81,"rain":0.0,"pressure":974.0,"uv_index":7.55,"wind_gusts":24.5,"aqi":686,"pm10":146.2,"pm2_5":68.0,"no2":21.9,"co":543.0,"o3":47.0,"so2":3.7,"mosquito_risk":7,"arthritis_risk":5,"migraine_risk":7,"frizz_risk":1,"updated_at":"2026-07-15T01:44:26.460501+05:30"},{"city":"Mathura","state":"Uttar Pradesh","latitude":27.4924,"longitude":77.6737,"temp":28.6,"humidity":69,"rain":0.0,"pressure":980.9,"uv_index":7.85,"wind_gusts":35.3,"aqi":582,"pm10":484.3,"pm2_5":120.1,"no2":39.0,"co":212.0,"o3":20.0,"so2":6.2,"mosquito_risk":7,"arthritis_risk":5,"migraine_risk":7,"frizz_risk":1,"updated_at":"2026-07-15T01:44:26.460509+05:30"},{"city":"Vrindavan","state":"Uttar Pradesh","latitude":27.5823,"longitude":77.7027,"temp":29.2,"humidity":66,"rain":0.0,"pressure":981.2,"uv_index":7.9,"wind_gusts":30.6,"aqi":582,"pm10":484.3,"pm2_5":120.1,"no2":39.0,"co":234.0,"o3":20.0,"so2":6.2,"mosquito_risk":7,"arthritis_risk":5,"migraine_risk":7,"frizz_risk":1,"updated_at":"2026-07-15T01:44:26.460517+05:30"},{"city":"Ayodhya","state":"Uttar Pradesh","latitude":26.7922,"longitude":82.1998,"temp":26.8,"humidity":93,"rain":0.0,"pressure":989.4,"uv_index":8.35,"wind_gusts":33.5,"aqi":166,"pm10":174.6,"pm2_5":95.0,"no2":30.4,"co":661.0,"o3":46.0,"so2":9.0,"mosquito_risk":7,"arthritis_risk":5,"migraine_risk":7,"frizz_risk":1,"updated_at":"2026-07-15T01:44:26.460525+05:30"},{"city":"Ratlam","state":"Madhya Pradesh","latitude":23.3315,"longitude":75.0367,"temp":24.8,"humidity":88,"rain":0.0,"pressure":951.4,"uv_index":8.45,"wind_gusts":36.4,"aqi":64,"pm10":17.8,"pm2_5":12.1,"no2":9.4,"co":144.0,"o3":39.0,"so2":10.7,"mosquito_risk":3,"arthritis_risk":5,"migraine_risk":7,"frizz_risk":1,"updated_at":"2026-07-15T01:44:26.460533+05:30"},{"city":"Sagar","state":"Madhya Pradesh","latitude":23.8388,"longitude":78.7378,"temp":26.2,"humidity":69,"rain":0.0,"pressure":946.5,"uv_index":7.8,"wind_gusts":38.2,"aqi":87,"pm10":26.1,"pm2_5":18.6,"no2":7.3,"co":212.0,"o3":59.0,"so2":4.1,"mosquito_risk":7,"arthritis_risk":5,"migraine_risk":7,"frizz_risk":1,"updated_at":"2026-07-15T01:44:26.460542+05:30"},{"city":"Satna","state":"Madhya Pradesh","latitude":24.6005,"longitude":80.8322,"temp":28.3,"humidity":70,"rain":0.0,"pressure":966.2,"uv_index":8.75,"wind_gusts":36.7,"aqi":107,"pm10":75.0,"pm2_5":36.8,"no2":7.5,"co":171.0,"o3":61.0,"so2":4.1,"mosquito_risk":7,"arthritis_risk":5,"migraine_risk":7,"frizz_risk":1,"updated_at":"2026-07-15T01:44:26.460550+05:30"},{"city":"Akola","state":"Maharashtra","latitude":20.7002,"longitude":77.0082,"temp":27.3,"humidity":70,"rain":0.0,"pressure":972.9,"uv_index":7.2,"wind_gusts":42.5,"aqi":64,"pm10":21.9,"pm2_5":14.6,"no2":9.6,"co":161.0,"o3":44.0,"so2":8.2,"mosquito_risk":7,"arthritis_risk":5,"migraine_risk":7,"frizz_risk":1,"updated_at":"2026-07-15T01:44:26.460560+05:30"},{"city":"Amravati","state":"Maharashtra","latitude":20.9374,"longitude":77.7796,"temp":26.6,"humidity":65,"rain":0.0,"pressure":964.7,"uv_index":8.0,"wind_gusts":44.3,"aqi":65,"pm10":23.0,"pm2_5":15.5,"no2":9.8,"co":157.0,"o3":51.0,"so2":8.9,"mosquito_risk":7,"arthritis_risk":5,"migraine_risk":7,"frizz_risk":1,"updated_at":"2026-07-15T01:44:26.460568+05:30"},{"city":"Latur","state":"Maharashtra","latitude":18.4088,"longitude":76.5604,"temp":24.5,"humidity":70,"rain":0.0,"pressure":938.1,"uv_index":8.75,"wind_gusts":42.1,"aqi":60,"pm10":24.6,"pm2_5":15.8,"no2":6.2,"co":153.0,"o3":50.0,"so2":3.7,"mosquito_risk":3,"arthritis_risk":5,"migraine_risk":7,"frizz_risk":1,"updated_at":"2026-07-15T01:44:26.460576+05:30"},{"city":"Nanded","state":"Maharashtra","latitude":19.1383,"longitude":77.3091,"temp":27.1,"humidity":60,"rain":0.0,"pressure":966.5,"uv_index":8.8,"wind_gusts":38.2,"aqi":67,"pm10":27.9,"pm2_5":20.1,"no2":7.7,"co":200.0,"o3":70.0,"so2":6.3,"mosquito_risk":4,"arthritis_risk":5,"migraine_risk":7,"frizz_risk":1,"updated_at":"2026-07-15T01:44:26.460584+05:30"},{"city":"Gulbarga","state":"Karnataka","latitude":17.3297,"longitude":76.8343,"temp":27.1,"humidity":64,"rain":0.0,"pressure":957.4,"uv_index":8.8,"wind_gusts":45.0,"aqi":59,"pm10":20.2,"pm2_5":14.1,"no2":6.1,"co":139.0,"o3":49.0,"so2":2.9,"mosquito_risk":7,"arthritis_risk":5,"migraine_risk":7,"frizz_risk":1,"updated_at":"2026-07-15T01:44:26.460592+05:30"},{"city":"Bidar","state":"Karnataka","latitude":17.9104,"longitude":77.5199,"temp":25.6,"humidity":58,"rain":0.0,"pressure":933.4,"uv_index":8.95,"wind_gusts":41.0,"aqi":64,"pm10":24.9,"pm2_5":19.0,"no2":10.9,"co":210.0,"o3":53.0,"so2":3.8,"mosquito_risk":4,"arthritis_risk":5,"migraine_risk":7,"frizz_risk":1,"updated_at":"2026-07-15T01:44:26.460600+05:30"},{"city":"Hospet","state":"Karnataka","latitude":15.2689,"longitude":76.3909,"temp":23.7,"humidity":85,"rain":0.0,"pressure":955.4,"uv_index":8.75,"wind_gusts":42.5,"aqi":55,"pm10":16.2,"pm2_5":11.0,"no2":5.2,"co":133.0,"o3":42.0,"so2":2.0,"mosquito_risk":3,"arthritis_risk":5,"migraine_risk":7,"frizz_risk":1,"updated_at":"2026-07-15T01:44:26.460607+05:30"},{"city":"Tirupur","state":"Tamil Nadu","latitude":11.1085,"longitude":77.3411,"temp":24.7,"humidity":89,"rain":0.0,"pressure":974.2,"uv_index":8.35,"wind_gusts":57.2,"aqi":64,"pm10":26.5,"pm2_5":19.9,"no2":19.0,"co":163.0,"o3":27.0,"so2":5.2,"mosquito_risk":3,"arthritis_risk":5,"migraine_risk":7,"frizz_risk":1,"updated_at":"2026-07-15T01:44:26.460615+05:30"},{"city":"Alappuzha","state":"Kerala","latitude":9.4981,"longitude":76.3388,"temp":27.5,"humidity":86,"rain":0.0,"pressure":1009.8,"uv_index":8.35,"wind_gusts":43.2,"aqi":59,"pm10":28.7,"pm2_5":16.4,"no2":7.6,"co":88.0,"o3":42.0,"so2":3.3,"mosquito_risk":7,"arthritis_risk":0,"migraine_risk":4,"frizz_risk":1,"updated_at":"2026-07-15T01:44:26.460623+05:30"},{"city":"Munnar","state":"Kerala","latitude":10.0889,"longitude":77.0595,"temp":18.1,"humidity":99,"rain":0.0,"pressure":857.0,"uv_index":9.05,"wind_gusts":36.7,"aqi":51,"pm10":12.2,"pm2_5":9.4,"no2":9.3,"co":125.0,"o3":27.0,"so2":2.4,"mosquito_risk":3,"arthritis_risk":10,"migraine_risk":7,"frizz_risk":1,"updated_at":"2026-07-15T01:44:26.460653+05:30"},{"city":"Silchar","state":"Assam","latitude":24.8333,"longitude":92.7789,"temp":26.2,"humidity":99,"rain":0.3,"pressure":999.8,"uv_index":8.8,"wind_gusts":29.5,"aqi":69,"pm10":4.5,"pm2_5":4.3,"no2":5.6,"co":173.0,"o3":63.0,"so2":2.4,"mosquito_risk":10,"arthritis_risk":5,"migraine_risk":7,"frizz_risk":1,"updated_at":"2026-07-15T01:44:26.460662+05:30"},{"city":"Dibrugarh","state":"Assam","latitude":27.4728,"longitude":94.912,"temp":26.8,"humidity":97,"rain":0.2,"pressure":989.9,"uv_index":7.5,"wind_gusts":28.1,"aqi":74,"pm10":8.3,"pm2_5":8.3,"no2":9.3,"co":292.0,"o3":42.0,"so2":0.5,"mosquito_risk":10,"arthritis_risk":5,"migraine_risk":7,"frizz_risk":1,"updated_at":"2026-07-15T01:44:26.460670+05:30"}]