[{"city":"Delhi","state":"Delhi","latitude":28.6139,"longitude":77.209,"temp":19.3,"humidity":66,"rain":0.0,"pressure":989.0,"uv_index":7.15,"wind_gusts":40.3,"aqi":151,"pm10":346.5,"pm2_5":73.8,"mosquito_risk":3,"arthritis_risk":5,"migraine_risk":7,"frizz_risk":0,"updated_at":"2026-04-10T03:18:39.453825+05:30"},{"city":"Mumbai","state":"Maharashtra","latitude":19.076,"longitude":72.8777,"temp":28.2,"humidity":67,"rain":0.0,"pressure":1009.9,"uv_index":7.95,"wind_gusts":27.4,"aqi":91,"pm10":144.8,"pm2_5":35.0,"mosquito_risk":7,"arthritis_risk":0,"migraine_risk":4,"frizz_risk":1,"updated_at":"2026-04-10T03:18:39.453874+05:30"},{"city":"Bangalore","state":"Karnataka","latitude":12.9716,"longitude":77.5946,"temp":23.5,"humidity":80,"rain":0.0,"pressure":912.6,"uv_index":9.65,"wind_gusts":26.3,"aqi":77,"pm10":35.0,"pm2_5":29.5,"mosquito_risk":3,"arthritis_risk":5,"migraine_risk":7,"frizz_risk":1,"updated_at":"2026-04-10T03:18:39.453889+05:30"},{"city":"Hyderabad","state":"Telangana","latitude":17.385,"longitude":78.4867,"temp":27.0,"humidity":69,"rain":0.0,"pressure":954.4,"uv_index":9.2,"wind_gusts":20.5,"aqi":92,"pm10":52.7,"pm2_5":36.9,"mosquito_risk":7,"arthritis_risk":5,"migraine_risk":7,"frizz_risk":1,"updated_at":"2026-04-10T03:18:39.453898+05:30"},{"city":"Chennai","state":"Tamil Nadu","latitude":13.0827,"longitude":80.2707,"temp":28.6,"humidity":86,"rain":0.0,"pressure":1007.6,"uv_index":9.35,"wind_gusts":37.4,"aqi":64,"pm10":24.0,"pm2_5":18.2,"mosquito_risk":7,"arthritis_risk":5,"migraine_risk":4,"frizz_risk":1,"updated_at":"2026-04-10T03:18:39.453906+05:30"},{"city":"Kolkata","state":"West Bengal","latitude":22.5726,"longitude":88.3639,"temp":21.4,"humidity":100,"rain":0.0,"pressure":1009.0,"uv_index":8.7,"wind_gusts":25.9,"aqi":98,"pm10":67.3,"pm2_5":58.4,"mosquito_risk":3,"arthritis_risk":0,"migraine_risk":4,"frizz_risk":1,"updated_at":"2026-04-10T03:18:39.453914+05:30"},{"city":"Pune","state":"Maharashtra","latitude":18.5204,"longitude":73.8567,"temp":21.7,"humidity":78,"rain":0.0,"pressure":949.7,"uv_index":8.55,"wind_gusts":33.8,"aqi":97,"pm10":121.5,"pm2_5":49.6,"mosquito_risk":3,"arthritis_risk":5,"migraine_risk":7,"frizz_risk":1,"updated_at":"2026-04-10T03:18:39.453924+05:30"},{"city":"Ahmedabad","state":"Gujarat","latitude":23.0225,"longitude":72.5714,"temp":25.6,"humidity":58,"rain":0.0,"pressure":1005.5,"uv_index":8.0,"wind_gusts":32.0,"aqi":93,"pm10":89.2,"pm2_5":58.0,"mosquito_risk":4,"arthritis_risk":5,"migraine_risk":4,"frizz_risk":1,"updated_at":"2026-04-10T03:18:39.453931+05:30"},{"city":"Jaipur","state":"Rajasthan","latitude":26.9124,"longitude":75.7873,"temp":21.2,"humidity":40,"rain":0.0,"pressure":964.8,"uv_index":7.8,"wind_gusts":28.8,"aqi":137,"pm10":400.5,"pm2_5":61.0,"mosquito_risk":0,"arthritis_risk":5,"migraine_risk":7,"frizz_risk":0,"updated_at":"2026-04-10T03:18:39.453938+05:30"},{"city":"Lucknow","state":"Uttar Pradesh","latitude":26.8467,"longitude":80.9462,"temp":20.3,"humidity":59,"rain":0.0,"pressure":998.2,"uv_index":7.65,"wind_gusts":43.2,"aqi":112,"pm10":109.0,"pm2_5":35.3,"mosquito_risk":0,"arthritis_risk":5,"migraine_risk":7,"frizz_risk":0,"updated_at":"2026-04-10T03:18:39.453944+05:30"},{"city":"Kanpur","state":"Uttar Pradesh","latitude":26.4499,"longitude":80.3319,"temp":21.0,"humidity":59,"rain":0.0,"pressure":996.8,"uv_index":7.65,"wind_gusts":38.9,"aqi":145,"pm10":264.5,"pm2_5":51.8,"mosquito_risk":0,"arthritis_risk":5,"migraine_risk":7,"frizz_risk":0,"updated_at":"2026-04-10T03:18:39.453950+05:30"},{"city":"Chandigarh","state":"Chandigarh","latitude":30.7333,"longitude":76.7794,"temp":15.9,"humidity":79,"rain":0.0,"pressure":974.4,"uv_index":7.15,"wind_gusts":43.2,"aqi":73,"pm10":36.8,"pm2_5":33.1,"mosquito_risk":3,"arthritis_risk":5,"migraine_risk":7,"frizz_risk":0,"updated_at":"2026-04-10T03:18:39.453957+05:30"},{"city":"Srinagar","state":"Jammu and Kashmir","latitude":34.0837,"longitude":74.7973,"temp":4.6,"humidity":86,"rain":0.0,"pressure":842.5,"uv_index":8.1,"wind_gusts":14.0,"aqi":58,"pm10":17.2,"pm2_5":15.8,"mosquito_risk":3,"arthritis_risk":10,"migraine_risk":7,"frizz_risk":0,"updated_at":"2026-04-10T03:18:39.453964+05:30"},{"city":"Jammu","state":"Jammu and Kashmir","latitude":32.7266,"longitude":74.857,"temp":14.2,"humidity":83,"rain":0.0,"pressure":979.9,"uv_index":7.75,"wind_gusts":34.2,"aqi":76,"pm10":35.3,"pm2_5":31.9,"mosquito_risk":3,"arthritis_risk":10,"migraine_risk":7,"frizz_risk":0,"updated_at":"2026-04-10T03:18:39.453971+05:30"},{"city":"Amritsar","state":"Punjab","latitude":31.634,"longitude":74.8723,"temp":15.6,"humidity":82,"rain":0.0,"pressure":988.3,"uv_index":7.7,"wind_gusts":29.9,"aqi":86,"pm10":43.5,"pm2_5":38.2,"mosquito_risk":3,"arthritis_risk":10,"migraine_risk":7,"frizz_risk":0,"updated_at":"2026-04-10T03:18:39.453977+05:30"},{"city":"Ludhiana","state":"Punjab","latitude":30.901,"longitude":75.8573,"temp":16.8,"humidity":76,"rain":0.0,"pressure":985.6,"uv_index":7.3,"wind_gusts":33.5,"aqi":92,"pm10":37.7,"pm2_5":34.1,"mosquito_risk":3,"arthritis_risk":5,"migraine_risk":7,"frizz_risk":0,"updated_at":"2026-04-10T03:18:39.453982+05:30"},{"city":"Jalandhar","state":"Punjab","latitude":31.326,"longitude":75.5762,"temp":16.2,"humidity":79,"rain":0.0,"pressure":987.1,"uv_index":7.5,"wind_gusts":31.7,"aqi":88,"pm10":55.9,"pm2_5":45.3,"mosquito_risk":3,"arthritis_risk":5,"migraine_risk":7,"frizz_risk":0,"updated_at":"2026-04-10T03:18:39.453990+05:30"},{"city":"Dehradun","state":"Uttarakhand","latitude":30.6284,"longitude":78.0322,"temp":7.8,"humidity":74,"rain":0.0,"pressure":829.3,"uv_index":7.55,"wind_gusts":29.9,"aqi":45,"pm10":15.2,"pm2_5":12.4,"mosquito_risk":3,"arthritis_risk":5,"migraine_risk":7,"frizz_risk":0,"updated_at":"2026-04-10T03:18:39.453996+05:30"},{"city":"Shimla","state":"Himachal Pradesh","latitude":31.1048,"longitude":77.1734,"temp":5.6,"humidity":79,"rain":0.0,"pressure":782.5,"uv_index":7.6,"wind_gusts":50.8,"aqi":67,"pm10":41.7,"pm2_5":33.4,"mosquito_risk":3,"arthritis_risk":5,"migraine_risk":7,"frizz_risk":0,"updated_at":"2026-04-10T03:18:39.454002+05:30"},{"city":"Manali","state":"Himachal Pradesh","latitude":32.2396,"longitude":77.1887,"temp":10.5,"humidity":47,"rain":0.0,"pressure":818.2,"uv_index":9.85,"wind_gusts":29.5,"aqi":78,"pm10":10.7,"pm2_5":9.6,"mosquito_risk":0,"arthritis_risk":5,"migraine_risk":7,"frizz_risk":1,"updated_at":"2026-04-10T03:18:39.454007+05:30"},{"city":"Gurgaon","state":"Haryana","latitude":28.4595,"longitude":77.0266,"temp":17.4,"humidity":76,"rain":0.0,"pressure":987.5,"uv_index":7.25,"wind_gusts":37.8,"aqi":528,"pm10":1035.6,"pm2_5":147.1,"mosquito_risk":3,"arthritis_risk":5,"migraine_risk":7,"frizz_risk":0,"updated_at":"2026-04-10T03:18:39.454013+05:30"},{"city":"Noida","state":"Uttar Pradesh","latitude":28.5355,"longitude":77.391,"temp":19.1,"humidity":68,"rain":0.0,"pressure":990.5,"uv_index":7.2,"wind_gusts":39.6,"aqi":528,"pm10":1035.6,"pm2_5":147.1,"mosquito_risk":3,"arthritis_risk":5,"migraine_risk":7,"frizz_risk":0,"updated_at":"2026-04-10T03:18:39.454019+05:30"},{"city":"Ghaziabad","state":"Uttar Pradesh","latitude":28.6692,"longitude":77.4538,"temp":18.0,"humidity":72,"rain":0.0,"pressure":988.6,"uv_index":7.15,"wind_gusts":40.3,"aqi":129,"pm10":219.3,"pm2_5":52.5,"mosquito_risk":3,"arthritis_risk":5,"migraine_risk":7,"frizz_risk":0,"updated_at":"2026-04-10T03:18:39.454025+05:30"},{"city":"Faridabad","state":"Haryana","latitude":28.4089,"longitude":77.3178,"temp":18.4,"humidity":70,"rain":0.0,"pressure":989.7,"uv_index":7.2,"wind_gusts":38.2,"aqi":528,"pm10":1035.6,"pm2_5":147.1,"mosquito_risk":3,"arthritis_risk":5,"migraine_risk":7,"frizz_risk":0,"updated_at":"2026-04-10T03:18:39.454030+05:30"},{"city":"Meerut","state":"Uttar Pradesh","latitude":28.9845,"longitude":77.7064,"temp":16.9,"humidity":74,"rain":0.0,"pressure":986.9,"uv_index":7.05,"wind_gusts":43.2,"aqi":129,"pm10":219.3,"pm2_5":52.5,"mosquito_risk":3,"arthritis_risk":5,"migraine_risk":7,"frizz_risk":0,"updated_at":"2026-04-10T03:18:39.454036+05:30"},{"city":"Agra","state":"Uttar Pradesh","latitude":27.1767,"longitude":78.0081,"temp":19.3,"humidity":66,"rain":0.0,"pressure":993.4,"uv_index":7.5,"wind_gusts":38.9,"aqi":398,"pm10":709.7,"pm2_5":104.8,"mosquito_risk":3,"arthritis_risk":5,"migraine_risk":7,"frizz_risk":0,"updated_at":"2026-04-10T03:18:39.454041+05:30"},{"city":"Varanasi","state":"Uttar Pradesh","latitude":25.3176,"longitude":82.9739,"temp":20.6,"humidity":59,"rain":0.0,"pressure":1002.2,"uv_index":8.2,"wind_gusts":38.9,"aqi":97,"pm10":89.4,"pm2_5":32.5,"mosquito_risk":0,"arthritis_risk":5,"migraine_risk":4,"frizz_risk":0,"updated_at":"2026-04-10T03:18:39.454049+05:30"},{"city":"Prayagraj","state":"Uttar Pradesh","latitude":25.4358,"longitude":81.8463,"temp":22.6,"humidity":56,"rain":0.0,"pressure":1000.9,"uv_index":8.1,"wind_gusts":34.2,"aqi":97,"pm10":119.7,"pm2_5":34.2,"mosquito_risk":0,"arthritis_risk":5,"migraine_risk":4,"frizz_risk":0,"updated_at":"2026-04-10T03:18:39.454055+05:30"},{"city":"Gorakhpur","state":"Uttar Pradesh","latitude":26.7606,"longitude":83.3732,"temp":19.0,"humidity":57,"rain":0.0,"pressure":1000.7,"uv_index":8.05,"wind_gusts":50.8,"aqi":108,"pm10":49.2,"pm2_5":22.5,"mosquito_risk":0,"arthritis_risk":5,"migraine_risk":4,"frizz_risk":0,"updated_at":"2026-04-10T03:18:39.454061+05:30"},{"city":"Bareilly","state":"Uttar Pradesh","latitude":28.367,"longitude":79.4304,"temp":17.3,"humidity":73,"rain":0.0,"pressure":991.6,"uv_index":7.4,"wind_gusts":39.2,"aqi":76,"pm10":45.3,"pm2_5":28.9,"mosquito_risk":3,"arthritis_risk":5,"migraine_risk":7,"frizz_risk":0,"updated_at":"2026-04-10T03:18:39.454068+05:30"},{"city":"Aligarh","state":"Uttar Pradesh","latitude":27.8974,"longitude":78.088,"temp":17.6,"humidity":70,"rain":0.0,"pressure":991.1,"uv_index":7.3,"wind_gusts":42.5,"aqi":169,"pm10":529.0,"pm2_5":85.2,"mosquito_risk":3,"arthritis_risk":5,"migraine_risk":7,"frizz_risk":0,"updated_at":"2026-04-10T03:18:39.454074+05:30"},{"city":"Moradabad","state":"Uttar Pradesh","latitude":28.8386,"longitude":78.7733,"temp":16.9,"humidity":74,"rain":0.0,"pressure":988.7,"uv_index":7.25,"wind_gusts":41.0,"aqi":88,"pm10":52.9,"pm2_5":34.9,"mosquito_risk":3,"arthritis_risk":5,"migraine_risk":7,"frizz_risk":0,"updated_at":"2026-04-10T03:18:39.454079+05:30"},{"city":"Saharanpur","state":"Uttar Pradesh","latitude":29.9637,"longitude":77.546,"temp":15.7,"humidity":74,"rain":0.0,"pressure":980.9,"uv_index":6.85,"wind_gusts":53.3,"aqi":87,"pm10":57.5,"pm2_5":39.1,"mosquito_risk":3,"arthritis_risk":5,"migraine_risk":7,"frizz_risk":0,"updated_at":"2026-04-10T03:18:39.454084+05:30"},{"city":"Jhansi","state":"Uttar Pradesh","latitude":25.4484,"longitude":78.5685,"temp":21.7,"humidity":59,"rain":0.0,"pressure":982.7,"uv_index":8.05,"wind_gusts":32.8,"aqi":99,"pm10":182.1,"pm2_5":36.1,"mosquito_risk":0,"arthritis_risk":5,"migraine_risk":7,"frizz_risk":0,"updated_at":"2026-04-10T03:18:42.752901+05:30"},{"city":"Surat","state":"Gujarat","latitude":21.1702,"longitude":72.8311,"temp":25.1,"humidity":81,"rain":0.0,"pressure":1008.9,"uv_index":7.75,"wind_gusts":20.2,"aqi":112,"pm10":99.9,"pm2_5":48.2,"mosquito_risk":7,"arthritis_risk":0,"migraine_risk":4,"frizz_risk":1,"updated_at":"2026-04-10T03:18:42.752931+05:30"},{"city":"Vadodara","state":"Gujarat","latitude":22.3072,"longitude":73.1812,"temp":24.9,"humidity":72,"rain":0.0,"pressure":1007.3,"uv_index":8.0,"wind_gusts":28.1,"aqi":75,"pm10":68.5,"pm2_5":42.8,"mosquito_risk":3,"arthritis_risk":5,"migraine_risk":4,"frizz_risk":1,"updated_at":"2026-04-10T03:18:42.752940+05:30"},{"city":"Rajkot","state":"Gujarat","latitude":22.3039,"longitude":70.8022,"temp":24.3,"humidity":77,"rain":0.0,"pressure":997.6,"uv_index":7.75,"wind_gusts":22.0,"aqi":73,"pm10":53.0,"pm2_5":23.9,"mosquito_risk":3,"arthritis_risk":5,"migraine_risk":7,"frizz_risk":1,"updated_at":"2026-04-10T03:18:42.752948+05:30"},{"city":"Thane","state":"Maharashtra","latitude":19.2183,"longitude":72.9781,"temp":24.7,"humidity":72,"rain":0.0,"pressure":1009.4,"uv_index":7.95,"wind_gusts":38.5,"aqi":91,"pm10":144.8,"pm2_5":35.0,"mosquito_risk":3,"arthritis_risk":0,"migraine_risk":4,"frizz_risk":1,"updated_at":"2026-04-10T03:18:42.752955+05:30"},{"city":"Nagpur","state":"Maharashtra","latitude":21.1458,"longitude":79.0882,"temp":25.4,"humidity":50,"rain":0.0,"pressure":975.1,"uv_index":8.7,"wind_gusts":22.0,"aqi":81,"pm10":38.2,"pm2_5":24.4,"mosquito_risk":4,"arthritis_risk":5,"migraine_risk":7,"frizz_risk":0,"updated_at":"2026-04-10T03:18:42.752963+05:30"},{"city":"Nashik","state":"Maharashtra","latitude":19.9975,"longitude":73.7898,"temp":22.0,"humidity":59,"rain":0.0,"pressure":947.2,"uv_index":8.2,"wind_gusts":30.6,"aqi":79,"pm10":122.5,"pm2_5":41.8,"mosquito_risk":0,"arthritis_risk":5,"migraine_risk":7,"frizz_risk":0,"updated_at":"2026-04-10T03:18:42.752971+05:30"},{"city":"Aurangabad","state":"Maharashtra","latitude":19.8762,"longitude":75.3433,"temp":24.7,"humidity":62,"rain":0.0,"pressure":945.9,"uv_index":8.9,"wind_gusts":30.6,"aqi":68,"pm10":44.6,"pm2_5":24.6,"mosquito_risk":3,"arthritis_risk":5,"migraine_risk":7,"frizz_risk":1,"updated_at":"2026-04-10T03:18:42.752977+05:30"},{"city":"Solapur","state":"Maharashtra","latitude":17.6599,"longitude":75.9064,"temp":26.6,"humidity":47,"rain":0.0,"pressure":958.4,"uv_index":8.95,"wind_gusts":23.4,"aqi":90,"pm10":61.7,"pm2_5":33.3,"mosquito_risk":4,"arthritis_risk":5,"migraine_risk":7,"frizz_risk":0,"updated_at":"2026-04-10T03:18:42.752985+05:30"},{"city":"Kolhapur","state":"Maharashtra","latitude":16.705,"longitude":74.2433,"temp":19.1,"humidity":100,"rain":0.0,"pressure":948.7,"uv_index":9.0,"wind_gusts":37.1,"aqi":82,"pm10":63.3,"pm2_5":30.7,"mosquito_risk":3,"arthritis_risk":10,"migraine_risk":7,"frizz_risk":1,"updated_at":"2026-04-10T03:18:42.752993+05:30"},{"city":"Goa","state":"Goa","latitude":15.2993,"longitude":74.124,"temp":26.0,"humidity":87,"rain":0.0,"pressure":998.8,"uv_index":9.0,"wind_gusts":34.6,"aqi":70,"pm10":66.1,"pm2_5":23.1,"mosquito_risk":7,"arthritis_risk":5,"migraine_risk":7,"frizz_risk":1,"updated_at":"2026-04-10T03:18:42.752999+05:30"},{"city":"Jodhpur","state":"Rajasthan","latitude":26.2389,"longitude":73.0243,"temp":20.6,"humidity":43,"rain":0.0,"pressure":988.2,"uv_index":8.05,"wind_gusts":25.2,"aqi":71,"pm10":65.0,"pm2_5":15.8,"mosquito_risk":0,"arthritis_risk":5,"migraine_risk":7,"frizz_risk":0,"updated_at":"2026-04-10T03:18:42.753006+05:30"},{"city":"Udaipur","state":"Rajasthan","latitude":24.5854,"longitude":73.7125,"temp":20.6,"humidity":40,"rain":0.0,"pressure":950.5,"uv_index":8.55,"wind_gusts":29.2,"aqi":66,"pm10":48.7,"pm2_5":12.4,"mosquito_risk":0,"arthritis_risk":5,"migraine_risk":7,"frizz_risk":0,"updated_at":"2026-04-10T03:18:42.753013+05:30"},{"city":"Kota","state":"Rajasthan","latitude":25.2138,"longitude":75.8648,"temp":19.5,"humidity":60,"rain":0.0,"pressure":983.5,"uv_index":8.0,"wind_gusts":19.1,"aqi":93,"pm10":71.2,"pm2_5":27.6,"mosquito_risk":0,"arthritis_risk":5,"migraine_risk":7,"frizz_risk":0,"updated_at":"2026-04-10T03:18:42.753019+05:30"},{"city":"Bikaner","state":"Rajasthan","latitude":28.0229,"longitude":73.3119,"temp":22.3,"humidity":45,"rain":0.0,"pressure":988.5,"uv_index":7.8,"wind_gusts":20.9,"aqi":80,"pm10":41.3,"pm2_5":22.0,"mosquito_risk":0,"arthritis_risk":5,"migraine_risk":7,"frizz_risk":0,"updated_at":"2026-04-10T03:18:42.753026+05:30"},{"city":"Ajmer","state":"Rajasthan","latitude":26.4499,"longitude":74.6399,"temp":19.9,"humidity":41,"rain":0.0,"pressure":959.4,"uv_index":8.0,"wind_gusts":22.0,"aqi":72,"pm10":44.5,"pm2_5":16.8,"mosquito_risk":0,"arthritis_risk":5,"migraine_risk":7,"frizz_risk":0,"updated_at":"2026-04-10T03:18:42.753032+05:30"},{"city":"Gwalior","state":"Madhya Pradesh","latitude":26.2183,"longitude":78.1828,"temp":22.6,"humidity":62,"rain":0.0,"pressure":988.2,"uv_index":7.75,"wind_gusts":34.2,"aqi":117,"pm10":343.7,"pm2_5":60.3,"mosquito_risk":3,"arthritis_risk":5,"migraine_risk":7,"frizz_risk":0,"updated_at":"2026-04-10T03:18:42.753039+05:30"},{"city":"Indore","state":"Madhya Pradesh","latitude":22.7196,"longitude":75.8577,"temp":20.8,"humidity":54,"rain":0.0,"pressure":950.9,"uv_index":8.4,"wind_gusts":25.2,"aqi":82,"pm10":53.4,"pm2_5":28.3,"mosquito_risk":0,"arthritis_risk":5,"migraine_risk":7,"frizz_risk":0,"updated_at":"2026-04-10T03:18:42.753045+05:30"},{"city":"Bhopal","state":"Madhya Pradesh","latitude":23.2599,"longitude":77.4126,"temp":22.5,"humidity":43,"rain":0.0,"pressure":956.9,"uv_index":8.4,"wind_gusts":25.6,"aqi":77,"pm10":54.5,"pm2_5":27.0,"mosquito_risk":0,"arthritis_risk":5,"migraine_risk":7,"frizz_risk":0,"updated_at":"2026-04-10T03:18:42.753052+05:30"},{"city":"Jabalpur","state":"Madhya Pradesh","latitude":23.1815,"longitude":79.9864,"temp":22.1,"humidity":57,"rain":0.0,"pressure":964.6,"uv_index":8.55,"wind_gusts":22.7,"aqi":95,"pm10":66.6,"pm2_5":26.2,"mosquito_risk":0,"arthritis_risk":5,"migraine_risk":7,"frizz_risk":0,"updated_at":"2026-04-10T03:18:42.753058+05:30"},{"city":"Ujjain","state":"Madhya Pradesh","latitude":23.1765,"longitude":75.7885,"temp":21.1,"humidity":48,"rain":0.0,"pressure":957.1,"uv_index":8.35,"wind_gusts":27.7,"aqi":80,"pm10":49.4,"pm2_5":22.0,"mosquito_risk":0,"arthritis_risk":5,"migraine_risk":7,"frizz_risk":0,"updated_at":"2026-04-10T03:18:42.753065+05:30"},{"city":"Visakhapatnam","state":"Andhra Pradesh","latitude":17.6868,"longitude":83.2185,"temp":27.4,"humidity":92,"rain":0.0,"pressure":1004.3,"uv_index":9.1,"wind_gusts":36.7,"aqi":88,"pm10":33.9,"pm2_5":28.9,"mosquito_risk":7,"arthritis_risk":5,"migraine_risk":4,"frizz_risk":1,"updated_at":"2026-04-10T03:18:42.753072+05:30"},{"city":"Vijayawada","state":"Andhra Pradesh","latitude":16.5062,"longitude":80.648,"temp":27.8,"humidity":90,"rain":0.0,"pressure":1003.7,"uv_index":9.2,"wind_gusts":31.7,"aqi":73,"pm10":21.0,"pm2_5":17.4,"mosquito_risk":7,"arthritis_risk":5,"migraine_risk":4,"frizz_risk":1,"updated_at":"2026-04-10T03:18:42.753079+05:30"},{"city":"Guntur","state":"Andhra Pradesh","latitude":16.3067,"longitude":80.4365,"temp":28.0,"humidity":91,"rain":0.0,"pressure":1004.8,"uv_index":9.25,"wind_gusts":37.1,"aqi":77,"pm10":19.6,"pm2_5":16.8,"mosquito_risk":7,"arthritis_risk":5,"migraine_risk":4,"frizz_risk":1,"updated_at":"2026-04-10T03:18:42.753085+05:30"},{"city":"Nellore","state":"Andhra Pradesh","latitude":14.4426,"longitude":79.9865,"temp":28.3,"humidity":86,"rain":0.0,"pressure":1006.3,"uv_index":9.3,"wind_gusts":34.2,"aqi":73,"pm10":21.8,"pm2_5":18.7,"mosquito_risk":7,"arthritis_risk":5,"migraine_risk":4,"frizz_risk":1,"updated_at":"2026-04-10T03:18:42.753093+05:30"},{"city":"Kurnool","state":"Andhra Pradesh","latitude":15.8281,"longitude":78.0373,"temp":28.5,"humidity":66,"rain":0.0,"pressure":977.3,"uv_index":9.2,"wind_gusts":19.8,"aqi":81,"pm10":34.9,"pm2_5":25.9,"mosquito_risk":7,"arthritis_risk":5,"migraine_risk":7,"frizz_risk":1,"updated_at":"2026-04-10T03:18:42.753101+05:30"},{"city":"Kakinada","state":"Andhra Pradesh","latitude":16.9891,"longitude":82.2475,"temp":26.6,"humidity":96,"rain":0.0,"pressure":1008.3,"uv_index":9.15,"wind_gusts":36.0,"aqi":70,"pm10":23.6,"pm2_5":17.3,"mosquito_risk":7,"arthritis_risk":0,"migraine_risk":4,"frizz_risk":1,"updated_at":"2026-04-10T03:18:42.753107+05:30"},{"city":"Tirupati","state":"Andhra Pradesh","latitude":13.6288,"longitude":79.4192,"temp":26.9,"humidity":89,"rain":0.0,"pressure":992.5,"uv_index":9.45,"wind_gusts":29.9,"aqi":93,"pm10":30.0,"pm2_5":28.6,"mosquito_risk":7,"arthritis_risk":5,"migraine_risk":7,"frizz_risk":1,"updated_at":"2026-04-10T03:18:42.753114+05:30"},{"city":"Warangal","state":"Telangana","latitude":17.9689,"longitude":79.5941,"temp":27.4,"humidity":79,"rain":0.0,"pressure":979.8,"uv_index":9.05,"wind_gusts":24.5,"aqi":116,"pm10":73.8,"pm2_5":58.7,"mosquito_risk":7,"arthritis_risk":5,"migraine_risk":7,"frizz_risk":1,"updated_at":"2026-04-10T03:18:42.753120+05:30"},{"city":"Nizamabad","state":"Telangana","latitude":18.6725,"longitude":78.0941,"temp":25.8,"humidity":49,"rain":0.0,"pressure":965.6,"uv_index":8.95,"wind_gusts":27.7,"aqi":95,"pm10":114.8,"pm2_5":47.4,"mosquito_risk":4,"arthritis_risk":5,"migraine_risk":7,"frizz_risk":0,"updated_at":"2026-04-10T03:18:42.753127+05:30"},{"city":"Mysore","state":"Karnataka","latitude":12.2958,"longitude":76.6396,"temp":23.8,"humidity":86,"rain":0.0,"pressure":929.1,"uv_index":9.55,"wind_gusts":30.6,"aqi":60,"pm10":31.3,"pm2_5":21.8,"mosquito_risk":3,"arthritis_risk":5,"migraine_risk":7,"frizz_risk":1,"updated_at":"2026-04-10T03:18:42.753133+05:30"},{"city":"Mangalore","state":"Karnataka","latitude":12.9141,"longitude":74.856,"temp":29.2,"humidity":78,"rain":0.0,"pressure":1007.3,"uv_index":9.2,"wind_gusts":31.0,"aqi":71,"pm10":50.9,"pm2_5":18.9,"mosquito_risk":7,"arthritis_risk":5,"migraine_risk":4,"frizz_risk":1,"updated_at":"2026-04-10T03:18:42.753140+05:30"},{"city":"Hubli-Dharwad","state":"Karnataka","latitude":15.3647,"longitude":75.124,"temp":21.7,"humidity":90,"rain":0.0,"pressure":941.4,"uv_index":9.2,"wind_gusts":38.5,"aqi":68,"pm10":44.9,"pm2_5":18.5,"mosquito_risk":3,"arthritis_risk":5,"migraine_risk":7,"frizz_risk":1,"updated_at":"2026-04-10T03:18:42.753148+05:30"},{"city":"Belgaum","state":"Karnataka","latitude":15.8497,"longitude":74.4977,"temp":19.8,"humidity":93,"rain":0.0,"pressure":926.0,"uv_index":9.25,"wind_gusts":37.8,"aqi":75,"pm10":68.0,"pm2_5":25.6,"mosquito_risk":3,"arthritis_risk":10,"migraine_risk":7,"frizz_risk":1,"updated_at":"2026-04-10T03:18:46.057805+05:30"},{"city":"Coimbatore","state":"Tamil Nadu","latitude":11.0168,"longitude":76.9558,"temp":24.6,"humidity":88,"rain":0.0,"pressure":962.9,"uv_index":9.5,"wind_gusts":34.9,"aqi":55,"pm10":39.5,"pm2_5":26.1,"mosquito_risk":3,"arthritis_risk":5,"migraine_risk":7,"frizz_risk":1,"updated_at":"2026-04-10T03:18:46.057833+05:30"},{"city":"Madurai","state":"Tamil Nadu","latitude":9.9252,"longitude":78.1198,"temp":27.0,"humidity":76,"rain":0.0,"pressure":993.3,"uv_index":9.4,"wind_gusts":40.0,"aqi":95,"pm10":39.1,"pm2_5":37.1,"mosquito_risk":7,"arthritis_risk":5,"migraine_risk":7,"frizz_risk":1,"updated_at":"2026-04-10T03:18:46.057841+05:30"},{"city":"Trichy","state":"Tamil Nadu","latitude":10.7905,"longitude":78.7047,"temp":26.7,"humidity":91,"rain":0.0,"pressure":1000.3,"uv_index":9.2,"wind_gusts":29.2,"aqi":70,"pm10":20.4,"pm2_5":18.5,"mosquito_risk":7,"arthritis_risk":5,"migraine_risk":4,"frizz_risk":1,"updated_at":"2026-04-10T03:18:46.057848+05:30"},{"city":"Salem","state":"Tamil Nadu","latitude":11.6643,"longitude":78.146,"temp":25.1,"humidity":85,"rain":0.0,"pressure":978.5,"uv_index":9.45,"wind_gusts":20.2,"aqi":80,"pm10":24.7,"pm2_5":23.2,"mosquito_risk":7,"arthritis_risk":5,"migraine_risk":7,"frizz_risk":1,"updated_at":"2026-04-10T03:18:46.057854+05:30"},{"city":"Tirunelveli","state":"Tamil Nadu","latitude":8.7139,"longitude":77.7567,"temp":26.5,"humidity":80,"rain":0.0,"pressure":1003.1,"uv_index":9.25,"wind_gusts":37.1,"aqi":68,"pm10":27.0,"pm2_5":24.2,"mosquito_risk":7,"arthritis_risk":5,"migraine_risk":4,"frizz_risk":1,"updated_at":"2026-04-10T03:18:46.057861+05:30"},{"city":"Vellore","state":"Tamil Nadu","latitude":12.9165,"longitude":79.1325,"temp":27.1,"humidity":88,"rain":0.0,"pressure":985.2,"uv_index":9.5,"wind_gusts":33.1,"aqi":99,"pm10":35.7,"pm2_5":34.1,"mosquito_risk":7,"arthritis_risk":5,"migraine_risk":7,"frizz_risk":1,"updated_at":"2026-04-10T03:18:46.057867+05:30"},{"city":"Erode","state":"Tamil Nadu","latitude":11.341,"longitude":77.7172,"temp":27.0,"humidity":82,"rain":0.0,"pressure":990.2,"uv_index":9.45,"wind_gusts":30.2,"aqi":68,"pm10":30.0,"pm2_5":26.8,"mosquito_risk":7,"arthritis_risk":5,"migraine_risk":7,"frizz_risk":1,"updated_at":"2026-04-10T03:18:46.057873+05:30"},{"city":"Kochi","state":"Kerala","latitude":9.9312,"longitude":76.2673,"temp":28.9,"humidity":81,"rain":0.0,"pressure":1009.0,"uv_index":9.25,"wind_gusts":34.6,"aqi":68,"pm10":34.3,"pm2_5":28.5,"mosquito_risk":7,"arthritis_risk":0,"migraine_risk":4,"frizz_risk":1,"updated_at":"2026-04-10T03:18:46.057879+05:30"},{"city":"Thiruvananthapuram","state":"Kerala","latitude":8.5241,"longitude":76.9366,"temp":28.3,"humidity":84,"rain":0.0,"pressure":1007.7,"uv_index":9.2,"wind_gusts":31.3,"aqi":57,"pm10":36.3,"pm2_5":20.0,"mosquito_risk":7,"arthritis_risk":5,"migraine_risk":4,"frizz_risk":1,"updated_at":"2026-04-10T03:18:46.057885+05:30"},{"city":"Kozhikode","state":"Kerala","latitude":11.2588,"longitude":75.7804,"temp":29.1,"humidity":82,"rain":0.0,"pressure":1008.4,"uv_index":9.15,"wind_gusts":30.2,"aqi":71,"pm10":56.3,"pm2_5":22.5,"mosquito_risk":7,"arthritis_risk":0,"migraine_risk":4,"frizz_risk":1,"updated_at":"2026-04-10T03:18:46.057891+05:30"},{"city":"Thrissur","state":"Kerala","latitude":10.5276,"longitude":76.2144,"temp":26.7,"humidity":90,"rain":0.0,"pressure":1007.9,"uv_index":9.2,"wind_gusts":37.8,"aqi":69,"pm10":46.6,"pm2_5":33.2,"mosquito_risk":7,"arthritis_risk":5,"migraine_risk":4,"frizz_risk":1,"updated_at":"2026-04-10T03:18:46.057898+05:30"},{"city":"Kannur","state":"Kerala","latitude":11.8745,"longitude":75.3704,"temp":27.7,"humidity":84,"rain":0.0,"pressure":1007.7,"uv_index":9.15,"wind_gusts":36.0,"aqi":71,"pm10":43.5,"pm2_5":19.7,"mosquito_risk":7,"arthritis_risk":5,"migraine_risk":4,"frizz_risk":1,"updated_at":"2026-04-10T03:18:46.057904+05:30"},{"city":"Patna","state":"Bihar","latitude":25.5941,"longitude":85.1376,"temp":21.6,"humidity":52,"rain":0.0,"pressure":1004.1,"uv_index":8.35,"wind_gusts":39.6,"aqi":98,"pm10":32.5,"pm2_5":21.9,"mosquito_risk":0,"arthritis_risk":5,"migraine_risk":4,"frizz_risk":0,"updated_at":"2026-04-10T03:18:46.057910+05:30"},{"city":"Gaya","state":"Bihar","latitude":24.7914,"longitude":85.0002,"temp":21.1,"humidity":58,"rain":0.0,"pressure":997.9,"uv_index":8.45,"wind_gusts":38.9,"aqi":104,"pm10":54.1,"pm2_5":37.7,"mosquito_risk":0,"arthritis_risk":5,"migraine_risk":7,"frizz_risk":0,"updated_at":"2026-04-10T03:18:46.057915+05:30"},{"city":"Muzaffarpur","state":"Bihar","latitude":26.1209,"longitude":85.3647,"temp":19.5,"humidity":63,"rain":0.0,"pressure":1003.7,"uv_index":8.35,"wind_gusts":40.7,"aqi":92,"pm10":31.4,"pm2_5":21.5,"mosquito_risk":3,"arthritis_risk":5,"migraine_risk":4,"frizz_risk":0,"updated_at":"2026-04-10T03:18:46.057921+05:30"},{"city":"Bhagalpur","state":"Bihar","latitude":25.2425,"longitude":87.0117,"temp":21.3,"humidity":87,"rain":0.0,"pressure":1004.4,"uv_index":8.4,"wind_gusts":35.3,"aqi":106,"pm10":77.8,"pm2_5":63.1,"mosquito_risk":3,"arthritis_risk":5,"migraine_risk":4,"frizz_risk":1,"updated_at":"2026-04-10T03:18:46.057926+05:30"},{"city":"Ranchi","state":"Jharkhand","latitude":23.3441,"longitude":85.3096,"temp":19.5,"humidity":59,"rain":0.0,"pressure":940.3,"uv_index":9.0,"wind_gusts":39.2,"aqi":93,"pm10":47.1,"pm2_5":25.4,"mosquito_risk":0,"arthritis_risk":5,"migraine_risk":7,"frizz_risk":0,"updated_at":"2026-04-10T03:18:46.057932+05:30"},{"city":"Jamshedpur","state":"Jharkhand","latitude":22.8046,"longitude":86.2029,"temp":23.2,"humidity":90,"rain":0.0,"pressure":994.1,"uv_index":8.85,"wind_gusts":20.5,"aqi":116,"pm10":90.8,"pm2_5":65.7,"mosquito_risk":3,"arthritis_risk":5,"migraine_risk":7,"frizz_risk":1,"updated_at":"2026-04-10T03:18:46.057938+05:30"},{"city":"Dhanbad","state":"Jharkhand","latitude":23.7957,"longitude":86.4304,"temp":20.9,"humidity":73,"rain":0.0,"pressure":982.7,"uv_index":8.75,"wind_gusts":36.7,"aqi":133,"pm10":89.2,"pm2_5":68.9,"mosquito_risk":3,"arthritis_risk":5,"migraine_risk":7,"frizz_risk":0,"updated_at":"2026-04-10T03:18:46.057943+05:30"},{"city":"Bokaro","state":"Jharkhand","latitude":23.6693,"longitude":86.1511,"temp":21.2,"humidity":72,"rain":0.0,"pressure":987.2,"uv_index":8.8,"wind_gusts":39.2,"aqi":129,"pm10":86.6,"pm2_5":63.1,"mosquito_risk":3,"arthritis_risk":5,"migraine_risk":7,"frizz_risk":0,"updated_at":"2026-04-10T03:18:46.057949+05:30"},{"city":"Bhubaneswar","state":"Odisha","latitude":20.2961,"longitude":85.8245,"temp":25.5,"humidity":97,"rain":0.0,"pressure":1004.6,"uv_index":9.0,"wind_gusts":25.6,"aqi":98,"pm10":52.7,"pm2_5":45.5,"mosquito_risk":7,"arthritis_risk":5,"migraine_risk":4,"frizz_risk":1,"updated_at":"2026-04-10T03:18:46.057955+05:30"},{"city":"Cuttack","state":"Odisha","latitude":20.4625,"longitude":85.8828,"temp":24.9,"humidity":96,"rain":0.0,"pressure":1006.9,"uv_index":9.05,"wind_gusts":26.6,"aqi":98,"pm10":52.7,"pm2_5":45.5,"mosquito_risk":3,"arthritis_risk":5,"migraine_risk":4,"frizz_risk":1,"updated_at":"2026-04-10T03:18:46.057960+05:30"},{"city":"Rourkela","state":"Odisha","latitude":22.2604,"longitude":84.8536,"temp":24.1,"humidity":80,"rain":0.0,"pressure":988.1,"uv_index":8.75,"wind_gusts":23.4,"aqi":111,"pm10":42.5,"pm2_5":25.9,"mosquito_risk":3,"arthritis_risk":5,"migraine_risk":7,"frizz_risk":1,"updated_at":"2026-04-10T03:18:46.057966+05:30"},{"city":"Raipur","state":"Chhattisgarh","latitude":21.2514,"longitude":81.6296,"temp":25.1,"humidity":45,"rain":0.0,"pressure":977.0,"uv_index":8.8,"wind_gusts":25.9,"aqi":138,"pm10":83.6,"pm2_5":61.5,"mosquito_risk":4,"arthritis_risk":5,"migraine_risk":7,"frizz_risk":0,"updated_at":"2026-04-10T03:18:46.057972+05:30"},{"city":"Bhilai","state":"Chhattisgarh","latitude":21.1938,"longitude":81.3509,"temp":24.5,"humidity":47,"rain":0.0,"pressure":977.3,"uv_index":8.8,"wind_gusts":24.5,"aqi":141,"pm10":74.0,"pm2_5":55.3,"mosquito_risk":0,"arthritis_risk":5,"migraine_risk":7,"frizz_risk":0,"updated_at":"2026-04-10T03:18:46.057977+05:30"},{"city":"Guwahati","state":"Assam","latitude":26.1158,"longitude":91.7086,"temp":20.9,"humidity":91,"rain":0.0,"pressure":1004.8,"uv_index":8.25,"wind_gusts":36.4,"aqi":78,"pm10":15.6,"pm2_5":12.2,"mosquito_risk":3,"arthritis_risk":5,"migraine_risk":4,"frizz_risk":1,"updated_at":"2026-04-10T03:18:46.057983+05:30"},{"city":"Agartala","state":"Tripura","latitude":23.8315,"longitude":91.2868,"temp":20.7,"humidity":100,"rain":0.0,"pressure":1009.4,"uv_index":8.55,"wind_gusts":25.9,"aqi":118,"pm10":40.3,"pm2_5":38.4,"mosquito_risk":3,"arthritis_risk":0,"migraine_risk":4,"frizz_risk":1,"updated_at":"2026-04-10T03:18:46.057988+05:30"},{"city":"Shillong","state":"Meghalaya","latitude":25.5788,"longitude":91.8933,"temp":11.1,"humidity":89,"rain":0.0,"pressure":854.9,"uv_index":6.45,"wind_gusts":46.1,"aqi":77,"pm10":26.7,"pm2_5":21.7,"mosquito_risk":3,"arthritis_risk":10,"migraine_risk":7,"frizz_risk":0,"updated_at":"2026-04-10T03:18:46.057994+05:30"},{"city":"Imphal","state":"Manipur","latitude":24.817,"longitude":93.9368,"temp":15.2,"humidity":93,"rain":0.0,"pressure":924.0,"uv_index":8.9,"wind_gusts":59.4,"aqi":97,"pm10":40.9,"pm2_5":38.4,"mosquito_risk":3,"arthritis_risk":10,"migraine_risk":7,"frizz_risk":0,"updated_at":"2026-04-10T03:18:46.057999+05:30"},{"city":"Aizawl","state":"Mizoram","latitude":23.7271,"longitude":92.7176,"temp":15.9,"humidity":98,"rain":0.0,"pressure":893.5,"uv_index":8.8,"wind_gusts":47.9,"aqi":70,"pm10":18.9,"pm2_5":14.5,"mosquito_risk":3,"arthritis_risk":10,"migraine_risk":7,"frizz_risk":0,"updated_at":"2026-04-10T03:18:46.058005+05:30"},{"city":"Kohima","state":"Nagaland","latitude":25.6701,"longitude":94.1077,"temp":12.3,"humidity":90,"rain":0.0,"pressure":853.8,"uv_index":8.8,"wind_gusts":64.4,"aqi":66,"pm10":13.8,"pm2_5":11.1,"mosquito_risk":3,"arthritis_risk":10,"migraine_risk":7,"frizz_risk":0,"updated_at":"2026-04-10T03:18:46.058011+05:30"},{"city":"Gangtok","state":"Sikkim","latitude":27.3314,"longitude":88.6138,"temp":10.3,"humidity":85,"rain":0.0,"pressure":835.0,"uv_index":8.5,"wind_gusts":15.1,"aqi":83,"pm10":14.6,"pm2_5":11.7,"mosquito_risk":3,"arthritis_risk":10,"migraine_risk":7,"frizz_risk":0,"updated_at":"2026-04-10T03:18:46.058016+05:30"},{"city":"Siliguri","state":"West Bengal","latitude":26.7271,"longitude":88.3953,"temp":17.4,"humidity":75,"rain":0.0,"pressure":996.1,"uv_index":8.2,"wind_gusts":32.0,"aqi":80,"pm10":41.0,"pm2_5":34.7,"mosquito_risk":3,"arthritis_risk":5,"migraine_risk":7,"frizz_risk":0,"updated_at":"2026-04-10T03:18:49.372907+05:30"},{"city":"Durgapur","state":"West Bengal","latitude":23.5204,"longitude":87.3119,"temp":22.6,"humidity":93,"rain":0.0,"pressure":998.2,"uv_index":8.7,"wind_gusts":23.0,"aqi":152,"pm10":117.6,"pm2_5":90.8,"mosquito_risk":3,"arthritis_risk":5,"migraine_risk":7,"frizz_risk":1,"updated_at":"2026-04-10T03:18:49.372937+05:30"},{"city":"Asansol","state":"West Bengal","latitude":23.6739,"longitude":86.9524,"temp":23.0,"humidity":90,"rain":0.0,"pressure":996.7,"uv_index":8.75,"wind_gusts":25.6,"aqi":136,"pm10":83.8,"pm2_5":61.7,"mosquito_risk":3,"arthritis_risk":5,"migraine_risk":7,"frizz_risk":1,"updated_at":"2026-04-10T03:18:49.372947+05:30"},{"city":"Pondicherry","state":"Puducherry","latitude":11.9139,"longitude":79.8145,"temp":27.1,"humidity":94,"rain":0.0,"pressure":1009.1,"uv_index":9.35,"wind_gusts":33.1,"aqi":69,"pm10":25.3,"pm2_5":19.2,"mosquito_risk":7,"arthritis_risk":0,"migraine_risk":4,"frizz_risk":1,"updated_at":"2026-04-10T03:18:49.372956+05:30"},{"city":"Port Blair","state":"Andaman and Nicobar Islands","latitude":11.6234,"longitude":92.7265,"temp":28.2,"humidity":79,"rain":0.0,"pressure":1007.9,"uv_index":8.75,"wind_gusts":23.4,"aqi":31,"pm10":6.9,"pm2_5":5.0,"mosquito_risk":7,"arthritis_risk":5,"migraine_risk":4,"frizz_risk":1,"updated_at":"2026-04-10T03:18:49.372964+05:30"},{"city":"Haridwar","state":"Uttarakhand","latitude":29.9457,"longitude":78.1642,"temp":14.5,"humidity":83,"rain":0.0,"pressure":979.1,"uv_index":6.95,"wind_gusts":48.6,"aqi":70,"pm10":37.0,"pm2_5":34.1,"mosquito_risk":3,"arthritis_risk":10,"migraine_risk":7,"frizz_risk":0,"updated_at":"2026-04-10T03:18:49.372973+05:30"},{"city":"Rishikesh","state":"Uttarakhand","latitude":30.0869,"longitude":78.2676,"temp":14.6,"humidity":76,"rain":0.0,"pressure":971.5,"uv_index":7.05,"wind_gusts":36.7,"aqi":82,"pm10":35.0,"pm2_5":23.5,"mosquito_risk":3,"arthritis_risk":5,"migraine_risk":7,"frizz_risk":0,"updated_at":"2026-04-10T03:18:49.372980+05:30"},{"city":"Nainital","state":"Uttarakhand","latitude":29.3919,"longitude":79.4542,"temp":12.8,"humidity":49,"rain":0.0,"pressure":805.8,"uv_index":7.9,"wind_gusts":69.1,"aqi":77,"pm10":27.4,"pm2_5":17.5,"mosquito_risk":0,"arthritis_risk":5,"migraine_risk":7,"frizz_risk":0,"updated_at":"2026-04-10T03:18:49.372988+05:30"},{"city":"Mussoorie","state":"Uttarakhand","latitude":30.4599,"longitude":78.0664,"temp":9.8,"humidity":67,"rain":0.0,"pressure":802.0,"uv_index":7.4,"wind_gusts":34.6,"aqi":64,"pm10":37.4,"pm2_5":29.5,"mosquito_risk":3,"arthritis_risk":5,"migraine_risk":7,"frizz_risk":0,"updated_at":"2026-04-10T03:18:49.372996+05:30"},{"city":"Dharamshala","state":"Himachal Pradesh","latitude":32.219,"longitude":76.3234,"temp":13.6,"humidity":45,"rain":0.0,"pressure":871.4,"uv_index":7.6,"wind_gusts":28.4,"aqi":81,"pm10":4.4,"pm2_5":3.5,"mosquito_risk":0,"arthritis_risk":5,"migraine_risk":7,"frizz_risk":0,"updated_at":"2026-04-10T03:18:49.373003+05:30"},{"city":"Dalhousie","state":"Himachal Pradesh","latitude":32.5387,"longitude":75.971,"temp":9.0,"humidity":50,"rain":0.0,"pressure":803.8,"uv_index":7.85,"wind_gusts":21.2,"aqi":63,"pm10":28.9,"pm2_5":25.6,"mosquito_risk":0,"arthritis_risk":5,"migraine_risk":7,"frizz_risk":1,"updated_at":"2026-04-10T03:18:49.373011+05:30"},{"city":"Patiala","state":"Punjab","latitude":30.3398,"longitude":76.3869,"temp":16.4,"humidity":77,"rain":0.0,"pressure":984.5,"uv_index":7.0,"wind_gusts":38.9,"aqi":145,"pm10":472.2,"pm2_5":66.6,"mosquito_risk":3,"arthritis_risk":5,"migraine_risk":7,"frizz_risk":0,"updated_at":"2026-04-10T03:18:49.373018+05:30"},{"city":"Bhatinda","state":"Punjab","latitude":30.211,"longitude":74.9455,"temp":16.9,"humidity":79,"rain":0.0,"pressure":991.2,"uv_index":7.65,"wind_gusts":33.5,"aqi":93,"pm10":53.7,"pm2_5":43.2,"mosquito_risk":3,"arthritis_risk":5,"migraine_risk":7,"frizz_risk":0,"updated_at":"2026-04-10T03:18:49.373025+05:30"},{"city":"Rohtak","state":"Haryana","latitude":28.8955,"longitude":76.6066,"temp":17.1,"humidity":75,"rain":0.0,"pressure":988.1,"uv_index":7.15,"wind_gusts":39.2,"aqi":199,"pm10":573.7,"pm2_5":99.2,"mosquito_risk":3,"arthritis_risk":5,"migraine_risk":7,"frizz_risk":0,"updated_at":"2026-04-10T03:18:49.373032+05:30"},{"city":"Panipat","state":"Haryana","latitude":29.3909,"longitude":76.9635,"temp":16.7,"humidity":74,"rain":0.0,"pressure":986.2,"uv_index":7.0,"wind_gusts":42.5,"aqi":484,"pm10":1173.5,"pm2_5":144.8,"mosquito_risk":3,"arthritis_risk":5,"migraine_risk":7,"frizz_risk":0,"updated_at":"2026-04-10T03:18:49.373039+05:30"},{"city":"Mathura","state":"Uttar Pradesh","latitude":27.4924,"longitude":77.6737,"temp":19.0,"humidity":68,"rain":0.0,"pressure":992.5,"uv_index":7.45,"wind_gusts":36.4,"aqi":240,"pm10":795.3,"pm2_5":129.0,"mosquito_risk":3,"arthritis_risk":5,"migraine_risk":7,"frizz_risk":0,"updated_at":"2026-04-10T03:18:49.373046+05:30"},{"city":"Vrindavan","state":"Uttar Pradesh","latitude":27.5823,"longitude":77.7027,"temp":18.6,"humidity":69,"rain":0.0,"pressure":993.0,"uv_index":7.4,"wind_gusts":39.6,"aqi":240,"pm10":795.3,"pm2_5":129.0,"mosquito_risk":3,"arthritis_risk":5,"migraine_risk":7,"frizz_risk":0,"updated_at":"2026-04-10T03:18:49.373053+05:30"},{"city":"Ayodhya","state":"Uttar Pradesh","latitude":26.7922,"longitude":82.1998,"temp":19.0,"humidity":60,"rain":0.0,"pressure":999.5,"uv_index":7.8,"wind_gusts":49.0,"aqi":96,"pm10":73.6,"pm2_5":27.8,"mosquito_risk":0,"arthritis_risk":5,"migraine_risk":7,"frizz_risk":0,"updated_at":"2026-04-10T03:18:49.373060+05:30"},{"city":"Ratlam","state":"Madhya Pradesh","latitude":23.3315,"longitude":75.0367,"temp":21.8,"humidity":46,"rain":0.0,"pressure":957.8,"uv_index":8.3,"wind_gusts":30.2,"aqi":71,"pm10":45.9,"pm2_5":19.4,"mosquito_risk":0,"arthritis_risk":5,"migraine_risk":7,"frizz_risk":0,"updated_at":"2026-04-10T03:18:49.373067+05:30"},{"city":"Sagar","state":"Madhya Pradesh","latitude":23.8388,"longitude":78.7378,"temp":22.2,"humidity":51,"rain":0.0,"pressure":953.8,"uv_index":8.4,"wind_gusts":29.5,"aqi":82,"pm10":83.6,"pm2_5":29.6,"mosquito_risk":0,"arthritis_risk":5,"migraine_risk":7,"frizz_risk":0,"updated_at":"2026-04-10T03:18:49.373074+05:30"},{"city":"Satna","state":"Madhya Pradesh","latitude":24.6005,"longitude":80.8322,"temp":22.7,"humidity":51,"rain":0.0,"pressure":975.8,"uv_index":8.45,"wind_gusts":35.3,"aqi":84,"pm10":223.5,"pm2_5":38.2,"mosquito_risk":0,"arthritis_risk":5,"migraine_risk":7,"frizz_risk":0,"updated_at":"2026-04-10T03:18:49.373081+05:30"},{"city":"Akola","state":"Maharashtra","latitude":20.7002,"longitude":77.0082,"temp":25.6,"humidity":65,"rain":0.0,"pressure":977.2,"uv_index":8.7,"wind_gusts":21.6,"aqi":73,"pm10":45.1,"pm2_5":29.2,"mosquito_risk":7,"arthritis_risk":5,"migraine_risk":7,"frizz_risk":1,"updated_at":"2026-04-10T03:18:49.373089+05:30"},{"city":"Amravati","state":"Maharashtra","latitude":20.9374,"longitude":77.7796,"temp":25.8,"humidity":54,"rain":0.0,"pressure":969.2,"uv_index":8.7,"wind_gusts":27.0,"aqi":72,"pm10":49.2,"pm2_5":31.3,"mosquito_risk":4,"arthritis_risk":5,"migraine_risk":7,"frizz_risk":0,"updated_at":"2026-04-10T03:18:49.373097+05:30"},{"city":"Latur","state":"Maharashtra","latitude":18.4088,"longitude":76.5604,"temp":22.6,"humidity":61,"rain":0.0,"pressure":940.9,"uv_index":8.95,"wind_gusts":29.9,"aqi":93,"pm10":72.6,"pm2_5":30.5,"mosquito_risk":3,"arthritis_risk":5,"migraine_risk":7,"frizz_risk":0,"updated_at":"2026-04-10T03:18:49.373104+05:30"},{"city":"Nanded","state":"Maharashtra","latitude":19.1383,"longitude":77.3091,"temp":24.7,"humidity":64,"rain":0.0,"pressure":969.9,"uv_index":8.85,"wind_gusts":21.6,"aqi":91,"pm10":44.2,"pm2_5":27.4,"mosquito_risk":3,"arthritis_risk":5,"migraine_risk":7,"frizz_risk":1,"updated_at":"2026-04-10T03:18:49.373112+05:30"},{"city":"Gulbarga","state":"Karnataka","latitude":17.3297,"longitude":76.8343,"temp":26.6,"humidity":48,"rain":0.0,"pressure":959.6,"uv_index":9.05,"wind_gusts":28.1,"aqi":78,"pm10":72.2,"pm2_5":34.7,"mosquito_risk":4,"arthritis_risk":5,"migraine_risk":7,"frizz_risk":0,"updated_at":"2026-04-10T03:18:49.373118+05:30"},{"city":"Bidar","state":"Karnataka","latitude":17.9104,"longitude":77.5199,"temp":25.4,"humidity":55,"rain":0.0,"pressure":936.2,"uv_index":9.05,"wind_gusts":25.9,"aqi":86,"pm10":114.3,"pm2_5":43.0,"mosquito_risk":4,"arthritis_risk":5,"migraine_risk":7,"frizz_risk":0,"updated_at":"2026-04-10T03:18:49.373125+05:30"},{"city":"Hospet","state":"Karnataka","latitude":15.2689,"longitude":76.3909,"temp":26.4,"humidity":71,"rain":0.0,"pressure":956.3,"uv_index":9.25,"wind_gusts":32.4,"aqi":76,"pm10":32.7,"pm2_5":17.3,"mosquito_risk":7,"arthritis_risk":5,"migraine_risk":7,"frizz_risk":1,"updated_at":"2026-04-10T03:18:49.373132+05:30"},{"city":"Tirupur","state":"Tamil Nadu","latitude":11.1085,"longitude":77.3411,"temp":25.8,"humidity":82,"rain":0.0,"pressure":976.4,"uv_index":9.5,"wind_gusts":29.9,"aqi":62,"pm10":38.2,"pm2_5":28.1,"mosquito_risk":7,"arthritis_risk":5,"migraine_risk":7,"frizz_risk":1,"updated_at":"2026-04-10T03:18:49.373138+05:30"},{"city":"Alappuzha","state":"Kerala","latitude":9.4981,"longitude":76.3388,"temp":29.0,"humidity":81,"rain":0.0,"pressure":1008.8,"uv_index":9.2,"wind_gusts":28.4,"aqi":67,"pm10":44.9,"pm2_5":25.6,"mosquito_risk":7,"arthritis_risk":0,"migraine_risk":4,"frizz_risk":1,"updated_at":"2026-04-10T03:18:49.373145+05:30"},{"city":"Munnar","state":"Kerala","latitude":10.0889,"longitude":77.0595,"temp":20.7,"humidity":90,"rain":0.0,"pressure":857.0,"uv_index":7.25,"wind_gusts":27.7,"aqi":66,"pm10":25.3,"pm2_5":22.8,"mosquito_risk":3,"arthritis_risk":5,"migraine_risk":7,"frizz_risk":1,"updated_at":"2026-04-10T03:18:49.373152+05:30"},{"city":"Silchar","state":"Assam","latitude":24.8333,"longitude":92.7789,"temp":19.9,"humidity":95,"rain":0.0,"pressure":1008.8,"uv_index":8.55,"wind_gusts":33.5,"aqi":115,"pm10":60.1,"pm2_5":55.1,"mosquito_risk":3,"arthritis_risk":5,"migraine_risk":4,"frizz_risk":1,"updated_at":"2026-04-10T03:18:49.373159+05:30"},{"city":"Dibrugarh","state":"Assam","latitude":27.4728,"longitude":94.912,"temp":20.2,"humidity":84,"rain":0.0,"pressure":998.2,"uv_index":8.1,"wind_gusts":18.4,"aqi":76,"pm10":19.5,"pm2_5":15.5,"mosquito_risk":3,"arthritis_risk":5,"migraine_risk":7,"frizz_risk":1,"updated_at":"2026-04-10T03:18:49.373166+05:30"}]