[{"city":"Delhi","state":"Delhi","latitude":28.6139,"longitude":77.209,"temp":32.5,"humidity":21,"rain":0.0,"pressure":977.3,"uv_index":7.7,"wind_gusts":39.6,"aqi":502,"pm10":713.4,"pm2_5":145.3,"no2":18.6,"co":164.0,"o3":56.0,"so2":10.3,"mosquito_risk":0,"arthritis_risk":5,"migraine_risk":7,"frizz_risk":0,"updated_at":"2026-05-25T03:34:27.326837+05:30"},{"city":"Mumbai","state":"Maharashtra","latitude":19.076,"longitude":72.8777,"temp":29.6,"humidity":79,"rain":0.0,"pressure":1008.4,"uv_index":7.85,"wind_gusts":44.6,"aqi":43,"pm10":17.3,"pm2_5":11.3,"no2":3.6,"co":211.0,"o3":45.0,"so2":3.1,"mosquito_risk":7,"arthritis_risk":0,"migraine_risk":4,"frizz_risk":1,"updated_at":"2026-05-25T03:34:27.326877+05:30"},{"city":"Bangalore","state":"Karnataka","latitude":12.9716,"longitude":77.5946,"temp":21.2,"humidity":97,"rain":0.0,"pressure":911.3,"uv_index":9.15,"wind_gusts":27.0,"aqi":61,"pm10":23.7,"pm2_5":22.3,"no2":19.5,"co":250.0,"o3":43.0,"so2":7.3,"mosquito_risk":3,"arthritis_risk":5,"migraine_risk":7,"frizz_risk":1,"updated_at":"2026-05-25T03:34:27.326893+05:30"},{"city":"Hyderabad","state":"Telangana","latitude":17.385,"longitude":78.4867,"temp":30.0,"humidity":47,"rain":0.0,"pressure":951.5,"uv_index":9.2,"wind_gusts":37.8,"aqi":63,"pm10":16.5,"pm2_5":14.3,"no2":7.2,"co":236.0,"o3":70.0,"so2":5.5,"mosquito_risk":4,"arthritis_risk":5,"migraine_risk":7,"frizz_risk":1,"updated_at":"2026-05-25T03:34:27.326903+05:30"},{"city":"Chennai","state":"Tamil Nadu","latitude":13.0827,"longitude":80.2707,"temp":29.9,"humidity":62,"rain":0.0,"pressure":1004.1,"uv_index":9.05,"wind_gusts":46.8,"aqi":75,"pm10":22.0,"pm2_5":20.4,"no2":10.6,"co":284.0,"o3":74.0,"so2":6.9,"mosquito_risk":7,"arthritis_risk":5,"migraine_risk":4,"frizz_risk":1,"updated_at":"2026-05-25T03:34:27.326911+05:30"},{"city":"Kolkata","state":"West Bengal","latitude":22.5726,"longitude":88.3639,"temp":29.5,"humidity":88,"rain":0.0,"pressure":1002.7,"uv_index":8.95,"wind_gusts":45.4,"aqi":89,"pm10":29.7,"pm2_5":24.6,"no2":5.5,"co":228.0,"o3":84.0,"so2":4.6,"mosquito_risk":7,"arthritis_risk":5,"migraine_risk":4,"frizz_risk":1,"updated_at":"2026-05-25T03:34:27.326919+05:30"},{"city":"Pune","state":"Maharashtra","latitude":18.5204,"longitude":73.8567,"temp":23.8,"humidity":96,"rain":0.0,"pressure":948.2,"uv_index":8.45,"wind_gusts":42.8,"aqi":32,"pm10":9.9,"pm2_5":8.5,"no2":13.9,"co":153.0,"o3":30.0,"so2":13.6,"mosquito_risk":3,"arthritis_risk":5,"migraine_risk":7,"frizz_risk":1,"updated_at":"2026-05-25T03:34:27.326925+05:30"},{"city":"Ahmedabad","state":"Gujarat","latitude":23.0225,"longitude":72.5714,"temp":30.0,"humidity":66,"rain":0.0,"pressure":1001.1,"uv_index":8.15,"wind_gusts":34.9,"aqi":50,"pm10":35.0,"pm2_5":17.6,"no2":4.2,"co":127.0,"o3":48.0,"so2":3.5,"mosquito_risk":7,"arthritis_risk":5,"migraine_risk":4,"frizz_risk":1,"updated_at":"2026-05-25T03:34:27.326932+05:30"},{"city":"Jaipur","state":"Rajasthan","latitude":26.9124,"longitude":75.7873,"temp":32.0,"humidity":32,"rain":0.0,"pressure":956.4,"uv_index":8.25,"wind_gusts":47.2,"aqi":258,"pm10":359.5,"pm2_5":71.0,"no2":2.6,"co":139.0,"o3":65.0,"so2":2.5,"mosquito_risk":0,"arthritis_risk":5,"migraine_risk":7,"frizz_risk":0,"updated_at":"2026-05-25T03:34:27.326944+05:30"},{"city":"Lucknow","state":"Uttar Pradesh","latitude":26.8467,"longitude":80.9462,"temp":32.3,"humidity":33,"rain":0.0,"pressure":987.6,"uv_index":8.1,"wind_gusts":65.2,"aqi":254,"pm10":491.7,"pm2_5":112.9,"no2":25.2,"co":339.0,"o3":45.0,"so2":10.1,"mosquito_risk":0,"arthritis_risk":5,"migraine_risk":7,"frizz_risk":0,"updated_at":"2026-05-25T03:34:27.326951+05:30"},{"city":"Kanpur","state":"Uttar Pradesh","latitude":26.4499,"longitude":80.3319,"temp":32.7,"humidity":29,"rain":0.0,"pressure":986.1,"uv_index":8.25,"wind_gusts":50.8,"aqi":469,"pm10":348.3,"pm2_5":75.2,"no2":15.6,"co":252.0,"o3":49.0,"so2":6.6,"mosquito_risk":0,"arthritis_risk":5,"migraine_risk":7,"frizz_risk":0,"updated_at":"2026-05-25T03:34:27.326958+05:30"},{"city":"Chandigarh","state":"Chandigarh","latitude":30.7333,"longitude":76.7794,"temp":24.6,"humidity":54,"rain":0.0,"pressure":962.2,"uv_index":7.7,"wind_gusts":32.4,"aqi":79,"pm10":55.8,"pm2_5":32.7,"no2":29.9,"co":284.0,"o3":16.0,"so2":4.3,"mosquito_risk":0,"arthritis_risk":5,"migraine_risk":7,"frizz_risk":0,"updated_at":"2026-05-25T03:34:27.326965+05:30"},{"city":"Srinagar","state":"Jammu and Kashmir","latitude":34.0837,"longitude":74.7973,"temp":11.1,"humidity":95,"rain":0.0,"pressure":839.3,"uv_index":8.05,"wind_gusts":36.7,"aqi":67,"pm10":32.5,"pm2_5":27.0,"no2":20.4,"co":396.0,"o3":28.0,"so2":1.1,"mosquito_risk":3,"arthritis_risk":10,"migraine_risk":7,"frizz_risk":0,"updated_at":"2026-05-25T03:34:27.326973+05:30"},{"city":"Jammu","state":"Jammu and Kashmir","latitude":32.7266,"longitude":74.857,"temp":22.8,"humidity":52,"rain":0.0,"pressure":967.4,"uv_index":8.55,"wind_gusts":40.0,"aqi":71,"pm10":21.5,"pm2_5":16.7,"no2":11.4,"co":179.0,"o3":43.0,"so2":1.5,"mosquito_risk":0,"arthritis_risk":5,"migraine_risk":7,"frizz_risk":0,"updated_at":"2026-05-25T03:34:27.326981+05:30"},{"city":"Amritsar","state":"Punjab","latitude":31.634,"longitude":74.8723,"temp":28.0,"humidity":42,"rain":0.0,"pressure":975.0,"uv_index":8.4,"wind_gusts":27.4,"aqi":85,"pm10":50.3,"pm2_5":26.5,"no2":9.4,"co":516.0,"o3":72.0,"so2":4.3,"mosquito_risk":4,"arthritis_risk":5,"migraine_risk":7,"frizz_risk":0,"updated_at":"2026-05-25T03:34:27.326988+05:30"},{"city":"Ludhiana","state":"Punjab","latitude":30.901,"longitude":75.8573,"temp":27.8,"humidity":39,"rain":0.0,"pressure":972.6,"uv_index":8.0,"wind_gusts":33.1,"aqi":85,"pm10":80.3,"pm2_5":45.4,"no2":23.8,"co":395.0,"o3":44.0,"so2":11.0,"mosquito_risk":4,"arthritis_risk":5,"migraine_risk":7,"frizz_risk":0,"updated_at":"2026-05-25T03:34:27.326994+05:30"},{"city":"Jalandhar","state":"Punjab","latitude":31.326,"longitude":75.5762,"temp":27.1,"humidity":43,"rain":0.0,"pressure":973.7,"uv_index":8.15,"wind_gusts":36.0,"aqi":93,"pm10":78.0,"pm2_5":35.2,"no2":12.2,"co":325.0,"o3":60.0,"so2":5.0,"mosquito_risk":4,"arthritis_risk":5,"migraine_risk":7,"frizz_risk":0,"updated_at":"2026-05-25T03:34:27.327000+05:30"},{"city":"Dehradun","state":"Uttarakhand","latitude":30.6284,"longitude":78.0322,"temp":13.6,"humidity":59,"rain":0.0,"pressure":824.7,"uv_index":7.65,"wind_gusts":50.8,"aqi":61,"pm10":37.8,"pm2_5":14.5,"no2":19.8,"co":194.0,"o3":24.0,"so2":0.1,"mosquito_risk":0,"arthritis_risk":5,"migraine_risk":7,"frizz_risk":0,"updated_at":"2026-05-25T03:34:27.327008+05:30"},{"city":"Shimla","state":"Himachal Pradesh","latitude":31.1048,"longitude":77.1734,"temp":12.6,"humidity":51,"rain":0.0,"pressure":779.8,"uv_index":8.25,"wind_gusts":45.0,"aqi":67,"pm10":32.8,"pm2_5":16.1,"no2":12.1,"co":160.0,"o3":52.0,"so2":0.5,"mosquito_risk":0,"arthritis_risk":5,"migraine_risk":7,"frizz_risk":0,"updated_at":"2026-05-25T03:34:27.327020+05:30"},{"city":"Manali","state":"Himachal Pradesh","latitude":32.2396,"longitude":77.1887,"temp":10.0,"humidity":69,"rain":0.0,"pressure":815.2,"uv_index":9.1,"wind_gusts":49.3,"aqi":50,"pm10":1.9,"pm2_5":0.8,"no2":6.4,"co":140.0,"o3":111.0,"so2":0.0,"mosquito_risk":3,"arthritis_risk":5,"migraine_risk":7,"frizz_risk":0,"updated_at":"2026-05-25T03:34:27.327026+05:30"},{"city":"Gurgaon","state":"Haryana","latitude":28.4595,"longitude":77.0266,"temp":31.4,"humidity":24,"rain":0.0,"pressure":975.9,"uv_index":7.8,"wind_gusts":38.5,"aqi":1418,"pm10":3270.8,"pm2_5":489.9,"no2":4.5,"co":151.0,"o3":81.0,"so2":5.2,"mosquito_risk":0,"arthritis_risk":5,"migraine_risk":7,"frizz_risk":0,"updated_at":"2026-05-25T03:34:27.327032+05:30"},{"city":"Noida","state":"Uttar Pradesh","latitude":28.5355,"longitude":77.391,"temp":33.0,"humidity":20,"rain":0.0,"pressure":978.5,"uv_index":7.75,"wind_gusts":37.4,"aqi":1418,"pm10":3270.8,"pm2_5":489.9,"no2":4.5,"co":118.0,"o3":81.0,"so2":5.2,"mosquito_risk":0,"arthritis_risk":5,"migraine_risk":7,"frizz_risk":0,"updated_at":"2026-05-25T03:34:27.327039+05:30"},{"city":"Ghaziabad","state":"Uttar Pradesh","latitude":28.6692,"longitude":77.4538,"temp":32.0,"humidity":24,"rain":0.0,"pressure":976.6,"uv_index":7.75,"wind_gusts":42.5,"aqi":455,"pm10":724.6,"pm2_5":152.3,"no2":24.4,"co":218.0,"o3":46.0,"so2":14.7,"mosquito_risk":0,"arthritis_risk":5,"migraine_risk":7,"frizz_risk":0,"updated_at":"2026-05-25T03:34:27.327045+05:30"},{"city":"Faridabad","state":"Haryana","latitude":28.4089,"longitude":77.3178,"temp":33.5,"humidity":21,"rain":0.0,"pressure":977.9,"uv_index":7.8,"wind_gusts":40.0,"aqi":1418,"pm10":3270.8,"pm2_5":489.9,"no2":4.5,"co":151.0,"o3":81.0,"so2":5.2,"mosquito_risk":0,"arthritis_risk":5,"migraine_risk":7,"frizz_risk":0,"updated_at":"2026-05-25T03:34:27.327050+05:30"},{"city":"Meerut","state":"Uttar Pradesh","latitude":28.9845,"longitude":77.7064,"temp":29.7,"humidity":40,"rain":0.0,"pressure":975.1,"uv_index":7.65,"wind_gusts":36.7,"aqi":455,"pm10":724.6,"pm2_5":152.3,"no2":24.4,"co":510.0,"o3":46.0,"so2":14.7,"mosquito_risk":4,"arthritis_risk":5,"migraine_risk":7,"frizz_risk":0,"updated_at":"2026-05-25T03:34:27.327056+05:30"},{"city":"Agra","state":"Uttar Pradesh","latitude":27.1767,"longitude":78.0081,"temp":33.7,"humidity":27,"rain":0.0,"pressure":982.6,"uv_index":8.05,"wind_gusts":43.2,"aqi":864,"pm10":2302.2,"pm2_5":293.4,"no2":4.3,"co":147.0,"o3":74.0,"so2":3.6,"mosquito_risk":0,"arthritis_risk":5,"migraine_risk":7,"frizz_risk":0,"updated_at":"2026-05-25T03:34:27.327062+05:30"},{"city":"Varanasi","state":"Uttar Pradesh","latitude":25.3176,"longitude":82.9739,"temp":32.5,"humidity":28,"rain":0.0,"pressure":991.8,"uv_index":8.75,"wind_gusts":49.3,"aqi":151,"pm10":85.4,"pm2_5":40.9,"no2":28.2,"co":457.0,"o3":34.0,"so2":8.4,"mosquito_risk":0,"arthritis_risk":5,"migraine_risk":7,"frizz_risk":0,"updated_at":"2026-05-25T03:34:27.327069+05:30"},{"city":"Prayagraj","state":"Uttar Pradesh","latitude":25.4358,"longitude":81.8463,"temp":31.1,"humidity":37,"rain":0.0,"pressure":990.4,"uv_index":8.65,"wind_gusts":46.8,"aqi":154,"pm10":115.9,"pm2_5":47.6,"no2":29.5,"co":236.0,"o3":32.0,"so2":8.1,"mosquito_risk":0,"arthritis_risk":5,"migraine_risk":7,"frizz_risk":0,"updated_at":"2026-05-25T03:34:27.327075+05:30"},{"city":"Gorakhpur","state":"Uttar Pradesh","latitude":26.7606,"longitude":83.3732,"temp":28.9,"humidity":71,"rain":0.0,"pressure":991.9,"uv_index":8.6,"wind_gusts":33.1,"aqi":154,"pm10":80.1,"pm2_5":56.8,"no2":17.8,"co":541.0,"o3":63.0,"so2":9.0,"mosquito_risk":7,"arthritis_risk":5,"migraine_risk":7,"frizz_risk":1,"updated_at":"2026-05-25T03:34:27.327084+05:30"},{"city":"Bareilly","state":"Uttar Pradesh","latitude":28.367,"longitude":79.4304,"temp":28.1,"humidity":55,"rain":0.0,"pressure":980.5,"uv_index":8.05,"wind_gusts":22.7,"aqi":153,"pm10":341.8,"pm2_5":100.6,"no2":44.0,"co":415.0,"o3":32.0,"so2":13.3,"mosquito_risk":4,"arthritis_risk":5,"migraine_risk":7,"frizz_risk":1,"updated_at":"2026-05-25T03:34:27.327090+05:30"},{"city":"Aligarh","state":"Uttar Pradesh","latitude":27.8974,"longitude":78.088,"temp":32.2,"humidity":25,"rain":0.0,"pressure":979.6,"uv_index":7.9,"wind_gusts":35.3,"aqi":904,"pm10":1806.8,"pm2_5":286.8,"no2":5.1,"co":156.0,"o3":75.0,"so2":3.5,"mosquito_risk":0,"arthritis_risk":5,"migraine_risk":7,"frizz_risk":0,"updated_at":"2026-05-25T03:34:27.327096+05:30"},{"city":"Moradabad","state":"Uttar Pradesh","latitude":28.8386,"longitude":78.7733,"temp":28.8,"humidity":42,"rain":0.0,"pressure":977.1,"uv_index":7.85,"wind_gusts":38.2,"aqi":157,"pm10":392.1,"pm2_5":122.5,"no2":54.5,"co":486.0,"o3":17.0,"so2":13.9,"mosquito_risk":4,"arthritis_risk":5,"migraine_risk":7,"frizz_risk":0,"updated_at":"2026-05-25T03:34:27.327102+05:30"},{"city":"Saharanpur","state":"Uttar Pradesh","latitude":29.9637,"longitude":77.546,"temp":27.3,"humidity":41,"rain":0.0,"pressure":969.3,"uv_index":7.35,"wind_gusts":25.9,"aqi":104,"pm10":103.4,"pm2_5":63.8,"no2":47.2,"co":546.0,"o3":8.0,"so2":11.1,"mosquito_risk":4,"arthritis_risk":5,"migraine_risk":7,"frizz_risk":0,"updated_at":"2026-05-25T03:34:27.327108+05:30"},{"city":"Jhansi","state":"Uttar Pradesh","latitude":25.4484,"longitude":78.5685,"temp":34.2,"humidity":24,"rain":0.0,"pressure":973.9,"uv_index":8.45,"wind_gusts":47.9,"aqi":90,"pm10":51.0,"pm2_5":28.1,"no2":4.3,"co":158.0,"o3":62.0,"so2":3.0,"mosquito_risk":0,"arthritis_risk":5,"migraine_risk":7,"frizz_risk":0,"updated_at":"2026-05-25T03:34:30.597149+05:30"},{"city":"Surat","state":"Gujarat","latitude":21.1702,"longitude":72.8311,"temp":29.8,"humidity":81,"rain":0.0,"pressure":1006.2,"uv_index":7.7,"wind_gusts":43.2,"aqi":56,"pm10":19.5,"pm2_5":15.1,"no2":17.7,"co":278.0,"o3":29.0,"so2":28.4,"mosquito_risk":7,"arthritis_risk":5,"migraine_risk":4,"frizz_risk":1,"updated_at":"2026-05-25T03:34:30.597180+05:30"},{"city":"Vadodara","state":"Gujarat","latitude":22.3072,"longitude":73.1812,"temp":30.2,"humidity":78,"rain":0.0,"pressure":1003.2,"uv_index":8.1,"wind_gusts":40.3,"aqi":51,"pm10":17.5,"pm2_5":14.7,"no2":15.8,"co":220.0,"o3":24.0,"so2":15.8,"mosquito_risk":3,"arthritis_risk":5,"migraine_risk":4,"frizz_risk":1,"updated_at":"2026-05-25T03:34:30.597193+05:30"},{"city":"Rajkot","state":"Gujarat","latitude":22.3039,"longitude":70.8022,"temp":27.9,"humidity":79,"rain":0.0,"pressure":993.6,"uv_index":7.75,"wind_gusts":49.3,"aqi":54,"pm10":24.2,"pm2_5":15.0,"no2":4.5,"co":112.0,"o3":45.0,"so2":5.5,"mosquito_risk":7,"arthritis_risk":5,"migraine_risk":7,"frizz_risk":1,"updated_at":"2026-05-25T03:34:30.597203+05:30"},{"city":"Thane","state":"Maharashtra","latitude":19.2183,"longitude":72.9781,"temp":28.2,"humidity":93,"rain":0.0,"pressure":1007.8,"uv_index":7.85,"wind_gusts":39.6,"aqi":43,"pm10":17.3,"pm2_5":11.3,"no2":3.6,"co":255.0,"o3":45.0,"so2":3.1,"mosquito_risk":7,"arthritis_risk":5,"migraine_risk":4,"frizz_risk":1,"updated_at":"2026-05-25T03:34:30.597212+05:30"},{"city":"Nagpur","state":"Maharashtra","latitude":21.1458,"longitude":79.0882,"temp":33.9,"humidity":26,"rain":0.0,"pressure":970.1,"uv_index":8.9,"wind_gusts":44.3,"aqi":73,"pm10":35.9,"pm2_5":23.0,"no2":10.0,"co":198.0,"o3":67.0,"so2":8.3,"mosquito_risk":0,"arthritis_risk":5,"migraine_risk":7,"frizz_risk":0,"updated_at":"2026-05-25T03:34:30.597221+05:30"},{"city":"Nashik","state":"Maharashtra","latitude":19.9975,"longitude":73.7898,"temp":24.5,"humidity":89,"rain":0.0,"pressure":945.8,"uv_index":8.15,"wind_gusts":42.5,"aqi":25,"pm10":10.4,"pm2_5":7.7,"no2":4.4,"co":134.0,"o3":37.0,"so2":1.5,"mosquito_risk":3,"arthritis_risk":5,"migraine_risk":7,"frizz_risk":1,"updated_at":"2026-05-25T03:34:30.597229+05:30"},{"city":"Aurangabad","state":"Maharashtra","latitude":19.8762,"longitude":75.3433,"temp":26.7,"humidity":72,"rain":0.0,"pressure":943.6,"uv_index":9.05,"wind_gusts":43.6,"aqi":37,"pm10":7.9,"pm2_5":6.3,"no2":8.5,"co":149.0,"o3":32.0,"so2":5.4,"mosquito_risk":7,"arthritis_risk":5,"migraine_risk":7,"frizz_risk":1,"updated_at":"2026-05-25T03:34:30.597237+05:30"},{"city":"Solapur","state":"Maharashtra","latitude":17.6599,"longitude":75.9064,"temp":27.5,"humidity":70,"rain":0.0,"pressure":956.8,"uv_index":9.0,"wind_gusts":37.8,"aqi":49,"pm10":10.3,"pm2_5":8.7,"no2":8.2,"co":162.0,"o3":46.0,"so2":5.5,"mosquito_risk":7,"arthritis_risk":5,"migraine_risk":7,"frizz_risk":1,"updated_at":"2026-05-25T03:34:30.597269+05:30"},{"city":"Kolhapur","state":"Maharashtra","latitude":16.705,"longitude":74.2433,"temp":23.2,"humidity":97,"rain":0.0,"pressure":947.9,"uv_index":8.85,"wind_gusts":44.3,"aqi":40,"pm10":9.0,"pm2_5":7.4,"no2":7.3,"co":156.0,"o3":33.0,"so2":2.5,"mosquito_risk":3,"arthritis_risk":5,"migraine_risk":7,"frizz_risk":1,"updated_at":"2026-05-25T03:34:30.597280+05:30"},{"city":"Goa","state":"Goa","latitude":15.2993,"longitude":74.124,"temp":26.5,"humidity":92,"rain":0.0,"pressure":998.4,"uv_index":5.5,"wind_gusts":29.9,"aqi":52,"pm10":25.7,"pm2_5":20.8,"no2":8.4,"co":401.0,"o3":40.0,"so2":2.4,"mosquito_risk":7,"arthritis_risk":5,"migraine_risk":3,"frizz_risk":1,"updated_at":"2026-05-25T03:34:30.597288+05:30"},{"city":"Jodhpur","state":"Rajasthan","latitude":26.2389,"longitude":73.0243,"temp":31.4,"humidity":44,"rain":0.0,"pressure":979.7,"uv_index":8.4,"wind_gusts":47.2,"aqi":218,"pm10":374.4,"pm2_5":83.6,"no2":2.0,"co":122.0,"o3":64.0,"so2":2.5,"mosquito_risk":0,"arthritis_risk":5,"migraine_risk":7,"frizz_risk":1,"updated_at":"2026-05-25T03:34:30.597296+05:30"},{"city":"Udaipur","state":"Rajasthan","latitude":24.5854,"longitude":73.7125,"temp":28.2,"humidity":60,"rain":0.0,"pressure":944.9,"uv_index":8.8,"wind_gusts":47.2,"aqi":64,"pm10":26.1,"pm2_5":16.3,"no2":2.6,"co":131.0,"o3":57.0,"so2":2.2,"mosquito_risk":4,"arthritis_risk":5,"migraine_risk":7,"frizz_risk":1,"updated_at":"2026-05-25T03:34:30.597305+05:30"},{"city":"Kota","state":"Rajasthan","latitude":25.2138,"longitude":75.8648,"temp":33.8,"humidity":36,"rain":0.0,"pressure":976.0,"uv_index":8.4,"wind_gusts":42.5,"aqi":85,"pm10":17.8,"pm2_5":12.6,"no2":3.9,"co":152.0,"o3":58.0,"so2":4.5,"mosquito_risk":0,"arthritis_risk":5,"migraine_risk":7,"frizz_risk":1,"updated_at":"2026-05-25T03:34:30.597313+05:30"},{"city":"Bikaner","state":"Rajasthan","latitude":28.0229,"longitude":73.3119,"temp":33.5,"humidity":31,"rain":0.0,"pressure":977.4,"uv_index":8.4,"wind_gusts":40.0,"aqi":176,"pm10":320.4,"pm2_5":132.7,"no2":1.1,"co":122.0,"o3":87.0,"so2":3.1,"mosquito_risk":0,"arthritis_risk":5,"migraine_risk":7,"frizz_risk":0,"updated_at":"2026-05-25T03:34:30.597321+05:30"},{"city":"Ajmer","state":"Rajasthan","latitude":26.4499,"longitude":74.6399,"temp":30.2,"humidity":38,"rain":0.0,"pressure":951.7,"uv_index":8.35,"wind_gusts":55.4,"aqi":96,"pm10":46.9,"pm2_5":23.4,"no2":1.9,"co":126.0,"o3":66.0,"so2":2.2,"mosquito_risk":0,"arthritis_risk":5,"migraine_risk":7,"frizz_risk":0,"updated_at":"2026-05-25T03:34:30.597329+05:30"},{"city":"Gwalior","state":"Madhya Pradesh","latitude":26.2183,"longitude":78.1828,"temp":34.0,"humidity":26,"rain":0.0,"pressure":978.8,"uv_index":8.25,"wind_gusts":56.2,"aqi":94,"pm10":53.8,"pm2_5":25.1,"no2":3.1,"co":139.0,"o3":72.0,"so2":2.2,"mosquito_risk":0,"arthritis_risk":5,"migraine_risk":7,"frizz_risk":0,"updated_at":"2026-05-25T03:34:30.597337+05:30"},{"city":"Indore","state":"Madhya Pradesh","latitude":22.7196,"longitude":75.8577,"temp":29.2,"humidity":59,"rain":0.0,"pressure":947.3,"uv_index":8.7,"wind_gusts":42.1,"aqi":68,"pm10":20.0,"pm2_5":15.9,"no2":5.1,"co":168.0,"o3":69.0,"so2":8.2,"mosquito_risk":4,"arthritis_risk":5,"migraine_risk":7,"frizz_risk":1,"updated_at":"2026-05-25T03:34:30.597345+05:30"},{"city":"Bhopal","state":"Madhya Pradesh","latitude":23.2599,"longitude":77.4126,"temp":32.6,"humidity":33,"rain":0.0,"pressure":951.7,"uv_index":8.7,"wind_gusts":41.0,"aqi":82,"pm10":31.9,"pm2_5":20.1,"no2":3.7,"co":166.0,"o3":74.0,"so2":4.0,"mosquito_risk":0,"arthritis_risk":5,"migraine_risk":7,"frizz_risk":0,"updated_at":"2026-05-25T03:34:30.597353+05:30"},{"city":"Jabalpur","state":"Madhya Pradesh","latitude":23.1815,"longitude":79.9864,"temp":30.5,"humidity":34,"rain":0.0,"pressure":957.9,"uv_index":8.85,"wind_gusts":30.6,"aqi":91,"pm10":86.1,"pm2_5":41.6,"no2":23.9,"co":256.0,"o3":46.0,"so2":4.9,"mosquito_risk":0,"arthritis_risk":5,"migraine_risk":7,"frizz_risk":0,"updated_at":"2026-05-25T03:34:30.597361+05:30"},{"city":"Ujjain","state":"Madhya Pradesh","latitude":23.1765,"longitude":75.7885,"temp":29.6,"humidity":60,"rain":0.0,"pressure":952.8,"uv_index":8.6,"wind_gusts":45.4,"aqi":65,"pm10":17.4,"pm2_5":14.2,"no2":5.1,"co":180.0,"o3":62.0,"so2":8.1,"mosquito_risk":4,"arthritis_risk":5,"migraine_risk":7,"frizz_risk":1,"updated_at":"2026-05-25T03:34:30.597369+05:30"},{"city":"Visakhapatnam","state":"Andhra Pradesh","latitude":17.6868,"longitude":83.2185,"temp":30.1,"humidity":85,"rain":0.0,"pressure":999.9,"uv_index":9.1,"wind_gusts":35.6,"aqi":111,"pm10":43.7,"pm2_5":36.8,"no2":30.6,"co":412.0,"o3":82.0,"so2":39.8,"mosquito_risk":3,"arthritis_risk":5,"migraine_risk":7,"frizz_risk":1,"updated_at":"2026-05-25T03:34:30.597377+05:30"},{"city":"Vijayawada","state":"Andhra Pradesh","latitude":16.5062,"longitude":80.648,"temp":32.5,"humidity":47,"rain":0.0,"pressure":997.9,"uv_index":9.1,"wind_gusts":40.7,"aqi":86,"pm10":24.3,"pm2_5":22.4,"no2":10.4,"co":307.0,"o3":68.0,"so2":5.5,"mosquito_risk":0,"arthritis_risk":5,"migraine_risk":7,"frizz_risk":1,"updated_at":"2026-05-25T03:34:30.597385+05:30"},{"city":"Guntur","state":"Andhra Pradesh","latitude":16.3067,"longitude":80.4365,"temp":32.3,"humidity":49,"rain":0.0,"pressure":999.1,"uv_index":9.1,"wind_gusts":42.8,"aqi":79,"pm10":21.5,"pm2_5":19.4,"no2":8.6,"co":239.0,"o3":74.0,"so2":6.2,"mosquito_risk":0,"arthritis_risk":5,"migraine_risk":7,"frizz_risk":1,"updated_at":"2026-05-25T03:34:30.597393+05:30"},{"city":"Nellore","state":"Andhra Pradesh","latitude":14.4426,"longitude":79.9865,"temp":32.2,"humidity":49,"rain":0.0,"pressure":1002.3,"uv_index":9.05,"wind_gusts":40.0,"aqi":67,"pm10":22.2,"pm2_5":20.1,"no2":6.8,"co":173.0,"o3":76.0,"so2":5.8,"mosquito_risk":0,"arthritis_risk":5,"migraine_risk":4,"frizz_risk":1,"updated_at":"2026-05-25T03:34:30.597402+05:30"},{"city":"Kurnool","state":"Andhra Pradesh","latitude":15.8281,"longitude":78.0373,"temp":28.4,"humidity":65,"rain":0.0,"pressure":975.8,"uv_index":9.05,"wind_gusts":52.6,"aqi":59,"pm10":17.9,"pm2_5":15.8,"no2":7.8,"co":176.0,"o3":64.0,"so2":3.4,"mosquito_risk":7,"arthritis_risk":5,"migraine_risk":7,"frizz_risk":1,"updated_at":"2026-05-25T03:34:30.597411+05:30"},{"city":"Kakinada","state":"Andhra Pradesh","latitude":16.9891,"longitude":82.2475,"temp":31.1,"humidity":75,"rain":0.0,"pressure":1003.1,"uv_index":9.1,"wind_gusts":30.2,"aqi":87,"pm10":27.8,"pm2_5":21.4,"no2":3.3,"co":348.0,"o3":126.0,"so2":3.2,"mosquito_risk":3,"arthritis_risk":5,"migraine_risk":4,"frizz_risk":1,"updated_at":"2026-05-25T03:34:30.597419+05:30"},{"city":"Tirupati","state":"Andhra Pradesh","latitude":13.6288,"longitude":79.4192,"temp":30.3,"humidity":52,"rain":0.0,"pressure":988.3,"uv_index":9.1,"wind_gusts":42.5,"aqi":75,"pm10":28.6,"pm2_5":26.8,"no2":14.6,"co":217.0,"o3":51.0,"so2":3.4,"mosquito_risk":0,"arthritis_risk":5,"migraine_risk":7,"frizz_risk":1,"updated_at":"2026-05-25T03:34:30.597427+05:30"},{"city":"Warangal","state":"Telangana","latitude":17.9689,"longitude":79.5941,"temp":32.9,"humidity":37,"rain":0.0,"pressure":974.7,"uv_index":8.75,"wind_gusts":42.8,"aqi":85,"pm10":44.8,"pm2_5":34.6,"no2":17.1,"co":225.0,"o3":50.0,"so2":4.5,"mosquito_risk":0,"arthritis_risk":5,"migraine_risk":7,"frizz_risk":1,"updated_at":"2026-05-25T03:34:30.597435+05:30"},{"city":"Nizamabad","state":"Telangana","latitude":18.6725,"longitude":78.0941,"temp":31.5,"humidity":42,"rain":0.0,"pressure":962.5,"uv_index":9.05,"wind_gusts":38.5,"aqi":74,"pm10":24.7,"pm2_5":19.0,"no2":12.1,"co":225.0,"o3":54.0,"so2":4.6,"mosquito_risk":0,"arthritis_risk":5,"migraine_risk":7,"frizz_risk":1,"updated_at":"2026-05-25T03:34:30.597443+05:30"},{"city":"Mysore","state":"Karnataka","latitude":12.2958,"longitude":76.6396,"temp":21.9,"humidity":98,"rain":0.0,"pressure":928.6,"uv_index":9.05,"wind_gusts":40.3,"aqi":41,"pm10":13.5,"pm2_5":12.7,"no2":10.8,"co":262.0,"o3":34.0,"so2":2.1,"mosquito_risk":3,"arthritis_risk":5,"migraine_risk":7,"frizz_risk":1,"updated_at":"2026-05-25T03:34:30.597451+05:30"},{"city":"Mangalore","state":"Karnataka","latitude":12.9141,"longitude":74.856,"temp":25.2,"humidity":97,"rain":0.0,"pressure":1007.3,"uv_index":6.1,"wind_gusts":29.5,"aqi":52,"pm10":25.2,"pm2_5":22.2,"no2":13.3,"co":320.0,"o3":29.0,"so2":3.9,"mosquito_risk":7,"arthritis_risk":5,"migraine_risk":4,"frizz_risk":1,"updated_at":"2026-05-25T03:34:30.597459+05:30"},{"city":"Hubli-Dharwad","state":"Karnataka","latitude":15.3647,"longitude":75.124,"temp":23.1,"humidity":97,"rain":0.0,"pressure":940.7,"uv_index":9.05,"wind_gusts":52.6,"aqi":30,"pm10":9.7,"pm2_5":7.7,"no2":5.6,"co":143.0,"o3":37.0,"so2":1.7,"mosquito_risk":3,"arthritis_risk":5,"migraine_risk":7,"frizz_risk":1,"updated_at":"2026-05-25T03:34:30.597468+05:30"},{"city":"Belgaum","state":"Karnataka","latitude":15.8497,"longitude":74.4977,"temp":22.4,"humidity":98,"rain":0.0,"pressure":925.6,"uv_index":8.8,"wind_gusts":48.2,"aqi":34,"pm10":12.5,"pm2_5":10.2,"no2":8.2,"co":169.0,"o3":29.0,"so2":1.1,"mosquito_risk":3,"arthritis_risk":5,"migraine_risk":7,"frizz_risk":1,"updated_at":"2026-05-25T03:34:33.858129+05:30"},{"city":"Coimbatore","state":"Tamil Nadu","latitude":11.0168,"longitude":76.9558,"temp":24.2,"humidity":89,"rain":0.0,"pressure":961.6,"uv_index":9.05,"wind_gusts":50.4,"aqi":30,"pm10":9.4,"pm2_5":8.5,"no2":7.2,"co":170.0,"o3":37.0,"so2":3.1,"mosquito_risk":3,"arthritis_risk":5,"migraine_risk":7,"frizz_risk":1,"updated_at":"2026-05-25T03:34:33.858160+05:30"},{"city":"Madurai","state":"Tamil Nadu","latitude":9.9252,"longitude":78.1198,"temp":27.6,"humidity":68,"rain":0.0,"pressure":992.3,"uv_index":8.95,"wind_gusts":33.8,"aqi":57,"pm10":26.3,"pm2_5":24.4,"no2":28.9,"co":174.0,"o3":10.0,"so2":6.1,"mosquito_risk":7,"arthritis_risk":5,"migraine_risk":7,"frizz_risk":1,"updated_at":"2026-05-25T03:34:33.858173+05:30"},{"city":"Trichy","state":"Tamil Nadu","latitude":10.7905,"longitude":78.7047,"temp":28.2,"humidity":69,"rain":0.0,"pressure":998.6,"uv_index":8.7,"wind_gusts":38.5,"aqi":47,"pm10":10.1,"pm2_5":9.1,"no2":10.7,"co":164.0,"o3":40.0,"so2":3.9,"mosquito_risk":7,"arthritis_risk":5,"migraine_risk":7,"frizz_risk":1,"updated_at":"2026-05-25T03:34:33.858183+05:30"},{"city":"Salem","state":"Tamil Nadu","latitude":11.6643,"longitude":78.146,"temp":27.1,"humidity":71,"rain":0.0,"pressure":977.0,"uv_index":8.7,"wind_gusts":37.8,"aqi":64,"pm10":28.7,"pm2_5":25.3,"no2":24.5,"co":185.0,"o3":33.0,"so2":9.1,"mosquito_risk":7,"arthritis_risk":5,"migraine_risk":7,"frizz_risk":1,"updated_at":"2026-05-25T03:34:33.858192+05:30"},{"city":"Tirunelveli","state":"Tamil Nadu","latitude":8.7139,"longitude":77.7567,"temp":28.6,"humidity":67,"rain":0.0,"pressure":1002.9,"uv_index":8.85,"wind_gusts":34.9,"aqi":24,"pm10":8.1,"pm2_5":6.7,"no2":5.3,"co":169.0,"o3":39.0,"so2":2.5,"mosquito_risk":7,"arthritis_risk":5,"migraine_risk":4,"frizz_risk":1,"updated_at":"2026-05-25T03:34:33.858201+05:30"},{"city":"Vellore","state":"Tamil Nadu","latitude":12.9165,"longitude":79.1325,"temp":28.0,"humidity":63,"rain":0.0,"pressure":982.6,"uv_index":9.1,"wind_gusts":42.8,"aqi":63,"pm10":22.9,"pm2_5":21.9,"no2":13.8,"co":221.0,"o3":41.0,"so2":4.0,"mosquito_risk":7,"arthritis_risk":5,"migraine_risk":7,"frizz_risk":1,"updated_at":"2026-05-25T03:34:33.858210+05:30"},{"city":"Erode","state":"Tamil Nadu","latitude":11.341,"longitude":77.7172,"temp":26.9,"humidity":75,"rain":0.0,"pressure":988.9,"uv_index":8.8,"wind_gusts":40.7,"aqi":48,"pm10":13.6,"pm2_5":11.8,"no2":13.7,"co":245.0,"o3":29.0,"so2":3.7,"mosquito_risk":7,"arthritis_risk":5,"migraine_risk":7,"frizz_risk":1,"updated_at":"2026-05-25T03:34:33.858218+05:30"},{"city":"Kochi","state":"Kerala","latitude":9.9312,"longitude":76.2673,"temp":25.6,"humidity":94,"rain":0.0,"pressure":1009.2,"uv_index":7.5,"wind_gusts":30.6,"aqi":52,"pm10":18.8,"pm2_5":17.0,"no2":13.4,"co":222.0,"o3":28.0,"so2":4.4,"mosquito_risk":7,"arthritis_risk":0,"migraine_risk":4,"frizz_risk":1,"updated_at":"2026-05-25T03:34:33.858226+05:30"},{"city":"Thiruvananthapuram","state":"Kerala","latitude":8.5241,"longitude":76.9366,"temp":24.7,"humidity":92,"rain":0.0,"pressure":1009.0,"uv_index":8.0,"wind_gusts":36.0,"aqi":29,"pm10":10.2,"pm2_5":6.7,"no2":3.0,"co":188.0,"o3":53.0,"so2":1.5,"mosquito_risk":3,"arthritis_risk":0,"migraine_risk":4,"frizz_risk":1,"updated_at":"2026-05-25T03:34:33.858234+05:30"},{"city":"Kozhikode","state":"Kerala","latitude":11.2588,"longitude":75.7804,"temp":24.6,"humidity":99,"rain":0.0,"pressure":1008.3,"uv_index":8.15,"wind_gusts":31.7,"aqi":29,"pm10":12.2,"pm2_5":7.9,"no2":2.3,"co":542.0,"o3":61.0,"so2":1.3,"mosquito_risk":3,"arthritis_risk":0,"migraine_risk":4,"frizz_risk":1,"updated_at":"2026-05-25T03:34:33.858282+05:30"},{"city":"Thrissur","state":"Kerala","latitude":10.5276,"longitude":76.2144,"temp":24.0,"humidity":99,"rain":0.0,"pressure":1007.7,"uv_index":8.2,"wind_gusts":33.8,"aqi":54,"pm10":17.9,"pm2_5":16.5,"no2":13.0,"co":258.0,"o3":23.0,"so2":3.4,"mosquito_risk":3,"arthritis_risk":5,"migraine_risk":4,"frizz_risk":1,"updated_at":"2026-05-25T03:34:33.858303+05:30"},{"city":"Kannur","state":"Kerala","latitude":11.8745,"longitude":75.3704,"temp":25.5,"humidity":96,"rain":0.0,"pressure":1007.3,"uv_index":8.7,"wind_gusts":28.4,"aqi":44,"pm10":19.8,"pm2_5":17.2,"no2":14.2,"co":338.0,"o3":23.0,"so2":2.6,"mosquito_risk":7,"arthritis_risk":5,"migraine_risk":4,"frizz_risk":1,"updated_at":"2026-05-25T03:34:33.858314+05:30"},{"city":"Patna","state":"Bihar","latitude":25.5941,"longitude":85.1376,"temp":28.7,"humidity":81,"rain":0.0,"pressure":995.2,"uv_index":8.8,"wind_gusts":32.4,"aqi":154,"pm10":51.7,"pm2_5":46.6,"no2":12.4,"co":430.0,"o3":90.0,"so2":14.7,"mosquito_risk":7,"arthritis_risk":5,"migraine_risk":7,"frizz_risk":1,"updated_at":"2026-05-25T03:34:33.858322+05:30"},{"city":"Gaya","state":"Bihar","latitude":24.7914,"longitude":85.0002,"temp":28.2,"humidity":59,"rain":0.0,"pressure":988.3,"uv_index":8.9,"wind_gusts":30.6,"aqi":161,"pm10":178.8,"pm2_5":88.9,"no2":47.9,"co":440.0,"o3":21.0,"so2":12.7,"mosquito_risk":4,"arthritis_risk":5,"migraine_risk":7,"frizz_risk":1,"updated_at":"2026-05-25T03:34:33.858330+05:30"},{"city":"Muzaffarpur","state":"Bihar","latitude":26.1209,"longitude":85.3647,"temp":27.2,"humidity":82,"rain":0.0,"pressure":995.6,"uv_index":8.85,"wind_gusts":33.1,"aqi":153,"pm10":56.8,"pm2_5":49.2,"no2":12.6,"co":451.0,"o3":84.0,"so2":14.0,"mosquito_risk":7,"arthritis_risk":5,"migraine_risk":7,"frizz_risk":1,"updated_at":"2026-05-25T03:34:33.858338+05:30"},{"city":"Bhagalpur","state":"Bihar","latitude":25.2425,"longitude":87.0117,"temp":28.1,"humidity":85,"rain":0.0,"pressure":996.6,"uv_index":8.8,"wind_gusts":36.4,"aqi":139,"pm10":53.4,"pm2_5":46.2,"no2":15.5,"co":492.0,"o3":70.0,"so2":17.4,"mosquito_risk":7,"arthritis_risk":5,"migraine_risk":7,"frizz_risk":1,"updated_at":"2026-05-25T03:34:33.858346+05:30"},{"city":"Ranchi","state":"Jharkhand","latitude":23.3441,"longitude":85.3096,"temp":25.4,"humidity":69,"rain":0.0,"pressure":934.4,"uv_index":9.3,"wind_gusts":49.3,"aqi":147,"pm10":150.4,"pm2_5":62.4,"no2":20.3,"co":343.0,"o3":66.0,"so2":11.1,"mosquito_risk":7,"arthritis_risk":5,"migraine_risk":7,"frizz_risk":1,"updated_at":"2026-05-25T03:34:33.858354+05:30"},{"city":"Jamshedpur","state":"Jharkhand","latitude":22.8046,"longitude":86.2029,"temp":28.9,"humidity":86,"rain":0.0,"pressure":987.4,"uv_index":9.1,"wind_gusts":40.3,"aqi":132,"pm10":49.4,"pm2_5":41.7,"no2":18.4,"co":302.0,"o3":74.0,"so2":20.1,"mosquito_risk":7,"arthritis_risk":5,"migraine_risk":7,"frizz_risk":1,"updated_at":"2026-05-25T03:34:33.858362+05:30"},{"city":"Dhanbad","state":"Jharkhand","latitude":23.7957,"longitude":86.4304,"temp":28.0,"humidity":92,"rain":0.0,"pressure":975.8,"uv_index":9.1,"wind_gusts":40.3,"aqi":158,"pm10":102.4,"pm2_5":72.2,"no2":47.0,"co":1252.0,"o3":52.0,"so2":113.0,"mosquito_risk":7,"arthritis_risk":5,"migraine_risk":7,"frizz_risk":1,"updated_at":"2026-05-25T03:34:33.858370+05:30"},{"city":"Bokaro","state":"Jharkhand","latitude":23.6693,"longitude":86.1511,"temp":28.3,"humidity":68,"rain":0.0,"pressure":979.6,"uv_index":9.1,"wind_gusts":40.0,"aqi":161,"pm10":174.2,"pm2_5":86.6,"no2":48.6,"co":505.0,"o3":25.0,"so2":76.6,"mosquito_risk":7,"arthritis_risk":5,"migraine_risk":7,"frizz_risk":1,"updated_at":"2026-05-25T03:34:33.858378+05:30"},{"city":"Bhubaneswar","state":"Odisha","latitude":20.2961,"longitude":85.8245,"temp":29.4,"humidity":91,"rain":0.0,"pressure":999.3,"uv_index":9.1,"wind_gusts":43.2,"aqi":85,"pm10":32.4,"pm2_5":26.9,"no2":4.6,"co":217.0,"o3":93.0,"so2":3.8,"mosquito_risk":7,"arthritis_risk":5,"migraine_risk":7,"frizz_risk":1,"updated_at":"2026-05-25T03:34:33.858385+05:30"},{"city":"Cuttack","state":"Odisha","latitude":20.4625,"longitude":85.8828,"temp":29.5,"humidity":91,"rain":0.0,"pressure":1001.2,"uv_index":9.2,"wind_gusts":38.2,"aqi":85,"pm10":32.4,"pm2_5":26.9,"no2":4.6,"co":232.0,"o3":93.0,"so2":3.8,"mosquito_risk":7,"arthritis_risk":5,"migraine_risk":4,"frizz_risk":1,"updated_at":"2026-05-25T03:34:33.858394+05:30"},{"city":"Rourkela","state":"Odisha","latitude":22.2604,"longitude":84.8536,"temp":28.2,"humidity":92,"rain":0.0,"pressure":981.8,"uv_index":9.0,"wind_gusts":46.4,"aqi":153,"pm10":140.6,"pm2_5":84.5,"no2":45.3,"co":253.0,"o3":31.0,"so2":22.7,"mosquito_risk":7,"arthritis_risk":5,"migraine_risk":7,"frizz_risk":1,"updated_at":"2026-05-25T03:34:33.858401+05:30"},{"city":"Raipur","state":"Chhattisgarh","latitude":21.2514,"longitude":81.6296,"temp":33.5,"humidity":27,"rain":0.0,"pressure":970.3,"uv_index":8.95,"wind_gusts":42.1,"aqi":134,"pm10":90.3,"pm2_5":62.4,"no2":47.4,"co":637.0,"o3":17.0,"so2":33.4,"mosquito_risk":0,"arthritis_risk":5,"migraine_risk":7,"frizz_risk":0,"updated_at":"2026-05-25T03:34:33.858410+05:30"},{"city":"Bhilai","state":"Chhattisgarh","latitude":21.1938,"longitude":81.3509,"temp":32.7,"humidity":34,"rain":0.0,"pressure":970.6,"uv_index":9.0,"wind_gusts":27.0,"aqi":115,"pm10":88.2,"pm2_5":54.2,"no2":39.5,"co":678.0,"o3":25.0,"so2":34.0,"mosquito_risk":0,"arthritis_risk":5,"migraine_risk":7,"frizz_risk":0,"updated_at":"2026-05-25T03:34:33.858417+05:30"},{"city":"Guwahati","state":"Assam","latitude":26.1158,"longitude":91.7086,"temp":22.8,"humidity":95,"rain":0.0,"pressure":1000.0,"uv_index":8.8,"wind_gusts":32.4,"aqi":55,"pm10":19.4,"pm2_5":13.9,"no2":6.2,"co":284.0,"o3":75.0,"so2":2.3,"mosquito_risk":3,"arthritis_risk":5,"migraine_risk":4,"frizz_risk":1,"updated_at":"2026-05-25T03:34:33.858426+05:30"},{"city":"Agartala","state":"Tripura","latitude":23.8315,"longitude":91.2868,"temp":27.0,"humidity":85,"rain":0.0,"pressure":1004.2,"uv_index":8.8,"wind_gusts":48.6,"aqi":62,"pm10":14.2,"pm2_5":11.6,"no2":8.9,"co":190.0,"o3":56.0,"so2":3.2,"mosquito_risk":7,"arthritis_risk":5,"migraine_risk":4,"frizz_risk":1,"updated_at":"2026-05-25T03:34:33.858434+05:30"},{"city":"Shillong","state":"Meghalaya","latitude":25.5788,"longitude":91.8933,"temp":19.4,"humidity":90,"rain":0.0,"pressure":855.1,"uv_index":8.45,"wind_gusts":43.6,"aqi":40,"pm10":3.2,"pm2_5":1.9,"no2":4.1,"co":192.0,"o3":72.0,"so2":2.3,"mosquito_risk":3,"arthritis_risk":10,"migraine_risk":7,"frizz_risk":1,"updated_at":"2026-05-25T03:34:33.858443+05:30"},{"city":"Imphal","state":"Manipur","latitude":24.817,"longitude":93.9368,"temp":21.0,"humidity":97,"rain":0.0,"pressure":922.5,"uv_index":9.3,"wind_gusts":30.2,"aqi":64,"pm10":11.3,"pm2_5":8.8,"no2":6.8,"co":349.0,"o3":41.0,"so2":1.8,"mosquito_risk":3,"arthritis_risk":5,"migraine_risk":7,"frizz_risk":1,"updated_at":"2026-05-25T03:34:33.858451+05:30"},{"city":"Aizawl","state":"Mizoram","latitude":23.7271,"longitude":92.7176,"temp":18.3,"humidity":95,"rain":0.0,"pressure":891.0,"uv_index":9.1,"wind_gusts":43.2,"aqi":48,"pm10":10.3,"pm2_5":6.4,"no2":2.5,"co":162.0,"o3":49.0,"so2":0.7,"mosquito_risk":3,"arthritis_risk":10,"migraine_risk":7,"frizz_risk":1,"updated_at":"2026-05-25T03:34:33.858459+05:30"},{"city":"Kohima","state":"Nagaland","latitude":25.6701,"longitude":94.1077,"temp":17.1,"humidity":87,"rain":0.0,"pressure":853.0,"uv_index":9.25,"wind_gusts":33.5,"aqi":57,"pm10":11.4,"pm2_5":5.8,"no2":4.0,"co":194.0,"o3":57.0,"so2":1.1,"mosquito_risk":3,"arthritis_risk":10,"migraine_risk":7,"frizz_risk":0,"updated_at":"2026-05-25T03:34:33.858467+05:30"},{"city":"Gangtok","state":"Sikkim","latitude":27.3314,"longitude":88.6138,"temp":15.2,"humidity":87,"rain":0.1,"pressure":834.1,"uv_index":9.2,"wind_gusts":40.0,"aqi":74,"pm10":41.0,"pm2_5":21.5,"no2":14.3,"co":522.0,"o3":48.0,"so2":1.7,"mosquito_risk":6,"arthritis_risk":10,"migraine_risk":7,"frizz_risk":0,"updated_at":"2026-05-25T03:34:33.858475+05:30"},{"city":"Siliguri","state":"West Bengal","latitude":26.7271,"longitude":88.3953,"temp":22.5,"humidity":95,"rain":0.0,"pressure":990.4,"uv_index":8.7,"wind_gusts":30.6,"aqi":92,"pm10":50.8,"pm2_5":30.2,"no2":10.0,"co":398.0,"o3":103.0,"so2":4.5,"mosquito_risk":3,"arthritis_risk":5,"migraine_risk":7,"frizz_risk":1,"updated_at":"2026-05-25T03:34:37.120211+05:30"},{"city":"Durgapur","state":"West Bengal","latitude":23.5204,"longitude":87.3119,"temp":29.0,"humidity":92,"rain":0.0,"pressure":991.2,"uv_index":9.0,"wind_gusts":39.2,"aqi":145,"pm10":38.9,"pm2_5":36.3,"no2":22.1,"co":502.0,"o3":59.0,"so2":29.7,"mosquito_risk":7,"arthritis_risk":5,"migraine_risk":7,"frizz_risk":1,"updated_at":"2026-05-25T03:34:37.120242+05:30"},{"city":"Asansol","state":"West Bengal","latitude":23.6739,"longitude":86.9524,"temp":29.1,"humidity":91,"rain":0.0,"pressure":989.5,"uv_index":9.05,"wind_gusts":33.1,"aqi":150,"pm10":55.2,"pm2_5":46.1,"no2":27.4,"co":341.0,"o3":61.0,"so2":43.6,"mosquito_risk":7,"arthritis_risk":5,"migraine_risk":7,"frizz_risk":1,"updated_at":"2026-05-25T03:34:37.120274+05:30"},{"city":"Pondicherry","state":"Puducherry","latitude":11.9139,"longitude":79.8145,"temp":28.1,"humidity":70,"rain":0.0,"pressure":1006.1,"uv_index":8.8,"wind_gusts":41.0,"aqi":73,"pm10":25.0,"pm2_5":22.4,"no2":11.3,"co":304.0,"o3":71.0,"so2":6.4,"mosquito_risk":7,"arthritis_risk":5,"migraine_risk":4,"frizz_risk":1,"updated_at":"2026-05-25T03:34:37.120285+05:30"},{"city":"Port Blair","state":"Andaman and Nicobar Islands","latitude":11.6234,"longitude":92.7265,"temp":25.7,"humidity":96,"rain":0.0,"pressure":1006.8,"uv_index":8.65,"wind_gusts":32.8,"aqi":29,"pm10":12.6,"pm2_5":7.2,"no2":0.2,"co":110.0,"o3":73.0,"so2":0.4,"mosquito_risk":7,"arthritis_risk":5,"migraine_risk":4,"frizz_risk":1,"updated_at":"2026-05-25T03:34:37.120293+05:30"},{"city":"Haridwar","state":"Uttarakhand","latitude":29.9457,"longitude":78.1642,"temp":25.0,"humidity":49,"rain":0.0,"pressure":967.7,"uv_index":7.5,"wind_gusts":30.2,"aqi":84,"pm10":56.7,"pm2_5":38.8,"no2":29.1,"co":237.0,"o3":24.0,"so2":6.3,"mosquito_risk":4,"arthritis_risk":5,"migraine_risk":7,"frizz_risk":0,"updated_at":"2026-05-25T03:34:37.120301+05:30"},{"city":"Rishikesh","state":"Uttarakhand","latitude":30.0869,"longitude":78.2676,"temp":22.0,"humidity":57,"rain":0.0,"pressure":960.4,"uv_index":7.65,"wind_gusts":36.4,"aqi":79,"pm10":56.2,"pm2_5":33.4,"no2":13.5,"co":273.0,"o3":74.0,"so2":6.0,"mosquito_risk":0,"arthritis_risk":5,"migraine_risk":7,"frizz_risk":0,"updated_at":"2026-05-25T03:34:37.120309+05:30"},{"city":"Nainital","state":"Uttarakhand","latitude":29.3919,"longitude":79.4542,"temp":17.5,"humidity":37,"rain":0.0,"pressure":802.6,"uv_index":8.45,"wind_gusts":47.9,"aqi":89,"pm10":46.8,"pm2_5":31.1,"no2":21.3,"co":189.0,"o3":44.0,"so2":3.1,"mosquito_risk":0,"arthritis_risk":5,"migraine_risk":7,"frizz_risk":0,"updated_at":"2026-05-25T03:34:37.120317+05:30"},{"city":"Mussoorie","state":"Uttarakhand","latitude":30.4599,"longitude":78.0664,"temp":18.0,"humidity":38,"rain":0.0,"pressure":800.6,"uv_index":7.95,"wind_gusts":54.7,"aqi":76,"pm10":57.7,"pm2_5":28.6,"no2":28.9,"co":164.0,"o3":29.0,"so2":4.4,"mosquito_risk":0,"arthritis_risk":5,"migraine_risk":7,"frizz_risk":0,"updated_at":"2026-05-25T03:34:37.120324+05:30"},{"city":"Dharamshala","state":"Himachal Pradesh","latitude":32.219,"longitude":76.3234,"temp":22.4,"humidity":34,"rain":0.0,"pressure":865.8,"uv_index":8.4,"wind_gusts":43.2,"aqi":43,"pm10":9.5,"pm2_5":5.0,"no2":11.5,"co":135.0,"o3":35.0,"so2":0.0,"mosquito_risk":0,"arthritis_risk":5,"migraine_risk":7,"frizz_risk":0,"updated_at":"2026-05-25T03:34:37.120331+05:30"},{"city":"Dalhousie","state":"Himachal Pradesh","latitude":32.5387,"longitude":75.971,"temp":12.2,"humidity":64,"rain":0.0,"pressure":799.0,"uv_index":8.7,"wind_gusts":43.6,"aqi":64,"pm10":17.8,"pm2_5":13.0,"no2":22.6,"co":200.0,"o3":22.0,"so2":0.6,"mosquito_risk":3,"arthritis_risk":5,"migraine_risk":7,"frizz_risk":0,"updated_at":"2026-05-25T03:34:37.120340+05:30"},{"city":"Patiala","state":"Punjab","latitude":30.3398,"longitude":76.3869,"temp":28.9,"humidity":35,"rain":0.0,"pressure":971.8,"uv_index":7.6,"wind_gusts":31.7,"aqi":291,"pm10":93.6,"pm2_5":40.6,"no2":15.0,"co":414.0,"o3":70.0,"so2":10.2,"mosquito_risk":4,"arthritis_risk":5,"migraine_risk":7,"frizz_risk":0,"updated_at":"2026-05-25T03:34:37.120347+05:30"},{"city":"Bhatinda","state":"Punjab","latitude":30.211,"longitude":74.9455,"temp":29.8,"humidity":35,"rain":0.0,"pressure":977.9,"uv_index":8.25,"wind_gusts":30.2,"aqi":131,"pm10":153.2,"pm2_5":56.8,"no2":19.4,"co":262.0,"o3":48.0,"so2":6.8,"mosquito_risk":4,"arthritis_risk":5,"migraine_risk":7,"frizz_risk":0,"updated_at":"2026-05-25T03:34:37.120354+05:30"},{"city":"Rohtak","state":"Haryana","latitude":28.8955,"longitude":76.6066,"temp":28.4,"humidity":43,"rain":0.0,"pressure":975.8,"uv_index":7.75,"wind_gusts":36.7,"aqi":600,"pm10":1143.7,"pm2_5":193.7,"no2":6.1,"co":172.0,"o3":66.0,"so2":2.6,"mosquito_risk":4,"arthritis_risk":5,"migraine_risk":7,"frizz_risk":0,"updated_at":"2026-05-25T03:34:37.120361+05:30"},{"city":"Panipat","state":"Haryana","latitude":29.3909,"longitude":76.9635,"temp":29.2,"humidity":33,"rain":0.0,"pressure":974.3,"uv_index":7.6,"wind_gusts":28.1,"aqi":1248,"pm10":1024.5,"pm2_5":198.8,"no2":39.0,"co":491.0,"o3":23.0,"so2":8.4,"mosquito_risk":4,"arthritis_risk":5,"migraine_risk":7,"frizz_risk":0,"updated_at":"2026-05-25T03:34:37.120367+05:30"},{"city":"Mathura","state":"Uttar Pradesh","latitude":27.4924,"longitude":77.6737,"temp":32.8,"humidity":26,"rain":0.0,"pressure":981.4,"uv_index":8.0,"wind_gusts":38.2,"aqi":829,"pm10":1914.8,"pm2_5":241.2,"no2":4.0,"co":160.0,"o3":77.0,"so2":3.3,"mosquito_risk":0,"arthritis_risk":5,"migraine_risk":7,"frizz_risk":0,"updated_at":"2026-05-25T03:34:37.120374+05:30"},{"city":"Vrindavan","state":"Uttar Pradesh","latitude":27.5823,"longitude":77.7027,"temp":32.5,"humidity":26,"rain":0.0,"pressure":981.7,"uv_index":8.0,"wind_gusts":36.7,"aqi":829,"pm10":1914.8,"pm2_5":241.2,"no2":4.0,"co":152.0,"o3":77.0,"so2":3.3,"mosquito_risk":0,"arthritis_risk":5,"migraine_risk":7,"frizz_risk":0,"updated_at":"2026-05-25T03:34:37.120380+05:30"},{"city":"Ayodhya","state":"Uttar Pradesh","latitude":26.7922,"longitude":82.1998,"temp":28.2,"humidity":60,"rain":0.0,"pressure":989.5,"uv_index":8.35,"wind_gusts":31.0,"aqi":160,"pm10":266.4,"pm2_5":96.4,"no2":58.0,"co":689.0,"o3":13.0,"so2":12.5,"mosquito_risk":4,"arthritis_risk":5,"migraine_risk":7,"frizz_risk":1,"updated_at":"2026-05-25T03:34:37.120387+05:30"},{"city":"Ratlam","state":"Madhya Pradesh","latitude":23.3315,"longitude":75.0367,"temp":28.5,"humidity":64,"rain":0.0,"pressure":953.9,"uv_index":8.55,"wind_gusts":47.9,"aqi":61,"pm10":15.2,"pm2_5":12.6,"no2":6.4,"co":163.0,"o3":51.0,"so2":9.9,"mosquito_risk":7,"arthritis_risk":5,"migraine_risk":7,"frizz_risk":1,"updated_at":"2026-05-25T03:34:37.120394+05:30"},{"city":"Sagar","state":"Madhya Pradesh","latitude":23.8388,"longitude":78.7378,"temp":32.1,"humidity":27,"rain":0.0,"pressure":948.0,"uv_index":8.75,"wind_gusts":41.0,"aqi":91,"pm10":48.3,"pm2_5":25.5,"no2":5.9,"co":186.0,"o3":67.0,"so2":3.5,"mosquito_risk":0,"arthritis_risk":5,"migraine_risk":7,"frizz_risk":0,"updated_at":"2026-05-25T03:34:37.120400+05:30"},{"city":"Satna","state":"Madhya Pradesh","latitude":24.6005,"longitude":80.8322,"temp":31.2,"humidity":30,"rain":0.0,"pressure":966.7,"uv_index":8.35,"wind_gusts":48.6,"aqi":93,"pm10":50.1,"pm2_5":27.6,"no2":12.0,"co":198.0,"o3":64.0,"so2":4.7,"mosquito_risk":0,"arthritis_risk":5,"migraine_risk":7,"frizz_risk":0,"updated_at":"2026-05-25T03:34:37.120407+05:30"},{"city":"Akola","state":"Maharashtra","latitude":20.7002,"longitude":77.0082,"temp":31.5,"humidity":50,"rain":0.0,"pressure":973.3,"uv_index":8.9,"wind_gusts":47.5,"aqi":62,"pm10":18.4,"pm2_5":15.1,"no2":7.0,"co":149.0,"o3":78.0,"so2":11.4,"mosquito_risk":0,"arthritis_risk":5,"migraine_risk":7,"frizz_risk":1,"updated_at":"2026-05-25T03:34:37.120414+05:30"},{"city":"Amravati","state":"Maharashtra","latitude":20.9374,"longitude":77.7796,"temp":33.0,"humidity":34,"rain":0.0,"pressure":965.0,"uv_index":8.2,"wind_gusts":42.8,"aqi":64,"pm10":21.8,"pm2_5":16.7,"no2":6.8,"co":185.0,"o3":79.0,"so2":9.6,"mosquito_risk":0,"arthritis_risk":5,"migraine_risk":7,"frizz_risk":0,"updated_at":"2026-05-25T03:34:37.120422+05:30"},{"city":"Latur","state":"Maharashtra","latitude":18.4088,"longitude":76.5604,"temp":27.8,"humidity":63,"rain":0.0,"pressure":939.2,"uv_index":9.05,"wind_gusts":36.7,"aqi":53,"pm10":8.3,"pm2_5":7.4,"no2":5.9,"co":156.0,"o3":63.0,"so2":5.2,"mosquito_risk":7,"arthritis_risk":5,"migraine_risk":7,"frizz_risk":1,"updated_at":"2026-05-25T03:34:37.120429+05:30"},{"city":"Nanded","state":"Maharashtra","latitude":19.1383,"longitude":77.3091,"temp":32.2,"humidity":42,"rain":0.0,"pressure":966.8,"uv_index":8.95,"wind_gusts":37.1,"aqi":59,"pm10":16.5,"pm2_5":12.8,"no2":7.8,"co":140.0,"o3":59.0,"so2":4.6,"mosquito_risk":0,"arthritis_risk":5,"migraine_risk":7,"frizz_risk":1,"updated_at":"2026-05-25T03:34:37.120436+05:30"},{"city":"Gulbarga","state":"Karnataka","latitude":17.3297,"longitude":76.8343,"temp":27.8,"humidity":66,"rain":0.0,"pressure":957.6,"uv_index":9.05,"wind_gusts":37.4,"aqi":54,"pm10":9.8,"pm2_5":8.3,"no2":6.8,"co":163.0,"o3":58.0,"so2":4.6,"mosquito_risk":7,"arthritis_risk":5,"migraine_risk":7,"frizz_risk":1,"updated_at":"2026-05-25T03:34:37.120442+05:30"},{"city":"Bidar","state":"Karnataka","latitude":17.9104,"longitude":77.5199,"temp":28.5,"humidity":55,"rain":0.0,"pressure":934.3,"uv_index":9.1,"wind_gusts":41.4,"aqi":62,"pm10":13.2,"pm2_5":11.6,"no2":7.9,"co":157.0,"o3":66.0,"so2":4.6,"mosquito_risk":4,"arthritis_risk":5,"migraine_risk":7,"frizz_risk":1,"updated_at":"2026-05-25T03:34:37.120449+05:30"},{"city":"Hospet","state":"Karnataka","latitude":15.2689,"longitude":76.3909,"temp":24.8,"humidity":91,"rain":0.0,"pressure":955.7,"uv_index":9.1,"wind_gusts":49.7,"aqi":40,"pm10":8.9,"pm2_5":8.1,"no2":8.2,"co":158.0,"o3":36.0,"so2":2.0,"mosquito_risk":3,"arthritis_risk":5,"migraine_risk":7,"frizz_risk":1,"updated_at":"2026-05-25T03:34:37.120455+05:30"},{"city":"Tirupur","state":"Tamil Nadu","latitude":11.1085,"longitude":77.3411,"temp":24.5,"humidity":88,"rain":0.0,"pressure":974.9,"uv_index":9.1,"wind_gusts":51.1,"aqi":48,"pm10":16.6,"pm2_5":14.6,"no2":15.2,"co":145.0,"o3":24.0,"so2":4.2,"mosquito_risk":3,"arthritis_risk":5,"migraine_risk":7,"frizz_risk":1,"updated_at":"2026-05-25T03:34:37.120461+05:30"},{"city":"Alappuzha","state":"Kerala","latitude":9.4981,"longitude":76.3388,"temp":25.6,"humidity":97,"rain":0.0,"pressure":1009.4,"uv_index":7.7,"wind_gusts":29.9,"aqi":41,"pm10":13.3,"pm2_5":10.4,"no2":7.0,"co":195.0,"o3":49.0,"so2":2.7,"mosquito_risk":7,"arthritis_risk":0,"migraine_risk":4,"frizz_risk":1,"updated_at":"2026-05-25T03:34:37.120468+05:30"},{"city":"Munnar","state":"Kerala","latitude":10.0889,"longitude":77.0595,"temp":16.4,"humidity":90,"rain":0.0,"pressure":856.2,"uv_index":9.3,"wind_gusts":28.4,"aqi":19,"pm10":7.7,"pm2_5":7.2,"no2":7.9,"co":149.0,"o3":21.0,"so2":1.2,"mosquito_risk":3,"arthritis_risk":10,"migraine_risk":7,"frizz_risk":0,"updated_at":"2026-05-25T03:34:37.120475+05:30"},{"city":"Silchar","state":"Assam","latitude":24.8333,"longitude":92.7789,"temp":24.5,"humidity":94,"rain":0.0,"pressure":1003.8,"uv_index":8.95,"wind_gusts":36.4,"aqi":58,"pm10":30.3,"pm2_5":13.9,"no2":6.2,"co":258.0,"o3":62.0,"so2":2.5,"mosquito_risk":3,"arthritis_risk":5,"migraine_risk":4,"frizz_risk":1,"updated_at":"2026-05-25T03:34:37.120482+05:30"},{"city":"Dibrugarh","state":"Assam","latitude":27.4728,"longitude":94.912,"temp":22.5,"humidity":97,"rain":0.3,"pressure":994.4,"uv_index":8.95,"wind_gusts":30.2,"aqi":59,"pm10":27.6,"pm2_5":15.1,"no2":8.2,"co":224.0,"o3":67.0,"so2":1.6,"mosquito_risk":6,"arthritis_risk":5,"migraine_risk":7,"frizz_risk":1,"updated_at":"2026-05-25T03:34:37.120489+05:30"}]