[{"city":"Delhi","state":"Delhi","latitude":28.6139,"longitude":77.209,"temp":26.9,"humidity":58,"rain":0.0,"pressure":988.4,"uv_index":6.05,"wind_gusts":23.4,"aqi":387,"pm10":260.8,"pm2_5":112.9,"mosquito_risk":4,"arthritis_risk":5,"migraine_risk":7,"frizz_risk":1,"updated_at":"2026-03-10T21:32:50.298200+05:30"},{"city":"Mumbai","state":"Maharashtra","latitude":19.076,"longitude":72.8777,"temp":28.1,"humidity":79,"rain":0.0,"pressure":1010.8,"uv_index":7.55,"wind_gusts":19.8,"aqi":238,"pm10":36.0,"pm2_5":34.5,"mosquito_risk":7,"arthritis_risk":0,"migraine_risk":4,"frizz_risk":1,"updated_at":"2026-03-10T21:32:50.298246+05:30"},{"city":"Bangalore","state":"Karnataka","latitude":12.9716,"longitude":77.5946,"temp":24.2,"humidity":47,"rain":0.0,"pressure":915.5,"uv_index":9.25,"wind_gusts":32.4,"aqi":99,"pm10":25.0,"pm2_5":24.0,"mosquito_risk":0,"arthritis_risk":5,"migraine_risk":7,"frizz_risk":0,"updated_at":"2026-03-10T21:32:50.298260+05:30"},{"city":"Hyderabad","state":"Telangana","latitude":17.385,"longitude":78.4867,"temp":25.0,"humidity":60,"rain":0.0,"pressure":958.1,"uv_index":8.6,"wind_gusts":31.0,"aqi":138,"pm10":54.2,"pm2_5":47.5,"mosquito_risk":4,"arthritis_risk":5,"migraine_risk":7,"frizz_risk":1,"updated_at":"2026-03-10T21:32:50.298270+05:30"},{"city":"Chennai","state":"Tamil Nadu","latitude":13.0827,"longitude":80.2707,"temp":25.9,"humidity":76,"rain":0.0,"pressure":1013.1,"uv_index":8.95,"wind_gusts":35.6,"aqi":78,"pm10":21.7,"pm2_5":17.0,"mosquito_risk":7,"arthritis_risk":0,"migraine_risk":4,"frizz_risk":1,"updated_at":"2026-03-10T21:32:50.298279+05:30"},{"city":"Kolkata","state":"West Bengal","latitude":22.5726,"longitude":88.3639,"temp":25.3,"humidity":87,"rain":0.0,"pressure":1011.9,"uv_index":5.1,"wind_gusts":18.0,"aqi":128,"pm10":77.3,"pm2_5":69.6,"mosquito_risk":7,"arthritis_risk":0,"migraine_risk":0,"frizz_risk":1,"updated_at":"2026-03-10T21:32:50.298287+05:30"},{"city":"Pune","state":"Maharashtra","latitude":18.5204,"longitude":73.8567,"temp":27.3,"humidity":45,"rain":0.0,"pressure":951.7,"uv_index":8.1,"wind_gusts":36.4,"aqi":117,"pm10":26.9,"pm2_5":24.6,"mosquito_risk":4,"arthritis_risk":5,"migraine_risk":7,"frizz_risk":0,"updated_at":"2026-03-10T21:32:50.298297+05:30"},{"city":"Ahmedabad","state":"Gujarat","latitude":23.0225,"longitude":72.5714,"temp":29.1,"humidity":33,"rain":0.0,"pressure":1006.0,"uv_index":7.4,"wind_gusts":19.1,"aqi":122,"pm10":34.6,"pm2_5":33.6,"mosquito_risk":4,"arthritis_risk":5,"migraine_risk":4,"frizz_risk":0,"updated_at":"2026-03-10T21:32:50.298304+05:30"},{"city":"Jaipur","state":"Rajasthan","latitude":26.9124,"longitude":75.7873,"temp":28.2,"humidity":18,"rain":0.0,"pressure":964.5,"uv_index":6.85,"wind_gusts":22.0,"aqi":114,"pm10":155.1,"pm2_5":40.5,"mosquito_risk":4,"arthritis_risk":5,"migraine_risk":7,"frizz_risk":0,"updated_at":"2026-03-10T21:32:50.298310+05:30"},{"city":"Lucknow","state":"Uttar Pradesh","latitude":26.8467,"longitude":80.9462,"temp":27.0,"humidity":70,"rain":0.0,"pressure":999.4,"uv_index":6.55,"wind_gusts":20.2,"aqi":183,"pm10":176.5,"pm2_5":132.2,"mosquito_risk":7,"arthritis_risk":5,"migraine_risk":7,"frizz_risk":1,"updated_at":"2026-03-10T21:32:50.298317+05:30"},{"city":"Kanpur","state":"Uttar Pradesh","latitude":26.4499,"longitude":80.3319,"temp":26.0,"humidity":72,"rain":0.0,"pressure":997.5,"uv_index":6.6,"wind_gusts":15.5,"aqi":174,"pm10":201.2,"pm2_5":105.9,"mosquito_risk":7,"arthritis_risk":5,"migraine_risk":7,"frizz_risk":1,"updated_at":"2026-03-10T21:32:50.298322+05:30"},{"city":"Chandigarh","state":"Chandigarh","latitude":30.7333,"longitude":76.7794,"temp":24.8,"humidity":72,"rain":0.0,"pressure":974.2,"uv_index":6.0,"wind_gusts":15.5,"aqi":147,"pm10":100.6,"pm2_5":83.4,"mosquito_risk":3,"arthritis_risk":5,"migraine_risk":3,"frizz_risk":1,"updated_at":"2026-03-10T21:32:50.298328+05:30"},{"city":"Srinagar","state":"Jammu and Kashmir","latitude":34.0837,"longitude":74.7973,"temp":10.1,"humidity":92,"rain":0.0,"pressure":847.2,"uv_index":3.95,"wind_gusts":28.8,"aqi":122,"pm10":98.5,"pm2_5":81.3,"mosquito_risk":3,"arthritis_risk":10,"migraine_risk":3,"frizz_risk":0,"updated_at":"2026-03-10T21:32:50.298334+05:30"},{"city":"Jammu","state":"Jammu and Kashmir","latitude":32.7266,"longitude":74.857,"temp":23.2,"humidity":76,"rain":0.0,"pressure":977.8,"uv_index":6.0,"wind_gusts":38.2,"aqi":110,"pm10":73.8,"pm2_5":62.2,"mosquito_risk":3,"arthritis_risk":5,"migraine_risk":3,"frizz_risk":1,"updated_at":"2026-03-10T21:32:50.298340+05:30"},{"city":"Amritsar","state":"Punjab","latitude":31.634,"longitude":74.8723,"temp":23.9,"humidity":83,"rain":0.0,"pressure":985.7,"uv_index":6.0,"wind_gusts":26.3,"aqi":160,"pm10":111.5,"pm2_5":71.9,"mosquito_risk":3,"arthritis_risk":5,"migraine_risk":3,"frizz_risk":1,"updated_at":"2026-03-10T21:32:50.298345+05:30"},{"city":"Ludhiana","state":"Punjab","latitude":30.901,"longitude":75.8573,"temp":25.3,"humidity":62,"rain":0.0,"pressure":984.1,"uv_index":5.7,"wind_gusts":13.0,"aqi":173,"pm10":184.9,"pm2_5":140.6,"mosquito_risk":7,"arthritis_risk":5,"migraine_risk":3,"frizz_risk":1,"updated_at":"2026-03-10T21:32:50.298351+05:30"},{"city":"Jalandhar","state":"Punjab","latitude":31.326,"longitude":75.5762,"temp":24.6,"humidity":77,"rain":0.0,"pressure":985.1,"uv_index":6.0,"wind_gusts":14.0,"aqi":168,"pm10":169.5,"pm2_5":115.5,"mosquito_risk":3,"arthritis_risk":5,"migraine_risk":3,"frizz_risk":1,"updated_at":"2026-03-10T21:32:50.298358+05:30"},{"city":"Dehradun","state":"Uttarakhand","latitude":30.6284,"longitude":78.0322,"temp":15.8,"humidity":95,"rain":0.0,"pressure":835.1,"uv_index":6.4,"wind_gusts":26.6,"aqi":113,"pm10":63.6,"pm2_5":44.5,"mosquito_risk":3,"arthritis_risk":10,"migraine_risk":7,"frizz_risk":0,"updated_at":"2026-03-10T21:32:50.298364+05:30"},{"city":"Shimla","state":"Himachal Pradesh","latitude":31.1048,"longitude":77.1734,"temp":14.0,"humidity":79,"rain":0.0,"pressure":788.9,"uv_index":6.1,"wind_gusts":37.1,"aqi":106,"pm10":75.0,"pm2_5":55.4,"mosquito_risk":3,"arthritis_risk":5,"migraine_risk":7,"frizz_risk":0,"updated_at":"2026-03-10T21:32:50.298369+05:30"},{"city":"Manali","state":"Himachal Pradesh","latitude":32.2396,"longitude":77.1887,"temp":16.5,"humidity":42,"rain":0.0,"pressure":826.0,"uv_index":7.45,"wind_gusts":41.0,"aqi":79,"pm10":27.9,"pm2_5":15.1,"mosquito_risk":0,"arthritis_risk":5,"migraine_risk":7,"frizz_risk":0,"updated_at":"2026-03-10T21:32:50.298374+05:30"},{"city":"Gurgaon","state":"Haryana","latitude":28.4595,"longitude":77.0266,"temp":24.5,"humidity":70,"rain":0.0,"pressure":986.7,"uv_index":5.9,"wind_gusts":21.2,"aqi":542,"pm10":386.5,"pm2_5":113.4,"mosquito_risk":3,"arthritis_risk":5,"migraine_risk":3,"frizz_risk":1,"updated_at":"2026-03-10T21:32:50.298380+05:30"},{"city":"Noida","state":"Uttar Pradesh","latitude":28.5355,"longitude":77.391,"temp":26.8,"humidity":58,"rain":0.0,"pressure":989.9,"uv_index":6.1,"wind_gusts":23.4,"aqi":542,"pm10":386.5,"pm2_5":113.4,"mosquito_risk":4,"arthritis_risk":5,"migraine_risk":7,"frizz_risk":1,"updated_at":"2026-03-10T21:32:50.298386+05:30"},{"city":"Ghaziabad","state":"Uttar Pradesh","latitude":28.6692,"longitude":77.4538,"temp":25.4,"humidity":66,"rain":0.0,"pressure":988.1,"uv_index":5.9,"wind_gusts":18.7,"aqi":228,"pm10":188.1,"pm2_5":99.2,"mosquito_risk":7,"arthritis_risk":5,"migraine_risk":3,"frizz_risk":1,"updated_at":"2026-03-10T21:32:50.298391+05:30"},{"city":"Faridabad","state":"Haryana","latitude":28.4089,"longitude":77.3178,"temp":26.3,"humidity":55,"rain":0.0,"pressure":989.0,"uv_index":6.05,"wind_gusts":23.0,"aqi":542,"pm10":386.5,"pm2_5":113.4,"mosquito_risk":4,"arthritis_risk":5,"migraine_risk":7,"frizz_risk":1,"updated_at":"2026-03-10T21:32:50.298396+05:30"},{"city":"Meerut","state":"Uttar Pradesh","latitude":28.9845,"longitude":77.7064,"temp":23.8,"humidity":75,"rain":0.0,"pressure":987.0,"uv_index":5.7,"wind_gusts":18.4,"aqi":228,"pm10":188.1,"pm2_5":99.2,"mosquito_risk":3,"arthritis_risk":5,"migraine_risk":3,"frizz_risk":1,"updated_at":"2026-03-10T21:32:50.298402+05:30"},{"city":"Agra","state":"Uttar Pradesh","latitude":27.1767,"longitude":78.0081,"temp":24.9,"humidity":62,"rain":0.0,"pressure":993.2,"uv_index":6.45,"wind_gusts":22.0,"aqi":227,"pm10":410.7,"pm2_5":121.1,"mosquito_risk":3,"arthritis_risk":5,"migraine_risk":7,"frizz_risk":1,"updated_at":"2026-03-10T21:32:50.298407+05:30"},{"city":"Varanasi","state":"Uttar Pradesh","latitude":25.3176,"longitude":82.9739,"temp":25.2,"humidity":84,"rain":0.0,"pressure":1003.4,"uv_index":7.2,"wind_gusts":15.5,"aqi":185,"pm10":156.0,"pm2_5":148.5,"mosquito_risk":7,"arthritis_risk":5,"migraine_risk":4,"frizz_risk":1,"updated_at":"2026-03-10T21:32:50.298414+05:30"},{"city":"Prayagraj","state":"Uttar Pradesh","latitude":25.4358,"longitude":81.8463,"temp":26.8,"humidity":72,"rain":0.0,"pressure":1001.7,"uv_index":7.1,"wind_gusts":15.5,"aqi":184,"pm10":121.1,"pm2_5":113.6,"mosquito_risk":7,"arthritis_risk":5,"migraine_risk":4,"frizz_risk":1,"updated_at":"2026-03-10T21:32:50.298420+05:30"},{"city":"Gorakhpur","state":"Uttar Pradesh","latitude":26.7606,"longitude":83.3732,"temp":25.1,"humidity":79,"rain":0.0,"pressure":1003.2,"uv_index":6.95,"wind_gusts":20.2,"aqi":183,"pm10":164.8,"pm2_5":151.8,"mosquito_risk":7,"arthritis_risk":5,"migraine_risk":4,"frizz_risk":1,"updated_at":"2026-03-10T21:32:50.298427+05:30"},{"city":"Bareilly","state":"Uttar Pradesh","latitude":28.367,"longitude":79.4304,"temp":25.0,"humidity":76,"rain":0.0,"pressure":992.6,"uv_index":5.9,"wind_gusts":18.0,"aqi":183,"pm10":164.4,"pm2_5":140.2,"mosquito_risk":7,"arthritis_risk":5,"migraine_risk":3,"frizz_risk":1,"updated_at":"2026-03-10T21:32:50.298433+05:30"},{"city":"Aligarh","state":"Uttar Pradesh","latitude":27.8974,"longitude":78.088,"temp":23.4,"humidity":70,"rain":0.0,"pressure":991.1,"uv_index":6.15,"wind_gusts":23.4,"aqi":190,"pm10":386.5,"pm2_5":142.0,"mosquito_risk":3,"arthritis_risk":5,"migraine_risk":7,"frizz_risk":1,"updated_at":"2026-03-10T21:32:50.298438+05:30"},{"city":"Moradabad","state":"Uttar Pradesh","latitude":28.8386,"longitude":78.7733,"temp":25.0,"humidity":75,"rain":0.0,"pressure":989.3,"uv_index":5.45,"wind_gusts":23.4,"aqi":183,"pm10":192.3,"pm2_5":149.0,"mosquito_risk":7,"arthritis_risk":5,"migraine_risk":3,"frizz_risk":1,"updated_at":"2026-03-10T21:32:50.298443+05:30"},{"city":"Saharanpur","state":"Uttar Pradesh","latitude":29.9637,"longitude":77.546,"temp":23.4,"humidity":84,"rain":0.0,"pressure":981.2,"uv_index":5.7,"wind_gusts":21.2,"aqi":165,"pm10":160.7,"pm2_5":102.2,"mosquito_risk":3,"arthritis_risk":5,"migraine_risk":3,"frizz_risk":1,"updated_at":"2026-03-10T21:32:50.298448+05:30"},{"city":"Jhansi","state":"Uttar Pradesh","latitude":25.4484,"longitude":78.5685,"temp":24.9,"humidity":47,"rain":0.0,"pressure":983.2,"uv_index":7.05,"wind_gusts":26.3,"aqi":105,"pm10":85.4,"pm2_5":29.8,"mosquito_risk":0,"arthritis_risk":5,"migraine_risk":7,"frizz_risk":0,"updated_at":"2026-03-10T21:32:53.610240+05:30"},{"city":"Surat","state":"Gujarat","latitude":21.1702,"longitude":72.8311,"temp":29.8,"humidity":41,"rain":0.0,"pressure":1009.2,"uv_index":7.3,"wind_gusts":23.8,"aqi":108,"pm10":32.8,"pm2_5":32.1,"mosquito_risk":4,"arthritis_risk":0,"migraine_risk":4,"frizz_risk":0,"updated_at":"2026-03-10T21:32:53.610269+05:30"},{"city":"Vadodara","state":"Gujarat","latitude":22.3072,"longitude":73.1812,"temp":32.1,"humidity":32,"rain":0.0,"pressure":1007.5,"uv_index":7.4,"wind_gusts":17.3,"aqi":112,"pm10":31.9,"pm2_5":29.3,"mosquito_risk":0,"arthritis_risk":5,"migraine_risk":4,"frizz_risk":0,"updated_at":"2026-03-10T21:32:53.610278+05:30"},{"city":"Rajkot","state":"Gujarat","latitude":22.3039,"longitude":70.8022,"temp":30.7,"humidity":29,"rain":0.0,"pressure":998.3,"uv_index":7.25,"wind_gusts":33.5,"aqi":91,"pm10":23.1,"pm2_5":21.9,"mosquito_risk":0,"arthritis_risk":5,"migraine_risk":7,"frizz_risk":0,"updated_at":"2026-03-10T21:32:53.610286+05:30"},{"city":"Thane","state":"Maharashtra","latitude":19.2183,"longitude":72.9781,"temp":27.3,"humidity":73,"rain":0.0,"pressure":1010.3,"uv_index":7.55,"wind_gusts":33.5,"aqi":238,"pm10":36.0,"pm2_5":34.5,"mosquito_risk":7,"arthritis_risk":0,"migraine_risk":4,"frizz_risk":1,"updated_at":"2026-03-10T21:32:53.610293+05:30"},{"city":"Nagpur","state":"Maharashtra","latitude":21.1458,"longitude":79.0882,"temp":28.2,"humidity":43,"rain":0.0,"pressure":977.2,"uv_index":7.95,"wind_gusts":24.8,"aqi":143,"pm10":51.2,"pm2_5":40.3,"mosquito_risk":4,"arthritis_risk":5,"migraine_risk":7,"frizz_risk":0,"updated_at":"2026-03-10T21:32:53.610301+05:30"},{"city":"Nashik","state":"Maharashtra","latitude":19.9975,"longitude":73.7898,"temp":27.0,"humidity":37,"rain":0.0,"pressure":948.9,"uv_index":7.75,"wind_gusts":28.1,"aqi":125,"pm10":24.0,"pm2_5":21.9,"mosquito_risk":4,"arthritis_risk":5,"migraine_risk":7,"frizz_risk":0,"updated_at":"2026-03-10T21:32:53.610308+05:30"},{"city":"Aurangabad","state":"Maharashtra","latitude":19.8762,"longitude":75.3433,"temp":27.5,"humidity":48,"rain":0.0,"pressure":947.7,"uv_index":8.3,"wind_gusts":21.6,"aqi":117,"pm10":31.3,"pm2_5":27.5,"mosquito_risk":4,"arthritis_risk":5,"migraine_risk":7,"frizz_risk":0,"updated_at":"2026-03-10T21:32:53.610314+05:30"},{"city":"Solapur","state":"Maharashtra","latitude":17.6599,"longitude":75.9064,"temp":28.0,"humidity":58,"rain":0.0,"pressure":960.5,"uv_index":8.5,"wind_gusts":29.5,"aqi":156,"pm10":47.7,"pm2_5":43.4,"mosquito_risk":4,"arthritis_risk":5,"migraine_risk":7,"frizz_risk":1,"updated_at":"2026-03-10T21:32:53.610322+05:30"},{"city":"Kolhapur","state":"Maharashtra","latitude":16.705,"longitude":74.2433,"temp":28.4,"humidity":48,"rain":0.0,"pressure":951.3,"uv_index":8.6,"wind_gusts":40.3,"aqi":139,"pm10":60.5,"pm2_5":56.1,"mosquito_risk":4,"arthritis_risk":5,"migraine_risk":7,"frizz_risk":1,"updated_at":"2026-03-10T21:32:53.610328+05:30"},{"city":"Goa","state":"Goa","latitude":15.2993,"longitude":74.124,"temp":28.4,"humidity":85,"rain":0.0,"pressure":1001.2,"uv_index":8.6,"wind_gusts":38.9,"aqi":151,"pm10":62.2,"pm2_5":54.4,"mosquito_risk":7,"arthritis_risk":5,"migraine_risk":4,"frizz_risk":1,"updated_at":"2026-03-10T21:32:53.610335+05:30"},{"city":"Jodhpur","state":"Rajasthan","latitude":26.2389,"longitude":73.0243,"temp":28.3,"humidity":26,"rain":0.0,"pressure":987.7,"uv_index":7.15,"wind_gusts":26.3,"aqi":102,"pm10":56.9,"pm2_5":23.7,"mosquito_risk":4,"arthritis_risk":5,"migraine_risk":7,"frizz_risk":0,"updated_at":"2026-03-10T21:32:53.610342+05:30"},{"city":"Udaipur","state":"Rajasthan","latitude":24.5854,"longitude":73.7125,"temp":24.2,"humidity":35,"rain":0.0,"pressure":951.7,"uv_index":7.75,"wind_gusts":21.6,"aqi":112,"pm10":20.0,"pm2_5":15.4,"mosquito_risk":0,"arthritis_risk":5,"migraine_risk":7,"frizz_risk":0,"updated_at":"2026-03-10T21:32:53.610348+05:30"},{"city":"Kota","state":"Rajasthan","latitude":25.2138,"longitude":75.8648,"temp":27.4,"humidity":31,"rain":0.0,"pressure":983.5,"uv_index":7.15,"wind_gusts":17.3,"aqi":77,"pm10":66.8,"pm2_5":34.0,"mosquito_risk":4,"arthritis_risk":5,"migraine_risk":7,"frizz_risk":0,"updated_at":"2026-03-10T21:32:53.610355+05:30"},{"city":"Bikaner","state":"Rajasthan","latitude":28.0229,"longitude":73.3119,"temp":28.3,"humidity":27,"rain":0.0,"pressure":986.5,"uv_index":6.85,"wind_gusts":29.9,"aqi":102,"pm10":30.3,"pm2_5":19.0,"mosquito_risk":4,"arthritis_risk":5,"migraine_risk":7,"frizz_risk":0,"updated_at":"2026-03-10T21:32:53.610361+05:30"},{"city":"Ajmer","state":"Rajasthan","latitude":26.4499,"longitude":74.6399,"temp":27.5,"humidity":27,"rain":0.0,"pressure":959.6,"uv_index":7.1,"wind_gusts":21.2,"aqi":88,"pm10":68.0,"pm2_5":31.4,"mosquito_risk":4,"arthritis_risk":5,"migraine_risk":7,"frizz_risk":0,"updated_at":"2026-03-10T21:32:53.610368+05:30"},{"city":"Gwalior","state":"Madhya Pradesh","latitude":26.2183,"longitude":78.1828,"temp":27.2,"humidity":41,"rain":0.0,"pressure":988.6,"uv_index":6.75,"wind_gusts":24.5,"aqi":132,"pm10":229.1,"pm2_5":53.6,"mosquito_risk":4,"arthritis_risk":5,"migraine_risk":7,"frizz_risk":0,"updated_at":"2026-03-10T21:32:53.610374+05:30"},{"city":"Indore","state":"Madhya Pradesh","latitude":22.7196,"longitude":75.8577,"temp":22.1,"humidity":50,"rain":0.0,"pressure":951.9,"uv_index":7.65,"wind_gusts":26.3,"aqi":92,"pm10":29.2,"pm2_5":22.4,"mosquito_risk":0,"arthritis_risk":5,"migraine_risk":7,"frizz_risk":0,"updated_at":"2026-03-10T21:32:53.610381+05:30"},{"city":"Bhopal","state":"Madhya Pradesh","latitude":23.2599,"longitude":77.4126,"temp":23.6,"humidity":49,"rain":0.0,"pressure":958.1,"uv_index":7.55,"wind_gusts":23.0,"aqi":88,"pm10":21.2,"pm2_5":15.3,"mosquito_risk":0,"arthritis_risk":5,"migraine_risk":7,"frizz_risk":0,"updated_at":"2026-03-10T21:32:53.610387+05:30"},{"city":"Jabalpur","state":"Madhya Pradesh","latitude":23.1815,"longitude":79.9864,"temp":28.1,"humidity":44,"rain":0.0,"pressure":965.8,"uv_index":7.65,"wind_gusts":26.3,"aqi":88,"pm10":55.6,"pm2_5":31.9,"mosquito_risk":4,"arthritis_risk":5,"migraine_risk":7,"frizz_risk":0,"updated_at":"2026-03-10T21:32:53.610394+05:30"},{"city":"Ujjain","state":"Madhya Pradesh","latitude":23.1765,"longitude":75.7885,"temp":24.7,"humidity":47,"rain":0.0,"pressure":958.2,"uv_index":7.55,"wind_gusts":19.1,"aqi":84,"pm10":46.7,"pm2_5":36.4,"mosquito_risk":0,"arthritis_risk":5,"migraine_risk":7,"frizz_risk":0,"updated_at":"2026-03-10T21:32:53.610401+05:30"},{"city":"Visakhapatnam","state":"Andhra Pradesh","latitude":17.6868,"longitude":83.2185,"temp":24.0,"humidity":85,"rain":0.0,"pressure":1009.6,"uv_index":8.55,"wind_gusts":34.2,"aqi":127,"pm10":35.3,"pm2_5":30.4,"mosquito_risk":3,"arthritis_risk":0,"migraine_risk":4,"frizz_risk":1,"updated_at":"2026-03-10T21:32:53.610407+05:30"},{"city":"Vijayawada","state":"Andhra Pradesh","latitude":16.5062,"longitude":80.648,"temp":25.0,"humidity":69,"rain":0.0,"pressure":1008.6,"uv_index":8.6,"wind_gusts":21.6,"aqi":125,"pm10":36.3,"pm2_5":33.5,"mosquito_risk":7,"arthritis_risk":0,"migraine_risk":4,"frizz_risk":1,"updated_at":"2026-03-10T21:32:53.610414+05:30"},{"city":"Guntur","state":"Andhra Pradesh","latitude":16.3067,"longitude":80.4365,"temp":23.9,"humidity":78,"rain":0.0,"pressure":1009.8,"uv_index":8.65,"wind_gusts":23.4,"aqi":118,"pm10":33.5,"pm2_5":31.1,"mosquito_risk":3,"arthritis_risk":0,"migraine_risk":4,"frizz_risk":1,"updated_at":"2026-03-10T21:32:53.610421+05:30"},{"city":"Nellore","state":"Andhra Pradesh","latitude":14.4426,"longitude":79.9865,"temp":24.6,"humidity":80,"rain":0.0,"pressure":1012.1,"uv_index":8.85,"wind_gusts":28.1,"aqi":89,"pm10":22.5,"pm2_5":18.3,"mosquito_risk":3,"arthritis_risk":0,"migraine_risk":4,"frizz_risk":1,"updated_at":"2026-03-10T21:32:53.610428+05:30"},{"city":"Kurnool","state":"Andhra Pradesh","latitude":15.8281,"longitude":78.0373,"temp":27.9,"humidity":35,"rain":0.0,"pressure":981.7,"uv_index":8.65,"wind_gusts":31.7,"aqi":107,"pm10":22.5,"pm2_5":19.9,"mosquito_risk":4,"arthritis_risk":5,"migraine_risk":7,"frizz_risk":0,"updated_at":"2026-03-10T21:32:53.610435+05:30"},{"city":"Kakinada","state":"Andhra Pradesh","latitude":16.9891,"longitude":82.2475,"temp":22.3,"humidity":89,"rain":0.0,"pressure":1013.5,"uv_index":8.6,"wind_gusts":28.4,"aqi":111,"pm10":30.6,"pm2_5":25.6,"mosquito_risk":3,"arthritis_risk":0,"migraine_risk":4,"frizz_risk":1,"updated_at":"2026-03-10T21:32:53.610442+05:30"},{"city":"Tirupati","state":"Andhra Pradesh","latitude":13.6288,"longitude":79.4192,"temp":23.1,"humidity":65,"rain":0.0,"pressure":997.7,"uv_index":8.95,"wind_gusts":34.6,"aqi":120,"pm10":24.3,"pm2_5":21.9,"mosquito_risk":3,"arthritis_risk":5,"migraine_risk":7,"frizz_risk":1,"updated_at":"2026-03-10T21:32:53.610448+05:30"},{"city":"Warangal","state":"Telangana","latitude":17.9689,"longitude":79.5941,"temp":27.0,"humidity":64,"rain":0.0,"pressure":983.5,"uv_index":8.4,"wind_gusts":27.0,"aqi":138,"pm10":53.2,"pm2_5":47.4,"mosquito_risk":7,"arthritis_risk":5,"migraine_risk":7,"frizz_risk":1,"updated_at":"2026-03-10T21:32:53.610455+05:30"},{"city":"Nizamabad","state":"Telangana","latitude":18.6725,"longitude":78.0941,"temp":27.3,"humidity":53,"rain":0.0,"pressure":968.9,"uv_index":8.3,"wind_gusts":30.6,"aqi":135,"pm10":51.3,"pm2_5":45.3,"mosquito_risk":4,"arthritis_risk":5,"migraine_risk":7,"frizz_risk":1,"updated_at":"2026-03-10T21:32:53.610461+05:30"},{"city":"Mysore","state":"Karnataka","latitude":12.2958,"longitude":76.6396,"temp":25.2,"humidity":47,"rain":0.0,"pressure":931.8,"uv_index":9.25,"wind_gusts":39.2,"aqi":100,"pm10":27.8,"pm2_5":25.8,"mosquito_risk":4,"arthritis_risk":5,"migraine_risk":7,"frizz_risk":0,"updated_at":"2026-03-10T21:32:53.610468+05:30"},{"city":"Mangalore","state":"Karnataka","latitude":12.9141,"longitude":74.856,"temp":29.0,"humidity":80,"rain":0.0,"pressure":1010.2,"uv_index":8.85,"wind_gusts":31.7,"aqi":110,"pm10":41.6,"pm2_5":32.4,"mosquito_risk":7,"arthritis_risk":0,"migraine_risk":4,"frizz_risk":1,"updated_at":"2026-03-10T21:32:53.610475+05:30"},{"city":"Hubli-Dharwad","state":"Karnataka","latitude":15.3647,"longitude":75.124,"temp":27.7,"humidity":40,"rain":0.0,"pressure":944.5,"uv_index":8.8,"wind_gusts":44.3,"aqi":145,"pm10":51.8,"pm2_5":46.8,"mosquito_risk":4,"arthritis_risk":5,"migraine_risk":7,"frizz_risk":0,"updated_at":"2026-03-10T21:32:53.610482+05:30"},{"city":"Belgaum","state":"Karnataka","latitude":15.8497,"longitude":74.4977,"temp":27.3,"humidity":43,"rain":0.0,"pressure":929.4,"uv_index":8.85,"wind_gusts":46.8,"aqi":148,"pm10":54.9,"pm2_5":49.4,"mosquito_risk":4,"arthritis_risk":5,"migraine_risk":7,"frizz_risk":0,"updated_at":"2026-03-10T21:32:56.917208+05:30"},{"city":"Coimbatore","state":"Tamil Nadu","latitude":11.0168,"longitude":76.9558,"temp":25.7,"humidity":67,"rain":0.0,"pressure":965.8,"uv_index":9.25,"wind_gusts":46.4,"aqi":105,"pm10":23.5,"pm2_5":22.4,"mosquito_risk":7,"arthritis_risk":5,"migraine_risk":7,"frizz_risk":1,"updated_at":"2026-03-10T21:32:56.917237+05:30"},{"city":"Madurai","state":"Tamil Nadu","latitude":9.9252,"longitude":78.1198,"temp":26.3,"humidity":76,"rain":0.0,"pressure":997.9,"uv_index":9.2,"wind_gusts":41.4,"aqi":97,"pm10":14.0,"pm2_5":13.4,"mosquito_risk":7,"arthritis_risk":5,"migraine_risk":7,"frizz_risk":1,"updated_at":"2026-03-10T21:32:56.917246+05:30"},{"city":"Trichy","state":"Tamil Nadu","latitude":10.7905,"longitude":78.7047,"temp":25.3,"humidity":85,"rain":0.0,"pressure":1005.3,"uv_index":9.05,"wind_gusts":37.4,"aqi":91,"pm10":16.9,"pm2_5":15.5,"mosquito_risk":7,"arthritis_risk":5,"migraine_risk":4,"frizz_risk":1,"updated_at":"2026-03-10T21:32:56.917253+05:30"},{"city":"Salem","state":"Tamil Nadu","latitude":11.6643,"longitude":78.146,"temp":25.5,"humidity":75,"rain":0.0,"pressure":982.0,"uv_index":9.15,"wind_gusts":33.1,"aqi":112,"pm10":19.0,"pm2_5":17.7,"mosquito_risk":7,"arthritis_risk":5,"migraine_risk":7,"frizz_risk":1,"updated_at":"2026-03-10T21:32:56.917261+05:30"},{"city":"Tirunelveli","state":"Tamil Nadu","latitude":8.7139,"longitude":77.7567,"temp":27.3,"humidity":76,"rain":0.0,"pressure":1007.5,"uv_index":9.2,"wind_gusts":47.2,"aqi":85,"pm10":10.7,"pm2_5":10.0,"mosquito_risk":7,"arthritis_risk":5,"migraine_risk":4,"frizz_risk":1,"updated_at":"2026-03-10T21:32:56.917268+05:30"},{"city":"Vellore","state":"Tamil Nadu","latitude":12.9165,"longitude":79.1325,"temp":24.7,"humidity":68,"rain":0.0,"pressure":990.5,"uv_index":9.05,"wind_gusts":35.6,"aqi":129,"pm10":26.3,"pm2_5":23.8,"mosquito_risk":3,"arthritis_risk":5,"migraine_risk":7,"frizz_risk":1,"updated_at":"2026-03-10T21:32:56.917275+05:30"},{"city":"Erode","state":"Tamil Nadu","latitude":11.341,"longitude":77.7172,"temp":26.9,"humidity":72,"rain":0.0,"pressure":993.7,"uv_index":9.1,"wind_gusts":30.2,"aqi":107,"pm10":21.0,"pm2_5":20.0,"mosquito_risk":7,"arthritis_risk":5,"migraine_risk":7,"frizz_risk":1,"updated_at":"2026-03-10T21:32:56.917282+05:30"},{"city":"Kochi","state":"Kerala","latitude":9.9312,"longitude":76.2673,"temp":29.4,"humidity":74,"rain":0.0,"pressure":1011.3,"uv_index":9.05,"wind_gusts":39.2,"aqi":150,"pm10":66.1,"pm2_5":57.5,"mosquito_risk":7,"arthritis_risk":0,"migraine_risk":4,"frizz_risk":1,"updated_at":"2026-03-10T21:32:56.917289+05:30"},{"city":"Thiruvananthapuram","state":"Kerala","latitude":8.5241,"longitude":76.9366,"temp":28.9,"humidity":78,"rain":0.0,"pressure":1010.5,"uv_index":9.1,"wind_gusts":27.4,"aqi":104,"pm10":24.9,"pm2_5":19.0,"mosquito_risk":7,"arthritis_risk":0,"migraine_risk":4,"frizz_risk":1,"updated_at":"2026-03-10T21:32:56.917296+05:30"},{"city":"Kozhikode","state":"Kerala","latitude":11.2588,"longitude":75.7804,"temp":29.5,"humidity":75,"rain":0.0,"pressure":1010.6,"uv_index":8.95,"wind_gusts":24.8,"aqi":158,"pm10":50.3,"pm2_5":39.3,"mosquito_risk":7,"arthritis_risk":0,"migraine_risk":4,"frizz_risk":1,"updated_at":"2026-03-10T21:32:56.917303+05:30"},{"city":"Thrissur","state":"Kerala","latitude":10.5276,"longitude":76.2144,"temp":28.5,"humidity":73,"rain":0.0,"pressure":1009.4,"uv_index":9.0,"wind_gusts":37.4,"aqi":132,"pm10":55.3,"pm2_5":49.4,"mosquito_risk":7,"arthritis_risk":0,"migraine_risk":4,"frizz_risk":1,"updated_at":"2026-03-10T21:32:56.917311+05:30"},{"city":"Kannur","state":"Kerala","latitude":11.8745,"longitude":75.3704,"temp":28.6,"humidity":78,"rain":0.0,"pressure":1010.3,"uv_index":8.95,"wind_gusts":39.2,"aqi":124,"pm10":53.6,"pm2_5":42.5,"mosquito_risk":7,"arthritis_risk":0,"migraine_risk":4,"frizz_risk":1,"updated_at":"2026-03-10T21:32:56.917318+05:30"},{"city":"Patna","state":"Bihar","latitude":25.5941,"longitude":85.1376,"temp":26.8,"humidity":79,"rain":0.0,"pressure":1006.3,"uv_index":7.4,"wind_gusts":24.5,"aqi":171,"pm10":129.9,"pm2_5":122.0,"mosquito_risk":7,"arthritis_risk":5,"migraine_risk":4,"frizz_risk":1,"updated_at":"2026-03-10T21:32:56.917324+05:30"},{"city":"Gaya","state":"Bihar","latitude":24.7914,"longitude":85.0002,"temp":25.6,"humidity":86,"rain":0.0,"pressure":999.8,"uv_index":7.5,"wind_gusts":15.5,"aqi":167,"pm10":132.7,"pm2_5":120.6,"mosquito_risk":7,"arthritis_risk":5,"migraine_risk":7,"frizz_risk":1,"updated_at":"2026-03-10T21:32:56.917331+05:30"},{"city":"Muzaffarpur","state":"Bihar","latitude":26.1209,"longitude":85.3647,"temp":25.6,"humidity":80,"rain":0.0,"pressure":1006.3,"uv_index":7.35,"wind_gusts":22.0,"aqi":175,"pm10":164.8,"pm2_5":154.1,"mosquito_risk":7,"arthritis_risk":5,"migraine_risk":4,"frizz_risk":1,"updated_at":"2026-03-10T21:32:56.917338+05:30"},{"city":"Bhagalpur","state":"Bihar","latitude":25.2425,"longitude":87.0117,"temp":27.2,"humidity":70,"rain":0.0,"pressure":1007.0,"uv_index":7.4,"wind_gusts":17.6,"aqi":163,"pm10":102.7,"pm2_5":94.1,"mosquito_risk":7,"arthritis_risk":5,"migraine_risk":4,"frizz_risk":1,"updated_at":"2026-03-10T21:32:56.917345+05:30"},{"city":"Ranchi","state":"Jharkhand","latitude":23.3441,"longitude":85.3096,"temp":22.8,"humidity":83,"rain":0.0,"pressure":943.1,"uv_index":8.15,"wind_gusts":29.5,"aqi":160,"pm10":95.7,"pm2_5":86.8,"mosquito_risk":3,"arthritis_risk":5,"migraine_risk":7,"frizz_risk":1,"updated_at":"2026-03-10T21:32:56.917351+05:30"},{"city":"Jamshedpur","state":"Jharkhand","latitude":22.8046,"longitude":86.2029,"temp":26.1,"humidity":77,"rain":0.0,"pressure":996.5,"uv_index":8.05,"wind_gusts":31.0,"aqi":136,"pm10":77.3,"pm2_5":66.4,"mosquito_risk":7,"arthritis_risk":5,"migraine_risk":7,"frizz_risk":1,"updated_at":"2026-03-10T21:32:56.917359+05:30"},{"city":"Dhanbad","state":"Jharkhand","latitude":23.7957,"longitude":86.4304,"temp":25.0,"humidity":79,"rain":0.0,"pressure":985.9,"uv_index":7.9,"wind_gusts":20.9,"aqi":168,"pm10":126.7,"pm2_5":115.5,"mosquito_risk":7,"arthritis_risk":5,"migraine_risk":7,"frizz_risk":1,"updated_at":"2026-03-10T21:32:56.917365+05:30"},{"city":"Bokaro","state":"Jharkhand","latitude":23.6693,"longitude":86.1511,"temp":24.3,"humidity":83,"rain":0.0,"pressure":990.3,"uv_index":7.9,"wind_gusts":20.5,"aqi":175,"pm10":149.9,"pm2_5":135.5,"mosquito_risk":3,"arthritis_risk":5,"migraine_risk":7,"frizz_risk":1,"updated_at":"2026-03-10T21:32:56.917373+05:30"},{"city":"Bhubaneswar","state":"Odisha","latitude":20.2961,"longitude":85.8245,"temp":25.0,"humidity":86,"rain":0.0,"pressure":1008.4,"uv_index":8.35,"wind_gusts":32.4,"aqi":115,"pm10":50.4,"pm2_5":43.7,"mosquito_risk":7,"arthritis_risk":0,"migraine_risk":4,"frizz_risk":1,"updated_at":"2026-03-10T21:32:56.917380+05:30"},{"city":"Cuttack","state":"Odisha","latitude":20.4625,"longitude":85.8828,"temp":25.9,"humidity":81,"rain":0.0,"pressure":1010.3,"uv_index":8.35,"wind_gusts":28.8,"aqi":115,"pm10":50.4,"pm2_5":43.7,"mosquito_risk":7,"arthritis_risk":0,"migraine_risk":4,"frizz_risk":1,"updated_at":"2026-03-10T21:32:56.917387+05:30"},{"city":"Rourkela","state":"Odisha","latitude":22.2604,"longitude":84.8536,"temp":28.6,"humidity":70,"rain":0.0,"pressure":989.3,"uv_index":7.95,"wind_gusts":34.9,"aqi":158,"pm10":88.5,"pm2_5":78.0,"mosquito_risk":7,"arthritis_risk":5,"migraine_risk":7,"frizz_risk":1,"updated_at":"2026-03-10T21:32:56.917394+05:30"},{"city":"Raipur","state":"Chhattisgarh","latitude":21.2514,"longitude":81.6296,"temp":29.4,"humidity":41,"rain":0.0,"pressure":978.5,"uv_index":8.05,"wind_gusts":17.3,"aqi":155,"pm10":83.8,"pm2_5":66.1,"mosquito_risk":4,"arthritis_risk":5,"migraine_risk":7,"frizz_risk":0,"updated_at":"2026-03-10T21:32:56.917401+05:30"},{"city":"Bhilai","state":"Chhattisgarh","latitude":21.1938,"longitude":81.3509,"temp":26.9,"humidity":49,"rain":0.0,"pressure":978.7,"uv_index":8.05,"wind_gusts":13.7,"aqi":151,"pm10":78.2,"pm2_5":60.5,"mosquito_risk":4,"arthritis_risk":5,"migraine_risk":7,"frizz_risk":0,"updated_at":"2026-03-10T21:32:56.917408+05:30"},{"city":"Guwahati","state":"Assam","latitude":26.1158,"longitude":91.7086,"temp":24.6,"humidity":86,"rain":0.0,"pressure":1006.5,"uv_index":7.3,"wind_gusts":11.5,"aqi":155,"pm10":70.1,"pm2_5":66.4,"mosquito_risk":3,"arthritis_risk":5,"migraine_risk":4,"frizz_risk":1,"updated_at":"2026-03-10T21:32:56.917415+05:30"},{"city":"Agartala","state":"Tripura","latitude":23.8315,"longitude":91.2868,"temp":24.3,"humidity":76,"rain":0.0,"pressure":1011.5,"uv_index":7.7,"wind_gusts":14.4,"aqi":169,"pm10":109.4,"pm2_5":101.3,"mosquito_risk":3,"arthritis_risk":0,"migraine_risk":4,"frizz_risk":1,"updated_at":"2026-03-10T21:32:56.917422+05:30"},{"city":"Shillong","state":"Meghalaya","latitude":25.5788,"longitude":91.8933,"temp":11.8,"humidity":90,"rain":0.0,"pressure":859.1,"uv_index":6.75,"wind_gusts":18.4,"aqi":148,"pm10":51.5,"pm2_5":48.1,"mosquito_risk":3,"arthritis_risk":10,"migraine_risk":7,"frizz_risk":0,"updated_at":"2026-03-10T21:32:56.917429+05:30"},{"city":"Imphal","state":"Manipur","latitude":24.817,"longitude":93.9368,"temp":18.1,"humidity":79,"rain":0.0,"pressure":928.0,"uv_index":6.2,"wind_gusts":30.6,"aqi":154,"pm10":68.0,"pm2_5":64.7,"mosquito_risk":3,"arthritis_risk":5,"migraine_risk":7,"frizz_risk":0,"updated_at":"2026-03-10T21:32:56.917436+05:30"},{"city":"Aizawl","state":"Mizoram","latitude":23.7271,"longitude":92.7176,"temp":18.0,"humidity":72,"rain":0.0,"pressure":896.6,"uv_index":7.85,"wind_gusts":27.7,"aqi":141,"pm10":32.8,"pm2_5":29.0,"mosquito_risk":3,"arthritis_risk":5,"migraine_risk":7,"frizz_risk":0,"updated_at":"2026-03-10T21:32:56.917443+05:30"},{"city":"Kohima","state":"Nagaland","latitude":25.6701,"longitude":94.1077,"temp":15.3,"humidity":82,"rain":0.0,"pressure":859.0,"uv_index":6.8,"wind_gusts":50.0,"aqi":135,"pm10":53.8,"pm2_5":51.1,"mosquito_risk":3,"arthritis_risk":10,"migraine_risk":7,"frizz_risk":0,"updated_at":"2026-03-10T21:32:56.917450+05:30"},{"city":"Gangtok","state":"Sikkim","latitude":27.3314,"longitude":88.6138,"temp":15.2,"humidity":81,"rain":0.0,"pressure":842.0,"uv_index":6.25,"wind_gusts":18.7,"aqi":148,"pm10":80.3,"pm2_5":70.8,"mosquito_risk":3,"arthritis_risk":10,"migraine_risk":7,"frizz_risk":0,"updated_at":"2026-03-10T21:32:56.917457+05:30"},{"city":"Siliguri","state":"West Bengal","latitude":26.7271,"longitude":88.3953,"temp":22.2,"humidity":65,"rain":0.0,"pressure":1000.0,"uv_index":7.3,"wind_gusts":21.2,"aqi":163,"pm10":103.8,"pm2_5":91.0,"mosquito_risk":3,"arthritis_risk":5,"migraine_risk":4,"frizz_risk":0,"updated_at":"2026-03-10T21:33:00.228358+05:30"},{"city":"Durgapur","state":"West Bengal","latitude":23.5204,"longitude":87.3119,"temp":24.9,"humidity":85,"rain":0.0,"pressure":1001.4,"uv_index":7.85,"wind_gusts":19.4,"aqi":154,"pm10":80.6,"pm2_5":74.3,"mosquito_risk":3,"arthritis_risk":5,"migraine_risk":4,"frizz_risk":1,"updated_at":"2026-03-10T21:33:00.228387+05:30"},{"city":"Asansol","state":"West Bengal","latitude":23.6739,"longitude":86.9524,"temp":24.6,"humidity":82,"rain":0.0,"pressure":999.9,"uv_index":7.9,"wind_gusts":19.1,"aqi":159,"pm10":95.7,"pm2_5":87.3,"mosquito_risk":3,"arthritis_risk":5,"migraine_risk":7,"frizz_risk":1,"updated_at":"2026-03-10T21:33:00.228396+05:30"},{"city":"Pondicherry","state":"Puducherry","latitude":11.9139,"longitude":79.8145,"temp":25.0,"humidity":82,"rain":0.0,"pressure":1014.2,"uv_index":8.95,"wind_gusts":37.8,"aqi":72,"pm10":21.2,"pm2_5":15.7,"mosquito_risk":7,"arthritis_risk":0,"migraine_risk":4,"frizz_risk":1,"updated_at":"2026-03-10T21:33:00.228404+05:30"},{"city":"Port Blair","state":"Andaman and Nicobar Islands","latitude":11.6234,"longitude":92.7265,"temp":28.1,"humidity":80,"rain":0.0,"pressure":1010.8,"uv_index":8.95,"wind_gusts":29.2,"aqi":70,"pm10":23.6,"pm2_5":20.5,"mosquito_risk":7,"arthritis_risk":0,"migraine_risk":4,"frizz_risk":1,"updated_at":"2026-03-10T21:33:00.228412+05:30"},{"city":"Haridwar","state":"Uttarakhand","latitude":29.9457,"longitude":78.1642,"temp":23.3,"humidity":91,"rain":0.0,"pressure":980.0,"uv_index":5.85,"wind_gusts":22.3,"aqi":157,"pm10":109.2,"pm2_5":82.7,"mosquito_risk":3,"arthritis_risk":5,"migraine_risk":3,"frizz_risk":1,"updated_at":"2026-03-10T21:33:00.228419+05:30"},{"city":"Rishikesh","state":"Uttarakhand","latitude":30.0869,"longitude":78.2676,"temp":23.1,"humidity":86,"rain":0.0,"pressure":973.1,"uv_index":5.9,"wind_gusts":23.0,"aqi":154,"pm10":105.9,"pm2_5":70.3,"mosquito_risk":3,"arthritis_risk":5,"migraine_risk":3,"frizz_risk":1,"updated_at":"2026-03-10T21:33:00.228426+05:30"},{"city":"Nainital","state":"Uttarakhand","latitude":29.3919,"longitude":79.4542,"temp":18.1,"humidity":82,"rain":0.0,"pressure":810.9,"uv_index":6.75,"wind_gusts":56.9,"aqi":175,"pm10":143.4,"pm2_5":115.3,"mosquito_risk":3,"arthritis_risk":10,"migraine_risk":7,"frizz_risk":0,"updated_at":"2026-03-10T21:33:00.228434+05:30"},{"city":"Mussoorie","state":"Uttarakhand","latitude":30.4599,"longitude":78.0664,"temp":16.6,"humidity":89,"rain":0.0,"pressure":807.6,"uv_index":6.25,"wind_gusts":38.9,"aqi":158,"pm10":119.7,"pm2_5":84.8,"mosquito_risk":3,"arthritis_risk":10,"migraine_risk":7,"frizz_risk":0,"updated_at":"2026-03-10T21:33:00.228440+05:30"},{"city":"Dharamshala","state":"Himachal Pradesh","latitude":32.219,"longitude":76.3234,"temp":21.5,"humidity":59,"rain":0.0,"pressure":875.1,"uv_index":6.45,"wind_gusts":20.5,"aqi":66,"pm10":40.0,"pm2_5":23.5,"mosquito_risk":0,"arthritis_risk":5,"migraine_risk":7,"frizz_risk":0,"updated_at":"2026-03-10T21:33:00.228447+05:30"},{"city":"Dalhousie","state":"Himachal Pradesh","latitude":32.5387,"longitude":75.971,"temp":18.3,"humidity":35,"rain":0.0,"pressure":808.9,"uv_index":6.15,"wind_gusts":18.4,"aqi":88,"pm10":64.5,"pm2_5":44.9,"mosquito_risk":0,"arthritis_risk":5,"migraine_risk":7,"frizz_risk":0,"updated_at":"2026-03-10T21:33:00.228455+05:30"},{"city":"Patiala","state":"Punjab","latitude":30.3398,"longitude":76.3869,"temp":24.0,"humidity":75,"rain":0.0,"pressure":983.5,"uv_index":5.9,"wind_gusts":14.4,"aqi":169,"pm10":183.5,"pm2_5":121.1,"mosquito_risk":3,"arthritis_risk":5,"migraine_risk":3,"frizz_risk":1,"updated_at":"2026-03-10T21:33:00.228462+05:30"},{"city":"Bhatinda","state":"Punjab","latitude":30.211,"longitude":74.9455,"temp":23.3,"humidity":73,"rain":0.0,"pressure":988.2,"uv_index":6.45,"wind_gusts":16.9,"aqi":153,"pm10":125.3,"pm2_5":71.5,"mosquito_risk":3,"arthritis_risk":5,"migraine_risk":7,"frizz_risk":1,"updated_at":"2026-03-10T21:33:00.228469+05:30"},{"city":"Rohtak","state":"Haryana","latitude":28.8955,"longitude":76.6066,"temp":23.0,"humidity":70,"rain":0.0,"pressure":986.9,"uv_index":5.75,"wind_gusts":20.2,"aqi":402,"pm10":293.4,"pm2_5":120.6,"mosquito_risk":3,"arthritis_risk":5,"migraine_risk":3,"frizz_risk":1,"updated_at":"2026-03-10T21:33:00.228476+05:30"},{"city":"Panipat","state":"Haryana","latitude":29.3909,"longitude":76.9635,"temp":23.4,"humidity":71,"rain":0.0,"pressure":985.7,"uv_index":5.9,"wind_gusts":18.0,"aqi":355,"pm10":291.5,"pm2_5":114.1,"mosquito_risk":3,"arthritis_risk":5,"migraine_risk":3,"frizz_risk":1,"updated_at":"2026-03-10T21:33:00.228483+05:30"},{"city":"Mathura","state":"Uttar Pradesh","latitude":27.4924,"longitude":77.6737,"temp":23.5,"humidity":67,"rain":0.0,"pressure":991.9,"uv_index":6.35,"wind_gusts":23.0,"aqi":359,"pm10":400.5,"pm2_5":118.0,"mosquito_risk":3,"arthritis_risk":5,"migraine_risk":7,"frizz_risk":1,"updated_at":"2026-03-10T21:33:00.228490+05:30"},{"city":"Vrindavan","state":"Uttar Pradesh","latitude":27.5823,"longitude":77.7027,"temp":23.9,"humidity":66,"rain":0.0,"pressure":992.6,"uv_index":6.3,"wind_gusts":24.1,"aqi":359,"pm10":400.5,"pm2_5":118.0,"mosquito_risk":3,"arthritis_risk":5,"migraine_risk":7,"frizz_risk":1,"updated_at":"2026-03-10T21:33:00.228497+05:30"},{"city":"Ayodhya","state":"Uttar Pradesh","latitude":26.7922,"longitude":82.1998,"temp":26.7,"humidity":73,"rain":0.0,"pressure":1001.2,"uv_index":6.75,"wind_gusts":19.4,"aqi":189,"pm10":155.1,"pm2_5":143.4,"mosquito_risk":7,"arthritis_risk":5,"migraine_risk":4,"frizz_risk":1,"updated_at":"2026-03-10T21:33:00.228503+05:30"},{"city":"Ratlam","state":"Madhya Pradesh","latitude":23.3315,"longitude":75.0367,"temp":23.4,"humidity":53,"rain":0.0,"pressure":958.6,"uv_index":7.55,"wind_gusts":18.7,"aqi":102,"pm10":36.1,"pm2_5":26.5,"mosquito_risk":0,"arthritis_risk":5,"migraine_risk":7,"frizz_risk":0,"updated_at":"2026-03-10T21:33:00.228510+05:30"},{"city":"Sagar","state":"Madhya Pradesh","latitude":23.8388,"longitude":78.7378,"temp":27.8,"humidity":34,"rain":0.0,"pressure":954.8,"uv_index":7.5,"wind_gusts":21.2,"aqi":98,"pm10":49.7,"pm2_5":21.7,"mosquito_risk":4,"arthritis_risk":5,"migraine_risk":7,"frizz_risk":0,"updated_at":"2026-03-10T21:33:00.228517+05:30"},{"city":"Satna","state":"Madhya Pradesh","latitude":24.6005,"longitude":80.8322,"temp":26.3,"humidity":61,"rain":0.0,"pressure":976.8,"uv_index":7.5,"wind_gusts":24.5,"aqi":144,"pm10":91.0,"pm2_5":55.9,"mosquito_risk":7,"arthritis_risk":5,"migraine_risk":7,"frizz_risk":1,"updated_at":"2026-03-10T21:33:00.228524+05:30"},{"city":"Akola","state":"Maharashtra","latitude":20.7002,"longitude":77.0082,"temp":28.7,"humidity":45,"rain":0.0,"pressure":978.6,"uv_index":8.0,"wind_gusts":16.9,"aqi":112,"pm10":28.3,"pm2_5":23.2,"mosquito_risk":4,"arthritis_risk":5,"migraine_risk":7,"frizz_risk":0,"updated_at":"2026-03-10T21:33:00.228532+05:30"},{"city":"Amravati","state":"Maharashtra","latitude":20.9374,"longitude":77.7796,"temp":29.5,"humidity":41,"rain":0.0,"pressure":971.0,"uv_index":7.95,"wind_gusts":19.1,"aqi":103,"pm10":32.5,"pm2_5":26.5,"mosquito_risk":4,"arthritis_risk":5,"migraine_risk":7,"frizz_risk":0,"updated_at":"2026-03-10T21:33:00.228540+05:30"},{"city":"Latur","state":"Maharashtra","latitude":18.4088,"longitude":76.5604,"temp":26.0,"humidity":50,"rain":0.0,"pressure":943.7,"uv_index":8.4,"wind_gusts":27.0,"aqi":143,"pm10":39.6,"pm2_5":34.3,"mosquito_risk":4,"arthritis_risk":5,"migraine_risk":7,"frizz_risk":0,"updated_at":"2026-03-10T21:33:00.228547+05:30"},{"city":"Nanded","state":"Maharashtra","latitude":19.1383,"longitude":77.3091,"temp":28.3,"humidity":46,"rain":0.0,"pressure":972.4,"uv_index":8.2,"wind_gusts":19.4,"aqi":124,"pm10":55.1,"pm2_5":48.1,"mosquito_risk":4,"arthritis_risk":5,"migraine_risk":7,"frizz_risk":0,"updated_at":"2026-03-10T21:33:00.228554+05:30"},{"city":"Gulbarga","state":"Karnataka","latitude":17.3297,"longitude":76.8343,"temp":29.7,"humidity":43,"rain":0.0,"pressure":962.9,"uv_index":8.5,"wind_gusts":30.6,"aqi":135,"pm10":54.7,"pm2_5":48.5,"mosquito_risk":4,"arthritis_risk":5,"migraine_risk":7,"frizz_risk":0,"updated_at":"2026-03-10T21:33:00.228561+05:30"},{"city":"Bidar","state":"Karnataka","latitude":17.9104,"longitude":77.5199,"temp":27.3,"humidity":50,"rain":0.0,"pressure":939.8,"uv_index":8.45,"wind_gusts":33.1,"aqi":130,"pm10":55.3,"pm2_5":48.8,"mosquito_risk":4,"arthritis_risk":5,"migraine_risk":7,"frizz_risk":0,"updated_at":"2026-03-10T21:33:00.228568+05:30"},{"city":"Hospet","state":"Karnataka","latitude":15.2689,"longitude":76.3909,"temp":28.6,"humidity":39,"rain":0.0,"pressure":959.9,"uv_index":8.8,"wind_gusts":36.0,"aqi":123,"pm10":43.3,"pm2_5":38.1,"mosquito_risk":4,"arthritis_risk":5,"migraine_risk":7,"frizz_risk":0,"updated_at":"2026-03-10T21:33:00.228575+05:30"},{"city":"Tirupur","state":"Tamil Nadu","latitude":11.1085,"longitude":77.3411,"temp":26.5,"humidity":68,"rain":0.0,"pressure":979.7,"uv_index":9.25,"wind_gusts":45.0,"aqi":115,"pm10":22.3,"pm2_5":21.6,"mosquito_risk":7,"arthritis_risk":5,"migraine_risk":7,"frizz_risk":1,"updated_at":"2026-03-10T21:33:00.228582+05:30"},{"city":"Alappuzha","state":"Kerala","latitude":9.4981,"longitude":76.3388,"temp":29.4,"humidity":71,"rain":0.0,"pressure":1011.6,"uv_index":9.05,"wind_gusts":33.1,"aqi":151,"pm10":58.9,"pm2_5":47.3,"mosquito_risk":7,"arthritis_risk":0,"migraine_risk":4,"frizz_risk":1,"updated_at":"2026-03-10T21:33:00.228588+05:30"},{"city":"Munnar","state":"Kerala","latitude":10.0889,"longitude":77.0595,"temp":21.9,"humidity":75,"rain":0.0,"pressure":859.9,"uv_index":9.55,"wind_gusts":33.8,"aqi":98,"pm10":23.0,"pm2_5":22.3,"mosquito_risk":3,"arthritis_risk":5,"migraine_risk":7,"frizz_risk":1,"updated_at":"2026-03-10T21:33:00.228596+05:30"},{"city":"Silchar","state":"Assam","latitude":24.8333,"longitude":92.7789,"temp":25.5,"humidity":76,"rain":0.0,"pressure":1010.0,"uv_index":7.65,"wind_gusts":14.0,"aqi":165,"pm10":86.6,"pm2_5":80.1,"mosquito_risk":7,"arthritis_risk":0,"migraine_risk":4,"frizz_risk":1,"updated_at":"2026-03-10T21:33:00.228602+05:30"},{"city":"Dibrugarh","state":"Assam","latitude":27.4728,"longitude":94.912,"temp":26.2,"humidity":81,"rain":0.0,"pressure":999.9,"uv_index":7.4,"wind_gusts":17.3,"aqi":164,"pm10":92.7,"pm2_5":85.0,"mosquito_risk":7,"arthritis_risk":5,"migraine_risk":7,"frizz_risk":1,"updated_at":"2026-03-10T21:33:00.228609+05:30"}]