[{"city":"Delhi","state":"Delhi","latitude":28.6139,"longitude":77.209,"temp":28.8,"humidity":48,"rain":0.0,"pressure":979.4,"uv_index":7.6,"wind_gusts":38.5,"aqi":220,"pm10":324.1,"pm2_5":75.4,"no2":21.5,"co":640.0,"o3":111.0,"so2":26.5,"mosquito_risk":4,"arthritis_risk":5,"migraine_risk":7,"frizz_risk":1,"updated_at":"2026-05-02T08:26:25.352214+05:30"},{"city":"Mumbai","state":"Maharashtra","latitude":19.076,"longitude":72.8777,"temp":29.2,"humidity":76,"rain":0.0,"pressure":1008.0,"uv_index":7.9,"wind_gusts":41.8,"aqi":70,"pm10":71.7,"pm2_5":23.9,"no2":12.9,"co":260.0,"o3":60.0,"so2":20.3,"mosquito_risk":7,"arthritis_risk":0,"migraine_risk":4,"frizz_risk":1,"updated_at":"2026-05-02T08:26:25.352254+05:30"},{"city":"Bangalore","state":"Karnataka","latitude":12.9716,"longitude":77.5946,"temp":24.5,"humidity":81,"rain":0.0,"pressure":913.0,"uv_index":9.5,"wind_gusts":45.0,"aqi":89,"pm10":38.1,"pm2_5":33.4,"no2":18.1,"co":625.0,"o3":75.0,"so2":10.3,"mosquito_risk":3,"arthritis_risk":5,"migraine_risk":7,"frizz_risk":1,"updated_at":"2026-05-02T08:26:25.352271+05:30"},{"city":"Hyderabad","state":"Telangana","latitude":17.385,"longitude":78.4867,"temp":31.1,"humidity":33,"rain":0.0,"pressure":953.0,"uv_index":9.25,"wind_gusts":33.5,"aqi":80,"pm10":28.4,"pm2_5":22.4,"no2":14.2,"co":400.0,"o3":81.0,"so2":11.2,"mosquito_risk":0,"arthritis_risk":5,"migraine_risk":7,"frizz_risk":0,"updated_at":"2026-05-02T08:26:25.352282+05:30"},{"city":"Chennai","state":"Tamil Nadu","latitude":13.0827,"longitude":80.2707,"temp":32.4,"humidity":62,"rain":0.0,"pressure":1006.8,"uv_index":9.25,"wind_gusts":54.4,"aqi":57,"pm10":12.1,"pm2_5":10.2,"no2":13.0,"co":398.0,"o3":65.0,"so2":13.3,"mosquito_risk":3,"arthritis_risk":5,"migraine_risk":4,"frizz_risk":1,"updated_at":"2026-05-02T08:26:25.352292+05:30"},{"city":"Kolkata","state":"West Bengal","latitude":22.5726,"longitude":88.3639,"temp":28.8,"humidity":81,"rain":0.0,"pressure":1004.4,"uv_index":8.9,"wind_gusts":36.0,"aqi":66,"pm10":19.3,"pm2_5":16.2,"no2":10.6,"co":414.0,"o3":74.0,"so2":8.9,"mosquito_risk":7,"arthritis_risk":5,"migraine_risk":4,"frizz_risk":1,"updated_at":"2026-05-02T08:26:25.352300+05:30"},{"city":"Pune","state":"Maharashtra","latitude":18.5204,"longitude":73.8567,"temp":27.6,"humidity":46,"rain":0.0,"pressure":947.9,"uv_index":8.5,"wind_gusts":49.7,"aqi":56,"pm10":61.0,"pm2_5":20.2,"no2":10.5,"co":238.0,"o3":62.0,"so2":12.2,"mosquito_risk":4,"arthritis_risk":5,"migraine_risk":7,"frizz_risk":0,"updated_at":"2026-05-02T08:26:25.352308+05:30"},{"city":"Ahmedabad","state":"Gujarat","latitude":23.0225,"longitude":72.5714,"temp":30.0,"humidity":66,"rain":0.0,"pressure":999.6,"uv_index":8.1,"wind_gusts":48.2,"aqi":54,"pm10":26.3,"pm2_5":13.9,"no2":5.6,"co":239.0,"o3":60.0,"so2":7.5,"mosquito_risk":7,"arthritis_risk":5,"migraine_risk":7,"frizz_risk":1,"updated_at":"2026-05-02T08:26:25.352320+05:30"},{"city":"Jaipur","state":"Rajasthan","latitude":26.9124,"longitude":75.7873,"temp":28.7,"humidity":45,"rain":0.0,"pressure":955.9,"uv_index":8.15,"wind_gusts":38.5,"aqi":129,"pm10":173.2,"pm2_5":47.6,"no2":9.7,"co":447.0,"o3":87.0,"so2":7.6,"mosquito_risk":4,"arthritis_risk":5,"migraine_risk":7,"frizz_risk":0,"updated_at":"2026-05-02T08:26:25.352329+05:30"},{"city":"Lucknow","state":"Uttar Pradesh","latitude":26.8467,"longitude":80.9462,"temp":27.0,"humidity":60,"rain":0.0,"pressure":991.3,"uv_index":8.1,"wind_gusts":32.4,"aqi":93,"pm10":43.1,"pm2_5":30.7,"no2":7.9,"co":410.0,"o3":113.0,"so2":9.7,"mosquito_risk":4,"arthritis_risk":5,"migraine_risk":7,"frizz_risk":1,"updated_at":"2026-05-02T08:26:25.352337+05:30"},{"city":"Kanpur","state":"Uttar Pradesh","latitude":26.4499,"longitude":80.3319,"temp":28.6,"humidity":54,"rain":0.0,"pressure":989.1,"uv_index":8.1,"wind_gusts":35.6,"aqi":132,"pm10":252.4,"pm2_5":51.3,"no2":7.4,"co":404.0,"o3":115.0,"so2":10.5,"mosquito_risk":4,"arthritis_risk":5,"migraine_risk":7,"frizz_risk":1,"updated_at":"2026-05-02T08:26:25.352344+05:30"},{"city":"Chandigarh","state":"Chandigarh","latitude":30.7333,"longitude":76.7794,"temp":28.1,"humidity":48,"rain":0.0,"pressure":965.7,"uv_index":7.6,"wind_gusts":34.9,"aqi":98,"pm10":54.6,"pm2_5":33.4,"no2":10.0,"co":364.0,"o3":131.0,"so2":13.8,"mosquito_risk":4,"arthritis_risk":5,"migraine_risk":7,"frizz_risk":1,"updated_at":"2026-05-02T08:26:25.352352+05:30"},{"city":"Srinagar","state":"Jammu and Kashmir","latitude":34.0837,"longitude":74.7973,"temp":13.1,"humidity":80,"rain":0.0,"pressure":839.8,"uv_index":8.75,"wind_gusts":41.8,"aqi":75,"pm10":29.6,"pm2_5":26.2,"no2":10.3,"co":561.0,"o3":79.0,"so2":4.1,"mosquito_risk":3,"arthritis_risk":5,"migraine_risk":7,"frizz_risk":0,"updated_at":"2026-05-02T08:26:25.352360+05:30"},{"city":"Jammu","state":"Jammu and Kashmir","latitude":32.7266,"longitude":74.857,"temp":26.5,"humidity":50,"rain":0.0,"pressure":968.4,"uv_index":8.4,"wind_gusts":33.8,"aqi":62,"pm10":21.1,"pm2_5":20.0,"no2":17.1,"co":331.0,"o3":82.0,"so2":3.6,"mosquito_risk":4,"arthritis_risk":5,"migraine_risk":7,"frizz_risk":0,"updated_at":"2026-05-02T08:26:25.352368+05:30"},{"city":"Amritsar","state":"Punjab","latitude":31.634,"longitude":74.8723,"temp":28.6,"humidity":46,"rain":0.0,"pressure":976.5,"uv_index":8.25,"wind_gusts":34.2,"aqi":120,"pm10":33.8,"pm2_5":26.1,"no2":7.4,"co":627.0,"o3":104.0,"so2":7.9,"mosquito_risk":4,"arthritis_risk":5,"migraine_risk":7,"frizz_risk":0,"updated_at":"2026-05-02T08:26:25.352375+05:30"},{"city":"Ludhiana","state":"Punjab","latitude":30.901,"longitude":75.8573,"temp":27.0,"humidity":56,"rain":0.0,"pressure":975.0,"uv_index":7.8,"wind_gusts":32.0,"aqi":157,"pm10":347.4,"pm2_5":85.0,"no2":10.3,"co":559.0,"o3":99.0,"so2":14.5,"mosquito_risk":4,"arthritis_risk":5,"migraine_risk":7,"frizz_risk":1,"updated_at":"2026-05-02T08:26:25.352383+05:30"},{"city":"Jalandhar","state":"Punjab","latitude":31.326,"longitude":75.5762,"temp":26.6,"humidity":55,"rain":0.0,"pressure":975.8,"uv_index":8.05,"wind_gusts":27.7,"aqi":153,"pm10":123.4,"pm2_5":55.6,"no2":14.8,"co":555.0,"o3":90.0,"so2":15.2,"mosquito_risk":4,"arthritis_risk":5,"migraine_risk":7,"frizz_risk":1,"updated_at":"2026-05-02T08:26:25.352389+05:30"},{"city":"Dehradun","state":"Uttarakhand","latitude":30.6284,"longitude":78.0322,"temp":16.0,"humidity":84,"rain":0.1,"pressure":827.9,"uv_index":8.05,"wind_gusts":42.1,"aqi":69,"pm10":5.1,"pm2_5":4.8,"no2":3.8,"co":283.0,"o3":118.0,"so2":2.9,"mosquito_risk":6,"arthritis_risk":10,"migraine_risk":7,"frizz_risk":0,"updated_at":"2026-05-02T08:26:25.352399+05:30"},{"city":"Shimla","state":"Himachal Pradesh","latitude":31.1048,"longitude":77.1734,"temp":16.2,"humidity":50,"rain":0.0,"pressure":782.8,"uv_index":8.1,"wind_gusts":49.0,"aqi":71,"pm10":31.0,"pm2_5":24.6,"no2":7.6,"co":216.0,"o3":117.0,"so2":1.7,"mosquito_risk":0,"arthritis_risk":5,"migraine_risk":7,"frizz_risk":0,"updated_at":"2026-05-02T08:26:25.352407+05:30"},{"city":"Manali","state":"Himachal Pradesh","latitude":32.2396,"longitude":77.1887,"temp":16.2,"humidity":39,"rain":0.0,"pressure":815.3,"uv_index":9.6,"wind_gusts":41.0,"aqi":45,"pm10":5.1,"pm2_5":3.5,"no2":8.9,"co":181.0,"o3":132.0,"so2":0.3,"mosquito_risk":0,"arthritis_risk":5,"migraine_risk":7,"frizz_risk":0,"updated_at":"2026-05-02T08:26:25.352416+05:30"},{"city":"Gurgaon","state":"Haryana","latitude":28.4595,"longitude":77.0266,"temp":29.2,"humidity":47,"rain":0.0,"pressure":977.7,"uv_index":7.7,"wind_gusts":32.4,"aqi":1045,"pm10":787.9,"pm2_5":124.3,"no2":15.8,"co":547.0,"o3":112.0,"so2":19.8,"mosquito_risk":4,"arthritis_risk":5,"migraine_risk":7,"frizz_risk":1,"updated_at":"2026-05-02T08:26:25.352423+05:30"},{"city":"Noida","state":"Uttar Pradesh","latitude":28.5355,"longitude":77.391,"temp":27.5,"humidity":58,"rain":0.0,"pressure":981.1,"uv_index":7.65,"wind_gusts":27.4,"aqi":1045,"pm10":787.9,"pm2_5":124.3,"no2":15.8,"co":514.0,"o3":112.0,"so2":19.8,"mosquito_risk":4,"arthritis_risk":5,"migraine_risk":7,"frizz_risk":1,"updated_at":"2026-05-02T08:26:25.352430+05:30"},{"city":"Ghaziabad","state":"Uttar Pradesh","latitude":28.6692,"longitude":77.4538,"temp":27.2,"humidity":59,"rain":0.0,"pressure":979.5,"uv_index":7.6,"wind_gusts":33.5,"aqi":150,"pm10":203.5,"pm2_5":56.2,"no2":8.5,"co":387.0,"o3":110.0,"so2":16.8,"mosquito_risk":4,"arthritis_risk":5,"migraine_risk":7,"frizz_risk":1,"updated_at":"2026-05-02T08:26:25.352436+05:30"},{"city":"Faridabad","state":"Haryana","latitude":28.4089,"longitude":77.3178,"temp":27.5,"humidity":54,"rain":0.0,"pressure":980.3,"uv_index":7.65,"wind_gusts":42.8,"aqi":1045,"pm10":787.9,"pm2_5":124.3,"no2":15.8,"co":499.0,"o3":112.0,"so2":19.8,"mosquito_risk":4,"arthritis_risk":5,"migraine_risk":7,"frizz_risk":1,"updated_at":"2026-05-02T08:26:25.352443+05:30"},{"city":"Meerut","state":"Uttar Pradesh","latitude":28.9845,"longitude":77.7064,"temp":26.0,"humidity":69,"rain":0.0,"pressure":978.8,"uv_index":7.5,"wind_gusts":29.2,"aqi":150,"pm10":203.5,"pm2_5":56.2,"no2":8.5,"co":377.0,"o3":110.0,"so2":16.8,"mosquito_risk":7,"arthritis_risk":5,"migraine_risk":7,"frizz_risk":1,"updated_at":"2026-05-02T08:26:25.352450+05:30"},{"city":"Agra","state":"Uttar Pradesh","latitude":27.1767,"longitude":78.0081,"temp":29.9,"humidity":52,"rain":0.0,"pressure":984.1,"uv_index":7.95,"wind_gusts":49.3,"aqi":707,"pm10":696.6,"pm2_5":101.7,"no2":7.7,"co":404.0,"o3":117.0,"so2":12.5,"mosquito_risk":4,"arthritis_risk":5,"migraine_risk":7,"frizz_risk":1,"updated_at":"2026-05-02T08:26:25.352456+05:30"},{"city":"Varanasi","state":"Uttar Pradesh","latitude":25.3176,"longitude":82.9739,"temp":27.2,"humidity":63,"rain":0.0,"pressure":995.8,"uv_index":8.6,"wind_gusts":30.6,"aqi":101,"pm10":62.2,"pm2_5":46.9,"no2":10.3,"co":490.0,"o3":119.0,"so2":18.8,"mosquito_risk":7,"arthritis_risk":5,"migraine_risk":7,"frizz_risk":1,"updated_at":"2026-05-02T08:26:25.352464+05:30"},{"city":"Prayagraj","state":"Uttar Pradesh","latitude":25.4358,"longitude":81.8463,"temp":28.2,"humidity":59,"rain":0.0,"pressure":993.8,"uv_index":8.5,"wind_gusts":33.5,"aqi":100,"pm10":57.7,"pm2_5":44.4,"no2":9.8,"co":488.0,"o3":120.0,"so2":15.3,"mosquito_risk":4,"arthritis_risk":5,"migraine_risk":7,"frizz_risk":1,"updated_at":"2026-05-02T08:26:25.352473+05:30"},{"city":"Gorakhpur","state":"Uttar Pradesh","latitude":26.7606,"longitude":83.3732,"temp":25.4,"humidity":71,"rain":0.0,"pressure":996.7,"uv_index":8.45,"wind_gusts":31.7,"aqi":77,"pm10":31.1,"pm2_5":27.5,"no2":7.9,"co":443.0,"o3":108.0,"so2":7.4,"mosquito_risk":7,"arthritis_risk":5,"migraine_risk":7,"frizz_risk":1,"updated_at":"2026-05-02T08:26:25.352480+05:30"},{"city":"Bareilly","state":"Uttar Pradesh","latitude":28.367,"longitude":79.4304,"temp":26.7,"humidity":63,"rain":0.0,"pressure":984.9,"uv_index":7.9,"wind_gusts":34.2,"aqi":106,"pm10":108.0,"pm2_5":40.7,"no2":8.1,"co":356.0,"o3":109.0,"so2":8.8,"mosquito_risk":7,"arthritis_risk":5,"migraine_risk":7,"frizz_risk":1,"updated_at":"2026-05-02T08:26:25.352486+05:30"},{"city":"Aligarh","state":"Uttar Pradesh","latitude":27.8974,"longitude":78.088,"temp":28.6,"humidity":59,"rain":0.0,"pressure":982.3,"uv_index":7.75,"wind_gusts":29.2,"aqi":520,"pm10":491.7,"pm2_5":86.6,"no2":7.0,"co":373.0,"o3":112.0,"so2":16.4,"mosquito_risk":4,"arthritis_risk":5,"migraine_risk":7,"frizz_risk":1,"updated_at":"2026-05-02T08:26:25.352493+05:30"},{"city":"Moradabad","state":"Uttar Pradesh","latitude":28.8386,"longitude":78.7733,"temp":26.1,"humidity":65,"rain":0.0,"pressure":981.6,"uv_index":7.7,"wind_gusts":35.6,"aqi":121,"pm10":77.8,"pm2_5":39.9,"no2":8.0,"co":365.0,"o3":105.0,"so2":9.4,"mosquito_risk":7,"arthritis_risk":5,"migraine_risk":7,"frizz_risk":1,"updated_at":"2026-05-02T08:26:25.352500+05:30"},{"city":"Saharanpur","state":"Uttar Pradesh","latitude":29.9637,"longitude":77.546,"temp":25.4,"humidity":66,"rain":0.0,"pressure":973.2,"uv_index":7.35,"wind_gusts":35.3,"aqi":125,"pm10":77.3,"pm2_5":50.4,"no2":11.2,"co":368.0,"o3":110.0,"so2":10.1,"mosquito_risk":7,"arthritis_risk":5,"migraine_risk":7,"frizz_risk":1,"updated_at":"2026-05-02T08:26:25.352506+05:30"},{"city":"Jhansi","state":"Uttar Pradesh","latitude":25.4484,"longitude":78.5685,"temp":31.9,"humidity":36,"rain":0.0,"pressure":974.0,"uv_index":8.4,"wind_gusts":32.4,"aqi":74,"pm10":50.6,"pm2_5":26.5,"no2":4.5,"co":294.0,"o3":91.0,"so2":8.5,"mosquito_risk":0,"arthritis_risk":5,"migraine_risk":7,"frizz_risk":0,"updated_at":"2026-05-02T08:26:28.683142+05:30"},{"city":"Surat","state":"Gujarat","latitude":21.1702,"longitude":72.8311,"temp":30.7,"humidity":71,"rain":0.0,"pressure":1005.3,"uv_index":7.7,"wind_gusts":53.6,"aqi":63,"pm10":40.3,"pm2_5":22.0,"no2":18.2,"co":280.0,"o3":57.0,"so2":35.1,"mosquito_risk":3,"arthritis_risk":5,"migraine_risk":4,"frizz_risk":1,"updated_at":"2026-05-02T08:26:28.683173+05:30"},{"city":"Vadodara","state":"Gujarat","latitude":22.3072,"longitude":73.1812,"temp":30.4,"humidity":71,"rain":0.0,"pressure":1002.2,"uv_index":8.05,"wind_gusts":50.0,"aqi":54,"pm10":28.6,"pm2_5":14.9,"no2":8.6,"co":186.0,"o3":58.0,"so2":12.0,"mosquito_risk":3,"arthritis_risk":5,"migraine_risk":4,"frizz_risk":1,"updated_at":"2026-05-02T08:26:28.683188+05:30"},{"city":"Rajkot","state":"Gujarat","latitude":22.3039,"longitude":70.8022,"temp":29.6,"humidity":68,"rain":0.0,"pressure":991.7,"uv_index":7.75,"wind_gusts":56.9,"aqi":50,"pm10":23.2,"pm2_5":10.8,"no2":3.3,"co":165.0,"o3":69.0,"so2":3.8,"mosquito_risk":7,"arthritis_risk":5,"migraine_risk":7,"frizz_risk":1,"updated_at":"2026-05-02T08:26:28.683197+05:30"},{"city":"Thane","state":"Maharashtra","latitude":19.2183,"longitude":72.9781,"temp":29.2,"humidity":73,"rain":0.0,"pressure":1007.4,"uv_index":7.95,"wind_gusts":38.9,"aqi":70,"pm10":71.7,"pm2_5":23.9,"no2":12.9,"co":245.0,"o3":60.0,"so2":20.3,"mosquito_risk":7,"arthritis_risk":5,"migraine_risk":4,"frizz_risk":1,"updated_at":"2026-05-02T08:26:28.683204+05:30"},{"city":"Nagpur","state":"Maharashtra","latitude":21.1458,"longitude":79.0882,"temp":33.6,"humidity":36,"rain":0.0,"pressure":971.7,"uv_index":8.95,"wind_gusts":41.8,"aqi":77,"pm10":27.4,"pm2_5":19.3,"no2":6.9,"co":277.0,"o3":98.0,"so2":16.9,"mosquito_risk":0,"arthritis_risk":5,"migraine_risk":7,"frizz_risk":1,"updated_at":"2026-05-02T08:26:28.683212+05:30"},{"city":"Nashik","state":"Maharashtra","latitude":19.9975,"longitude":73.7898,"temp":26.2,"humidity":70,"rain":0.0,"pressure":944.8,"uv_index":8.25,"wind_gusts":47.2,"aqi":62,"pm10":62.6,"pm2_5":23.5,"no2":10.4,"co":198.0,"o3":52.0,"so2":10.5,"mosquito_risk":7,"arthritis_risk":5,"migraine_risk":7,"frizz_risk":1,"updated_at":"2026-05-02T08:26:28.683220+05:30"},{"city":"Aurangabad","state":"Maharashtra","latitude":19.8762,"longitude":75.3433,"temp":28.1,"humidity":53,"rain":0.0,"pressure":943.7,"uv_index":9.05,"wind_gusts":40.3,"aqi":55,"pm10":46.1,"pm2_5":18.3,"no2":8.3,"co":210.0,"o3":61.0,"so2":9.3,"mosquito_risk":4,"arthritis_risk":5,"migraine_risk":7,"frizz_risk":1,"updated_at":"2026-05-02T08:26:28.683227+05:30"},{"city":"Solapur","state":"Maharashtra","latitude":17.6599,"longitude":75.9064,"temp":29.5,"humidity":42,"rain":0.0,"pressure":957.3,"uv_index":9.05,"wind_gusts":39.2,"aqi":51,"pm10":39.2,"pm2_5":15.0,"no2":5.8,"co":200.0,"o3":65.0,"so2":4.9,"mosquito_risk":4,"arthritis_risk":5,"migraine_risk":7,"frizz_risk":0,"updated_at":"2026-05-02T08:26:28.683235+05:30"},{"city":"Kolhapur","state":"Maharashtra","latitude":16.705,"longitude":74.2433,"temp":26.9,"humidity":51,"rain":0.0,"pressure":948.5,"uv_index":8.95,"wind_gusts":49.3,"aqi":60,"pm10":43.2,"pm2_5":25.4,"no2":10.4,"co":201.0,"o3":58.0,"so2":2.6,"mosquito_risk":4,"arthritis_risk":5,"migraine_risk":7,"frizz_risk":0,"updated_at":"2026-05-02T08:26:28.683242+05:30"},{"city":"Goa","state":"Goa","latitude":15.2993,"longitude":74.124,"temp":29.0,"humidity":73,"rain":0.0,"pressure":998.9,"uv_index":8.95,"wind_gusts":40.3,"aqi":67,"pm10":51.5,"pm2_5":27.1,"no2":5.9,"co":172.0,"o3":65.0,"so2":2.3,"mosquito_risk":7,"arthritis_risk":5,"migraine_risk":7,"frizz_risk":1,"updated_at":"2026-05-02T08:26:28.683250+05:30"},{"city":"Jodhpur","state":"Rajasthan","latitude":26.2389,"longitude":73.0243,"temp":31.1,"humidity":43,"rain":0.0,"pressure":978.2,"uv_index":8.35,"wind_gusts":38.5,"aqi":123,"pm10":216.1,"pm2_5":39.2,"no2":2.6,"co":173.0,"o3":70.0,"so2":3.6,"mosquito_risk":0,"arthritis_risk":5,"migraine_risk":7,"frizz_risk":1,"updated_at":"2026-05-02T08:26:28.683257+05:30"},{"city":"Udaipur","state":"Rajasthan","latitude":24.5854,"longitude":73.7125,"temp":28.0,"humidity":55,"rain":0.0,"pressure":943.5,"uv_index":8.8,"wind_gusts":37.8,"aqi":53,"pm10":39.6,"pm2_5":15.2,"no2":3.8,"co":188.0,"o3":67.0,"so2":6.7,"mosquito_risk":4,"arthritis_risk":5,"migraine_risk":7,"frizz_risk":1,"updated_at":"2026-05-02T08:26:28.683264+05:30"},{"city":"Kota","state":"Rajasthan","latitude":25.2138,"longitude":75.8648,"temp":31.6,"humidity":55,"rain":0.0,"pressure":974.8,"uv_index":8.35,"wind_gusts":40.3,"aqi":60,"pm10":16.7,"pm2_5":12.2,"no2":4.7,"co":228.0,"o3":78.0,"so2":11.5,"mosquito_risk":0,"arthritis_risk":5,"migraine_risk":7,"frizz_risk":1,"updated_at":"2026-05-02T08:26:28.683271+05:30"},{"city":"Bikaner","state":"Rajasthan","latitude":28.0229,"longitude":73.3119,"temp":31.6,"humidity":34,"rain":0.0,"pressure":976.2,"uv_index":8.3,"wind_gusts":28.8,"aqi":64,"pm10":56.9,"pm2_5":19.9,"no2":2.7,"co":202.0,"o3":80.0,"so2":3.1,"mosquito_risk":0,"arthritis_risk":5,"migraine_risk":7,"frizz_risk":0,"updated_at":"2026-05-02T08:26:28.683278+05:30"},{"city":"Ajmer","state":"Rajasthan","latitude":26.4499,"longitude":74.6399,"temp":30.7,"humidity":44,"rain":0.0,"pressure":950.6,"uv_index":8.3,"wind_gusts":49.7,"aqi":61,"pm10":33.9,"pm2_5":15.4,"no2":3.1,"co":196.0,"o3":76.0,"so2":5.0,"mosquito_risk":0,"arthritis_risk":5,"migraine_risk":7,"frizz_risk":1,"updated_at":"2026-05-02T08:26:28.683284+05:30"},{"city":"Gwalior","state":"Madhya Pradesh","latitude":26.2183,"longitude":78.1828,"temp":29.6,"humidity":48,"rain":0.0,"pressure":979.2,"uv_index":8.2,"wind_gusts":52.6,"aqi":90,"pm10":63.3,"pm2_5":28.9,"no2":4.0,"co":296.0,"o3":117.0,"so2":9.6,"mosquito_risk":4,"arthritis_risk":5,"migraine_risk":7,"frizz_risk":1,"updated_at":"2026-05-02T08:26:28.683291+05:30"},{"city":"Indore","state":"Madhya Pradesh","latitude":22.7196,"longitude":75.8577,"temp":28.4,"humidity":65,"rain":0.0,"pressure":946.4,"uv_index":8.4,"wind_gusts":50.0,"aqi":56,"pm10":25.4,"pm2_5":13.3,"no2":4.9,"co":229.0,"o3":64.0,"so2":9.9,"mosquito_risk":7,"arthritis_risk":5,"migraine_risk":7,"frizz_risk":1,"updated_at":"2026-05-02T08:26:28.683298+05:30"},{"city":"Bhopal","state":"Madhya Pradesh","latitude":23.2599,"longitude":77.4126,"temp":30.4,"humidity":52,"rain":0.0,"pressure":951.8,"uv_index":8.7,"wind_gusts":49.7,"aqi":67,"pm10":18.2,"pm2_5":12.6,"no2":3.0,"co":212.0,"o3":85.0,"so2":8.6,"mosquito_risk":0,"arthritis_risk":5,"migraine_risk":7,"frizz_risk":1,"updated_at":"2026-05-02T08:26:28.683305+05:30"},{"city":"Jabalpur","state":"Madhya Pradesh","latitude":23.1815,"longitude":79.9864,"temp":32.0,"humidity":32,"rain":0.0,"pressure":959.2,"uv_index":8.85,"wind_gusts":44.6,"aqi":82,"pm10":38.1,"pm2_5":18.8,"no2":7.5,"co":218.0,"o3":85.0,"so2":4.8,"mosquito_risk":0,"arthritis_risk":5,"migraine_risk":7,"frizz_risk":0,"updated_at":"2026-05-02T08:26:28.683311+05:30"},{"city":"Ujjain","state":"Madhya Pradesh","latitude":23.1765,"longitude":75.7885,"temp":28.5,"humidity":67,"rain":0.0,"pressure":951.8,"uv_index":8.6,"wind_gusts":48.6,"aqi":55,"pm10":24.0,"pm2_5":12.9,"no2":4.1,"co":190.0,"o3":62.0,"so2":9.5,"mosquito_risk":7,"arthritis_risk":5,"migraine_risk":7,"frizz_risk":1,"updated_at":"2026-05-02T08:26:28.683318+05:30"},{"city":"Visakhapatnam","state":"Andhra Pradesh","latitude":17.6868,"longitude":83.2185,"temp":30.6,"humidity":76,"rain":0.0,"pressure":1003.4,"uv_index":9.1,"wind_gusts":54.7,"aqi":62,"pm10":21.7,"pm2_5":17.2,"no2":15.0,"co":336.0,"o3":58.0,"so2":6.9,"mosquito_risk":3,"arthritis_risk":5,"migraine_risk":4,"frizz_risk":1,"updated_at":"2026-05-02T08:26:28.683325+05:30"},{"city":"Vijayawada","state":"Andhra Pradesh","latitude":16.5062,"longitude":80.648,"temp":33.0,"humidity":66,"rain":0.0,"pressure":1001.2,"uv_index":9.15,"wind_gusts":45.0,"aqi":70,"pm10":18.6,"pm2_5":15.2,"no2":5.7,"co":257.0,"o3":94.0,"so2":11.1,"mosquito_risk":3,"arthritis_risk":5,"migraine_risk":4,"frizz_risk":1,"updated_at":"2026-05-02T08:26:28.683331+05:30"},{"city":"Guntur","state":"Andhra Pradesh","latitude":16.3067,"longitude":80.4365,"temp":33.4,"humidity":63,"rain":0.0,"pressure":1002.2,"uv_index":9.2,"wind_gusts":40.0,"aqi":72,"pm10":21.7,"pm2_5":20.0,"no2":7.1,"co":292.0,"o3":107.0,"so2":11.9,"mosquito_risk":3,"arthritis_risk":5,"migraine_risk":4,"frizz_risk":1,"updated_at":"2026-05-02T08:26:28.683338+05:30"},{"city":"Nellore","state":"Andhra Pradesh","latitude":14.4426,"longitude":79.9865,"temp":34.7,"humidity":45,"rain":0.0,"pressure":1004.8,"uv_index":9.2,"wind_gusts":49.3,"aqi":78,"pm10":28.4,"pm2_5":26.1,"no2":7.7,"co":299.0,"o3":107.0,"so2":11.2,"mosquito_risk":0,"arthritis_risk":5,"migraine_risk":4,"frizz_risk":1,"updated_at":"2026-05-02T08:26:28.683346+05:30"},{"city":"Kurnool","state":"Andhra Pradesh","latitude":15.8281,"longitude":78.0373,"temp":32.5,"humidity":36,"rain":0.0,"pressure":977.1,"uv_index":9.2,"wind_gusts":32.8,"aqi":57,"pm10":22.2,"pm2_5":13.2,"no2":6.9,"co":209.0,"o3":65.0,"so2":4.0,"mosquito_risk":0,"arthritis_risk":5,"migraine_risk":7,"frizz_risk":0,"updated_at":"2026-05-02T08:26:28.683354+05:30"},{"city":"Kakinada","state":"Andhra Pradesh","latitude":16.9891,"longitude":82.2475,"temp":32.0,"humidity":74,"rain":0.0,"pressure":1006.9,"uv_index":9.15,"wind_gusts":41.8,"aqi":51,"pm10":16.2,"pm2_5":11.0,"no2":2.6,"co":189.0,"o3":69.0,"so2":1.7,"mosquito_risk":3,"arthritis_risk":5,"migraine_risk":4,"frizz_risk":1,"updated_at":"2026-05-02T08:26:28.683361+05:30"},{"city":"Tirupati","state":"Andhra Pradesh","latitude":13.6288,"longitude":79.4192,"temp":33.6,"humidity":42,"rain":0.0,"pressure":991.0,"uv_index":9.3,"wind_gusts":45.7,"aqi":96,"pm10":36.3,"pm2_5":34.2,"no2":12.2,"co":286.0,"o3":97.0,"so2":9.4,"mosquito_risk":0,"arthritis_risk":5,"migraine_risk":7,"frizz_risk":1,"updated_at":"2026-05-02T08:26:28.683368+05:30"},{"city":"Warangal","state":"Telangana","latitude":17.9689,"longitude":79.5941,"temp":30.7,"humidity":66,"rain":0.0,"pressure":978.1,"uv_index":9.15,"wind_gusts":36.7,"aqi":84,"pm10":32.4,"pm2_5":30.2,"no2":11.0,"co":320.0,"o3":97.0,"so2":11.3,"mosquito_risk":3,"arthritis_risk":5,"migraine_risk":7,"frizz_risk":1,"updated_at":"2026-05-02T08:26:28.683375+05:30"},{"city":"Nizamabad","state":"Telangana","latitude":18.6725,"longitude":78.0941,"temp":31.8,"humidity":39,"rain":0.0,"pressure":964.4,"uv_index":9.1,"wind_gusts":31.7,"aqi":67,"pm10":24.9,"pm2_5":17.3,"no2":6.7,"co":210.0,"o3":80.0,"so2":8.2,"mosquito_risk":0,"arthritis_risk":5,"migraine_risk":7,"frizz_risk":0,"updated_at":"2026-05-02T08:26:28.683381+05:30"},{"city":"Mysore","state":"Karnataka","latitude":12.2958,"longitude":76.6396,"temp":26.1,"humidity":77,"rain":0.0,"pressure":929.9,"uv_index":9.4,"wind_gusts":50.4,"aqi":81,"pm10":35.0,"pm2_5":30.6,"no2":8.5,"co":280.0,"o3":82.0,"so2":1.3,"mosquito_risk":7,"arthritis_risk":5,"migraine_risk":7,"frizz_risk":1,"updated_at":"2026-05-02T08:26:28.683387+05:30"},{"city":"Mangalore","state":"Karnataka","latitude":12.9141,"longitude":74.856,"temp":29.4,"humidity":79,"rain":0.0,"pressure":1007.7,"uv_index":9.05,"wind_gusts":41.4,"aqi":70,"pm10":32.2,"pm2_5":22.9,"no2":8.8,"co":224.0,"o3":58.0,"so2":2.3,"mosquito_risk":7,"arthritis_risk":5,"migraine_risk":4,"frizz_risk":1,"updated_at":"2026-05-02T08:26:28.683394+05:30"},{"city":"Hubli-Dharwad","state":"Karnataka","latitude":15.3647,"longitude":75.124,"temp":24.7,"humidity":77,"rain":0.0,"pressure":941.8,"uv_index":9.2,"wind_gusts":54.0,"aqi":56,"pm10":27.0,"pm2_5":15.0,"no2":4.5,"co":207.0,"o3":69.0,"so2":1.0,"mosquito_risk":3,"arthritis_risk":5,"migraine_risk":7,"frizz_risk":1,"updated_at":"2026-05-02T08:26:28.683401+05:30"},{"city":"Belgaum","state":"Karnataka","latitude":15.8497,"longitude":74.4977,"temp":25.9,"humidity":55,"rain":0.0,"pressure":926.5,"uv_index":9.15,"wind_gusts":48.6,"aqi":57,"pm10":41.8,"pm2_5":22.9,"no2":6.9,"co":175.0,"o3":65.0,"so2":1.6,"mosquito_risk":4,"arthritis_risk":5,"migraine_risk":7,"frizz_risk":0,"updated_at":"2026-05-02T08:26:32.003433+05:30"},{"city":"Coimbatore","state":"Tamil Nadu","latitude":11.0168,"longitude":76.9558,"temp":27.5,"humidity":77,"rain":0.0,"pressure":962.8,"uv_index":9.0,"wind_gusts":51.8,"aqi":69,"pm10":27.8,"pm2_5":23.0,"no2":5.7,"co":286.0,"o3":94.0,"so2":4.3,"mosquito_risk":7,"arthritis_risk":5,"migraine_risk":7,"frizz_risk":1,"updated_at":"2026-05-02T08:26:32.003463+05:30"},{"city":"Madurai","state":"Tamil Nadu","latitude":9.9252,"longitude":78.1198,"temp":32.2,"humidity":54,"rain":0.0,"pressure":993.8,"uv_index":9.2,"wind_gusts":55.8,"aqi":70,"pm10":30.7,"pm2_5":28.3,"no2":19.2,"co":399.0,"o3":84.0,"so2":8.4,"mosquito_risk":0,"arthritis_risk":5,"migraine_risk":7,"frizz_risk":1,"updated_at":"2026-05-02T08:26:32.003474+05:30"},{"city":"Trichy","state":"Tamil Nadu","latitude":10.7905,"longitude":78.7047,"temp":32.0,"humidity":65,"rain":0.0,"pressure":1000.3,"uv_index":9.2,"wind_gusts":54.7,"aqi":66,"pm10":23.2,"pm2_5":21.5,"no2":12.8,"co":299.0,"o3":79.0,"so2":7.1,"mosquito_risk":3,"arthritis_risk":5,"migraine_risk":4,"frizz_risk":1,"updated_at":"2026-05-02T08:26:32.003483+05:30"},{"city":"Salem","state":"Tamil Nadu","latitude":11.6643,"longitude":78.146,"temp":30.5,"humidity":63,"rain":0.0,"pressure":978.2,"uv_index":9.3,"wind_gusts":43.9,"aqi":89,"pm10":28.1,"pm2_5":25.8,"no2":14.4,"co":393.0,"o3":81.0,"so2":11.8,"mosquito_risk":3,"arthritis_risk":5,"migraine_risk":7,"frizz_risk":1,"updated_at":"2026-05-02T08:26:32.003491+05:30"},{"city":"Tirunelveli","state":"Tamil Nadu","latitude":8.7139,"longitude":77.7567,"temp":31.8,"humidity":60,"rain":0.0,"pressure":1003.9,"uv_index":9.1,"wind_gusts":46.1,"aqi":54,"pm10":25.1,"pm2_5":22.0,"no2":6.0,"co":336.0,"o3":72.0,"so2":1.4,"mosquito_risk":0,"arthritis_risk":5,"migraine_risk":4,"frizz_risk":1,"updated_at":"2026-05-02T08:26:32.003499+05:30"},{"city":"Vellore","state":"Tamil Nadu","latitude":12.9165,"longitude":79.1325,"temp":32.3,"humidity":47,"rain":0.0,"pressure":984.8,"uv_index":9.3,"wind_gusts":42.1,"aqi":97,"pm10":34.9,"pm2_5":32.5,"no2":9.4,"co":324.0,"o3":104.0,"so2":10.7,"mosquito_risk":0,"arthritis_risk":5,"migraine_risk":7,"frizz_risk":1,"updated_at":"2026-05-02T08:26:32.003506+05:30"},{"city":"Erode","state":"Tamil Nadu","latitude":11.341,"longitude":77.7172,"temp":31.0,"humidity":62,"rain":0.0,"pressure":989.8,"uv_index":9.25,"wind_gusts":61.2,"aqi":73,"pm10":28.3,"pm2_5":25.3,"no2":12.3,"co":292.0,"o3":81.0,"so2":3.6,"mosquito_risk":3,"arthritis_risk":5,"migraine_risk":7,"frizz_risk":1,"updated_at":"2026-05-02T08:26:32.003513+05:30"},{"city":"Kochi","state":"Kerala","latitude":9.9312,"longitude":76.2673,"temp":28.0,"humidity":84,"rain":0.0,"pressure":1009.9,"uv_index":8.4,"wind_gusts":38.2,"aqi":73,"pm10":28.6,"pm2_5":23.2,"no2":13.5,"co":290.0,"o3":58.0,"so2":4.2,"mosquito_risk":7,"arthritis_risk":0,"migraine_risk":4,"frizz_risk":1,"updated_at":"2026-05-02T08:26:32.003520+05:30"},{"city":"Thiruvananthapuram","state":"Kerala","latitude":8.5241,"longitude":76.9366,"temp":27.0,"humidity":90,"rain":0.0,"pressure":1009.5,"uv_index":8.05,"wind_gusts":37.4,"aqi":44,"pm10":18.2,"pm2_5":13.6,"no2":4.9,"co":313.0,"o3":80.0,"so2":2.8,"mosquito_risk":7,"arthritis_risk":0,"migraine_risk":4,"frizz_risk":1,"updated_at":"2026-05-02T08:26:32.003528+05:30"},{"city":"Kozhikode","state":"Kerala","latitude":11.2588,"longitude":75.7804,"temp":26.7,"humidity":89,"rain":0.0,"pressure":1009.1,"uv_index":8.85,"wind_gusts":39.6,"aqi":66,"pm10":26.5,"pm2_5":16.1,"no2":2.0,"co":349.0,"o3":78.0,"so2":1.4,"mosquito_risk":7,"arthritis_risk":0,"migraine_risk":4,"frizz_risk":1,"updated_at":"2026-05-02T08:26:32.003534+05:30"},{"city":"Thrissur","state":"Kerala","latitude":10.5276,"longitude":76.2144,"temp":27.8,"humidity":84,"rain":0.0,"pressure":1008.2,"uv_index":6.45,"wind_gusts":34.2,"aqi":73,"pm10":25.3,"pm2_5":19.8,"no2":8.1,"co":330.0,"o3":63.0,"so2":2.7,"mosquito_risk":7,"arthritis_risk":0,"migraine_risk":4,"frizz_risk":1,"updated_at":"2026-05-02T08:26:32.003542+05:30"},{"city":"Kannur","state":"Kerala","latitude":11.8745,"longitude":75.3704,"temp":28.1,"humidity":90,"rain":0.0,"pressure":1008.1,"uv_index":9.0,"wind_gusts":46.8,"aqi":78,"pm10":39.1,"pm2_5":30.4,"no2":10.8,"co":367.0,"o3":58.0,"so2":2.4,"mosquito_risk":7,"arthritis_risk":0,"migraine_risk":4,"frizz_risk":1,"updated_at":"2026-05-02T08:26:32.003549+05:30"},{"city":"Patna","state":"Bihar","latitude":25.5941,"longitude":85.1376,"temp":25.2,"humidity":77,"rain":0.0,"pressure":999.7,"uv_index":8.65,"wind_gusts":28.4,"aqi":97,"pm10":60.3,"pm2_5":46.3,"no2":10.3,"co":393.0,"o3":109.0,"so2":14.5,"mosquito_risk":7,"arthritis_risk":5,"migraine_risk":7,"frizz_risk":1,"updated_at":"2026-05-02T08:26:32.003556+05:30"},{"city":"Gaya","state":"Bihar","latitude":24.7914,"longitude":85.0002,"temp":27.3,"humidity":65,"rain":0.0,"pressure":992.5,"uv_index":8.75,"wind_gusts":26.6,"aqi":92,"pm10":54.2,"pm2_5":39.9,"no2":10.6,"co":412.0,"o3":122.0,"so2":22.0,"mosquito_risk":7,"arthritis_risk":5,"migraine_risk":7,"frizz_risk":1,"updated_at":"2026-05-02T08:26:32.003562+05:30"},{"city":"Muzaffarpur","state":"Bihar","latitude":26.1209,"longitude":85.3647,"temp":24.5,"humidity":77,"rain":0.0,"pressure":1000.3,"uv_index":8.65,"wind_gusts":31.3,"aqi":90,"pm10":58.7,"pm2_5":44.8,"no2":8.1,"co":348.0,"o3":107.0,"so2":10.4,"mosquito_risk":3,"arthritis_risk":5,"migraine_risk":4,"frizz_risk":1,"updated_at":"2026-05-02T08:26:32.003569+05:30"},{"city":"Bhagalpur","state":"Bihar","latitude":25.2425,"longitude":87.0117,"temp":24.8,"humidity":76,"rain":0.0,"pressure":1000.8,"uv_index":8.65,"wind_gusts":32.8,"aqi":96,"pm10":53.9,"pm2_5":46.1,"no2":10.5,"co":320.0,"o3":106.0,"so2":15.1,"mosquito_risk":3,"arthritis_risk":5,"migraine_risk":4,"frizz_risk":1,"updated_at":"2026-05-02T08:26:32.003575+05:30"},{"city":"Ranchi","state":"Jharkhand","latitude":23.3441,"longitude":85.3096,"temp":27.4,"humidity":51,"rain":0.0,"pressure":936.0,"uv_index":9.0,"wind_gusts":43.2,"aqi":102,"pm10":85.2,"pm2_5":42.1,"no2":17.3,"co":308.0,"o3":126.0,"so2":36.8,"mosquito_risk":4,"arthritis_risk":5,"migraine_risk":7,"frizz_risk":1,"updated_at":"2026-05-02T08:26:32.003582+05:30"},{"city":"Jamshedpur","state":"Jharkhand","latitude":22.8046,"longitude":86.2029,"temp":28.8,"humidity":57,"rain":0.0,"pressure":989.2,"uv_index":9.0,"wind_gusts":50.8,"aqi":97,"pm10":47.7,"pm2_5":43.1,"no2":18.1,"co":722.0,"o3":79.0,"so2":26.5,"mosquito_risk":4,"arthritis_risk":5,"migraine_risk":7,"frizz_risk":1,"updated_at":"2026-05-02T08:26:32.003589+05:30"},{"city":"Dhanbad","state":"Jharkhand","latitude":23.7957,"longitude":86.4304,"temp":26.6,"humidity":68,"rain":0.0,"pressure":978.4,"uv_index":9.0,"wind_gusts":32.0,"aqi":137,"pm10":67.8,"pm2_5":59.1,"no2":35.9,"co":1553.0,"o3":77.0,"so2":75.1,"mosquito_risk":7,"arthritis_risk":5,"migraine_risk":7,"frizz_risk":1,"updated_at":"2026-05-02T08:26:32.003595+05:30"},{"city":"Bokaro","state":"Jharkhand","latitude":23.6693,"longitude":86.1511,"temp":26.9,"humidity":67,"rain":0.0,"pressure":982.3,"uv_index":8.85,"wind_gusts":36.0,"aqi":135,"pm10":76.8,"pm2_5":68.2,"no2":44.7,"co":1441.0,"o3":59.0,"so2":98.8,"mosquito_risk":7,"arthritis_risk":5,"migraine_risk":7,"frizz_risk":1,"updated_at":"2026-05-02T08:26:32.003603+05:30"},{"city":"Bhubaneswar","state":"Odisha","latitude":20.2961,"longitude":85.8245,"temp":30.0,"humidity":74,"rain":0.0,"pressure":1000.9,"uv_index":9.05,"wind_gusts":48.2,"aqi":56,"pm10":17.6,"pm2_5":14.1,"no2":4.4,"co":260.0,"o3":74.0,"so2":4.8,"mosquito_risk":7,"arthritis_risk":5,"migraine_risk":4,"frizz_risk":1,"updated_at":"2026-05-02T08:26:32.003609+05:30"},{"city":"Cuttack","state":"Odisha","latitude":20.4625,"longitude":85.8828,"temp":29.9,"humidity":74,"rain":0.0,"pressure":1002.6,"uv_index":9.1,"wind_gusts":49.7,"aqi":56,"pm10":17.6,"pm2_5":14.1,"no2":4.4,"co":272.0,"o3":74.0,"so2":4.8,"mosquito_risk":7,"arthritis_risk":5,"migraine_risk":4,"frizz_risk":1,"updated_at":"2026-05-02T08:26:32.003616+05:30"},{"city":"Rourkela","state":"Odisha","latitude":22.2604,"longitude":84.8536,"temp":29.0,"humidity":55,"rain":0.0,"pressure":983.2,"uv_index":8.95,"wind_gusts":57.2,"aqi":119,"pm10":90.3,"pm2_5":51.2,"no2":13.3,"co":536.0,"o3":137.0,"so2":54.8,"mosquito_risk":4,"arthritis_risk":5,"migraine_risk":7,"frizz_risk":1,"updated_at":"2026-05-02T08:26:32.003622+05:30"},{"city":"Raipur","state":"Chhattisgarh","latitude":21.2514,"longitude":81.6296,"temp":33.7,"humidity":29,"rain":0.0,"pressure":972.5,"uv_index":9.0,"wind_gusts":57.2,"aqi":128,"pm10":46.7,"pm2_5":37.0,"no2":21.8,"co":459.0,"o3":131.0,"so2":7.7,"mosquito_risk":0,"arthritis_risk":5,"migraine_risk":7,"frizz_risk":0,"updated_at":"2026-05-02T08:26:32.003628+05:30"},{"city":"Bhilai","state":"Chhattisgarh","latitude":21.1938,"longitude":81.3509,"temp":32.5,"humidity":32,"rain":0.0,"pressure":973.1,"uv_index":9.0,"wind_gusts":50.0,"aqi":120,"pm10":48.5,"pm2_5":36.4,"no2":23.5,"co":718.0,"o3":113.0,"so2":7.4,"mosquito_risk":0,"arthritis_risk":5,"migraine_risk":7,"frizz_risk":0,"updated_at":"2026-05-02T08:26:32.003635+05:30"},{"city":"Guwahati","state":"Assam","latitude":26.1158,"longitude":91.7086,"temp":21.2,"humidity":90,"rain":0.0,"pressure":1002.7,"uv_index":6.3,"wind_gusts":25.2,"aqi":60,"pm10":17.6,"pm2_5":15.7,"no2":4.3,"co":425.0,"o3":87.0,"so2":1.9,"mosquito_risk":3,"arthritis_risk":5,"migraine_risk":4,"frizz_risk":1,"updated_at":"2026-05-02T08:26:32.003641+05:30"},{"city":"Agartala","state":"Tripura","latitude":23.8315,"longitude":91.2868,"temp":22.4,"humidity":91,"rain":0.4,"pressure":1006.4,"uv_index":8.75,"wind_gusts":33.5,"aqi":56,"pm10":6.0,"pm2_5":5.0,"no2":6.3,"co":188.0,"o3":69.0,"so2":1.4,"mosquito_risk":6,"arthritis_risk":5,"migraine_risk":4,"frizz_risk":1,"updated_at":"2026-05-02T08:26:32.003648+05:30"},{"city":"Shillong","state":"Meghalaya","latitude":25.5788,"longitude":91.8933,"temp":18.4,"humidity":74,"rain":0.0,"pressure":856.2,"uv_index":5.75,"wind_gusts":29.5,"aqi":38,"pm10":10.0,"pm2_5":6.8,"no2":3.0,"co":250.0,"o3":93.0,"so2":1.1,"mosquito_risk":3,"arthritis_risk":5,"migraine_risk":3,"frizz_risk":0,"updated_at":"2026-05-02T08:26:32.003654+05:30"},{"city":"Imphal","state":"Manipur","latitude":24.817,"longitude":93.9368,"temp":20.5,"humidity":79,"rain":0.1,"pressure":923.5,"uv_index":6.75,"wind_gusts":29.5,"aqi":66,"pm10":5.8,"pm2_5":5.3,"no2":3.5,"co":308.0,"o3":71.0,"so2":1.3,"mosquito_risk":6,"arthritis_risk":5,"migraine_risk":7,"frizz_risk":1,"updated_at":"2026-05-02T08:26:32.003661+05:30"},{"city":"Aizawl","state":"Mizoram","latitude":23.7271,"longitude":92.7176,"temp":17.7,"humidity":86,"rain":0.2,"pressure":892.2,"uv_index":9.0,"wind_gusts":41.8,"aqi":27,"pm10":4.5,"pm2_5":2.7,"no2":2.9,"co":180.0,"o3":65.0,"so2":0.2,"mosquito_risk":6,"arthritis_risk":10,"migraine_risk":7,"frizz_risk":0,"updated_at":"2026-05-02T08:26:32.003667+05:30"},{"city":"Kohima","state":"Nagaland","latitude":25.6701,"longitude":94.1077,"temp":19.0,"humidity":80,"rain":0.1,"pressure":855.0,"uv_index":6.45,"wind_gusts":27.7,"aqi":52,"pm10":8.1,"pm2_5":6.3,"no2":2.3,"co":249.0,"o3":84.0,"so2":0.6,"mosquito_risk":6,"arthritis_risk":5,"migraine_risk":7,"frizz_risk":0,"updated_at":"2026-05-02T08:26:32.003674+05:30"},{"city":"Gangtok","state":"Sikkim","latitude":27.3314,"longitude":88.6138,"temp":13.7,"humidity":96,"rain":0.2,"pressure":835.2,"uv_index":2.95,"wind_gusts":24.5,"aqi":54,"pm10":14.3,"pm2_5":10.9,"no2":4.5,"co":374.0,"o3":104.0,"so2":0.8,"mosquito_risk":6,"arthritis_risk":10,"migraine_risk":3,"frizz_risk":0,"updated_at":"2026-05-02T08:26:32.003680+05:30"},{"city":"Siliguri","state":"West Bengal","latitude":26.7271,"longitude":88.3953,"temp":22.1,"humidity":90,"rain":0.3,"pressure":993.2,"uv_index":1.2,"wind_gusts":22.0,"aqi":68,"pm10":13.4,"pm2_5":11.2,"no2":6.3,"co":389.0,"o3":106.0,"so2":2.0,"mosquito_risk":6,"arthritis_risk":5,"migraine_risk":3,"frizz_risk":1,"updated_at":"2026-05-02T08:26:35.335769+05:30"},{"city":"Durgapur","state":"West Bengal","latitude":23.5204,"longitude":87.3119,"temp":25.0,"humidity":84,"rain":0.0,"pressure":993.7,"uv_index":8.9,"wind_gusts":25.9,"aqi":127,"pm10":53.1,"pm2_5":45.8,"no2":23.9,"co":717.0,"o3":91.0,"so2":44.9,"mosquito_risk":7,"arthritis_risk":5,"migraine_risk":7,"frizz_risk":1,"updated_at":"2026-05-02T08:26:35.335827+05:30"},{"city":"Asansol","state":"West Bengal","latitude":23.6739,"longitude":86.9524,"temp":25.9,"humidity":76,"rain":0.0,"pressure":992.3,"uv_index":8.95,"wind_gusts":30.2,"aqi":123,"pm10":55.2,"pm2_5":47.1,"no2":24.2,"co":607.0,"o3":92.0,"so2":48.5,"mosquito_risk":7,"arthritis_risk":5,"migraine_risk":7,"frizz_risk":1,"updated_at":"2026-05-02T08:26:35.335838+05:30"},{"city":"Pondicherry","state":"Puducherry","latitude":11.9139,"longitude":79.8145,"temp":31.2,"humidity":70,"rain":0.0,"pressure":1008.6,"uv_index":9.15,"wind_gusts":58.3,"aqi":55,"pm10":11.6,"pm2_5":9.9,"no2":8.3,"co":279.0,"o3":80.0,"so2":7.6,"mosquito_risk":3,"arthritis_risk":0,"migraine_risk":4,"frizz_risk":1,"updated_at":"2026-05-02T08:26:35.335847+05:30"},{"city":"Port Blair","state":"Andaman and Nicobar Islands","latitude":11.6234,"longitude":92.7265,"temp":32.8,"humidity":51,"rain":0.0,"pressure":1008.2,"uv_index":9.05,"wind_gusts":29.5,"aqi":28,"pm10":10.8,"pm2_5":7.6,"no2":0.5,"co":168.0,"o3":63.0,"so2":0.2,"mosquito_risk":0,"arthritis_risk":0,"migraine_risk":4,"frizz_risk":1,"updated_at":"2026-05-02T08:26:35.335859+05:30"},{"city":"Haridwar","state":"Uttarakhand","latitude":29.9457,"longitude":78.1642,"temp":26.2,"humidity":60,"rain":0.0,"pressure":971.9,"uv_index":7.4,"wind_gusts":27.4,"aqi":123,"pm10":61.5,"pm2_5":37.7,"no2":7.4,"co":304.0,"o3":117.0,"so2":5.7,"mosquito_risk":4,"arthritis_risk":5,"migraine_risk":7,"frizz_risk":1,"updated_at":"2026-05-02T08:26:35.335867+05:30"},{"city":"Rishikesh","state":"Uttarakhand","latitude":30.0869,"longitude":78.2676,"temp":25.1,"humidity":63,"rain":0.0,"pressure":964.7,"uv_index":7.5,"wind_gusts":28.4,"aqi":114,"pm10":50.6,"pm2_5":30.7,"no2":3.6,"co":272.0,"o3":134.0,"so2":4.0,"mosquito_risk":7,"arthritis_risk":5,"migraine_risk":7,"frizz_risk":1,"updated_at":"2026-05-02T08:26:35.335875+05:30"},{"city":"Nainital","state":"Uttarakhand","latitude":29.3919,"longitude":79.4542,"temp":14.6,"humidity":84,"rain":0.0,"pressure":803.4,"uv_index":8.25,"wind_gusts":45.0,"aqi":99,"pm10":102.9,"pm2_5":30.5,"no2":6.6,"co":272.0,"o3":123.0,"so2":4.3,"mosquito_risk":3,"arthritis_risk":10,"migraine_risk":7,"frizz_risk":0,"updated_at":"2026-05-02T08:26:35.335882+05:30"},{"city":"Mussoorie","state":"Uttarakhand","latitude":30.4599,"longitude":78.0664,"temp":14.0,"humidity":91,"rain":0.0,"pressure":800.2,"uv_index":7.9,"wind_gusts":51.8,"aqi":114,"pm10":27.7,"pm2_5":20.7,"no2":6.4,"co":272.0,"o3":137.0,"so2":9.7,"mosquito_risk":3,"arthritis_risk":10,"migraine_risk":7,"frizz_risk":0,"updated_at":"2026-05-02T08:26:35.335889+05:30"},{"city":"Dharamshala","state":"Himachal Pradesh","latitude":32.219,"longitude":76.3234,"temp":22.0,"humidity":45,"rain":0.0,"pressure":866.5,"uv_index":8.25,"wind_gusts":47.5,"aqi":37,"pm10":7.4,"pm2_5":5.6,"no2":3.6,"co":221.0,"o3":116.0,"so2":0.9,"mosquito_risk":0,"arthritis_risk":5,"migraine_risk":7,"frizz_risk":0,"updated_at":"2026-05-02T08:26:35.335896+05:30"},{"city":"Dalhousie","state":"Himachal Pradesh","latitude":32.5387,"longitude":75.971,"temp":16.8,"humidity":58,"rain":0.0,"pressure":802.2,"uv_index":8.5,"wind_gusts":42.1,"aqi":59,"pm10":14.0,"pm2_5":9.9,"no2":8.8,"co":258.0,"o3":114.0,"so2":1.9,"mosquito_risk":0,"arthritis_risk":5,"migraine_risk":7,"frizz_risk":0,"updated_at":"2026-05-02T08:26:35.335904+05:30"},{"city":"Patiala","state":"Punjab","latitude":30.3398,"longitude":76.3869,"temp":27.0,"humidity":59,"rain":0.0,"pressure":974.8,"uv_index":7.5,"wind_gusts":32.0,"aqi":437,"pm10":650.1,"pm2_5":103.1,"no2":6.8,"co":434.0,"o3":114.0,"so2":13.6,"mosquito_risk":4,"arthritis_risk":5,"migraine_risk":7,"frizz_risk":1,"updated_at":"2026-05-02T08:26:35.335911+05:30"},{"city":"Bhatinda","state":"Punjab","latitude":30.211,"longitude":74.9455,"temp":30.5,"humidity":38,"rain":0.0,"pressure":979.4,"uv_index":8.15,"wind_gusts":34.6,"aqi":153,"pm10":316.6,"pm2_5":88.2,"no2":9.3,"co":431.0,"o3":98.0,"so2":12.0,"mosquito_risk":0,"arthritis_risk":5,"migraine_risk":7,"frizz_risk":0,"updated_at":"2026-05-02T08:26:35.335919+05:30"},{"city":"Rohtak","state":"Haryana","latitude":28.8955,"longitude":76.6066,"temp":29.1,"humidity":47,"rain":0.0,"pressure":978.0,"uv_index":7.65,"wind_gusts":32.0,"aqi":480,"pm10":570.0,"pm2_5":110.1,"no2":16.5,"co":526.0,"o3":115.0,"so2":24.9,"mosquito_risk":4,"arthritis_risk":5,"migraine_risk":7,"frizz_risk":1,"updated_at":"2026-05-02T08:26:35.335926+05:30"},{"city":"Panipat","state":"Haryana","latitude":29.3909,"longitude":76.9635,"temp":26.8,"humidity":61,"rain":0.0,"pressure":977.2,"uv_index":7.45,"wind_gusts":38.5,"aqi":738,"pm10":653.8,"pm2_5":106.2,"no2":13.4,"co":420.0,"o3":110.0,"so2":22.3,"mosquito_risk":7,"arthritis_risk":5,"migraine_risk":7,"frizz_risk":1,"updated_at":"2026-05-02T08:26:35.335933+05:30"},{"city":"Mathura","state":"Uttar Pradesh","latitude":27.4924,"longitude":77.6737,"temp":29.5,"humidity":55,"rain":0.0,"pressure":983.2,"uv_index":7.9,"wind_gusts":37.4,"aqi":690,"pm10":767.4,"pm2_5":114.8,"no2":7.6,"co":395.0,"o3":118.0,"so2":10.9,"mosquito_risk":4,"arthritis_risk":5,"migraine_risk":7,"frizz_risk":1,"updated_at":"2026-05-02T08:26:35.335940+05:30"},{"city":"Vrindavan","state":"Uttar Pradesh","latitude":27.5823,"longitude":77.7027,"temp":29.5,"humidity":54,"rain":0.0,"pressure":983.6,"uv_index":7.85,"wind_gusts":32.8,"aqi":690,"pm10":767.4,"pm2_5":114.8,"no2":7.6,"co":392.0,"o3":118.0,"so2":10.9,"mosquito_risk":4,"arthritis_risk":5,"migraine_risk":7,"frizz_risk":1,"updated_at":"2026-05-02T08:26:35.335947+05:30"},{"city":"Ayodhya","state":"Uttar Pradesh","latitude":26.7922,"longitude":82.1998,"temp":26.0,"humidity":72,"rain":0.0,"pressure":994.2,"uv_index":8.25,"wind_gusts":31.0,"aqi":82,"pm10":28.9,"pm2_5":24.5,"no2":7.5,"co":421.0,"o3":112.0,"so2":7.2,"mosquito_risk":7,"arthritis_risk":5,"migraine_risk":7,"frizz_risk":1,"updated_at":"2026-05-02T08:26:35.335953+05:30"},{"city":"Ratlam","state":"Madhya Pradesh","latitude":23.3315,"longitude":75.0367,"temp":28.0,"humidity":71,"rain":0.0,"pressure":952.9,"uv_index":8.55,"wind_gusts":49.0,"aqi":53,"pm10":25.1,"pm2_5":12.8,"no2":4.1,"co":178.0,"o3":62.0,"so2":9.8,"mosquito_risk":7,"arthritis_risk":5,"migraine_risk":7,"frizz_risk":1,"updated_at":"2026-05-02T08:26:35.335960+05:30"},{"city":"Sagar","state":"Madhya Pradesh","latitude":23.8388,"longitude":78.7378,"temp":31.0,"humidity":42,"rain":0.0,"pressure":947.8,"uv_index":8.7,"wind_gusts":45.4,"aqi":62,"pm10":19.8,"pm2_5":13.6,"no2":3.1,"co":211.0,"o3":93.0,"so2":6.6,"mosquito_risk":0,"arthritis_risk":5,"migraine_risk":7,"frizz_risk":1,"updated_at":"2026-05-02T08:26:35.335966+05:30"},{"city":"Satna","state":"Madhya Pradesh","latitude":24.6005,"longitude":80.8322,"temp":29.2,"humidity":47,"rain":0.0,"pressure":968.1,"uv_index":8.75,"wind_gusts":49.0,"aqi":76,"pm10":51.7,"pm2_5":26.0,"no2":9.9,"co":330.0,"o3":113.0,"so2":15.9,"mosquito_risk":4,"arthritis_risk":5,"migraine_risk":7,"frizz_risk":1,"updated_at":"2026-05-02T08:26:35.335973+05:30"},{"city":"Akola","state":"Maharashtra","latitude":20.7002,"longitude":77.0082,"temp":31.1,"humidity":45,"rain":0.0,"pressure":974.1,"uv_index":8.9,"wind_gusts":49.0,"aqi":54,"pm10":25.3,"pm2_5":12.1,"no2":5.0,"co":190.0,"o3":68.0,"so2":13.4,"mosquito_risk":0,"arthritis_risk":5,"migraine_risk":7,"frizz_risk":1,"updated_at":"2026-05-02T08:26:35.335981+05:30"},{"city":"Amravati","state":"Maharashtra","latitude":20.9374,"longitude":77.7796,"temp":31.5,"humidity":44,"rain":0.0,"pressure":966.2,"uv_index":8.9,"wind_gusts":39.6,"aqi":54,"pm10":22.9,"pm2_5":11.4,"no2":5.1,"co":184.0,"o3":70.0,"so2":12.5,"mosquito_risk":0,"arthritis_risk":5,"migraine_risk":7,"frizz_risk":1,"updated_at":"2026-05-02T08:26:35.335988+05:30"},{"city":"Latur","state":"Maharashtra","latitude":18.4088,"longitude":76.5604,"temp":30.5,"humidity":34,"rain":0.0,"pressure":940.1,"uv_index":9.05,"wind_gusts":31.7,"aqi":56,"pm10":35.2,"pm2_5":15.4,"no2":6.2,"co":202.0,"o3":65.0,"so2":4.9,"mosquito_risk":0,"arthritis_risk":5,"migraine_risk":7,"frizz_risk":0,"updated_at":"2026-05-02T08:26:35.335994+05:30"},{"city":"Nanded","state":"Maharashtra","latitude":19.1383,"longitude":77.3091,"temp":31.5,"humidity":40,"rain":0.0,"pressure":968.2,"uv_index":8.95,"wind_gusts":37.1,"aqi":58,"pm10":26.7,"pm2_5":14.6,"no2":6.6,"co":225.0,"o3":77.0,"so2":8.3,"mosquito_risk":0,"arthritis_risk":5,"migraine_risk":7,"frizz_risk":1,"updated_at":"2026-05-02T08:26:35.336001+05:30"},{"city":"Gulbarga","state":"Karnataka","latitude":17.3297,"longitude":76.8343,"temp":31.2,"humidity":36,"rain":0.0,"pressure":958.7,"uv_index":9.1,"wind_gusts":41.8,"aqi":54,"pm10":30.3,"pm2_5":13.4,"no2":6.6,"co":206.0,"o3":65.0,"so2":5.2,"mosquito_risk":0,"arthritis_risk":5,"migraine_risk":7,"frizz_risk":0,"updated_at":"2026-05-02T08:26:35.336007+05:30"},{"city":"Bidar","state":"Karnataka","latitude":17.9104,"longitude":77.5199,"temp":31.1,"humidity":32,"rain":0.0,"pressure":935.7,"uv_index":9.1,"wind_gusts":34.6,"aqi":66,"pm10":28.3,"pm2_5":16.4,"no2":8.2,"co":216.0,"o3":79.0,"so2":8.8,"mosquito_risk":0,"arthritis_risk":5,"migraine_risk":7,"frizz_risk":0,"updated_at":"2026-05-02T08:26:35.336013+05:30"},{"city":"Hospet","state":"Karnataka","latitude":15.2689,"longitude":76.3909,"temp":27.2,"humidity":66,"rain":0.0,"pressure":956.8,"uv_index":9.25,"wind_gusts":49.7,"aqi":54,"pm10":25.3,"pm2_5":13.4,"no2":5.9,"co":192.0,"o3":65.0,"so2":2.7,"mosquito_risk":7,"arthritis_risk":5,"migraine_risk":7,"frizz_risk":1,"updated_at":"2026-05-02T08:26:35.336020+05:30"},{"city":"Tirupur","state":"Tamil Nadu","latitude":11.1085,"longitude":77.3411,"temp":29.2,"humidity":69,"rain":0.0,"pressure":976.2,"uv_index":9.3,"wind_gusts":54.4,"aqi":76,"pm10":30.4,"pm2_5":26.9,"no2":12.4,"co":242.0,"o3":91.0,"so2":4.7,"mosquito_risk":7,"arthritis_risk":5,"migraine_risk":7,"frizz_risk":1,"updated_at":"2026-05-02T08:26:35.336026+05:30"},{"city":"Alappuzha","state":"Kerala","latitude":9.4981,"longitude":76.3388,"temp":27.9,"humidity":86,"rain":0.0,"pressure":1010.1,"uv_index":8.9,"wind_gusts":42.1,"aqi":65,"pm10":34.8,"pm2_5":26.2,"no2":10.6,"co":210.0,"o3":70.0,"so2":5.0,"mosquito_risk":7,"arthritis_risk":0,"migraine_risk":4,"frizz_risk":1,"updated_at":"2026-05-02T08:26:35.336033+05:30"},{"city":"Munnar","state":"Kerala","latitude":10.0889,"longitude":77.0595,"temp":21.0,"humidity":69,"rain":0.0,"pressure":858.9,"uv_index":8.65,"wind_gusts":25.9,"aqi":53,"pm10":20.4,"pm2_5":17.2,"no2":5.5,"co":232.0,"o3":65.0,"so2":0.7,"mosquito_risk":3,"arthritis_risk":5,"migraine_risk":7,"frizz_risk":0,"updated_at":"2026-05-02T08:26:35.336040+05:30"},{"city":"Silchar","state":"Assam","latitude":24.8333,"longitude":92.7789,"temp":21.2,"humidity":92,"rain":0.2,"pressure":1007.0,"uv_index":4.95,"wind_gusts":24.8,"aqi":74,"pm10":9.7,"pm2_5":8.3,"no2":5.1,"co":228.0,"o3":61.0,"so2":3.1,"mosquito_risk":6,"arthritis_risk":5,"migraine_risk":0,"frizz_risk":1,"updated_at":"2026-05-02T08:26:35.336046+05:30"},{"city":"Dibrugarh","state":"Assam","latitude":27.4728,"longitude":94.912,"temp":21.6,"humidity":90,"rain":0.0,"pressure":997.0,"uv_index":8.4,"wind_gusts":23.0,"aqi":62,"pm10":22.9,"pm2_5":15.0,"no2":6.7,"co":295.0,"o3":90.0,"so2":1.4,"mosquito_risk":3,"arthritis_risk":5,"migraine_risk":7,"frizz_risk":1,"updated_at":"2026-05-02T08:26:35.336053+05:30"}]