[{"city":"Delhi","state":"Delhi","latitude":28.6139,"longitude":77.209,"temp":30.4,"humidity":80,"rain":0.0,"pressure":972.3,"uv_index":7.65,"wind_gusts":29.5,"aqi":640,"pm10":512.2,"pm2_5":149.9,"no2":46.5,"co":997.0,"o3":52.0,"so2":21.3,"mosquito_risk":3,"arthritis_risk":5,"migraine_risk":7,"frizz_risk":1,"updated_at":"2026-07-12T20:28:50.878772+05:30"},{"city":"Mumbai","state":"Maharashtra","latitude":19.076,"longitude":72.8777,"temp":28.1,"humidity":85,"rain":0.0,"pressure":1005.6,"uv_index":6.6,"wind_gusts":56.5,"aqi":52,"pm10":36.8,"pm2_5":14.8,"no2":6.2,"co":158.0,"o3":45.0,"so2":5.4,"mosquito_risk":7,"arthritis_risk":5,"migraine_risk":4,"frizz_risk":1,"updated_at":"2026-07-12T20:28:50.878821+05:30"},{"city":"Bangalore","state":"Karnataka","latitude":12.9716,"longitude":77.5946,"temp":25.7,"humidity":67,"rain":0.0,"pressure":910.7,"uv_index":8.8,"wind_gusts":48.2,"aqi":50,"pm10":25.3,"pm2_5":14.1,"no2":9.1,"co":242.0,"o3":60.0,"so2":3.9,"mosquito_risk":7,"arthritis_risk":5,"migraine_risk":7,"frizz_risk":1,"updated_at":"2026-07-12T20:28:50.878838+05:30"},{"city":"Hyderabad","state":"Telangana","latitude":17.385,"longitude":78.4867,"temp":30.1,"humidity":52,"rain":0.0,"pressure":949.2,"uv_index":8.95,"wind_gusts":50.0,"aqi":59,"pm10":30.6,"pm2_5":17.6,"no2":8.5,"co":256.0,"o3":67.0,"so2":4.1,"mosquito_risk":0,"arthritis_risk":5,"migraine_risk":7,"frizz_risk":1,"updated_at":"2026-07-12T20:28:50.878848+05:30"},{"city":"Chennai","state":"Tamil Nadu","latitude":13.0827,"longitude":80.2707,"temp":31.4,"humidity":72,"rain":0.0,"pressure":1002.9,"uv_index":8.85,"wind_gusts":34.2,"aqi":90,"pm10":41.6,"pm2_5":25.3,"no2":6.2,"co":201.0,"o3":119.0,"so2":7.4,"mosquito_risk":3,"arthritis_risk":5,"migraine_risk":4,"frizz_risk":1,"updated_at":"2026-07-12T20:28:50.878857+05:30"},{"city":"Kolkata","state":"West Bengal","latitude":22.5726,"longitude":88.3639,"temp":28.8,"humidity":90,"rain":0.0,"pressure":998.1,"uv_index":8.5,"wind_gusts":25.2,"aqi":146,"pm10":69.2,"pm2_5":56.9,"no2":14.7,"co":482.0,"o3":77.0,"so2":11.6,"mosquito_risk":7,"arthritis_risk":5,"migraine_risk":7,"frizz_risk":1,"updated_at":"2026-07-12T20:28:50.878865+05:30"},{"city":"Pune","state":"Maharashtra","latitude":18.5204,"longitude":73.8567,"temp":24.0,"humidity":85,"rain":0.0,"pressure":945.2,"uv_index":8.25,"wind_gusts":58.0,"aqi":34,"pm10":19.8,"pm2_5":9.1,"no2":5.6,"co":137.0,"o3":42.0,"so2":4.7,"mosquito_risk":3,"arthritis_risk":5,"migraine_risk":7,"frizz_risk":1,"updated_at":"2026-07-12T20:28:50.878872+05:30"},{"city":"Ahmedabad","state":"Gujarat","latitude":23.0225,"longitude":72.5714,"temp":32.9,"humidity":54,"rain":0.0,"pressure":994.1,"uv_index":8.1,"wind_gusts":51.8,"aqi":66,"pm10":47.7,"pm2_5":22.1,"no2":4.2,"co":128.0,"o3":63.0,"so2":3.7,"mosquito_risk":0,"arthritis_risk":5,"migraine_risk":7,"frizz_risk":1,"updated_at":"2026-07-12T20:28:50.878880+05:30"},{"city":"Jaipur","state":"Rajasthan","latitude":26.9124,"longitude":75.7873,"temp":30.7,"humidity":58,"rain":0.0,"pressure":951.0,"uv_index":8.15,"wind_gusts":37.8,"aqi":382,"pm10":420.0,"pm2_5":85.0,"no2":9.1,"co":186.0,"o3":76.0,"so2":5.2,"mosquito_risk":0,"arthritis_risk":5,"migraine_risk":7,"frizz_risk":1,"updated_at":"2026-07-12T20:28:50.878887+05:30"},{"city":"Lucknow","state":"Uttar Pradesh","latitude":26.8467,"longitude":80.9462,"temp":31.7,"humidity":65,"rain":0.0,"pressure":983.3,"uv_index":8.2,"wind_gusts":36.7,"aqi":138,"pm10":105.9,"pm2_5":47.1,"no2":11.3,"co":247.0,"o3":73.0,"so2":6.6,"mosquito_risk":3,"arthritis_risk":5,"migraine_risk":7,"frizz_risk":1,"updated_at":"2026-07-12T20:28:50.878906+05:30"},{"city":"Kanpur","state":"Uttar Pradesh","latitude":26.4499,"longitude":80.3319,"temp":31.4,"humidity":65,"rain":0.0,"pressure":982.1,"uv_index":7.75,"wind_gusts":40.0,"aqi":117,"pm10":102.2,"pm2_5":39.7,"no2":8.2,"co":158.0,"o3":85.0,"so2":6.3,"mosquito_risk":3,"arthritis_risk":5,"migraine_risk":7,"frizz_risk":1,"updated_at":"2026-07-12T20:28:50.878914+05:30"},{"city":"Chandigarh","state":"Chandigarh","latitude":30.7333,"longitude":76.7794,"temp":29.2,"humidity":82,"rain":0.0,"pressure":958.3,"uv_index":7.7,"wind_gusts":52.9,"aqi":158,"pm10":168.1,"pm2_5":82.4,"no2":22.7,"co":941.0,"o3":119.0,"so2":17.5,"mosquito_risk":7,"arthritis_risk":5,"migraine_risk":7,"frizz_risk":1,"updated_at":"2026-07-12T20:28:50.878921+05:30"},{"city":"Srinagar","state":"Jammu and Kashmir","latitude":34.0837,"longitude":74.7973,"temp":17.5,"humidity":94,"rain":0.1,"pressure":836.3,"uv_index":8.65,"wind_gusts":28.8,"aqi":97,"pm10":17.6,"pm2_5":15.1,"no2":17.1,"co":544.0,"o3":80.0,"so2":3.2,"mosquito_risk":6,"arthritis_risk":10,"migraine_risk":7,"frizz_risk":1,"updated_at":"2026-07-12T20:28:50.878929+05:30"},{"city":"Jammu","state":"Jammu and Kashmir","latitude":32.7266,"longitude":74.857,"temp":27.3,"humidity":84,"rain":0.0,"pressure":962.5,"uv_index":8.6,"wind_gusts":30.6,"aqi":139,"pm10":108.0,"pm2_5":57.2,"no2":22.2,"co":479.0,"o3":127.0,"so2":6.3,"mosquito_risk":7,"arthritis_risk":5,"migraine_risk":7,"frizz_risk":1,"updated_at":"2026-07-12T20:28:50.878939+05:30"},{"city":"Amritsar","state":"Punjab","latitude":31.634,"longitude":74.8723,"temp":28.5,"humidity":84,"rain":0.0,"pressure":970.3,"uv_index":8.45,"wind_gusts":37.1,"aqi":160,"pm10":191.4,"pm2_5":90.1,"no2":19.6,"co":433.0,"o3":82.0,"so2":6.3,"mosquito_risk":7,"arthritis_risk":5,"migraine_risk":7,"frizz_risk":1,"updated_at":"2026-07-12T20:28:50.878946+05:30"},{"city":"Ludhiana","state":"Punjab","latitude":30.901,"longitude":75.8573,"temp":30.5,"humidity":79,"rain":0.0,"pressure":967.8,"uv_index":7.9,"wind_gusts":41.0,"aqi":170,"pm10":226.3,"pm2_5":108.0,"no2":21.5,"co":442.0,"o3":98.0,"so2":9.3,"mosquito_risk":3,"arthritis_risk":5,"migraine_risk":7,"frizz_risk":1,"updated_at":"2026-07-12T20:28:50.878953+05:30"},{"city":"Jalandhar","state":"Punjab","latitude":31.326,"longitude":75.5762,"temp":28.7,"humidity":81,"rain":0.0,"pressure":968.9,"uv_index":8.15,"wind_gusts":47.9,"aqi":163,"pm10":139.2,"pm2_5":76.6,"no2":18.7,"co":590.0,"o3":96.0,"so2":6.2,"mosquito_risk":7,"arthritis_risk":5,"migraine_risk":7,"frizz_risk":1,"updated_at":"2026-07-12T20:28:50.878959+05:30"},{"city":"Dehradun","state":"Uttarakhand","latitude":30.6284,"longitude":78.0322,"temp":19.7,"humidity":99,"rain":0.0,"pressure":823.7,"uv_index":7.5,"wind_gusts":31.7,"aqi":110,"pm10":94.8,"pm2_5":45.9,"no2":8.3,"co":226.0,"o3":119.0,"so2":5.7,"mosquito_risk":3,"arthritis_risk":10,"migraine_risk":7,"frizz_risk":1,"updated_at":"2026-07-12T20:28:50.878966+05:30"},{"city":"Shimla","state":"Himachal Pradesh","latitude":31.1048,"longitude":77.1734,"temp":16.8,"humidity":94,"rain":0.0,"pressure":778.5,"uv_index":8.25,"wind_gusts":47.9,"aqi":109,"pm10":75.7,"pm2_5":38.8,"no2":8.4,"co":309.0,"o3":120.0,"so2":7.4,"mosquito_risk":3,"arthritis_risk":10,"migraine_risk":7,"frizz_risk":0,"updated_at":"2026-07-12T20:28:50.878972+05:30"},{"city":"Manali","state":"Himachal Pradesh","latitude":32.2396,"longitude":77.1887,"temp":21.2,"humidity":80,"rain":0.0,"pressure":814.2,"uv_index":8.6,"wind_gusts":35.3,"aqi":137,"pm10":11.6,"pm2_5":9.0,"no2":22.7,"co":251.0,"o3":125.0,"so2":0.7,"mosquito_risk":3,"arthritis_risk":5,"migraine_risk":7,"frizz_risk":1,"updated_at":"2026-07-12T20:28:50.878983+05:30"},{"city":"Gurgaon","state":"Haryana","latitude":28.4595,"longitude":77.0266,"temp":30.1,"humidity":81,"rain":0.0,"pressure":970.7,"uv_index":7.7,"wind_gusts":32.4,"aqi":725,"pm10":802.8,"pm2_5":172.3,"no2":30.2,"co":358.0,"o3":60.0,"so2":11.8,"mosquito_risk":3,"arthritis_risk":5,"migraine_risk":7,"frizz_risk":1,"updated_at":"2026-07-12T20:28:50.878990+05:30"},{"city":"Noida","state":"Uttar Pradesh","latitude":28.5355,"longitude":77.391,"temp":30.3,"humidity":79,"rain":0.0,"pressure":973.8,"uv_index":7.7,"wind_gusts":28.1,"aqi":725,"pm10":802.8,"pm2_5":172.3,"no2":30.2,"co":677.0,"o3":60.0,"so2":11.8,"mosquito_risk":3,"arthritis_risk":5,"migraine_risk":7,"frizz_risk":1,"updated_at":"2026-07-12T20:28:50.878996+05:30"},{"city":"Ghaziabad","state":"Uttar Pradesh","latitude":28.6692,"longitude":77.4538,"temp":30.3,"humidity":81,"rain":0.0,"pressure":972.1,"uv_index":7.7,"wind_gusts":29.5,"aqi":524,"pm10":568.1,"pm2_5":163.4,"no2":31.6,"co":615.0,"o3":75.0,"so2":19.2,"mosquito_risk":3,"arthritis_risk":5,"migraine_risk":7,"frizz_risk":1,"updated_at":"2026-07-12T20:28:50.879003+05:30"},{"city":"Faridabad","state":"Haryana","latitude":28.4089,"longitude":77.3178,"temp":30.5,"humidity":78,"rain":0.0,"pressure":973.0,"uv_index":7.75,"wind_gusts":31.3,"aqi":725,"pm10":802.8,"pm2_5":172.3,"no2":30.2,"co":302.0,"o3":60.0,"so2":11.8,"mosquito_risk":3,"arthritis_risk":5,"migraine_risk":7,"frizz_risk":1,"updated_at":"2026-07-12T20:28:50.879009+05:30"},{"city":"Meerut","state":"Uttar Pradesh","latitude":28.9845,"longitude":77.7064,"temp":29.9,"humidity":80,"rain":0.0,"pressure":970.8,"uv_index":7.55,"wind_gusts":36.4,"aqi":524,"pm10":568.1,"pm2_5":163.4,"no2":31.6,"co":363.0,"o3":75.0,"so2":19.2,"mosquito_risk":7,"arthritis_risk":5,"migraine_risk":7,"frizz_risk":1,"updated_at":"2026-07-12T20:28:50.879015+05:30"},{"city":"Agra","state":"Uttar Pradesh","latitude":27.1767,"longitude":78.0081,"temp":31.1,"humidity":64,"rain":0.0,"pressure":977.8,"uv_index":8.0,"wind_gusts":38.2,"aqi":138,"pm10":197.0,"pm2_5":51.8,"no2":11.1,"co":191.0,"o3":73.0,"so2":5.2,"mosquito_risk":3,"arthritis_risk":5,"migraine_risk":7,"frizz_risk":1,"updated_at":"2026-07-12T20:28:50.879022+05:30"},{"city":"Varanasi","state":"Uttar Pradesh","latitude":25.3176,"longitude":82.9739,"temp":30.7,"humidity":76,"rain":0.0,"pressure":988.3,"uv_index":8.25,"wind_gusts":37.1,"aqi":95,"pm10":56.9,"pm2_5":37.6,"no2":12.5,"co":325.0,"o3":79.0,"so2":9.4,"mosquito_risk":3,"arthritis_risk":5,"migraine_risk":7,"frizz_risk":1,"updated_at":"2026-07-12T20:28:50.879028+05:30"},{"city":"Prayagraj","state":"Uttar Pradesh","latitude":25.4358,"longitude":81.8463,"temp":31.6,"humidity":65,"rain":0.0,"pressure":986.9,"uv_index":8.45,"wind_gusts":42.8,"aqi":97,"pm10":48.9,"pm2_5":31.1,"no2":7.7,"co":180.0,"o3":86.0,"so2":7.5,"mosquito_risk":3,"arthritis_risk":5,"migraine_risk":7,"frizz_risk":1,"updated_at":"2026-07-12T20:28:50.879035+05:30"},{"city":"Gorakhpur","state":"Uttar Pradesh","latitude":26.7606,"longitude":83.3732,"temp":27.6,"humidity":93,"rain":0.1,"pressure":987.9,"uv_index":7.65,"wind_gusts":38.5,"aqi":133,"pm10":72.6,"pm2_5":45.1,"no2":12.9,"co":306.0,"o3":87.0,"so2":6.7,"mosquito_risk":10,"arthritis_risk":5,"migraine_risk":7,"frizz_risk":1,"updated_at":"2026-07-12T20:28:50.879041+05:30"},{"city":"Bareilly","state":"Uttar Pradesh","latitude":28.367,"longitude":79.4304,"temp":30.4,"humidity":79,"rain":0.0,"pressure":975.9,"uv_index":8.0,"wind_gusts":31.7,"aqi":169,"pm10":326.9,"pm2_5":123.4,"no2":12.3,"co":280.0,"o3":86.0,"so2":7.8,"mosquito_risk":3,"arthritis_risk":5,"migraine_risk":7,"frizz_risk":1,"updated_at":"2026-07-12T20:28:50.879049+05:30"},{"city":"Aligarh","state":"Uttar Pradesh","latitude":27.8974,"longitude":78.088,"temp":31.5,"humidity":71,"rain":0.0,"pressure":974.9,"uv_index":7.85,"wind_gusts":36.0,"aqi":578,"pm10":558.8,"pm2_5":119.2,"no2":11.0,"co":191.0,"o3":76.0,"so2":5.2,"mosquito_risk":3,"arthritis_risk":5,"migraine_risk":7,"frizz_risk":1,"updated_at":"2026-07-12T20:28:50.879056+05:30"},{"city":"Moradabad","state":"Uttar Pradesh","latitude":28.8386,"longitude":78.7733,"temp":30.8,"humidity":81,"rain":0.0,"pressure":972.8,"uv_index":7.8,"wind_gusts":36.4,"aqi":188,"pm10":558.8,"pm2_5":175.1,"no2":23.8,"co":348.0,"o3":90.0,"so2":13.9,"mosquito_risk":3,"arthritis_risk":5,"migraine_risk":7,"frizz_risk":1,"updated_at":"2026-07-12T20:28:50.879062+05:30"},{"city":"Saharanpur","state":"Uttar Pradesh","latitude":29.9637,"longitude":77.546,"temp":29.6,"humidity":87,"rain":0.0,"pressure":965.1,"uv_index":7.35,"wind_gusts":33.1,"aqi":173,"pm10":240.3,"pm2_5":111.8,"no2":34.0,"co":370.0,"o3":77.0,"so2":15.7,"mosquito_risk":7,"arthritis_risk":5,"migraine_risk":7,"frizz_risk":1,"updated_at":"2026-07-12T20:28:50.879069+05:30"},{"city":"Jhansi","state":"Uttar Pradesh","latitude":25.4484,"longitude":78.5685,"temp":30.3,"humidity":63,"rain":0.0,"pressure":969.5,"uv_index":8.35,"wind_gusts":44.6,"aqi":83,"pm10":59.1,"pm2_5":30.7,"no2":5.7,"co":151.0,"o3":81.0,"so2":6.3,"mosquito_risk":3,"arthritis_risk":5,"migraine_risk":7,"frizz_risk":1,"updated_at":"2026-07-12T20:28:54.119313+05:30"},{"city":"Surat","state":"Gujarat","latitude":21.1702,"longitude":72.8311,"temp":28.7,"humidity":84,"rain":0.0,"pressure":1001.5,"uv_index":5.85,"wind_gusts":68.4,"aqi":58,"pm10":30.3,"pm2_5":15.7,"no2":11.2,"co":171.0,"o3":38.0,"so2":20.1,"mosquito_risk":7,"arthritis_risk":5,"migraine_risk":0,"frizz_risk":1,"updated_at":"2026-07-12T20:28:54.119345+05:30"},{"city":"Vadodara","state":"Gujarat","latitude":22.3072,"longitude":73.1812,"temp":29.0,"humidity":80,"rain":0.0,"pressure":997.6,"uv_index":8.05,"wind_gusts":62.3,"aqi":57,"pm10":35.7,"pm2_5":19.9,"no2":7.4,"co":117.0,"o3":52.0,"so2":8.3,"mosquito_risk":7,"arthritis_risk":5,"migraine_risk":7,"frizz_risk":1,"updated_at":"2026-07-12T20:28:54.119356+05:30"},{"city":"Rajkot","state":"Gujarat","latitude":22.3039,"longitude":70.8022,"temp":29.6,"humidity":67,"rain":0.0,"pressure":987.0,"uv_index":7.7,"wind_gusts":61.6,"aqi":59,"pm10":38.5,"pm2_5":16.9,"no2":2.3,"co":99.0,"o3":52.0,"so2":2.5,"mosquito_risk":7,"arthritis_risk":5,"migraine_risk":7,"frizz_risk":1,"updated_at":"2026-07-12T20:28:54.119365+05:30"},{"city":"Thane","state":"Maharashtra","latitude":19.2183,"longitude":72.9781,"temp":27.5,"humidity":88,"rain":0.0,"pressure":1004.9,"uv_index":6.05,"wind_gusts":52.6,"aqi":52,"pm10":36.8,"pm2_5":14.8,"no2":6.2,"co":181.0,"o3":45.0,"so2":5.4,"mosquito_risk":7,"arthritis_risk":5,"migraine_risk":4,"frizz_risk":1,"updated_at":"2026-07-12T20:28:54.119372+05:30"},{"city":"Nagpur","state":"Maharashtra","latitude":21.1458,"longitude":79.0882,"temp":29.3,"humidity":70,"rain":0.0,"pressure":967.2,"uv_index":7.6,"wind_gusts":42.1,"aqi":74,"pm10":46.3,"pm2_5":24.8,"no2":9.7,"co":175.0,"o3":68.0,"so2":12.5,"mosquito_risk":7,"arthritis_risk":5,"migraine_risk":7,"frizz_risk":1,"updated_at":"2026-07-12T20:28:54.119379+05:30"},{"city":"Nashik","state":"Maharashtra","latitude":19.9975,"longitude":73.7898,"temp":24.1,"humidity":89,"rain":0.0,"pressure":941.6,"uv_index":8.05,"wind_gusts":65.5,"aqi":36,"pm10":19.2,"pm2_5":9.7,"no2":5.6,"co":118.0,"o3":48.0,"so2":4.7,"mosquito_risk":3,"arthritis_risk":5,"migraine_risk":7,"frizz_risk":1,"updated_at":"2026-07-12T20:28:54.119387+05:30"},{"city":"Aurangabad","state":"Maharashtra","latitude":19.8762,"longitude":75.3433,"temp":26.7,"humidity":69,"rain":0.0,"pressure":940.1,"uv_index":8.9,"wind_gusts":55.4,"aqi":52,"pm10":35.9,"pm2_5":16.4,"no2":3.8,"co":135.0,"o3":74.0,"so2":6.4,"mosquito_risk":7,"arthritis_risk":5,"migraine_risk":7,"frizz_risk":1,"updated_at":"2026-07-12T20:28:54.119394+05:30"},{"city":"Solapur","state":"Maharashtra","latitude":17.6599,"longitude":75.9064,"temp":28.5,"humidity":59,"rain":0.0,"pressure":954.2,"uv_index":8.85,"wind_gusts":50.0,"aqi":50,"pm10":29.9,"pm2_5":13.5,"no2":2.9,"co":124.0,"o3":58.0,"so2":1.9,"mosquito_risk":4,"arthritis_risk":5,"migraine_risk":7,"frizz_risk":1,"updated_at":"2026-07-12T20:28:54.119401+05:30"},{"city":"Kolhapur","state":"Maharashtra","latitude":16.705,"longitude":74.2433,"temp":23.5,"humidity":89,"rain":0.0,"pressure":946.3,"uv_index":8.3,"wind_gusts":54.4,"aqi":34,"pm10":19.0,"pm2_5":9.7,"no2":4.4,"co":133.0,"o3":41.0,"so2":2.3,"mosquito_risk":3,"arthritis_risk":5,"migraine_risk":7,"frizz_risk":1,"updated_at":"2026-07-12T20:28:54.119408+05:30"},{"city":"Goa","state":"Goa","latitude":15.2993,"longitude":74.124,"temp":26.6,"humidity":90,"rain":0.0,"pressure":997.4,"uv_index":7.4,"wind_gusts":37.4,"aqi":54,"pm10":22.8,"pm2_5":11.4,"no2":2.5,"co":198.0,"o3":44.0,"so2":1.3,"mosquito_risk":7,"arthritis_risk":5,"migraine_risk":7,"frizz_risk":1,"updated_at":"2026-07-12T20:28:54.119416+05:30"},{"city":"Jodhpur","state":"Rajasthan","latitude":26.2389,"longitude":73.0243,"temp":34.6,"humidity":44,"rain":0.0,"pressure":972.0,"uv_index":8.4,"wind_gusts":51.8,"aqi":175,"pm10":263.6,"pm2_5":57.3,"no2":3.0,"co":108.0,"o3":74.0,"so2":2.2,"mosquito_risk":0,"arthritis_risk":5,"migraine_risk":7,"frizz_risk":1,"updated_at":"2026-07-12T20:28:54.119423+05:30"},{"city":"Udaipur","state":"Rajasthan","latitude":24.5854,"longitude":73.7125,"temp":29.2,"humidity":60,"rain":0.0,"pressure":938.4,"uv_index":8.8,"wind_gusts":56.2,"aqi":72,"pm10":47.8,"pm2_5":24.4,"no2":3.0,"co":115.0,"o3":85.0,"so2":4.5,"mosquito_risk":4,"arthritis_risk":5,"migraine_risk":7,"frizz_risk":1,"updated_at":"2026-07-12T20:28:54.119430+05:30"},{"city":"Kota","state":"Rajasthan","latitude":25.2138,"longitude":75.8648,"temp":31.2,"humidity":58,"rain":0.0,"pressure":970.4,"uv_index":8.25,"wind_gusts":37.1,"aqi":79,"pm10":56.7,"pm2_5":29.3,"no2":4.7,"co":161.0,"o3":87.0,"so2":5.9,"mosquito_risk":0,"arthritis_risk":5,"migraine_risk":7,"frizz_risk":1,"updated_at":"2026-07-12T20:28:54.119437+05:30"},{"city":"Bikaner","state":"Rajasthan","latitude":28.0229,"longitude":73.3119,"temp":34.0,"humidity":48,"rain":0.0,"pressure":971.3,"uv_index":8.45,"wind_gusts":41.4,"aqi":159,"pm10":250.5,"pm2_5":67.5,"no2":2.1,"co":120.0,"o3":75.0,"so2":3.0,"mosquito_risk":0,"arthritis_risk":5,"migraine_risk":7,"frizz_risk":1,"updated_at":"2026-07-12T20:28:54.119444+05:30"},{"city":"Ajmer","state":"Rajasthan","latitude":26.4499,"longitude":74.6399,"temp":29.6,"humidity":61,"rain":0.0,"pressure":945.6,"uv_index":8.35,"wind_gusts":48.6,"aqi":77,"pm10":52.3,"pm2_5":27.3,"no2":4.3,"co":133.0,"o3":79.0,"so2":3.2,"mosquito_risk":7,"arthritis_risk":5,"migraine_risk":7,"frizz_risk":1,"updated_at":"2026-07-12T20:28:54.119450+05:30"},{"city":"Gwalior","state":"Madhya Pradesh","latitude":26.2183,"longitude":78.1828,"temp":29.6,"humidity":69,"rain":0.0,"pressure":973.9,"uv_index":8.2,"wind_gusts":43.2,"aqi":83,"pm10":61.5,"pm2_5":31.7,"no2":5.5,"co":158.0,"o3":83.0,"so2":5.2,"mosquito_risk":7,"arthritis_risk":5,"migraine_risk":7,"frizz_risk":1,"updated_at":"2026-07-12T20:28:54.119481+05:30"},{"city":"Indore","state":"Madhya Pradesh","latitude":22.7196,"longitude":75.8577,"temp":27.0,"humidity":77,"rain":0.0,"pressure":942.3,"uv_index":8.55,"wind_gusts":54.0,"aqi":64,"pm10":58.6,"pm2_5":32.8,"no2":5.4,"co":208.0,"o3":79.0,"so2":6.8,"mosquito_risk":7,"arthritis_risk":5,"migraine_risk":7,"frizz_risk":1,"updated_at":"2026-07-12T20:28:54.119488+05:30"},{"city":"Bhopal","state":"Madhya Pradesh","latitude":23.2599,"longitude":77.4126,"temp":27.9,"humidity":73,"rain":0.0,"pressure":947.1,"uv_index":7.85,"wind_gusts":43.2,"aqi":69,"pm10":52.4,"pm2_5":28.9,"no2":5.1,"co":203.0,"o3":75.0,"so2":4.7,"mosquito_risk":7,"arthritis_risk":5,"migraine_risk":7,"frizz_risk":1,"updated_at":"2026-07-12T20:28:54.119496+05:30"},{"city":"Jabalpur","state":"Madhya Pradesh","latitude":23.1815,"longitude":79.9864,"temp":27.9,"humidity":69,"rain":0.0,"pressure":955.2,"uv_index":6.5,"wind_gusts":39.2,"aqi":74,"pm10":47.7,"pm2_5":25.3,"no2":4.2,"co":175.0,"o3":78.0,"so2":4.5,"mosquito_risk":7,"arthritis_risk":5,"migraine_risk":7,"frizz_risk":1,"updated_at":"2026-07-12T20:28:54.119502+05:30"},{"city":"Ujjain","state":"Madhya Pradesh","latitude":23.1765,"longitude":75.7885,"temp":27.8,"humidity":73,"rain":0.0,"pressure":947.6,"uv_index":8.35,"wind_gusts":54.0,"aqi":64,"pm10":61.0,"pm2_5":33.3,"no2":3.8,"co":170.0,"o3":78.0,"so2":5.3,"mosquito_risk":7,"arthritis_risk":5,"migraine_risk":7,"frizz_risk":1,"updated_at":"2026-07-12T20:28:54.119510+05:30"},{"city":"Visakhapatnam","state":"Andhra Pradesh","latitude":17.6868,"longitude":83.2185,"temp":32.0,"humidity":56,"rain":0.0,"pressure":996.9,"uv_index":8.7,"wind_gusts":41.8,"aqi":98,"pm10":51.3,"pm2_5":29.0,"no2":19.0,"co":325.0,"o3":76.0,"so2":34.1,"mosquito_risk":0,"arthritis_risk":5,"migraine_risk":7,"frizz_risk":1,"updated_at":"2026-07-12T20:28:54.119517+05:30"},{"city":"Vijayawada","state":"Andhra Pradesh","latitude":16.5062,"longitude":80.648,"temp":32.9,"humidity":52,"rain":0.0,"pressure":997.2,"uv_index":7.6,"wind_gusts":45.4,"aqi":88,"pm10":43.9,"pm2_5":26.9,"no2":9.6,"co":178.0,"o3":67.0,"so2":5.3,"mosquito_risk":0,"arthritis_risk":5,"migraine_risk":7,"frizz_risk":1,"updated_at":"2026-07-12T20:28:54.119524+05:30"},{"city":"Guntur","state":"Andhra Pradesh","latitude":16.3067,"longitude":80.4365,"temp":33.9,"humidity":43,"rain":0.0,"pressure":998.4,"uv_index":8.2,"wind_gusts":48.2,"aqi":81,"pm10":43.0,"pm2_5":25.6,"no2":9.5,"co":193.0,"o3":66.0,"so2":5.1,"mosquito_risk":0,"arthritis_risk":5,"migraine_risk":7,"frizz_risk":1,"updated_at":"2026-07-12T20:28:54.119531+05:30"},{"city":"Nellore","state":"Andhra Pradesh","latitude":14.4426,"longitude":79.9865,"temp":34.4,"humidity":42,"rain":0.0,"pressure":1001.2,"uv_index":7.95,"wind_gusts":45.7,"aqi":70,"pm10":45.3,"pm2_5":24.2,"no2":4.9,"co":174.0,"o3":104.0,"so2":4.4,"mosquito_risk":0,"arthritis_risk":5,"migraine_risk":4,"frizz_risk":1,"updated_at":"2026-07-12T20:28:54.119538+05:30"},{"city":"Kurnool","state":"Andhra Pradesh","latitude":15.8281,"longitude":78.0373,"temp":32.8,"humidity":40,"rain":0.0,"pressure":972.7,"uv_index":8.35,"wind_gusts":48.2,"aqi":56,"pm10":28.0,"pm2_5":14.3,"no2":5.3,"co":128.0,"o3":74.0,"so2":5.8,"mosquito_risk":0,"arthritis_risk":5,"migraine_risk":7,"frizz_risk":1,"updated_at":"2026-07-12T20:28:54.119547+05:30"},{"city":"Kakinada","state":"Andhra Pradesh","latitude":16.9891,"longitude":82.2475,"temp":31.6,"humidity":59,"rain":0.0,"pressure":1001.3,"uv_index":8.65,"wind_gusts":49.0,"aqi":89,"pm10":45.1,"pm2_5":21.8,"no2":5.1,"co":249.0,"o3":94.0,"so2":4.1,"mosquito_risk":0,"arthritis_risk":5,"migraine_risk":4,"frizz_risk":1,"updated_at":"2026-07-12T20:28:54.119554+05:30"},{"city":"Tirupati","state":"Andhra Pradesh","latitude":13.6288,"longitude":79.4192,"temp":32.6,"humidity":55,"rain":0.0,"pressure":987.0,"uv_index":8.65,"wind_gusts":33.1,"aqi":79,"pm10":78.2,"pm2_5":39.5,"no2":29.9,"co":286.0,"o3":56.0,"so2":5.6,"mosquito_risk":0,"arthritis_risk":5,"migraine_risk":7,"frizz_risk":1,"updated_at":"2026-07-12T20:28:54.119562+05:30"},{"city":"Warangal","state":"Telangana","latitude":17.9689,"longitude":79.5941,"temp":29.5,"humidity":71,"rain":0.0,"pressure":973.7,"uv_index":8.9,"wind_gusts":43.6,"aqi":74,"pm10":45.4,"pm2_5":27.0,"no2":10.3,"co":271.0,"o3":57.0,"so2":4.9,"mosquito_risk":7,"arthritis_risk":5,"migraine_risk":7,"frizz_risk":1,"updated_at":"2026-07-12T20:28:54.119569+05:30"},{"city":"Nizamabad","state":"Telangana","latitude":18.6725,"longitude":78.0941,"temp":29.2,"humidity":60,"rain":0.0,"pressure":959.6,"uv_index":8.9,"wind_gusts":45.7,"aqi":63,"pm10":39.6,"pm2_5":22.0,"no2":7.4,"co":225.0,"o3":66.0,"so2":4.4,"mosquito_risk":4,"arthritis_risk":5,"migraine_risk":7,"frizz_risk":1,"updated_at":"2026-07-12T20:28:54.119576+05:30"},{"city":"Mysore","state":"Karnataka","latitude":12.2958,"longitude":76.6396,"temp":23.6,"humidity":82,"rain":0.0,"pressure":927.7,"uv_index":8.65,"wind_gusts":44.3,"aqi":42,"pm10":16.6,"pm2_5":8.6,"no2":5.0,"co":127.0,"o3":54.0,"so2":2.1,"mosquito_risk":3,"arthritis_risk":5,"migraine_risk":7,"frizz_risk":1,"updated_at":"2026-07-12T20:28:54.119583+05:30"},{"city":"Mangalore","state":"Karnataka","latitude":12.9141,"longitude":74.856,"temp":27.2,"humidity":83,"rain":0.0,"pressure":1007.1,"uv_index":5.45,"wind_gusts":42.1,"aqi":42,"pm10":16.3,"pm2_5":8.9,"no2":3.5,"co":108.0,"o3":43.0,"so2":1.8,"mosquito_risk":7,"arthritis_risk":5,"migraine_risk":0,"frizz_risk":1,"updated_at":"2026-07-12T20:28:54.119590+05:30"},{"city":"Hubli-Dharwad","state":"Karnataka","latitude":15.3647,"longitude":75.124,"temp":24.1,"humidity":84,"rain":0.0,"pressure":939.6,"uv_index":8.8,"wind_gusts":50.4,"aqi":31,"pm10":15.1,"pm2_5":7.6,"no2":3.4,"co":118.0,"o3":44.0,"so2":1.4,"mosquito_risk":3,"arthritis_risk":5,"migraine_risk":7,"frizz_risk":1,"updated_at":"2026-07-12T20:28:54.119597+05:30"},{"city":"Belgaum","state":"Karnataka","latitude":15.8497,"longitude":74.4977,"temp":22.0,"humidity":94,"rain":0.0,"pressure":924.2,"uv_index":8.5,"wind_gusts":50.8,"aqi":31,"pm10":15.1,"pm2_5":7.5,"no2":4.3,"co":120.0,"o3":39.0,"so2":1.8,"mosquito_risk":3,"arthritis_risk":5,"migraine_risk":7,"frizz_risk":1,"updated_at":"2026-07-12T20:28:57.361839+05:30"},{"city":"Coimbatore","state":"Tamil Nadu","latitude":11.0168,"longitude":76.9558,"temp":25.1,"humidity":86,"rain":0.0,"pressure":960.4,"uv_index":8.2,"wind_gusts":56.5,"aqi":43,"pm10":11.4,"pm2_5":7.4,"no2":4.3,"co":152.0,"o3":49.0,"so2":2.6,"mosquito_risk":7,"arthritis_risk":5,"migraine_risk":7,"frizz_risk":1,"updated_at":"2026-07-12T20:28:57.361872+05:30"},{"city":"Madurai","state":"Tamil Nadu","latitude":9.9252,"longitude":78.1198,"temp":31.6,"humidity":54,"rain":0.0,"pressure":990.3,"uv_index":8.0,"wind_gusts":39.2,"aqi":67,"pm10":35.2,"pm2_5":13.4,"no2":5.1,"co":140.0,"o3":67.0,"so2":2.8,"mosquito_risk":0,"arthritis_risk":5,"migraine_risk":7,"frizz_risk":1,"updated_at":"2026-07-12T20:28:57.361883+05:30"},{"city":"Trichy","state":"Tamil Nadu","latitude":10.7905,"longitude":78.7047,"temp":31.9,"humidity":52,"rain":0.0,"pressure":996.8,"uv_index":8.4,"wind_gusts":55.8,"aqi":51,"pm10":36.4,"pm2_5":19.0,"no2":10.6,"co":124.0,"o3":55.0,"so2":3.9,"mosquito_risk":0,"arthritis_risk":5,"migraine_risk":7,"frizz_risk":1,"updated_at":"2026-07-12T20:28:57.361892+05:30"},{"city":"Salem","state":"Tamil Nadu","latitude":11.6643,"longitude":78.146,"temp":29.1,"humidity":65,"rain":0.0,"pressure":975.1,"uv_index":8.65,"wind_gusts":33.5,"aqi":64,"pm10":29.0,"pm2_5":14.7,"no2":7.3,"co":225.0,"o3":63.0,"so2":4.8,"mosquito_risk":7,"arthritis_risk":5,"migraine_risk":7,"frizz_risk":1,"updated_at":"2026-07-12T20:28:57.361900+05:30"},{"city":"Tirunelveli","state":"Tamil Nadu","latitude":8.7139,"longitude":77.7567,"temp":30.3,"humidity":57,"rain":0.0,"pressure":1001.3,"uv_index":7.95,"wind_gusts":46.4,"aqi":33,"pm10":11.8,"pm2_5":6.9,"no2":3.2,"co":112.0,"o3":50.0,"so2":1.6,"mosquito_risk":0,"arthritis_risk":5,"migraine_risk":4,"frizz_risk":1,"updated_at":"2026-07-12T20:28:57.361908+05:30"},{"city":"Vellore","state":"Tamil Nadu","latitude":12.9165,"longitude":79.1325,"temp":34.3,"humidity":41,"rain":0.0,"pressure":980.5,"uv_index":8.45,"wind_gusts":41.0,"aqi":70,"pm10":50.4,"pm2_5":26.1,"no2":11.0,"co":208.0,"o3":66.0,"so2":3.9,"mosquito_risk":0,"arthritis_risk":5,"migraine_risk":7,"frizz_risk":1,"updated_at":"2026-07-12T20:28:57.361915+05:30"},{"city":"Erode","state":"Tamil Nadu","latitude":11.341,"longitude":77.7172,"temp":28.6,"humidity":68,"rain":0.0,"pressure":987.0,"uv_index":8.55,"wind_gusts":51.8,"aqi":54,"pm10":21.3,"pm2_5":11.7,"no2":9.1,"co":153.0,"o3":52.0,"so2":2.8,"mosquito_risk":7,"arthritis_risk":5,"migraine_risk":7,"frizz_risk":1,"updated_at":"2026-07-12T20:28:57.361923+05:30"},{"city":"Kochi","state":"Kerala","latitude":9.9312,"longitude":76.2673,"temp":27.5,"humidity":84,"rain":0.0,"pressure":1009.3,"uv_index":7.9,"wind_gusts":42.1,"aqi":49,"pm10":16.1,"pm2_5":10.8,"no2":9.6,"co":114.0,"o3":36.0,"so2":3.7,"mosquito_risk":7,"arthritis_risk":0,"migraine_risk":4,"frizz_risk":1,"updated_at":"2026-07-12T20:28:57.361930+05:30"},{"city":"Thiruvananthapuram","state":"Kerala","latitude":8.5241,"longitude":76.9366,"temp":26.5,"humidity":86,"rain":0.0,"pressure":1008.5,"uv_index":7.65,"wind_gusts":49.3,"aqi":37,"pm10":15.1,"pm2_5":8.6,"no2":3.2,"co":101.0,"o3":46.0,"so2":1.2,"mosquito_risk":7,"arthritis_risk":0,"migraine_risk":4,"frizz_risk":1,"updated_at":"2026-07-12T20:28:57.361939+05:30"},{"city":"Kozhikode","state":"Kerala","latitude":11.2588,"longitude":75.7804,"temp":25.9,"humidity":92,"rain":0.0,"pressure":1008.4,"uv_index":8.05,"wind_gusts":44.3,"aqi":35,"pm10":16.6,"pm2_5":7.8,"no2":1.1,"co":114.0,"o3":50.0,"so2":1.0,"mosquito_risk":7,"arthritis_risk":0,"migraine_risk":4,"frizz_risk":1,"updated_at":"2026-07-12T20:28:57.361946+05:30"},{"city":"Thrissur","state":"Kerala","latitude":10.5276,"longitude":76.2144,"temp":26.4,"humidity":88,"rain":0.0,"pressure":1007.7,"uv_index":7.8,"wind_gusts":39.2,"aqi":42,"pm10":14.8,"pm2_5":9.6,"no2":6.5,"co":137.0,"o3":39.0,"so2":2.7,"mosquito_risk":7,"arthritis_risk":5,"migraine_risk":4,"frizz_risk":1,"updated_at":"2026-07-12T20:28:57.361955+05:30"},{"city":"Kannur","state":"Kerala","latitude":11.8745,"longitude":75.3704,"temp":26.9,"humidity":86,"rain":0.0,"pressure":1007.5,"uv_index":7.8,"wind_gusts":46.8,"aqi":39,"pm10":15.1,"pm2_5":8.4,"no2":4.2,"co":114.0,"o3":41.0,"so2":1.6,"mosquito_risk":7,"arthritis_risk":5,"migraine_risk":4,"frizz_risk":1,"updated_at":"2026-07-12T20:28:57.361962+05:30"},{"city":"Patna","state":"Bihar","latitude":25.5941,"longitude":85.1376,"temp":30.6,"humidity":75,"rain":0.0,"pressure":991.0,"uv_index":8.25,"wind_gusts":38.5,"aqi":138,"pm10":114.6,"pm2_5":65.2,"no2":20.7,"co":276.0,"o3":67.0,"so2":10.8,"mosquito_risk":3,"arthritis_risk":5,"migraine_risk":7,"frizz_risk":1,"updated_at":"2026-07-12T20:28:57.361969+05:30"},{"city":"Gaya","state":"Bihar","latitude":24.7914,"longitude":85.0002,"temp":30.1,"humidity":75,"rain":0.0,"pressure":984.9,"uv_index":8.8,"wind_gusts":38.9,"aqi":115,"pm10":78.7,"pm2_5":50.8,"no2":15.5,"co":273.0,"o3":67.0,"so2":8.1,"mosquito_risk":3,"arthritis_risk":5,"migraine_risk":7,"frizz_risk":1,"updated_at":"2026-07-12T20:28:57.361976+05:30"},{"city":"Muzaffarpur","state":"Bihar","latitude":26.1209,"longitude":85.3647,"temp":28.8,"humidity":91,"rain":0.0,"pressure":990.9,"uv_index":7.2,"wind_gusts":42.5,"aqi":136,"pm10":148.5,"pm2_5":82.0,"no2":25.1,"co":365.0,"o3":64.0,"so2":12.0,"mosquito_risk":7,"arthritis_risk":5,"migraine_risk":7,"frizz_risk":1,"updated_at":"2026-07-12T20:28:57.361983+05:30"},{"city":"Bhagalpur","state":"Bihar","latitude":25.2425,"longitude":87.0117,"temp":31.2,"humidity":79,"rain":0.0,"pressure":991.9,"uv_index":8.35,"wind_gusts":40.3,"aqi":113,"pm10":92.4,"pm2_5":61.5,"no2":25.7,"co":442.0,"o3":60.0,"so2":11.4,"mosquito_risk":3,"arthritis_risk":5,"migraine_risk":7,"frizz_risk":1,"updated_at":"2026-07-12T20:28:57.361990+05:30"},{"city":"Ranchi","state":"Jharkhand","latitude":23.3441,"longitude":85.3096,"temp":25.1,"humidity":90,"rain":0.0,"pressure":930.6,"uv_index":9.25,"wind_gusts":37.8,"aqi":96,"pm10":53.0,"pm2_5":35.5,"no2":12.2,"co":218.0,"o3":78.0,"so2":8.2,"mosquito_risk":7,"arthritis_risk":5,"migraine_risk":7,"frizz_risk":1,"updated_at":"2026-07-12T20:28:57.361997+05:30"},{"city":"Jamshedpur","state":"Jharkhand","latitude":22.8046,"longitude":86.2029,"temp":28.4,"humidity":84,"rain":0.0,"pressure":983.0,"uv_index":9.05,"wind_gusts":29.2,"aqi":112,"pm10":65.7,"pm2_5":41.7,"no2":14.9,"co":277.0,"o3":76.0,"so2":15.0,"mosquito_risk":7,"arthritis_risk":5,"migraine_risk":7,"frizz_risk":1,"updated_at":"2026-07-12T20:28:57.362004+05:30"},{"city":"Dhanbad","state":"Jharkhand","latitude":23.7957,"longitude":86.4304,"temp":27.8,"humidity":93,"rain":0.1,"pressure":972.0,"uv_index":8.8,"wind_gusts":29.5,"aqi":151,"pm10":114.6,"pm2_5":90.1,"no2":51.4,"co":811.0,"o3":52.0,"so2":174.8,"mosquito_risk":10,"arthritis_risk":5,"migraine_risk":7,"frizz_risk":1,"updated_at":"2026-07-12T20:28:57.362011+05:30"},{"city":"Bokaro","state":"Jharkhand","latitude":23.6693,"longitude":86.1511,"temp":28.7,"humidity":85,"rain":0.0,"pressure":976.0,"uv_index":8.95,"wind_gusts":32.4,"aqi":144,"pm10":108.0,"pm2_5":83.6,"no2":42.1,"co":327.0,"o3":67.0,"so2":154.8,"mosquito_risk":7,"arthritis_risk":5,"migraine_risk":7,"frizz_risk":1,"updated_at":"2026-07-12T20:28:57.362018+05:30"},{"city":"Bhubaneswar","state":"Odisha","latitude":20.2961,"longitude":85.8245,"temp":29.5,"humidity":81,"rain":0.0,"pressure":995.1,"uv_index":8.5,"wind_gusts":37.1,"aqi":122,"pm10":48.0,"pm2_5":34.7,"no2":12.1,"co":264.0,"o3":80.0,"so2":7.6,"mosquito_risk":7,"arthritis_risk":5,"migraine_risk":7,"frizz_risk":1,"updated_at":"2026-07-12T20:28:57.362025+05:30"},{"city":"Cuttack","state":"Odisha","latitude":20.4625,"longitude":85.8828,"temp":29.9,"humidity":80,"rain":0.0,"pressure":996.9,"uv_index":8.4,"wind_gusts":39.6,"aqi":122,"pm10":48.0,"pm2_5":34.7,"no2":12.1,"co":284.0,"o3":80.0,"so2":7.6,"mosquito_risk":7,"arthritis_risk":5,"migraine_risk":7,"frizz_risk":1,"updated_at":"2026-07-12T20:28:57.362032+05:30"},{"city":"Rourkela","state":"Odisha","latitude":22.2604,"longitude":84.8536,"temp":26.6,"humidity":93,"rain":0.0,"pressure":977.4,"uv_index":8.85,"wind_gusts":32.8,"aqi":108,"pm10":48.1,"pm2_5":35.2,"no2":7.9,"co":297.0,"o3":116.0,"so2":14.6,"mosquito_risk":7,"arthritis_risk":5,"migraine_risk":7,"frizz_risk":1,"updated_at":"2026-07-12T20:28:57.362039+05:30"},{"city":"Raipur","state":"Chhattisgarh","latitude":21.2514,"longitude":81.6296,"temp":29.3,"humidity":64,"rain":0.0,"pressure":968.3,"uv_index":6.1,"wind_gusts":45.7,"aqi":97,"pm10":51.9,"pm2_5":32.9,"no2":17.0,"co":299.0,"o3":84.0,"so2":34.4,"mosquito_risk":7,"arthritis_risk":5,"migraine_risk":7,"frizz_risk":1,"updated_at":"2026-07-12T20:28:57.362046+05:30"},{"city":"Bhilai","state":"Chhattisgarh","latitude":21.1938,"longitude":81.3509,"temp":28.8,"humidity":67,"rain":0.0,"pressure":968.9,"uv_index":7.4,"wind_gusts":47.5,"aqi":91,"pm10":53.7,"pm2_5":32.5,"no2":13.5,"co":486.0,"o3":87.0,"so2":27.4,"mosquito_risk":7,"arthritis_risk":5,"migraine_risk":7,"frizz_risk":1,"updated_at":"2026-07-12T20:28:57.362052+05:30"},{"city":"Guwahati","state":"Assam","latitude":26.1158,"longitude":91.7086,"temp":26.8,"humidity":99,"rain":0.1,"pressure":993.2,"uv_index":4.15,"wind_gusts":18.7,"aqi":40,"pm10":11.0,"pm2_5":10.9,"no2":9.6,"co":323.0,"o3":55.0,"so2":3.0,"mosquito_risk":10,"arthritis_risk":5,"migraine_risk":3,"frizz_risk":1,"updated_at":"2026-07-12T20:28:57.362060+05:30"},{"city":"Agartala","state":"Tripura","latitude":23.8315,"longitude":91.2868,"temp":26.3,"humidity":98,"rain":0.1,"pressure":998.5,"uv_index":7.9,"wind_gusts":31.7,"aqi":87,"pm10":42.8,"pm2_5":38.1,"no2":13.0,"co":252.0,"o3":86.0,"so2":5.9,"mosquito_risk":10,"arthritis_risk":5,"migraine_risk":7,"frizz_risk":1,"updated_at":"2026-07-12T20:28:57.362067+05:30"},{"city":"Shillong","state":"Meghalaya","latitude":25.5788,"longitude":91.8933,"temp":21.4,"humidity":94,"rain":0.0,"pressure":851.8,"uv_index":3.55,"wind_gusts":39.6,"aqi":40,"pm10":5.9,"pm2_5":5.0,"no2":6.0,"co":319.0,"o3":71.0,"so2":3.6,"mosquito_risk":3,"arthritis_risk":5,"migraine_risk":3,"frizz_risk":1,"updated_at":"2026-07-12T20:28:57.362074+05:30"},{"city":"Imphal","state":"Manipur","latitude":24.817,"longitude":93.9368,"temp":24.4,"humidity":96,"rain":0.0,"pressure":917.3,"uv_index":7.15,"wind_gusts":20.5,"aqi":44,"pm10":27.1,"pm2_5":22.4,"no2":17.3,"co":489.0,"o3":52.0,"so2":5.8,"mosquito_risk":3,"arthritis_risk":5,"migraine_risk":7,"frizz_risk":1,"updated_at":"2026-07-12T20:28:57.362081+05:30"},{"city":"Aizawl","state":"Mizoram","latitude":23.7271,"longitude":92.7176,"temp":20.9,"humidity":92,"rain":0.0,"pressure":886.8,"uv_index":7.8,"wind_gusts":36.7,"aqi":51,"pm10":20.2,"pm2_5":12.2,"no2":2.1,"co":163.0,"o3":73.0,"so2":2.8,"mosquito_risk":3,"arthritis_risk":5,"migraine_risk":7,"frizz_risk":1,"updated_at":"2026-07-12T20:28:57.362088+05:30"},{"city":"Kohima","state":"Nagaland","latitude":25.6701,"longitude":94.1077,"temp":21.3,"humidity":97,"rain":0.1,"pressure":850.8,"uv_index":8.05,"wind_gusts":19.4,"aqi":38,"pm10":11.9,"pm2_5":10.3,"no2":8.6,"co":258.0,"o3":53.0,"so2":2.1,"mosquito_risk":6,"arthritis_risk":5,"migraine_risk":7,"frizz_risk":1,"updated_at":"2026-07-12T20:28:57.362095+05:30"},{"city":"Gangtok","state":"Sikkim","latitude":27.3314,"longitude":88.6138,"temp":20.2,"humidity":95,"rain":0.2,"pressure":832.8,"uv_index":4.0,"wind_gusts":30.2,"aqi":49,"pm10":3.6,"pm2_5":3.5,"no2":3.9,"co":279.0,"o3":108.0,"so2":1.0,"mosquito_risk":6,"arthritis_risk":5,"migraine_risk":3,"frizz_risk":1,"updated_at":"2026-07-12T20:28:57.362102+05:30"},{"city":"Siliguri","state":"West Bengal","latitude":26.7271,"longitude":88.3953,"temp":25.9,"humidity":97,"rain":0.2,"pressure":984.6,"uv_index":7.9,"wind_gusts":23.4,"aqi":58,"pm10":18.4,"pm2_5":16.7,"no2":8.3,"co":471.0,"o3":104.0,"so2":3.1,"mosquito_risk":10,"arthritis_risk":5,"migraine_risk":7,"frizz_risk":1,"updated_at":"2026-07-12T20:29:00.609503+05:30"},{"city":"Durgapur","state":"West Bengal","latitude":23.5204,"longitude":87.3119,"temp":28.5,"humidity":91,"rain":0.1,"pressure":986.9,"uv_index":5.2,"wind_gusts":28.1,"aqi":151,"pm10":88.0,"pm2_5":68.2,"no2":33.4,"co":984.0,"o3":69.0,"so2":43.2,"mosquito_risk":10,"arthritis_risk":5,"migraine_risk":3,"frizz_risk":1,"updated_at":"2026-07-12T20:29:00.609537+05:30"},{"city":"Asansol","state":"West Bengal","latitude":23.6739,"longitude":86.9524,"temp":28.0,"humidity":94,"rain":0.2,"pressure":985.5,"uv_index":8.3,"wind_gusts":28.8,"aqi":136,"pm10":78.7,"pm2_5":57.7,"no2":33.6,"co":315.0,"o3":66.0,"so2":44.0,"mosquito_risk":10,"arthritis_risk":5,"migraine_risk":7,"frizz_risk":1,"updated_at":"2026-07-12T20:29:00.609548+05:30"},{"city":"Pondicherry","state":"Puducherry","latitude":11.9139,"longitude":79.8145,"temp":30.8,"humidity":77,"rain":0.0,"pressure":1004.0,"uv_index":8.65,"wind_gusts":45.0,"aqi":77,"pm10":44.9,"pm2_5":25.4,"no2":11.8,"co":187.0,"o3":95.0,"so2":9.3,"mosquito_risk":3,"arthritis_risk":5,"migraine_risk":4,"frizz_risk":1,"updated_at":"2026-07-12T20:29:00.609557+05:30"},{"city":"Port Blair","state":"Andaman and Nicobar Islands","latitude":11.6234,"longitude":92.7265,"temp":27.4,"humidity":83,"rain":0.1,"pressure":1005.5,"uv_index":8.7,"wind_gusts":55.8,"aqi":52,"pm10":22.5,"pm2_5":9.8,"no2":0.3,"co":91.0,"o3":46.0,"so2":0.4,"mosquito_risk":10,"arthritis_risk":5,"migraine_risk":4,"frizz_risk":1,"updated_at":"2026-07-12T20:29:00.609565+05:30"},{"city":"Haridwar","state":"Uttarakhand","latitude":29.9457,"longitude":78.1642,"temp":29.6,"humidity":84,"rain":0.0,"pressure":963.4,"uv_index":7.45,"wind_gusts":37.4,"aqi":158,"pm10":185.8,"pm2_5":94.8,"no2":21.5,"co":404.0,"o3":92.0,"so2":12.4,"mosquito_risk":7,"arthritis_risk":5,"migraine_risk":7,"frizz_risk":1,"updated_at":"2026-07-12T20:29:00.609574+05:30"},{"city":"Rishikesh","state":"Uttarakhand","latitude":30.0869,"longitude":78.2676,"temp":28.2,"humidity":86,"rain":0.0,"pressure":956.3,"uv_index":7.6,"wind_gusts":29.9,"aqi":130,"pm10":140.2,"pm2_5":66.4,"no2":8.8,"co":319.0,"o3":122.0,"so2":9.6,"mosquito_risk":7,"arthritis_risk":5,"migraine_risk":7,"frizz_risk":1,"updated_at":"2026-07-12T20:29:00.609581+05:30"},{"city":"Nainital","state":"Uttarakhand","latitude":29.3919,"longitude":79.4542,"temp":17.7,"humidity":100,"rain":0.0,"pressure":799.1,"uv_index":6.3,"wind_gusts":32.8,"aqi":151,"pm10":177.0,"pm2_5":73.1,"no2":10.3,"co":225.0,"o3":103.0,"so2":6.6,"mosquito_risk":3,"arthritis_risk":10,"migraine_risk":7,"frizz_risk":1,"updated_at":"2026-07-12T20:29:00.609589+05:30"},{"city":"Mussoorie","state":"Uttarakhand","latitude":30.4599,"longitude":78.0664,"temp":17.6,"humidity":100,"rain":0.0,"pressure":796.5,"uv_index":8.0,"wind_gusts":43.2,"aqi":127,"pm10":128.1,"pm2_5":67.5,"no2":12.3,"co":268.0,"o3":115.0,"so2":9.7,"mosquito_risk":3,"arthritis_risk":10,"migraine_risk":7,"frizz_risk":1,"updated_at":"2026-07-12T20:29:00.609597+05:30"},{"city":"Dharamshala","state":"Himachal Pradesh","latitude":32.219,"longitude":76.3234,"temp":22.2,"humidity":80,"rain":0.0,"pressure":861.3,"uv_index":8.45,"wind_gusts":28.8,"aqi":98,"pm10":38.8,"pm2_5":22.3,"no2":7.3,"co":515.0,"o3":102.0,"so2":1.6,"mosquito_risk":3,"arthritis_risk":5,"migraine_risk":7,"frizz_risk":1,"updated_at":"2026-07-12T20:29:00.609604+05:30"},{"city":"Dalhousie","state":"Himachal Pradesh","latitude":32.5387,"longitude":75.971,"temp":17.7,"humidity":89,"rain":0.0,"pressure":798.0,"uv_index":8.65,"wind_gusts":25.6,"aqi":122,"pm10":69.8,"pm2_5":37.8,"no2":15.8,"co":582.0,"o3":125.0,"so2":2.9,"mosquito_risk":3,"arthritis_risk":10,"migraine_risk":7,"frizz_risk":0,"updated_at":"2026-07-12T20:29:00.609613+05:30"},{"city":"Patiala","state":"Punjab","latitude":30.3398,"longitude":76.3869,"temp":29.7,"humidity":84,"rain":0.0,"pressure":967.4,"uv_index":7.5,"wind_gusts":29.9,"aqi":166,"pm10":290.6,"pm2_5":129.0,"no2":28.8,"co":431.0,"o3":83.0,"so2":10.8,"mosquito_risk":7,"arthritis_risk":5,"migraine_risk":7,"frizz_risk":1,"updated_at":"2026-07-12T20:29:00.609621+05:30"},{"city":"Bhatinda","state":"Punjab","latitude":30.211,"longitude":74.9455,"temp":32.3,"humidity":72,"rain":0.0,"pressure":972.8,"uv_index":8.25,"wind_gusts":37.1,"aqi":362,"pm10":354.8,"pm2_5":155.1,"no2":32.2,"co":322.0,"o3":70.0,"so2":10.2,"mosquito_risk":3,"arthritis_risk":5,"migraine_risk":7,"frizz_risk":1,"updated_at":"2026-07-12T20:29:00.609628+05:30"},{"city":"Rohtak","state":"Haryana","latitude":28.8955,"longitude":76.6066,"temp":30.3,"humidity":83,"rain":0.0,"pressure":971.0,"uv_index":7.65,"wind_gusts":37.8,"aqi":1042,"pm10":571.8,"pm2_5":132.7,"no2":19.5,"co":241.0,"o3":63.0,"so2":4.6,"mosquito_risk":3,"arthritis_risk":5,"migraine_risk":7,"frizz_risk":1,"updated_at":"2026-07-12T20:29:00.609635+05:30"},{"city":"Panipat","state":"Haryana","latitude":29.3909,"longitude":76.9635,"temp":29.8,"humidity":79,"rain":0.0,"pressure":969.7,"uv_index":7.45,"wind_gusts":44.6,"aqi":1413,"pm10":1099.0,"pm2_5":220.7,"no2":25.0,"co":368.0,"o3":55.0,"so2":7.6,"mosquito_risk":7,"arthritis_risk":5,"migraine_risk":7,"frizz_risk":1,"updated_at":"2026-07-12T20:29:00.609642+05:30"},{"city":"Mathura","state":"Uttar Pradesh","latitude":27.4924,"longitude":77.6737,"temp":31.9,"humidity":60,"rain":0.0,"pressure":976.4,"uv_index":7.95,"wind_gusts":36.7,"aqi":837,"pm10":983.5,"pm2_5":146.2,"no2":10.8,"co":163.0,"o3":77.0,"so2":3.7,"mosquito_risk":0,"arthritis_risk":5,"migraine_risk":7,"frizz_risk":1,"updated_at":"2026-07-12T20:29:00.609649+05:30"},{"city":"Vrindavan","state":"Uttar Pradesh","latitude":27.5823,"longitude":77.7027,"temp":32.0,"humidity":60,"rain":0.0,"pressure":976.7,"uv_index":7.9,"wind_gusts":36.0,"aqi":837,"pm10":983.5,"pm2_5":146.2,"no2":10.8,"co":167.0,"o3":77.0,"so2":3.7,"mosquito_risk":0,"arthritis_risk":5,"migraine_risk":7,"frizz_risk":1,"updated_at":"2026-07-12T20:29:00.609656+05:30"},{"city":"Ayodhya","state":"Uttar Pradesh","latitude":26.7922,"longitude":82.1998,"temp":28.8,"humidity":90,"rain":0.0,"pressure":985.7,"uv_index":7.05,"wind_gusts":36.4,"aqi":138,"pm10":109.2,"pm2_5":55.2,"no2":15.8,"co":341.0,"o3":67.0,"so2":6.8,"mosquito_risk":7,"arthritis_risk":5,"migraine_risk":7,"frizz_risk":1,"updated_at":"2026-07-12T20:29:00.609664+05:30"},{"city":"Ratlam","state":"Madhya Pradesh","latitude":23.3315,"longitude":75.0367,"temp":27.8,"humidity":75,"rain":0.0,"pressure":948.4,"uv_index":8.45,"wind_gusts":58.0,"aqi":63,"pm10":58.0,"pm2_5":30.6,"no2":3.1,"co":123.0,"o3":78.0,"so2":5.5,"mosquito_risk":7,"arthritis_risk":5,"migraine_risk":7,"frizz_risk":1,"updated_at":"2026-07-12T20:29:00.609671+05:30"},{"city":"Sagar","state":"Madhya Pradesh","latitude":23.8388,"longitude":78.7378,"temp":27.7,"humidity":70,"rain":0.0,"pressure":943.6,"uv_index":7.65,"wind_gusts":43.2,"aqi":73,"pm10":51.8,"pm2_5":26.8,"no2":3.4,"co":154.0,"o3":76.0,"so2":3.3,"mosquito_risk":7,"arthritis_risk":5,"migraine_risk":7,"frizz_risk":1,"updated_at":"2026-07-12T20:29:00.609677+05:30"},{"city":"Satna","state":"Madhya Pradesh","latitude":24.6005,"longitude":80.8322,"temp":30.0,"humidity":61,"rain":0.0,"pressure":964.0,"uv_index":8.5,"wind_gusts":45.7,"aqi":79,"pm10":43.9,"pm2_5":24.4,"no2":4.7,"co":157.0,"o3":81.0,"so2":3.6,"mosquito_risk":7,"arthritis_risk":5,"migraine_risk":7,"frizz_risk":1,"updated_at":"2026-07-12T20:29:00.609684+05:30"},{"city":"Akola","state":"Maharashtra","latitude":20.7002,"longitude":77.0082,"temp":31.3,"humidity":53,"rain":0.0,"pressure":969.5,"uv_index":7.9,"wind_gusts":45.0,"aqi":58,"pm10":41.4,"pm2_5":20.9,"no2":6.2,"co":150.0,"o3":72.0,"so2":6.8,"mosquito_risk":0,"arthritis_risk":5,"migraine_risk":7,"frizz_risk":1,"updated_at":"2026-07-12T20:29:00.609691+05:30"},{"city":"Amravati","state":"Maharashtra","latitude":20.9374,"longitude":77.7796,"temp":29.8,"humidity":62,"rain":0.0,"pressure":961.5,"uv_index":5.85,"wind_gusts":44.3,"aqi":60,"pm10":40.7,"pm2_5":20.6,"no2":7.1,"co":149.0,"o3":73.0,"so2":7.7,"mosquito_risk":7,"arthritis_risk":5,"migraine_risk":3,"frizz_risk":1,"updated_at":"2026-07-12T20:29:00.609699+05:30"},{"city":"Latur","state":"Maharashtra","latitude":18.4088,"longitude":76.5604,"temp":27.6,"humidity":58,"rain":0.0,"pressure":936.3,"uv_index":8.85,"wind_gusts":46.8,"aqi":51,"pm10":30.7,"pm2_5":15.0,"no2":2.6,"co":143.0,"o3":70.0,"so2":2.3,"mosquito_risk":4,"arthritis_risk":5,"migraine_risk":7,"frizz_risk":1,"updated_at":"2026-07-12T20:29:00.609707+05:30"},{"city":"Nanded","state":"Maharashtra","latitude":19.1383,"longitude":77.3091,"temp":30.5,"humidity":56,"rain":0.0,"pressure":963.6,"uv_index":8.85,"wind_gusts":39.6,"aqi":57,"pm10":36.9,"pm2_5":20.3,"no2":4.8,"co":159.0,"o3":73.0,"so2":3.3,"mosquito_risk":0,"arthritis_risk":5,"migraine_risk":7,"frizz_risk":1,"updated_at":"2026-07-12T20:29:00.609714+05:30"},{"city":"Gulbarga","state":"Karnataka","latitude":17.3297,"longitude":76.8343,"temp":29.0,"humidity":56,"rain":0.0,"pressure":955.2,"uv_index":8.75,"wind_gusts":49.7,"aqi":51,"pm10":28.2,"pm2_5":13.9,"no2":4.4,"co":149.0,"o3":63.0,"so2":2.4,"mosquito_risk":4,"arthritis_risk":5,"migraine_risk":7,"frizz_risk":1,"updated_at":"2026-07-12T20:29:00.609721+05:30"},{"city":"Bidar","state":"Karnataka","latitude":17.9104,"longitude":77.5199,"temp":28.6,"humidity":54,"rain":0.0,"pressure":931.7,"uv_index":8.9,"wind_gusts":47.9,"aqi":56,"pm10":33.4,"pm2_5":18.5,"no2":6.3,"co":134.0,"o3":67.0,"so2":2.3,"mosquito_risk":4,"arthritis_risk":5,"migraine_risk":7,"frizz_risk":1,"updated_at":"2026-07-12T20:29:00.609728+05:30"},{"city":"Hospet","state":"Karnataka","latitude":15.2689,"longitude":76.3909,"temp":28.1,"humidity":58,"rain":0.0,"pressure":953.9,"uv_index":8.55,"wind_gusts":52.9,"aqi":38,"pm10":18.9,"pm2_5":9.2,"no2":3.3,"co":122.0,"o3":53.0,"so2":1.8,"mosquito_risk":4,"arthritis_risk":5,"migraine_risk":7,"frizz_risk":1,"updated_at":"2026-07-12T20:29:00.609734+05:30"},{"city":"Tirupur","state":"Tamil Nadu","latitude":11.1085,"longitude":77.3411,"temp":26.6,"humidity":78,"rain":0.0,"pressure":973.6,"uv_index":8.4,"wind_gusts":61.9,"aqi":57,"pm10":24.3,"pm2_5":13.4,"no2":11.1,"co":142.0,"o3":49.0,"so2":3.7,"mosquito_risk":7,"arthritis_risk":5,"migraine_risk":7,"frizz_risk":1,"updated_at":"2026-07-12T20:29:00.609740+05:30"},{"city":"Alappuzha","state":"Kerala","latitude":9.4981,"longitude":76.3388,"temp":27.7,"humidity":84,"rain":0.0,"pressure":1009.4,"uv_index":7.9,"wind_gusts":42.8,"aqi":44,"pm10":14.7,"pm2_5":8.7,"no2":5.1,"co":82.0,"o3":45.0,"so2":2.2,"mosquito_risk":7,"arthritis_risk":0,"migraine_risk":4,"frizz_risk":1,"updated_at":"2026-07-12T20:29:00.609748+05:30"},{"city":"Munnar","state":"Kerala","latitude":10.0889,"longitude":77.0595,"temp":16.8,"humidity":100,"rain":0.0,"pressure":856.7,"uv_index":8.05,"wind_gusts":38.5,"aqi":35,"pm10":12.5,"pm2_5":8.1,"no2":4.9,"co":103.0,"o3":45.0,"so2":1.9,"mosquito_risk":3,"arthritis_risk":10,"migraine_risk":7,"frizz_risk":1,"updated_at":"2026-07-12T20:29:00.609755+05:30"},{"city":"Silchar","state":"Assam","latitude":24.8333,"longitude":92.7789,"temp":27.2,"humidity":97,"rain":0.0,"pressure":997.4,"uv_index":6.4,"wind_gusts":30.2,"aqi":71,"pm10":40.7,"pm2_5":27.5,"no2":6.3,"co":310.0,"o3":80.0,"so2":6.0,"mosquito_risk":7,"arthritis_risk":5,"migraine_risk":7,"frizz_risk":1,"updated_at":"2026-07-12T20:29:00.609762+05:30"},{"city":"Dibrugarh","state":"Assam","latitude":27.4728,"longitude":94.912,"temp":27.1,"humidity":97,"rain":0.2,"pressure":988.4,"uv_index":3.7,"wind_gusts":23.8,"aqi":58,"pm10":17.5,"pm2_5":17.3,"no2":12.5,"co":292.0,"o3":60.0,"so2":2.7,"mosquito_risk":10,"arthritis_risk":5,"migraine_risk":3,"frizz_risk":1,"updated_at":"2026-07-12T20:29:00.609769+05:30"}]