[{"city":"Delhi","state":"Delhi","latitude":28.6139,"longitude":77.209,"temp":41.0,"humidity":20,"rain":0.0,"pressure":977.8,"uv_index":7.7,"wind_gusts":48.2,"aqi":566,"pm10":791.6,"pm2_5":110.4,"no2":2.5,"co":268.0,"o3":142.0,"so2":8.7,"mosquito_risk":0,"arthritis_risk":5,"migraine_risk":10,"frizz_risk":0,"updated_at":"2026-05-17T14:37:33.891321+05:30"},{"city":"Mumbai","state":"Maharashtra","latitude":19.076,"longitude":72.8777,"temp":33.5,"humidity":62,"rain":0.0,"pressure":1004.1,"uv_index":7.45,"wind_gusts":45.4,"aqi":60,"pm10":39.8,"pm2_5":20.3,"no2":5.3,"co":171.0,"o3":109.0,"so2":5.2,"mosquito_risk":3,"arthritis_risk":5,"migraine_risk":4,"frizz_risk":1,"updated_at":"2026-05-17T14:37:33.891368+05:30"},{"city":"Bangalore","state":"Karnataka","latitude":12.9716,"longitude":77.5946,"temp":34.6,"humidity":28,"rain":0.0,"pressure":908.6,"uv_index":9.45,"wind_gusts":35.3,"aqi":108,"pm10":28.4,"pm2_5":16.5,"no2":3.6,"co":230.0,"o3":137.0,"so2":5.9,"mosquito_risk":0,"arthritis_risk":5,"migraine_risk":7,"frizz_risk":0,"updated_at":"2026-05-17T14:37:33.891384+05:30"},{"city":"Hyderabad","state":"Telangana","latitude":17.385,"longitude":78.4867,"temp":36.9,"humidity":30,"rain":0.1,"pressure":949.4,"uv_index":9.3,"wind_gusts":23.4,"aqi":77,"pm10":41.0,"pm2_5":22.0,"no2":1.6,"co":251.0,"o3":143.0,"so2":4.7,"mosquito_risk":3,"arthritis_risk":5,"migraine_risk":10,"frizz_risk":1,"updated_at":"2026-05-17T14:37:33.891394+05:30"},{"city":"Chennai","state":"Tamil Nadu","latitude":13.0827,"longitude":80.2707,"temp":33.5,"humidity":57,"rain":0.1,"pressure":1001.6,"uv_index":9.15,"wind_gusts":43.9,"aqi":57,"pm10":28.6,"pm2_5":19.9,"no2":1.9,"co":199.0,"o3":130.0,"so2":6.8,"mosquito_risk":3,"arthritis_risk":5,"migraine_risk":4,"frizz_risk":1,"updated_at":"2026-05-17T14:37:33.891402+05:30"},{"city":"Kolkata","state":"West Bengal","latitude":22.5726,"longitude":88.3639,"temp":35.4,"humidity":57,"rain":0.0,"pressure":998.7,"uv_index":8.95,"wind_gusts":36.4,"aqi":62,"pm10":36.3,"pm2_5":23.2,"no2":2.2,"co":249.0,"o3":126.0,"so2":8.0,"mosquito_risk":0,"arthritis_risk":5,"migraine_risk":10,"frizz_risk":1,"updated_at":"2026-05-17T14:37:33.891409+05:30"},{"city":"Pune","state":"Maharashtra","latitude":18.5204,"longitude":73.8567,"temp":39.5,"humidity":19,"rain":0.0,"pressure":944.6,"uv_index":8.5,"wind_gusts":43.9,"aqi":67,"pm10":30.6,"pm2_5":17.6,"no2":1.5,"co":174.0,"o3":149.0,"so2":7.5,"mosquito_risk":0,"arthritis_risk":5,"migraine_risk":10,"frizz_risk":0,"updated_at":"2026-05-17T14:37:33.891430+05:30"},{"city":"Ahmedabad","state":"Gujarat","latitude":23.0225,"longitude":72.5714,"temp":42.0,"humidity":20,"rain":0.0,"pressure":997.5,"uv_index":8.15,"wind_gusts":29.9,"aqi":61,"pm10":52.6,"pm2_5":18.2,"no2":1.0,"co":152.0,"o3":109.0,"so2":3.5,"mosquito_risk":0,"arthritis_risk":5,"migraine_risk":10,"frizz_risk":0,"updated_at":"2026-05-17T14:37:33.891438+05:30"},{"city":"Jaipur","state":"Rajasthan","latitude":26.9124,"longitude":75.7873,"temp":41.5,"humidity":14,"rain":0.0,"pressure":956.6,"uv_index":8.25,"wind_gusts":39.2,"aqi":126,"pm10":90.8,"pm2_5":24.3,"no2":0.7,"co":167.0,"o3":128.0,"so2":4.1,"mosquito_risk":0,"arthritis_risk":5,"migraine_risk":10,"frizz_risk":0,"updated_at":"2026-05-17T14:37:33.891451+05:30"},{"city":"Lucknow","state":"Uttar Pradesh","latitude":26.8467,"longitude":80.9462,"temp":40.8,"humidity":20,"rain":0.0,"pressure":987.1,"uv_index":8.2,"wind_gusts":48.2,"aqi":150,"pm10":136.4,"pm2_5":38.8,"no2":1.1,"co":243.0,"o3":147.0,"so2":6.8,"mosquito_risk":0,"arthritis_risk":5,"migraine_risk":10,"frizz_risk":0,"updated_at":"2026-05-17T14:37:33.891458+05:30"},{"city":"Kanpur","state":"Uttar Pradesh","latitude":26.4499,"longitude":80.3319,"temp":41.7,"humidity":17,"rain":0.0,"pressure":985.8,"uv_index":8.2,"wind_gusts":46.1,"aqi":160,"pm10":493.6,"pm2_5":71.9,"no2":1.0,"co":219.0,"o3":140.0,"so2":6.2,"mosquito_risk":0,"arthritis_risk":5,"migraine_risk":10,"frizz_risk":0,"updated_at":"2026-05-17T14:37:33.891465+05:30"},{"city":"Chandigarh","state":"Chandigarh","latitude":30.7333,"longitude":76.7794,"temp":37.5,"humidity":22,"rain":0.0,"pressure":964.0,"uv_index":7.7,"wind_gusts":42.5,"aqi":101,"pm10":19.8,"pm2_5":13.2,"no2":1.5,"co":255.0,"o3":162.0,"so2":7.0,"mosquito_risk":0,"arthritis_risk":5,"migraine_risk":10,"frizz_risk":0,"updated_at":"2026-05-17T14:37:33.891471+05:30"},{"city":"Srinagar","state":"Jammu and Kashmir","latitude":34.0837,"longitude":74.7973,"temp":25.9,"humidity":38,"rain":0.0,"pressure":843.0,"uv_index":8.9,"wind_gusts":17.3,"aqi":80,"pm10":13.3,"pm2_5":7.8,"no2":1.0,"co":293.0,"o3":138.0,"so2":1.9,"mosquito_risk":4,"arthritis_risk":5,"migraine_risk":7,"frizz_risk":0,"updated_at":"2026-05-17T14:37:33.891479+05:30"},{"city":"Jammu","state":"Jammu and Kashmir","latitude":32.7266,"longitude":74.857,"temp":38.2,"humidity":20,"rain":0.0,"pressure":967.6,"uv_index":8.5,"wind_gusts":38.2,"aqi":62,"pm10":19.0,"pm2_5":10.0,"no2":1.0,"co":183.0,"o3":147.0,"so2":2.4,"mosquito_risk":0,"arthritis_risk":5,"migraine_risk":10,"frizz_risk":0,"updated_at":"2026-05-17T14:37:33.891486+05:30"},{"city":"Amritsar","state":"Punjab","latitude":31.634,"longitude":74.8723,"temp":39.0,"humidity":21,"rain":0.0,"pressure":975.7,"uv_index":8.4,"wind_gusts":30.6,"aqi":101,"pm10":47.1,"pm2_5":19.8,"no2":1.3,"co":244.0,"o3":158.0,"so2":7.8,"mosquito_risk":0,"arthritis_risk":5,"migraine_risk":10,"frizz_risk":0,"updated_at":"2026-05-17T14:37:33.891492+05:30"},{"city":"Ludhiana","state":"Punjab","latitude":30.901,"longitude":75.8573,"temp":38.8,"humidity":20,"rain":0.0,"pressure":973.8,"uv_index":8.0,"wind_gusts":38.9,"aqi":88,"pm10":65.7,"pm2_5":20.0,"no2":0.9,"co":261.0,"o3":142.0,"so2":3.6,"mosquito_risk":0,"arthritis_risk":5,"migraine_risk":10,"frizz_risk":0,"updated_at":"2026-05-17T14:37:33.891498+05:30"},{"city":"Jalandhar","state":"Punjab","latitude":31.326,"longitude":75.5762,"temp":38.9,"humidity":20,"rain":0.0,"pressure":974.7,"uv_index":8.15,"wind_gusts":34.9,"aqi":106,"pm10":78.9,"pm2_5":22.9,"no2":0.9,"co":255.0,"o3":152.0,"so2":5.3,"mosquito_risk":0,"arthritis_risk":5,"migraine_risk":10,"frizz_risk":0,"updated_at":"2026-05-17T14:37:33.891506+05:30"},{"city":"Dehradun","state":"Uttarakhand","latitude":30.6284,"longitude":78.0322,"temp":25.4,"humidity":41,"rain":0.0,"pressure":830.5,"uv_index":8.15,"wind_gusts":45.0,"aqi":59,"pm10":15.0,"pm2_5":8.4,"no2":0.6,"co":192.0,"o3":144.0,"so2":1.9,"mosquito_risk":4,"arthritis_risk":5,"migraine_risk":7,"frizz_risk":0,"updated_at":"2026-05-17T14:37:33.891513+05:30"},{"city":"Shimla","state":"Himachal Pradesh","latitude":31.1048,"longitude":77.1734,"temp":24.0,"humidity":27,"rain":0.0,"pressure":786.5,"uv_index":8.25,"wind_gusts":49.3,"aqi":80,"pm10":17.1,"pm2_5":10.0,"no2":0.7,"co":187.0,"o3":148.0,"so2":3.0,"mosquito_risk":0,"arthritis_risk":5,"migraine_risk":7,"frizz_risk":0,"updated_at":"2026-05-17T14:37:33.891526+05:30"},{"city":"Manali","state":"Himachal Pradesh","latitude":32.2396,"longitude":77.1887,"temp":23.7,"humidity":36,"rain":0.0,"pressure":818.0,"uv_index":9.85,"wind_gusts":39.6,"aqi":102,"pm10":12.2,"pm2_5":7.2,"no2":1.3,"co":154.0,"o3":154.0,"so2":0.3,"mosquito_risk":0,"arthritis_risk":5,"migraine_risk":7,"frizz_risk":0,"updated_at":"2026-05-17T14:37:33.891532+05:30"},{"city":"Gurgaon","state":"Haryana","latitude":28.4595,"longitude":77.0266,"temp":40.3,"humidity":21,"rain":0.0,"pressure":976.6,"uv_index":7.8,"wind_gusts":46.1,"aqi":956,"pm10":2235.2,"pm2_5":263.6,"no2":2.3,"co":243.0,"o3":142.0,"so2":8.1,"mosquito_risk":0,"arthritis_risk":5,"migraine_risk":10,"frizz_risk":0,"updated_at":"2026-05-17T14:37:33.891538+05:30"},{"city":"Noida","state":"Uttar Pradesh","latitude":28.5355,"longitude":77.391,"temp":40.0,"humidity":23,"rain":0.0,"pressure":979.0,"uv_index":7.75,"wind_gusts":39.6,"aqi":956,"pm10":2235.2,"pm2_5":263.6,"no2":2.3,"co":290.0,"o3":142.0,"so2":8.1,"mosquito_risk":0,"arthritis_risk":5,"migraine_risk":10,"frizz_risk":0,"updated_at":"2026-05-17T14:37:33.891544+05:30"},{"city":"Ghaziabad","state":"Uttar Pradesh","latitude":28.6692,"longitude":77.4538,"temp":39.4,"humidity":24,"rain":0.0,"pressure":977.3,"uv_index":7.7,"wind_gusts":45.0,"aqi":413,"pm10":715.3,"pm2_5":102.7,"no2":2.1,"co":277.0,"o3":154.0,"so2":10.7,"mosquito_risk":0,"arthritis_risk":5,"migraine_risk":10,"frizz_risk":0,"updated_at":"2026-05-17T14:37:33.891550+05:30"},{"city":"Faridabad","state":"Haryana","latitude":28.4089,"longitude":77.3178,"temp":40.7,"humidity":21,"rain":0.0,"pressure":978.4,"uv_index":7.75,"wind_gusts":49.3,"aqi":956,"pm10":2235.2,"pm2_5":263.6,"no2":2.3,"co":267.0,"o3":142.0,"so2":8.1,"mosquito_risk":0,"arthritis_risk":5,"migraine_risk":10,"frizz_risk":0,"updated_at":"2026-05-17T14:37:33.891556+05:30"},{"city":"Meerut","state":"Uttar Pradesh","latitude":28.9845,"longitude":77.7064,"temp":38.9,"humidity":24,"rain":0.0,"pressure":976.3,"uv_index":7.65,"wind_gusts":48.2,"aqi":413,"pm10":715.3,"pm2_5":102.7,"no2":2.1,"co":289.0,"o3":154.0,"so2":10.7,"mosquito_risk":0,"arthritis_risk":5,"migraine_risk":10,"frizz_risk":0,"updated_at":"2026-05-17T14:37:33.891562+05:30"},{"city":"Agra","state":"Uttar Pradesh","latitude":27.1767,"longitude":78.0081,"temp":41.2,"humidity":18,"rain":0.0,"pressure":982.7,"uv_index":8.05,"wind_gusts":41.8,"aqi":723,"pm10":968.6,"pm2_5":114.8,"no2":1.0,"co":219.0,"o3":137.0,"so2":6.0,"mosquito_risk":0,"arthritis_risk":5,"migraine_risk":10,"frizz_risk":0,"updated_at":"2026-05-17T14:37:33.891569+05:30"},{"city":"Varanasi","state":"Uttar Pradesh","latitude":25.3176,"longitude":82.9739,"temp":42.2,"humidity":14,"rain":0.0,"pressure":990.6,"uv_index":8.7,"wind_gusts":49.7,"aqi":153,"pm10":191.9,"pm2_5":46.8,"no2":1.2,"co":228.0,"o3":162.0,"so2":9.3,"mosquito_risk":0,"arthritis_risk":5,"migraine_risk":10,"frizz_risk":0,"updated_at":"2026-05-17T14:37:33.891575+05:30"},{"city":"Prayagraj","state":"Uttar Pradesh","latitude":25.4358,"longitude":81.8463,"temp":42.0,"humidity":15,"rain":0.0,"pressure":989.6,"uv_index":8.6,"wind_gusts":41.0,"aqi":153,"pm10":205.4,"pm2_5":45.4,"no2":1.2,"co":196.0,"o3":150.0,"so2":7.2,"mosquito_risk":0,"arthritis_risk":5,"migraine_risk":10,"frizz_risk":0,"updated_at":"2026-05-17T14:37:33.891582+05:30"},{"city":"Gorakhpur","state":"Uttar Pradesh","latitude":26.7606,"longitude":83.3732,"temp":38.9,"humidity":26,"rain":0.0,"pressure":989.7,"uv_index":8.6,"wind_gusts":40.3,"aqi":147,"pm10":71.2,"pm2_5":29.5,"no2":1.2,"co":275.0,"o3":162.0,"so2":7.8,"mosquito_risk":0,"arthritis_risk":5,"migraine_risk":10,"frizz_risk":0,"updated_at":"2026-05-17T14:37:33.891590+05:30"},{"city":"Bareilly","state":"Uttar Pradesh","latitude":28.367,"longitude":79.4304,"temp":37.4,"humidity":28,"rain":0.0,"pressure":980.9,"uv_index":8.0,"wind_gusts":37.1,"aqi":119,"pm10":41.3,"pm2_5":26.3,"no2":1.3,"co":259.0,"o3":170.0,"so2":8.0,"mosquito_risk":0,"arthritis_risk":5,"migraine_risk":10,"frizz_risk":0,"updated_at":"2026-05-17T14:37:33.891596+05:30"},{"city":"Aligarh","state":"Uttar Pradesh","latitude":27.8974,"longitude":78.088,"temp":39.7,"humidity":23,"rain":0.0,"pressure":980.3,"uv_index":7.9,"wind_gusts":45.4,"aqi":623,"pm10":1303.9,"pm2_5":159.3,"no2":1.6,"co":243.0,"o3":164.0,"so2":10.2,"mosquito_risk":0,"arthritis_risk":5,"migraine_risk":10,"frizz_risk":0,"updated_at":"2026-05-17T14:37:33.891602+05:30"},{"city":"Moradabad","state":"Uttar Pradesh","latitude":28.8386,"longitude":78.7733,"temp":38.1,"humidity":25,"rain":0.0,"pressure":978.0,"uv_index":7.85,"wind_gusts":43.6,"aqi":148,"pm10":59.6,"pm2_5":26.8,"no2":1.6,"co":260.0,"o3":163.0,"so2":7.9,"mosquito_risk":0,"arthritis_risk":5,"migraine_risk":10,"frizz_risk":0,"updated_at":"2026-05-17T14:37:33.891608+05:30"},{"city":"Saharanpur","state":"Uttar Pradesh","latitude":29.9637,"longitude":77.546,"temp":37.0,"humidity":25,"rain":0.0,"pressure":970.3,"uv_index":7.35,"wind_gusts":44.6,"aqi":95,"pm10":143.9,"pm2_5":30.5,"no2":1.8,"co":233.0,"o3":162.0,"so2":8.3,"mosquito_risk":0,"arthritis_risk":5,"migraine_risk":10,"frizz_risk":0,"updated_at":"2026-05-17T14:37:33.891614+05:30"},{"city":"Jhansi","state":"Uttar Pradesh","latitude":25.4484,"longitude":78.5685,"temp":41.8,"humidity":14,"rain":0.0,"pressure":973.5,"uv_index":8.45,"wind_gusts":31.0,"aqi":122,"pm10":187.2,"pm2_5":37.8,"no2":0.8,"co":178.0,"o3":133.0,"so2":6.1,"mosquito_risk":0,"arthritis_risk":5,"migraine_risk":10,"frizz_risk":0,"updated_at":"2026-05-17T14:37:37.127517+05:30"},{"city":"Surat","state":"Gujarat","latitude":21.1702,"longitude":72.8311,"temp":41.7,"humidity":17,"rain":0.0,"pressure":1001.7,"uv_index":7.75,"wind_gusts":40.7,"aqi":87,"pm10":64.0,"pm2_5":30.7,"no2":7.9,"co":145.0,"o3":144.0,"so2":31.7,"mosquito_risk":0,"arthritis_risk":5,"migraine_risk":7,"frizz_risk":0,"updated_at":"2026-05-17T14:37:37.127552+05:30"},{"city":"Vadodara","state":"Gujarat","latitude":22.3072,"longitude":73.1812,"temp":42.7,"humidity":19,"rain":0.0,"pressure":998.9,"uv_index":8.1,"wind_gusts":29.9,"aqi":71,"pm10":46.6,"pm2_5":19.4,"no2":1.3,"co":164.0,"o3":136.0,"so2":6.5,"mosquito_risk":0,"arthritis_risk":5,"migraine_risk":10,"frizz_risk":0,"updated_at":"2026-05-17T14:37:37.127563+05:30"},{"city":"Rajkot","state":"Gujarat","latitude":22.3039,"longitude":70.8022,"temp":40.8,"humidity":15,"rain":0.0,"pressure":990.8,"uv_index":7.15,"wind_gusts":37.8,"aqi":54,"pm10":56.3,"pm2_5":18.4,"no2":0.7,"co":124.0,"o3":110.0,"so2":3.5,"mosquito_risk":0,"arthritis_risk":5,"migraine_risk":10,"frizz_risk":0,"updated_at":"2026-05-17T14:37:37.127572+05:30"},{"city":"Thane","state":"Maharashtra","latitude":19.2183,"longitude":72.9781,"temp":37.1,"humidity":50,"rain":0.0,"pressure":1002.9,"uv_index":7.55,"wind_gusts":39.2,"aqi":60,"pm10":39.8,"pm2_5":20.3,"no2":5.3,"co":161.0,"o3":109.0,"so2":5.2,"mosquito_risk":0,"arthritis_risk":5,"migraine_risk":7,"frizz_risk":1,"updated_at":"2026-05-17T14:37:37.127579+05:30"},{"city":"Nagpur","state":"Maharashtra","latitude":21.1458,"longitude":79.0882,"temp":43.0,"humidity":15,"rain":0.0,"pressure":968.0,"uv_index":8.95,"wind_gusts":33.1,"aqi":106,"pm10":25.7,"pm2_5":18.4,"no2":4.2,"co":196.0,"o3":168.0,"so2":20.6,"mosquito_risk":0,"arthritis_risk":5,"migraine_risk":10,"frizz_risk":0,"updated_at":"2026-05-17T14:37:37.127587+05:30"},{"city":"Nashik","state":"Maharashtra","latitude":19.9975,"longitude":73.7898,"temp":38.2,"humidity":21,"rain":0.0,"pressure":942.9,"uv_index":8.2,"wind_gusts":41.4,"aqi":62,"pm10":28.5,"pm2_5":13.6,"no2":0.9,"co":135.0,"o3":123.0,"so2":2.9,"mosquito_risk":0,"arthritis_risk":5,"migraine_risk":10,"frizz_risk":0,"updated_at":"2026-05-17T14:37:37.127594+05:30"},{"city":"Aurangabad","state":"Maharashtra","latitude":19.8762,"longitude":75.3433,"temp":40.0,"humidity":16,"rain":0.0,"pressure":941.1,"uv_index":9.05,"wind_gusts":37.1,"aqi":75,"pm10":22.6,"pm2_5":11.4,"no2":0.9,"co":153.0,"o3":134.0,"so2":4.5,"mosquito_risk":0,"arthritis_risk":5,"migraine_risk":10,"frizz_risk":0,"updated_at":"2026-05-17T14:37:37.127601+05:30"},{"city":"Solapur","state":"Maharashtra","latitude":17.6599,"longitude":75.9064,"temp":42.2,"humidity":15,"rain":0.0,"pressure":952.2,"uv_index":9.1,"wind_gusts":33.8,"aqi":93,"pm10":26.0,"pm2_5":19.3,"no2":1.2,"co":158.0,"o3":157.0,"so2":7.0,"mosquito_risk":0,"arthritis_risk":5,"migraine_risk":10,"frizz_risk":0,"updated_at":"2026-05-17T14:37:37.127608+05:30"},{"city":"Kolhapur","state":"Maharashtra","latitude":16.705,"longitude":74.2433,"temp":39.0,"humidity":20,"rain":0.0,"pressure":943.9,"uv_index":8.95,"wind_gusts":46.4,"aqi":59,"pm10":24.6,"pm2_5":16.8,"no2":1.4,"co":173.0,"o3":151.0,"so2":6.2,"mosquito_risk":0,"arthritis_risk":5,"migraine_risk":10,"frizz_risk":0,"updated_at":"2026-05-17T14:37:37.127615+05:30"},{"city":"Goa","state":"Goa","latitude":15.2993,"longitude":74.124,"temp":33.5,"humidity":62,"rain":0.0,"pressure":992.9,"uv_index":8.9,"wind_gusts":43.9,"aqi":56,"pm10":35.6,"pm2_5":16.4,"no2":0.7,"co":123.0,"o3":76.0,"so2":1.6,"mosquito_risk":3,"arthritis_risk":5,"migraine_risk":7,"frizz_risk":1,"updated_at":"2026-05-17T14:37:37.127622+05:30"},{"city":"Jodhpur","state":"Rajasthan","latitude":26.2389,"longitude":73.0243,"temp":42.4,"humidity":15,"rain":0.0,"pressure":979.3,"uv_index":8.4,"wind_gusts":34.2,"aqi":76,"pm10":101.5,"pm2_5":22.5,"no2":0.4,"co":141.0,"o3":115.0,"so2":3.3,"mosquito_risk":0,"arthritis_risk":5,"migraine_risk":10,"frizz_risk":0,"updated_at":"2026-05-17T14:37:37.127629+05:30"},{"city":"Udaipur","state":"Rajasthan","latitude":24.5854,"longitude":73.7125,"temp":39.5,"humidity":17,"rain":0.0,"pressure":944.2,"uv_index":8.85,"wind_gusts":33.5,"aqi":51,"pm10":70.5,"pm2_5":17.8,"no2":0.5,"co":142.0,"o3":115.0,"so2":3.1,"mosquito_risk":0,"arthritis_risk":5,"migraine_risk":10,"frizz_risk":0,"updated_at":"2026-05-17T14:37:37.127636+05:30"},{"city":"Kota","state":"Rajasthan","latitude":25.2138,"longitude":75.8648,"temp":43.1,"humidity":12,"rain":0.0,"pressure":974.4,"uv_index":8.4,"wind_gusts":31.7,"aqi":103,"pm10":161.6,"pm2_5":33.3,"no2":0.6,"co":179.0,"o3":134.0,"so2":5.0,"mosquito_risk":0,"arthritis_risk":5,"migraine_risk":10,"frizz_risk":0,"updated_at":"2026-05-17T14:37:37.127643+05:30"},{"city":"Bikaner","state":"Rajasthan","latitude":28.0229,"longitude":73.3119,"temp":42.7,"humidity":15,"rain":0.0,"pressure":977.6,"uv_index":8.4,"wind_gusts":37.8,"aqi":84,"pm10":116.9,"pm2_5":24.7,"no2":0.2,"co":139.0,"o3":104.0,"so2":1.8,"mosquito_risk":0,"arthritis_risk":5,"migraine_risk":10,"frizz_risk":0,"updated_at":"2026-05-17T14:37:37.127650+05:30"},{"city":"Ajmer","state":"Rajasthan","latitude":26.4499,"longitude":74.6399,"temp":40.2,"humidity":14,"rain":0.0,"pressure":952.1,"uv_index":8.4,"wind_gusts":33.1,"aqi":87,"pm10":84.5,"pm2_5":23.3,"no2":0.4,"co":149.0,"o3":128.0,"so2":3.8,"mosquito_risk":0,"arthritis_risk":5,"migraine_risk":10,"frizz_risk":0,"updated_at":"2026-05-17T14:37:37.127657+05:30"},{"city":"Gwalior","state":"Madhya Pradesh","latitude":26.2183,"longitude":78.1828,"temp":41.7,"humidity":14,"rain":0.0,"pressure":978.6,"uv_index":8.25,"wind_gusts":37.4,"aqi":299,"pm10":185.8,"pm2_5":41.2,"no2":0.5,"co":197.0,"o3":130.0,"so2":5.2,"mosquito_risk":0,"arthritis_risk":5,"migraine_risk":10,"frizz_risk":0,"updated_at":"2026-05-17T14:37:37.127663+05:30"},{"city":"Indore","state":"Madhya Pradesh","latitude":22.7196,"longitude":75.8577,"temp":41.3,"humidity":12,"rain":0.0,"pressure":944.4,"uv_index":8.7,"wind_gusts":36.0,"aqi":53,"pm10":30.7,"pm2_5":12.1,"no2":0.7,"co":172.0,"o3":130.0,"so2":3.2,"mosquito_risk":0,"arthritis_risk":5,"migraine_risk":10,"frizz_risk":0,"updated_at":"2026-05-17T14:37:37.127670+05:30"},{"city":"Bhopal","state":"Madhya Pradesh","latitude":23.2599,"longitude":77.4126,"temp":41.8,"humidity":14,"rain":0.0,"pressure":949.7,"uv_index":8.7,"wind_gusts":33.1,"aqi":54,"pm10":24.0,"pm2_5":11.6,"no2":0.7,"co":161.0,"o3":132.0,"so2":3.7,"mosquito_risk":0,"arthritis_risk":5,"migraine_risk":10,"frizz_risk":0,"updated_at":"2026-05-17T14:37:37.127677+05:30"},{"city":"Jabalpur","state":"Madhya Pradesh","latitude":23.1815,"longitude":79.9864,"temp":41.4,"humidity":15,"rain":0.0,"pressure":957.0,"uv_index":8.9,"wind_gusts":41.4,"aqi":94,"pm10":32.8,"pm2_5":16.0,"no2":0.8,"co":179.0,"o3":138.0,"so2":3.6,"mosquito_risk":0,"arthritis_risk":5,"migraine_risk":10,"frizz_risk":0,"updated_at":"2026-05-17T14:37:37.127683+05:30"},{"city":"Ujjain","state":"Madhya Pradesh","latitude":23.1765,"longitude":75.7885,"temp":41.4,"humidity":14,"rain":0.0,"pressure":949.9,"uv_index":8.65,"wind_gusts":38.2,"aqi":51,"pm10":49.4,"pm2_5":16.8,"no2":0.5,"co":162.0,"o3":133.0,"so2":4.6,"mosquito_risk":0,"arthritis_risk":5,"migraine_risk":10,"frizz_risk":0,"updated_at":"2026-05-17T14:37:37.127691+05:30"},{"city":"Visakhapatnam","state":"Andhra Pradesh","latitude":17.6868,"longitude":83.2185,"temp":34.4,"humidity":55,"rain":0.0,"pressure":998.7,"uv_index":8.6,"wind_gusts":43.6,"aqi":58,"pm10":23.4,"pm2_5":17.2,"no2":5.2,"co":278.0,"o3":102.0,"so2":22.3,"mosquito_risk":0,"arthritis_risk":5,"migraine_risk":7,"frizz_risk":1,"updated_at":"2026-05-17T14:37:37.127698+05:30"},{"city":"Vijayawada","state":"Andhra Pradesh","latitude":16.5062,"longitude":80.648,"temp":39.2,"humidity":37,"rain":0.0,"pressure":997.0,"uv_index":9.2,"wind_gusts":36.0,"aqi":48,"pm10":17.2,"pm2_5":12.3,"no2":1.8,"co":215.0,"o3":102.0,"so2":5.0,"mosquito_risk":0,"arthritis_risk":5,"migraine_risk":10,"frizz_risk":1,"updated_at":"2026-05-17T14:37:37.127705+05:30"},{"city":"Guntur","state":"Andhra Pradesh","latitude":16.3067,"longitude":80.4365,"temp":38.5,"humidity":39,"rain":0.0,"pressure":998.3,"uv_index":9.2,"wind_gusts":32.0,"aqi":46,"pm10":16.9,"pm2_5":11.6,"no2":1.3,"co":203.0,"o3":99.0,"so2":2.6,"mosquito_risk":0,"arthritis_risk":5,"migraine_risk":10,"frizz_risk":1,"updated_at":"2026-05-17T14:37:37.127712+05:30"},{"city":"Nellore","state":"Andhra Pradesh","latitude":14.4426,"longitude":79.9865,"temp":37.5,"humidity":41,"rain":0.0,"pressure":1000.0,"uv_index":9.1,"wind_gusts":39.2,"aqi":64,"pm10":26.4,"pm2_5":19.9,"no2":1.2,"co":225.0,"o3":141.0,"so2":6.5,"mosquito_risk":0,"arthritis_risk":5,"migraine_risk":7,"frizz_risk":1,"updated_at":"2026-05-17T14:37:37.127721+05:30"},{"city":"Kurnool","state":"Andhra Pradesh","latitude":15.8281,"longitude":78.0373,"temp":38.7,"humidity":31,"rain":0.1,"pressure":971.8,"uv_index":9.2,"wind_gusts":32.8,"aqi":67,"pm10":42.7,"pm2_5":19.7,"no2":0.7,"co":179.0,"o3":110.0,"so2":2.5,"mosquito_risk":3,"arthritis_risk":5,"migraine_risk":10,"frizz_risk":1,"updated_at":"2026-05-17T14:37:37.127730+05:30"},{"city":"Kakinada","state":"Andhra Pradesh","latitude":16.9891,"longitude":82.2475,"temp":38.7,"humidity":36,"rain":0.0,"pressure":1001.7,"uv_index":8.7,"wind_gusts":42.1,"aqi":40,"pm10":18.3,"pm2_5":11.9,"no2":0.7,"co":192.0,"o3":88.0,"so2":1.7,"mosquito_risk":0,"arthritis_risk":5,"migraine_risk":7,"frizz_risk":1,"updated_at":"2026-05-17T14:37:37.127737+05:30"},{"city":"Tirupati","state":"Andhra Pradesh","latitude":13.6288,"longitude":79.4192,"temp":36.8,"humidity":38,"rain":0.0,"pressure":985.3,"uv_index":9.25,"wind_gusts":31.3,"aqi":63,"pm10":25.0,"pm2_5":20.3,"no2":1.4,"co":239.0,"o3":145.0,"so2":9.3,"mosquito_risk":0,"arthritis_risk":5,"migraine_risk":10,"frizz_risk":1,"updated_at":"2026-05-17T14:37:37.127744+05:30"},{"city":"Warangal","state":"Telangana","latitude":17.9689,"longitude":79.5941,"temp":37.2,"humidity":41,"rain":0.0,"pressure":974.4,"uv_index":8.8,"wind_gusts":31.0,"aqi":72,"pm10":34.3,"pm2_5":19.3,"no2":1.3,"co":198.0,"o3":125.0,"so2":4.2,"mosquito_risk":0,"arthritis_risk":5,"migraine_risk":10,"frizz_risk":1,"updated_at":"2026-05-17T14:37:37.127750+05:30"},{"city":"Nizamabad","state":"Telangana","latitude":18.6725,"longitude":78.0941,"temp":40.4,"humidity":20,"rain":0.0,"pressure":960.3,"uv_index":9.15,"wind_gusts":33.1,"aqi":87,"pm10":32.9,"pm2_5":23.9,"no2":1.1,"co":219.0,"o3":156.0,"so2":6.8,"mosquito_risk":0,"arthritis_risk":5,"migraine_risk":10,"frizz_risk":0,"updated_at":"2026-05-17T14:37:37.127757+05:30"},{"city":"Mysore","state":"Karnataka","latitude":12.2958,"longitude":76.6396,"temp":32.7,"humidity":39,"rain":0.0,"pressure":924.5,"uv_index":8.9,"wind_gusts":36.7,"aqi":84,"pm10":37.3,"pm2_5":21.4,"no2":1.6,"co":236.0,"o3":148.0,"so2":4.0,"mosquito_risk":0,"arthritis_risk":5,"migraine_risk":7,"frizz_risk":1,"updated_at":"2026-05-17T14:37:37.127764+05:30"},{"city":"Mangalore","state":"Karnataka","latitude":12.9141,"longitude":74.856,"temp":27.5,"humidity":87,"rain":0.3,"pressure":1003.5,"uv_index":8.7,"wind_gusts":37.4,"aqi":66,"pm10":18.2,"pm2_5":10.8,"no2":1.1,"co":159.0,"o3":79.0,"so2":1.6,"mosquito_risk":10,"arthritis_risk":5,"migraine_risk":4,"frizz_risk":1,"updated_at":"2026-05-17T14:37:37.127770+05:30"},{"city":"Hubli-Dharwad","state":"Karnataka","latitude":15.3647,"longitude":75.124,"temp":37.5,"humidity":31,"rain":0.0,"pressure":937.1,"uv_index":9.15,"wind_gusts":55.4,"aqi":58,"pm10":30.2,"pm2_5":20.8,"no2":1.6,"co":192.0,"o3":149.0,"so2":5.3,"mosquito_risk":0,"arthritis_risk":5,"migraine_risk":10,"frizz_risk":1,"updated_at":"2026-05-17T14:37:37.127777+05:30"},{"city":"Belgaum","state":"Karnataka","latitude":15.8497,"longitude":74.4977,"temp":35.7,"humidity":31,"rain":0.0,"pressure":922.9,"uv_index":9.15,"wind_gusts":52.2,"aqi":57,"pm10":25.4,"pm2_5":16.9,"no2":1.5,"co":174.0,"o3":142.0,"so2":5.4,"mosquito_risk":0,"arthritis_risk":5,"migraine_risk":10,"frizz_risk":0,"updated_at":"2026-05-17T14:37:40.357990+05:30"},{"city":"Coimbatore","state":"Tamil Nadu","latitude":11.0168,"longitude":76.9558,"temp":31.5,"humidity":55,"rain":0.0,"pressure":957.5,"uv_index":8.7,"wind_gusts":47.2,"aqi":66,"pm10":36.2,"pm2_5":21.8,"no2":2.5,"co":245.0,"o3":122.0,"so2":3.8,"mosquito_risk":0,"arthritis_risk":5,"migraine_risk":7,"frizz_risk":1,"updated_at":"2026-05-17T14:37:40.358025+05:30"},{"city":"Madurai","state":"Tamil Nadu","latitude":9.9252,"longitude":78.1198,"temp":35.0,"humidity":48,"rain":0.1,"pressure":987.5,"uv_index":8.75,"wind_gusts":28.1,"aqi":98,"pm10":28.6,"pm2_5":17.5,"no2":1.9,"co":230.0,"o3":147.0,"so2":4.4,"mosquito_risk":3,"arthritis_risk":5,"migraine_risk":7,"frizz_risk":1,"updated_at":"2026-05-17T14:37:40.358036+05:30"},{"city":"Trichy","state":"Tamil Nadu","latitude":10.7905,"longitude":78.7047,"temp":35.0,"humidity":48,"rain":0.0,"pressure":993.8,"uv_index":8.35,"wind_gusts":28.1,"aqi":87,"pm10":40.6,"pm2_5":22.5,"no2":1.5,"co":227.0,"o3":135.0,"so2":3.3,"mosquito_risk":0,"arthritis_risk":5,"migraine_risk":7,"frizz_risk":1,"updated_at":"2026-05-17T14:37:40.358045+05:30"},{"city":"Salem","state":"Tamil Nadu","latitude":11.6643,"longitude":78.146,"temp":34.6,"humidity":45,"rain":0.0,"pressure":972.2,"uv_index":8.55,"wind_gusts":30.2,"aqi":104,"pm10":43.7,"pm2_5":28.5,"no2":3.1,"co":275.0,"o3":173.0,"so2":13.0,"mosquito_risk":0,"arthritis_risk":5,"migraine_risk":7,"frizz_risk":1,"updated_at":"2026-05-17T14:37:40.358054+05:30"},{"city":"Tirunelveli","state":"Tamil Nadu","latitude":8.7139,"longitude":77.7567,"temp":36.2,"humidity":42,"rain":0.1,"pressure":997.7,"uv_index":8.95,"wind_gusts":39.2,"aqi":51,"pm10":9.7,"pm2_5":6.3,"no2":1.4,"co":194.0,"o3":88.0,"so2":0.9,"mosquito_risk":3,"arthritis_risk":5,"migraine_risk":10,"frizz_risk":1,"updated_at":"2026-05-17T14:37:40.358063+05:30"},{"city":"Vellore","state":"Tamil Nadu","latitude":12.9165,"longitude":79.1325,"temp":35.7,"humidity":42,"rain":0.0,"pressure":979.0,"uv_index":9.2,"wind_gusts":27.0,"aqi":94,"pm10":27.0,"pm2_5":23.2,"no2":1.5,"co":244.0,"o3":147.0,"so2":12.4,"mosquito_risk":0,"arthritis_risk":5,"migraine_risk":10,"frizz_risk":1,"updated_at":"2026-05-17T14:37:40.358070+05:30"},{"city":"Erode","state":"Tamil Nadu","latitude":11.341,"longitude":77.7172,"temp":35.5,"humidity":43,"rain":0.0,"pressure":983.4,"uv_index":8.55,"wind_gusts":33.8,"aqi":84,"pm10":43.4,"pm2_5":24.6,"no2":1.8,"co":270.0,"o3":161.0,"so2":4.5,"mosquito_risk":0,"arthritis_risk":5,"migraine_risk":10,"frizz_risk":1,"updated_at":"2026-05-17T14:37:40.358078+05:30"},{"city":"Kochi","state":"Kerala","latitude":9.9312,"longitude":76.2673,"temp":27.9,"humidity":83,"rain":0.1,"pressure":1005.5,"uv_index":8.65,"wind_gusts":34.9,"aqi":54,"pm10":11.3,"pm2_5":7.9,"no2":2.3,"co":165.0,"o3":99.0,"so2":3.1,"mosquito_risk":10,"arthritis_risk":5,"migraine_risk":4,"frizz_risk":1,"updated_at":"2026-05-17T14:37:40.358085+05:30"},{"city":"Thiruvananthapuram","state":"Kerala","latitude":8.5241,"longitude":76.9366,"temp":28.8,"humidity":76,"rain":0.0,"pressure":1005.0,"uv_index":8.3,"wind_gusts":38.2,"aqi":46,"pm10":15.0,"pm2_5":9.5,"no2":1.1,"co":153.0,"o3":88.0,"so2":0.6,"mosquito_risk":7,"arthritis_risk":5,"migraine_risk":4,"frizz_risk":1,"updated_at":"2026-05-17T14:37:40.358092+05:30"},{"city":"Kozhikode","state":"Kerala","latitude":11.2588,"longitude":75.7804,"temp":26.4,"humidity":94,"rain":0.1,"pressure":1004.4,"uv_index":8.9,"wind_gusts":40.7,"aqi":50,"pm10":16.8,"pm2_5":10.0,"no2":0.6,"co":159.0,"o3":85.0,"so2":0.9,"mosquito_risk":10,"arthritis_risk":5,"migraine_risk":4,"frizz_risk":1,"updated_at":"2026-05-17T14:37:40.358099+05:30"},{"city":"Thrissur","state":"Kerala","latitude":10.5276,"longitude":76.2144,"temp":28.2,"humidity":82,"rain":0.0,"pressure":1003.7,"uv_index":8.9,"wind_gusts":35.3,"aqi":57,"pm10":11.5,"pm2_5":8.8,"no2":3.0,"co":153.0,"o3":84.0,"so2":2.4,"mosquito_risk":7,"arthritis_risk":5,"migraine_risk":4,"frizz_risk":1,"updated_at":"2026-05-17T14:37:40.358107+05:30"},{"city":"Kannur","state":"Kerala","latitude":11.8745,"longitude":75.3704,"temp":29.8,"humidity":77,"rain":0.1,"pressure":1003.0,"uv_index":8.95,"wind_gusts":43.6,"aqi":58,"pm10":21.8,"pm2_5":14.5,"no2":1.3,"co":177.0,"o3":95.0,"so2":1.8,"mosquito_risk":10,"arthritis_risk":5,"migraine_risk":4,"frizz_risk":1,"updated_at":"2026-05-17T14:37:40.358114+05:30"},{"city":"Patna","state":"Bihar","latitude":25.5941,"longitude":85.1376,"temp":38.8,"humidity":27,"rain":0.0,"pressure":993.1,"uv_index":8.8,"wind_gusts":40.3,"aqi":151,"pm10":184.9,"pm2_5":55.1,"no2":1.7,"co":253.0,"o3":184.0,"so2":9.6,"mosquito_risk":0,"arthritis_risk":5,"migraine_risk":10,"frizz_risk":1,"updated_at":"2026-05-17T14:37:40.358120+05:30"},{"city":"Gaya","state":"Bihar","latitude":24.7914,"longitude":85.0002,"temp":40.8,"humidity":20,"rain":0.0,"pressure":986.6,"uv_index":8.85,"wind_gusts":43.2,"aqi":150,"pm10":117.1,"pm2_5":37.7,"no2":1.2,"co":228.0,"o3":165.0,"so2":9.8,"mosquito_risk":0,"arthritis_risk":5,"migraine_risk":10,"frizz_risk":0,"updated_at":"2026-05-17T14:37:40.358127+05:30"},{"city":"Muzaffarpur","state":"Bihar","latitude":26.1209,"longitude":85.3647,"temp":36.2,"humidity":41,"rain":0.0,"pressure":993.3,"uv_index":8.8,"wind_gusts":32.0,"aqi":150,"pm10":145.3,"pm2_5":56.6,"no2":2.3,"co":336.0,"o3":202.0,"so2":12.5,"mosquito_risk":0,"arthritis_risk":5,"migraine_risk":10,"frizz_risk":1,"updated_at":"2026-05-17T14:37:40.358134+05:30"},{"city":"Bhagalpur","state":"Bihar","latitude":25.2425,"longitude":87.0117,"temp":35.2,"humidity":54,"rain":0.0,"pressure":994.1,"uv_index":8.8,"wind_gusts":28.8,"aqi":152,"pm10":121.5,"pm2_5":49.2,"no2":2.8,"co":316.0,"o3":196.0,"so2":16.0,"mosquito_risk":0,"arthritis_risk":5,"migraine_risk":10,"frizz_risk":1,"updated_at":"2026-05-17T14:37:40.358141+05:30"},{"city":"Ranchi","state":"Jharkhand","latitude":23.3441,"longitude":85.3096,"temp":34.7,"humidity":33,"rain":0.0,"pressure":934.1,"uv_index":9.3,"wind_gusts":41.8,"aqi":117,"pm10":73.1,"pm2_5":44.1,"no2":1.3,"co":195.0,"o3":161.0,"so2":11.8,"mosquito_risk":0,"arthritis_risk":5,"migraine_risk":7,"frizz_risk":0,"updated_at":"2026-05-17T14:37:40.358149+05:30"},{"city":"Jamshedpur","state":"Jharkhand","latitude":22.8046,"longitude":86.2029,"temp":36.5,"humidity":41,"rain":0.0,"pressure":984.9,"uv_index":9.1,"wind_gusts":53.3,"aqi":106,"pm10":84.3,"pm2_5":49.5,"no2":2.1,"co":232.0,"o3":181.0,"so2":16.8,"mosquito_risk":0,"arthritis_risk":5,"migraine_risk":10,"frizz_risk":1,"updated_at":"2026-05-17T14:37:40.358155+05:30"},{"city":"Dhanbad","state":"Jharkhand","latitude":23.7957,"longitude":86.4304,"temp":37.8,"humidity":30,"rain":0.1,"pressure":973.7,"uv_index":9.05,"wind_gusts":43.2,"aqi":151,"pm10":94.5,"pm2_5":46.6,"no2":5.1,"co":200.0,"o3":176.0,"so2":28.3,"mosquito_risk":3,"arthritis_risk":5,"migraine_risk":10,"frizz_risk":1,"updated_at":"2026-05-17T14:37:40.358162+05:30"},{"city":"Bokaro","state":"Jharkhand","latitude":23.6693,"longitude":86.1511,"temp":37.5,"humidity":34,"rain":0.0,"pressure":977.4,"uv_index":9.05,"wind_gusts":48.6,"aqi":152,"pm10":86.1,"pm2_5":43.7,"no2":5.4,"co":211.0,"o3":170.0,"so2":29.4,"mosquito_risk":0,"arthritis_risk":5,"migraine_risk":10,"frizz_risk":1,"updated_at":"2026-05-17T14:37:40.358169+05:30"},{"city":"Bhubaneswar","state":"Odisha","latitude":20.2961,"longitude":85.8245,"temp":36.9,"humidity":49,"rain":0.0,"pressure":996.8,"uv_index":8.95,"wind_gusts":42.1,"aqi":49,"pm10":30.6,"pm2_5":19.4,"no2":1.6,"co":210.0,"o3":115.0,"so2":7.4,"mosquito_risk":0,"arthritis_risk":5,"migraine_risk":10,"frizz_risk":1,"updated_at":"2026-05-17T14:37:40.358175+05:30"},{"city":"Cuttack","state":"Odisha","latitude":20.4625,"longitude":85.8828,"temp":38.7,"humidity":43,"rain":0.0,"pressure":997.9,"uv_index":9.0,"wind_gusts":42.5,"aqi":49,"pm10":30.6,"pm2_5":19.4,"no2":1.6,"co":239.0,"o3":115.0,"so2":7.4,"mosquito_risk":0,"arthritis_risk":5,"migraine_risk":10,"frizz_risk":1,"updated_at":"2026-05-17T14:37:40.358182+05:30"},{"city":"Rourkela","state":"Odisha","latitude":22.2604,"longitude":84.8536,"temp":36.2,"humidity":45,"rain":0.0,"pressure":979.9,"uv_index":9.05,"wind_gusts":41.4,"aqi":119,"pm10":77.5,"pm2_5":54.7,"no2":1.7,"co":252.0,"o3":189.0,"so2":14.2,"mosquito_risk":0,"arthritis_risk":5,"migraine_risk":10,"frizz_risk":1,"updated_at":"2026-05-17T14:37:40.358189+05:30"},{"city":"Raipur","state":"Chhattisgarh","latitude":21.2514,"longitude":81.6296,"temp":40.0,"humidity":26,"rain":0.0,"pressure":970.0,"uv_index":9.05,"wind_gusts":32.4,"aqi":136,"pm10":61.7,"pm2_5":42.7,"no2":4.5,"co":272.0,"o3":177.0,"so2":25.9,"mosquito_risk":0,"arthritis_risk":5,"migraine_risk":10,"frizz_risk":1,"updated_at":"2026-05-17T14:37:40.358195+05:30"},{"city":"Bhilai","state":"Chhattisgarh","latitude":21.1938,"longitude":81.3509,"temp":39.2,"humidity":26,"rain":0.0,"pressure":970.3,"uv_index":9.0,"wind_gusts":31.7,"aqi":131,"pm10":46.8,"pm2_5":33.2,"no2":4.9,"co":382.0,"o3":163.0,"so2":24.4,"mosquito_risk":0,"arthritis_risk":5,"migraine_risk":10,"frizz_risk":1,"updated_at":"2026-05-17T14:37:40.358201+05:30"},{"city":"Guwahati","state":"Assam","latitude":26.1158,"longitude":91.7086,"temp":30.0,"humidity":67,"rain":0.0,"pressure":995.4,"uv_index":8.75,"wind_gusts":25.6,"aqi":86,"pm10":21.7,"pm2_5":16.4,"no2":1.2,"co":296.0,"o3":132.0,"so2":3.8,"mosquito_risk":7,"arthritis_risk":5,"migraine_risk":7,"frizz_risk":1,"updated_at":"2026-05-17T14:37:40.358207+05:30"},{"city":"Agartala","state":"Tripura","latitude":23.8315,"longitude":91.2868,"temp":34.0,"humidity":57,"rain":0.0,"pressure":999.9,"uv_index":8.9,"wind_gusts":30.6,"aqi":71,"pm10":38.4,"pm2_5":22.6,"no2":2.8,"co":200.0,"o3":127.0,"so2":4.0,"mosquito_risk":0,"arthritis_risk":5,"migraine_risk":7,"frizz_risk":1,"updated_at":"2026-05-17T14:37:40.358214+05:30"},{"city":"Shillong","state":"Meghalaya","latitude":25.5788,"longitude":91.8933,"temp":22.8,"humidity":72,"rain":0.1,"pressure":853.9,"uv_index":9.15,"wind_gusts":45.4,"aqi":59,"pm10":19.6,"pm2_5":11.8,"no2":1.2,"co":241.0,"o3":121.0,"so2":4.2,"mosquito_risk":6,"arthritis_risk":5,"migraine_risk":7,"frizz_risk":1,"updated_at":"2026-05-17T14:37:40.358221+05:30"},{"city":"Imphal","state":"Manipur","latitude":24.817,"longitude":93.9368,"temp":27.9,"humidity":62,"rain":0.0,"pressure":919.4,"uv_index":9.0,"wind_gusts":37.8,"aqi":71,"pm10":30.3,"pm2_5":18.3,"no2":0.8,"co":228.0,"o3":105.0,"so2":3.9,"mosquito_risk":7,"arthritis_risk":5,"migraine_risk":7,"frizz_risk":1,"updated_at":"2026-05-17T14:37:40.358227+05:30"},{"city":"Aizawl","state":"Mizoram","latitude":23.7271,"longitude":92.7176,"temp":27.5,"humidity":55,"rain":0.0,"pressure":889.9,"uv_index":9.05,"wind_gusts":34.2,"aqi":49,"pm10":31.3,"pm2_5":16.9,"no2":0.5,"co":179.0,"o3":103.0,"so2":3.1,"mosquito_risk":4,"arthritis_risk":5,"migraine_risk":7,"frizz_risk":1,"updated_at":"2026-05-17T14:37:40.358234+05:30"},{"city":"Kohima","state":"Nagaland","latitude":25.6701,"longitude":94.1077,"temp":21.2,"humidity":91,"rain":0.0,"pressure":852.7,"uv_index":8.7,"wind_gusts":32.4,"aqi":65,"pm10":23.9,"pm2_5":13.7,"no2":0.6,"co":218.0,"o3":111.0,"so2":2.8,"mosquito_risk":3,"arthritis_risk":5,"migraine_risk":7,"frizz_risk":1,"updated_at":"2026-05-17T14:37:40.358240+05:30"},{"city":"Gangtok","state":"Sikkim","latitude":27.3314,"longitude":88.6138,"temp":18.8,"humidity":90,"rain":0.0,"pressure":833.3,"uv_index":9.15,"wind_gusts":33.8,"aqi":79,"pm10":19.7,"pm2_5":16.1,"no2":1.2,"co":287.0,"o3":131.0,"so2":2.1,"mosquito_risk":3,"arthritis_risk":10,"migraine_risk":7,"frizz_risk":1,"updated_at":"2026-05-17T14:37:40.358247+05:30"},{"city":"Siliguri","state":"West Bengal","latitude":26.7271,"longitude":88.3953,"temp":28.7,"humidity":69,"rain":0.1,"pressure":987.2,"uv_index":8.7,"wind_gusts":31.0,"aqi":100,"pm10":40.9,"pm2_5":29.3,"no2":1.8,"co":367.0,"o3":144.0,"so2":6.1,"mosquito_risk":10,"arthritis_risk":5,"migraine_risk":7,"frizz_risk":1,"updated_at":"2026-05-17T14:37:43.594749+05:30"},{"city":"Durgapur","state":"West Bengal","latitude":23.5204,"longitude":87.3119,"temp":32.5,"humidity":50,"rain":0.1,"pressure":988.3,"uv_index":8.95,"wind_gusts":48.2,"aqi":138,"pm10":116.9,"pm2_5":56.3,"no2":5.1,"co":286.0,"o3":204.0,"so2":31.8,"mosquito_risk":3,"arthritis_risk":5,"migraine_risk":7,"frizz_risk":1,"updated_at":"2026-05-17T14:37:43.594786+05:30"},{"city":"Asansol","state":"West Bengal","latitude":23.6739,"longitude":86.9524,"temp":38.2,"humidity":29,"rain":0.0,"pressure":986.7,"uv_index":9.0,"wind_gusts":40.0,"aqi":134,"pm10":105.2,"pm2_5":51.6,"no2":4.4,"co":226.0,"o3":190.0,"so2":26.0,"mosquito_risk":0,"arthritis_risk":5,"migraine_risk":10,"frizz_risk":1,"updated_at":"2026-05-17T14:37:43.594798+05:30"},{"city":"Pondicherry","state":"Puducherry","latitude":11.9139,"longitude":79.8145,"temp":31.0,"humidity":77,"rain":0.0,"pressure":1002.8,"uv_index":9.05,"wind_gusts":36.0,"aqi":70,"pm10":38.0,"pm2_5":27.4,"no2":1.9,"co":204.0,"o3":154.0,"so2":9.7,"mosquito_risk":3,"arthritis_risk":5,"migraine_risk":4,"frizz_risk":1,"updated_at":"2026-05-17T14:37:43.594807+05:30"},{"city":"Port Blair","state":"Andaman and Nicobar Islands","latitude":11.6234,"longitude":92.7265,"temp":27.1,"humidity":91,"rain":0.1,"pressure":1004.4,"uv_index":1.25,"wind_gusts":38.5,"aqi":31,"pm10":7.5,"pm2_5":4.5,"no2":0.3,"co":115.0,"o3":57.0,"so2":0.2,"mosquito_risk":10,"arthritis_risk":5,"migraine_risk":0,"frizz_risk":1,"updated_at":"2026-05-17T14:37:43.594815+05:30"},{"city":"Haridwar","state":"Uttarakhand","latitude":29.9457,"longitude":78.1642,"temp":36.9,"humidity":27,"rain":0.0,"pressure":968.5,"uv_index":7.5,"wind_gusts":35.6,"aqi":108,"pm10":30.2,"pm2_5":14.9,"no2":1.3,"co":214.0,"o3":172.0,"so2":8.0,"mosquito_risk":0,"arthritis_risk":5,"migraine_risk":10,"frizz_risk":0,"updated_at":"2026-05-17T14:37:43.594823+05:30"},{"city":"Rishikesh","state":"Uttarakhand","latitude":30.0869,"longitude":78.2676,"temp":36.1,"humidity":30,"rain":0.0,"pressure":961.4,"uv_index":7.65,"wind_gusts":32.8,"aqi":104,"pm10":16.8,"pm2_5":12.8,"no2":0.9,"co":211.0,"o3":172.0,"so2":6.4,"mosquito_risk":0,"arthritis_risk":5,"migraine_risk":10,"frizz_risk":0,"updated_at":"2026-05-17T14:37:43.594830+05:30"},{"city":"Nainital","state":"Uttarakhand","latitude":29.3919,"longitude":79.4542,"temp":24.6,"humidity":38,"rain":0.0,"pressure":806.2,"uv_index":8.5,"wind_gusts":36.7,"aqi":112,"pm10":22.2,"pm2_5":16.1,"no2":1.2,"co":224.0,"o3":171.0,"so2":6.8,"mosquito_risk":0,"arthritis_risk":5,"migraine_risk":7,"frizz_risk":0,"updated_at":"2026-05-17T14:37:43.594837+05:30"},{"city":"Mussoorie","state":"Uttarakhand","latitude":30.4599,"longitude":78.0664,"temp":23.8,"humidity":36,"rain":0.0,"pressure":803.7,"uv_index":8.05,"wind_gusts":53.3,"aqi":98,"pm10":15.8,"pm2_5":12.0,"no2":1.0,"co":203.0,"o3":168.0,"so2":6.1,"mosquito_risk":0,"arthritis_risk":5,"migraine_risk":7,"frizz_risk":0,"updated_at":"2026-05-17T14:37:43.594845+05:30"},{"city":"Dharamshala","state":"Himachal Pradesh","latitude":32.219,"longitude":76.3234,"temp":27.6,"humidity":38,"rain":0.0,"pressure":868.5,"uv_index":8.4,"wind_gusts":41.4,"aqi":72,"pm10":17.2,"pm2_5":8.9,"no2":0.4,"co":185.0,"o3":140.0,"so2":1.1,"mosquito_risk":4,"arthritis_risk":5,"migraine_risk":7,"frizz_risk":0,"updated_at":"2026-05-17T14:37:43.594852+05:30"},{"city":"Dalhousie","state":"Himachal Pradesh","latitude":32.5387,"longitude":75.971,"temp":24.5,"humidity":34,"rain":0.0,"pressure":806.2,"uv_index":8.65,"wind_gusts":38.2,"aqi":80,"pm10":23.2,"pm2_5":13.0,"no2":1.0,"co":193.0,"o3":156.0,"so2":2.0,"mosquito_risk":0,"arthritis_risk":5,"migraine_risk":7,"frizz_risk":0,"updated_at":"2026-05-17T14:37:43.594860+05:30"},{"city":"Patiala","state":"Punjab","latitude":30.3398,"longitude":76.3869,"temp":39.3,"humidity":19,"rain":0.0,"pressure":973.2,"uv_index":7.6,"wind_gusts":42.5,"aqi":522,"pm10":1139.9,"pm2_5":124.3,"no2":0.9,"co":259.0,"o3":144.0,"so2":4.7,"mosquito_risk":0,"arthritis_risk":5,"migraine_risk":10,"frizz_risk":0,"updated_at":"2026-05-17T14:37:43.594868+05:30"},{"city":"Bhatinda","state":"Punjab","latitude":30.211,"longitude":74.9455,"temp":40.0,"humidity":22,"rain":0.0,"pressure":978.9,"uv_index":8.25,"wind_gusts":37.4,"aqi":89,"pm10":53.9,"pm2_5":21.0,"no2":1.3,"co":242.0,"o3":135.0,"so2":7.5,"mosquito_risk":0,"arthritis_risk":5,"migraine_risk":10,"frizz_risk":0,"updated_at":"2026-05-17T14:37:43.594875+05:30"},{"city":"Rohtak","state":"Haryana","latitude":28.8955,"longitude":76.6066,"temp":39.7,"humidity":23,"rain":0.0,"pressure":976.9,"uv_index":7.75,"wind_gusts":47.2,"aqi":715,"pm10":1136.2,"pm2_5":134.1,"no2":1.1,"co":235.0,"o3":133.0,"so2":5.4,"mosquito_risk":0,"arthritis_risk":5,"migraine_risk":10,"frizz_risk":0,"updated_at":"2026-05-17T14:37:43.594881+05:30"},{"city":"Panipat","state":"Haryana","latitude":29.3909,"longitude":76.9635,"temp":39.2,"humidity":22,"rain":0.0,"pressure":975.1,"uv_index":7.6,"wind_gusts":49.7,"aqi":1540,"pm10":2853.6,"pm2_5":304.5,"no2":1.6,"co":270.0,"o3":134.0,"so2":7.9,"mosquito_risk":0,"arthritis_risk":5,"migraine_risk":10,"frizz_risk":0,"updated_at":"2026-05-17T14:37:43.594888+05:30"},{"city":"Mathura","state":"Uttar Pradesh","latitude":27.4924,"longitude":77.6737,"temp":40.8,"humidity":20,"rain":0.0,"pressure":981.6,"uv_index":8.0,"wind_gusts":42.8,"aqi":755,"pm10":1076.6,"pm2_5":123.4,"no2":0.8,"co":208.0,"o3":130.0,"so2":4.6,"mosquito_risk":0,"arthritis_risk":5,"migraine_risk":10,"frizz_risk":0,"updated_at":"2026-05-17T14:37:43.594896+05:30"},{"city":"Vrindavan","state":"Uttar Pradesh","latitude":27.5823,"longitude":77.7027,"temp":40.7,"humidity":21,"rain":0.0,"pressure":982.0,"uv_index":7.95,"wind_gusts":41.0,"aqi":755,"pm10":1076.6,"pm2_5":123.4,"no2":0.8,"co":206.0,"o3":130.0,"so2":4.6,"mosquito_risk":0,"arthritis_risk":5,"migraine_risk":10,"frizz_risk":0,"updated_at":"2026-05-17T14:37:43.594903+05:30"},{"city":"Ayodhya","state":"Uttar Pradesh","latitude":26.7922,"longitude":82.1998,"temp":39.1,"humidity":24,"rain":0.0,"pressure":988.3,"uv_index":8.35,"wind_gusts":41.8,"aqi":150,"pm10":74.0,"pm2_5":28.5,"no2":1.1,"co":242.0,"o3":158.0,"so2":7.4,"mosquito_risk":0,"arthritis_risk":5,"migraine_risk":10,"frizz_risk":0,"updated_at":"2026-05-17T14:37:43.594910+05:30"},{"city":"Ratlam","state":"Madhya Pradesh","latitude":23.3315,"longitude":75.0367,"temp":41.7,"humidity":14,"rain":0.0,"pressure":951.0,"uv_index":8.55,"wind_gusts":34.2,"aqi":53,"pm10":57.4,"pm2_5":18.4,"no2":0.5,"co":166.0,"o3":130.0,"so2":4.6,"mosquito_risk":0,"arthritis_risk":5,"migraine_risk":10,"frizz_risk":0,"updated_at":"2026-05-17T14:37:43.594918+05:30"},{"city":"Sagar","state":"Madhya Pradesh","latitude":23.8388,"longitude":78.7378,"temp":40.7,"humidity":15,"rain":0.0,"pressure":946.6,"uv_index":8.75,"wind_gusts":37.1,"aqi":73,"pm10":69.2,"pm2_5":21.7,"no2":0.5,"co":157.0,"o3":132.0,"so2":3.8,"mosquito_risk":0,"arthritis_risk":5,"migraine_risk":10,"frizz_risk":0,"updated_at":"2026-05-17T14:37:43.594924+05:30"},{"city":"Satna","state":"Madhya Pradesh","latitude":24.6005,"longitude":80.8322,"temp":41.3,"humidity":16,"rain":0.0,"pressure":966.4,"uv_index":8.75,"wind_gusts":48.2,"aqi":106,"pm10":171.8,"pm2_5":37.5,"no2":0.6,"co":184.0,"o3":138.0,"so2":5.2,"mosquito_risk":0,"arthritis_risk":5,"migraine_risk":10,"frizz_risk":0,"updated_at":"2026-05-17T14:37:43.594932+05:30"},{"city":"Akola","state":"Maharashtra","latitude":20.7002,"longitude":77.0082,"temp":43.0,"humidity":14,"rain":0.0,"pressure":970.2,"uv_index":8.95,"wind_gusts":32.0,"aqi":73,"pm10":18.2,"pm2_5":11.3,"no2":1.3,"co":157.0,"o3":142.0,"so2":5.2,"mosquito_risk":0,"arthritis_risk":5,"migraine_risk":10,"frizz_risk":0,"updated_at":"2026-05-17T14:37:43.594940+05:30"},{"city":"Amravati","state":"Maharashtra","latitude":20.9374,"longitude":77.7796,"temp":42.3,"humidity":15,"rain":0.0,"pressure":962.7,"uv_index":8.95,"wind_gusts":28.1,"aqi":61,"pm10":18.5,"pm2_5":12.1,"no2":1.5,"co":155.0,"o3":146.0,"so2":7.0,"mosquito_risk":0,"arthritis_risk":5,"migraine_risk":10,"frizz_risk":0,"updated_at":"2026-05-17T14:37:43.594947+05:30"},{"city":"Latur","state":"Maharashtra","latitude":18.4088,"longitude":76.5604,"temp":40.5,"humidity":16,"rain":0.0,"pressure":936.4,"uv_index":9.1,"wind_gusts":37.8,"aqi":76,"pm10":18.0,"pm2_5":12.7,"no2":1.2,"co":161.0,"o3":151.0,"so2":6.7,"mosquito_risk":0,"arthritis_risk":5,"migraine_risk":10,"frizz_risk":0,"updated_at":"2026-05-17T14:37:43.594955+05:30"},{"city":"Nanded","state":"Maharashtra","latitude":19.1383,"longitude":77.3091,"temp":41.9,"humidity":17,"rain":0.0,"pressure":963.8,"uv_index":9.0,"wind_gusts":34.9,"aqi":74,"pm10":16.7,"pm2_5":11.5,"no2":1.0,"co":184.0,"o3":144.0,"so2":4.5,"mosquito_risk":0,"arthritis_risk":5,"migraine_risk":10,"frizz_risk":0,"updated_at":"2026-05-17T14:37:43.594963+05:30"},{"city":"Gulbarga","state":"Karnataka","latitude":17.3297,"longitude":76.8343,"temp":39.8,"humidity":23,"rain":0.0,"pressure":954.3,"uv_index":9.1,"wind_gusts":34.2,"aqi":90,"pm10":41.1,"pm2_5":28.1,"no2":1.5,"co":200.0,"o3":161.0,"so2":8.1,"mosquito_risk":0,"arthritis_risk":5,"migraine_risk":10,"frizz_risk":0,"updated_at":"2026-05-17T14:37:43.594969+05:30"},{"city":"Bidar","state":"Karnataka","latitude":17.9104,"longitude":77.5199,"temp":39.0,"humidity":21,"rain":0.0,"pressure":932.3,"uv_index":9.15,"wind_gusts":34.2,"aqi":83,"pm10":35.7,"pm2_5":24.6,"no2":1.2,"co":206.0,"o3":154.0,"so2":7.9,"mosquito_risk":0,"arthritis_risk":5,"migraine_risk":10,"frizz_risk":0,"updated_at":"2026-05-17T14:37:43.594976+05:30"},{"city":"Hospet","state":"Karnataka","latitude":15.2689,"longitude":76.3909,"temp":34.7,"humidity":44,"rain":0.0,"pressure":951.6,"uv_index":9.2,"wind_gusts":61.9,"aqi":89,"pm10":44.2,"pm2_5":30.7,"no2":2.2,"co":214.0,"o3":167.0,"so2":15.0,"mosquito_risk":0,"arthritis_risk":5,"migraine_risk":7,"frizz_risk":1,"updated_at":"2026-05-17T14:37:43.594983+05:30"},{"city":"Tirupur","state":"Tamil Nadu","latitude":11.1085,"longitude":77.3411,"temp":36.2,"humidity":35,"rain":0.0,"pressure":969.9,"uv_index":8.9,"wind_gusts":48.6,"aqi":89,"pm10":48.8,"pm2_5":28.2,"no2":1.9,"co":227.0,"o3":165.0,"so2":5.7,"mosquito_risk":0,"arthritis_risk":5,"migraine_risk":10,"frizz_risk":1,"updated_at":"2026-05-17T14:37:43.594989+05:30"},{"city":"Alappuzha","state":"Kerala","latitude":9.4981,"longitude":76.3388,"temp":28.4,"humidity":82,"rain":0.1,"pressure":1005.5,"uv_index":8.65,"wind_gusts":29.5,"aqi":52,"pm10":11.2,"pm2_5":7.3,"no2":1.7,"co":143.0,"o3":93.0,"so2":1.5,"mosquito_risk":10,"arthritis_risk":5,"migraine_risk":4,"frizz_risk":1,"updated_at":"2026-05-17T14:37:43.594995+05:30"},{"city":"Munnar","state":"Kerala","latitude":10.0889,"longitude":77.0595,"temp":19.2,"humidity":100,"rain":0.2,"pressure":854.2,"uv_index":7.8,"wind_gusts":25.6,"aqi":56,"pm10":15.1,"pm2_5":9.4,"no2":1.4,"co":186.0,"o3":97.0,"so2":1.5,"mosquito_risk":6,"arthritis_risk":10,"migraine_risk":7,"frizz_risk":1,"updated_at":"2026-05-17T14:37:43.595002+05:30"},{"city":"Silchar","state":"Assam","latitude":24.8333,"longitude":92.7789,"temp":31.4,"humidity":65,"rain":0.0,"pressure":999.5,"uv_index":8.9,"wind_gusts":27.7,"aqi":66,"pm10":24.9,"pm2_5":14.0,"no2":1.2,"co":189.0,"o3":103.0,"so2":3.6,"mosquito_risk":3,"arthritis_risk":5,"migraine_risk":7,"frizz_risk":1,"updated_at":"2026-05-17T14:37:43.595008+05:30"},{"city":"Dibrugarh","state":"Assam","latitude":27.4728,"longitude":94.912,"temp":27.9,"humidity":72,"rain":0.0,"pressure":991.1,"uv_index":5.05,"wind_gusts":27.0,"aqi":75,"pm10":28.5,"pm2_5":18.7,"no2":1.2,"co":226.0,"o3":115.0,"so2":1.9,"mosquito_risk":7,"arthritis_risk":5,"migraine_risk":3,"frizz_risk":1,"updated_at":"2026-05-17T14:37:43.595014+05:30"}]