[{"city":"Delhi","state":"Delhi","latitude":28.6139,"longitude":77.209,"temp":19.7,"humidity":81,"rain":0.0,"pressure":983.9,"uv_index":6.7,"wind_gusts":40.7,"aqi":125,"pm10":94.5,"pm2_5":37.3,"mosquito_risk":3,"arthritis_risk":10,"migraine_risk":7,"frizz_risk":1,"updated_at":"2026-04-05T04:03:53.161755+05:30"},{"city":"Mumbai","state":"Maharashtra","latitude":19.076,"longitude":72.8777,"temp":27.8,"humidity":76,"rain":0.0,"pressure":1009.2,"uv_index":7.9,"wind_gusts":23.0,"aqi":73,"pm10":72.2,"pm2_5":25.0,"mosquito_risk":7,"arthritis_risk":0,"migraine_risk":4,"frizz_risk":1,"updated_at":"2026-04-05T04:03:53.161789+05:30"},{"city":"Bangalore","state":"Karnataka","latitude":12.9716,"longitude":77.5946,"temp":22.0,"humidity":89,"rain":0.0,"pressure":910.4,"uv_index":9.6,"wind_gusts":34.2,"aqi":87,"pm10":24.0,"pm2_5":22.9,"mosquito_risk":3,"arthritis_risk":5,"migraine_risk":7,"frizz_risk":1,"updated_at":"2026-04-05T04:03:53.161804+05:30"},{"city":"Hyderabad","state":"Telangana","latitude":17.385,"longitude":78.4867,"temp":26.4,"humidity":70,"rain":0.0,"pressure":951.9,"uv_index":9.15,"wind_gusts":29.9,"aqi":104,"pm10":57.9,"pm2_5":51.6,"mosquito_risk":7,"arthritis_risk":5,"migraine_risk":7,"frizz_risk":1,"updated_at":"2026-04-05T04:03:53.161812+05:30"},{"city":"Chennai","state":"Tamil Nadu","latitude":13.0827,"longitude":80.2707,"temp":27.9,"humidity":88,"rain":0.0,"pressure":1005.8,"uv_index":9.4,"wind_gusts":28.1,"aqi":54,"pm10":15.4,"pm2_5":11.9,"mosquito_risk":7,"arthritis_risk":5,"migraine_risk":4,"frizz_risk":1,"updated_at":"2026-04-05T04:03:53.161841+05:30"},{"city":"Kolkata","state":"West Bengal","latitude":22.5726,"longitude":88.3639,"temp":26.8,"humidity":95,"rain":0.0,"pressure":1002.9,"uv_index":7.25,"wind_gusts":28.8,"aqi":115,"pm10":39.7,"pm2_5":37.5,"mosquito_risk":7,"arthritis_risk":5,"migraine_risk":4,"frizz_risk":1,"updated_at":"2026-04-05T04:03:53.161851+05:30"},{"city":"Pune","state":"Maharashtra","latitude":18.5204,"longitude":73.8567,"temp":21.2,"humidity":76,"rain":0.0,"pressure":948.1,"uv_index":8.5,"wind_gusts":38.9,"aqi":78,"pm10":32.0,"pm2_5":22.2,"mosquito_risk":3,"arthritis_risk":5,"migraine_risk":7,"frizz_risk":1,"updated_at":"2026-04-05T04:03:53.161862+05:30"},{"city":"Ahmedabad","state":"Gujarat","latitude":23.0225,"longitude":72.5714,"temp":24.0,"humidity":55,"rain":0.0,"pressure":1003.2,"uv_index":7.65,"wind_gusts":23.0,"aqi":52,"pm10":33.4,"pm2_5":22.1,"mosquito_risk":0,"arthritis_risk":5,"migraine_risk":4,"frizz_risk":0,"updated_at":"2026-04-05T04:03:53.161869+05:30"},{"city":"Jaipur","state":"Rajasthan","latitude":26.9124,"longitude":75.7873,"temp":21.7,"humidity":73,"rain":0.0,"pressure":959.8,"uv_index":7.55,"wind_gusts":36.0,"aqi":85,"pm10":79.6,"pm2_5":26.9,"mosquito_risk":3,"arthritis_risk":5,"migraine_risk":7,"frizz_risk":1,"updated_at":"2026-04-05T04:03:53.161875+05:30"},{"city":"Lucknow","state":"Uttar Pradesh","latitude":26.8467,"longitude":80.9462,"temp":21.4,"humidity":80,"rain":0.0,"pressure":993.5,"uv_index":7.45,"wind_gusts":42.5,"aqi":153,"pm10":95.5,"pm2_5":32.5,"mosquito_risk":3,"arthritis_risk":5,"migraine_risk":7,"frizz_risk":1,"updated_at":"2026-04-05T04:03:53.161882+05:30"},{"city":"Kanpur","state":"Uttar Pradesh","latitude":26.4499,"longitude":80.3319,"temp":21.3,"humidity":89,"rain":0.0,"pressure":992.5,"uv_index":7.45,"wind_gusts":40.7,"aqi":218,"pm10":60.1,"pm2_5":27.1,"mosquito_risk":3,"arthritis_risk":5,"migraine_risk":7,"frizz_risk":1,"updated_at":"2026-04-05T04:03:53.161888+05:30"},{"city":"Chandigarh","state":"Chandigarh","latitude":30.7333,"longitude":76.7794,"temp":18.4,"humidity":78,"rain":0.0,"pressure":969.0,"uv_index":6.85,"wind_gusts":30.2,"aqi":84,"pm10":23.3,"pm2_5":18.6,"mosquito_risk":3,"arthritis_risk":5,"migraine_risk":7,"frizz_risk":0,"updated_at":"2026-04-05T04:03:53.161894+05:30"},{"city":"Srinagar","state":"Jammu and Kashmir","latitude":34.0837,"longitude":74.7973,"temp":6.4,"humidity":90,"rain":0.0,"pressure":839.2,"uv_index":7.8,"wind_gusts":17.3,"aqi":70,"pm10":32.5,"pm2_5":26.9,"mosquito_risk":3,"arthritis_risk":10,"migraine_risk":7,"frizz_risk":0,"updated_at":"2026-04-05T04:03:53.161901+05:30"},{"city":"Jammu","state":"Jammu and Kashmir","latitude":32.7266,"longitude":74.857,"temp":14.9,"humidity":79,"rain":0.0,"pressure":974.4,"uv_index":7.5,"wind_gusts":24.8,"aqi":77,"pm10":23.1,"pm2_5":17.9,"mosquito_risk":3,"arthritis_risk":5,"migraine_risk":7,"frizz_risk":0,"updated_at":"2026-04-05T04:03:53.161906+05:30"},{"city":"Amritsar","state":"Punjab","latitude":31.634,"longitude":74.8723,"temp":14.9,"humidity":96,"rain":0.0,"pressure":982.5,"uv_index":7.45,"wind_gusts":27.0,"aqi":98,"pm10":84.8,"pm2_5":46.7,"mosquito_risk":3,"arthritis_risk":10,"migraine_risk":7,"frizz_risk":0,"updated_at":"2026-04-05T04:03:53.161912+05:30"},{"city":"Ludhiana","state":"Punjab","latitude":30.901,"longitude":75.8573,"temp":17.0,"humidity":89,"rain":0.0,"pressure":979.9,"uv_index":7.05,"wind_gusts":30.6,"aqi":107,"pm10":87.8,"pm2_5":53.8,"mosquito_risk":3,"arthritis_risk":10,"migraine_risk":7,"frizz_risk":0,"updated_at":"2026-04-05T04:03:53.161917+05:30"},{"city":"Jalandhar","state":"Punjab","latitude":31.326,"longitude":75.5762,"temp":16.4,"humidity":92,"rain":0.0,"pressure":981.3,"uv_index":7.25,"wind_gusts":29.5,"aqi":99,"pm10":74.3,"pm2_5":41.4,"mosquito_risk":3,"arthritis_risk":10,"migraine_risk":7,"frizz_risk":0,"updated_at":"2026-04-05T04:03:53.161925+05:30"},{"city":"Dehradun","state":"Uttarakhand","latitude":30.6284,"longitude":78.0322,"temp":11.6,"humidity":77,"rain":0.0,"pressure":827.8,"uv_index":6.6,"wind_gusts":39.2,"aqi":34,"pm10":13.8,"pm2_5":9.3,"mosquito_risk":3,"arthritis_risk":5,"migraine_risk":7,"frizz_risk":0,"updated_at":"2026-04-05T04:03:53.161931+05:30"},{"city":"Shimla","state":"Himachal Pradesh","latitude":31.1048,"longitude":77.1734,"temp":9.1,"humidity":72,"rain":0.0,"pressure":781.1,"uv_index":6.65,"wind_gusts":34.9,"aqi":45,"pm10":22.7,"pm2_5":9.3,"mosquito_risk":3,"arthritis_risk":5,"migraine_risk":7,"frizz_risk":0,"updated_at":"2026-04-05T04:03:53.161937+05:30"},{"city":"Manali","state":"Himachal Pradesh","latitude":32.2396,"longitude":77.1887,"temp":11.6,"humidity":68,"rain":0.0,"pressure":816.3,"uv_index":9.35,"wind_gusts":31.3,"aqi":39,"pm10":14.0,"pm2_5":10.3,"mosquito_risk":3,"arthritis_risk":5,"migraine_risk":7,"frizz_risk":0,"updated_at":"2026-04-05T04:03:53.161943+05:30"},{"city":"Gurgaon","state":"Haryana","latitude":28.4595,"longitude":77.0266,"temp":18.0,"humidity":90,"rain":0.0,"pressure":982.0,"uv_index":6.9,"wind_gusts":36.7,"aqi":375,"pm10":81.0,"pm2_5":38.1,"mosquito_risk":3,"arthritis_risk":10,"migraine_risk":7,"frizz_risk":1,"updated_at":"2026-04-05T04:03:53.161949+05:30"},{"city":"Noida","state":"Uttar Pradesh","latitude":28.5355,"longitude":77.391,"temp":19.6,"humidity":82,"rain":0.0,"pressure":985.5,"uv_index":6.6,"wind_gusts":39.2,"aqi":375,"pm10":81.0,"pm2_5":38.1,"mosquito_risk":3,"arthritis_risk":10,"migraine_risk":7,"frizz_risk":1,"updated_at":"2026-04-05T04:03:53.161956+05:30"},{"city":"Ghaziabad","state":"Uttar Pradesh","latitude":28.6692,"longitude":77.4538,"temp":18.8,"humidity":88,"rain":0.0,"pressure":983.7,"uv_index":6.75,"wind_gusts":42.1,"aqi":127,"pm10":171.4,"pm2_5":49.8,"mosquito_risk":3,"arthritis_risk":10,"migraine_risk":7,"frizz_risk":1,"updated_at":"2026-04-05T04:03:53.161961+05:30"},{"city":"Faridabad","state":"Haryana","latitude":28.4089,"longitude":77.3178,"temp":19.5,"humidity":84,"rain":0.0,"pressure":984.8,"uv_index":6.65,"wind_gusts":36.4,"aqi":375,"pm10":81.0,"pm2_5":38.1,"mosquito_risk":3,"arthritis_risk":10,"migraine_risk":7,"frizz_risk":1,"updated_at":"2026-04-05T04:03:53.161967+05:30"},{"city":"Meerut","state":"Uttar Pradesh","latitude":28.9845,"longitude":77.7064,"temp":18.6,"humidity":90,"rain":0.0,"pressure":982.1,"uv_index":6.8,"wind_gusts":32.8,"aqi":127,"pm10":171.4,"pm2_5":49.8,"mosquito_risk":3,"arthritis_risk":10,"migraine_risk":7,"frizz_risk":1,"updated_at":"2026-04-05T04:03:53.161973+05:30"},{"city":"Agra","state":"Uttar Pradesh","latitude":27.1767,"longitude":78.0081,"temp":19.3,"humidity":88,"rain":0.0,"pressure":988.5,"uv_index":7.3,"wind_gusts":32.4,"aqi":257,"pm10":154.6,"pm2_5":51.0,"mosquito_risk":3,"arthritis_risk":10,"migraine_risk":7,"frizz_risk":1,"updated_at":"2026-04-05T04:03:53.161978+05:30"},{"city":"Varanasi","state":"Uttar Pradesh","latitude":25.3176,"longitude":82.9739,"temp":22.9,"humidity":88,"rain":0.0,"pressure":996.9,"uv_index":8.1,"wind_gusts":45.7,"aqi":84,"pm10":87.1,"pm2_5":35.5,"mosquito_risk":3,"arthritis_risk":5,"migraine_risk":7,"frizz_risk":1,"updated_at":"2026-04-05T04:03:53.161986+05:30"},{"city":"Prayagraj","state":"Uttar Pradesh","latitude":25.4358,"longitude":81.8463,"temp":22.9,"humidity":87,"rain":0.0,"pressure":995.4,"uv_index":7.95,"wind_gusts":34.2,"aqi":86,"pm10":71.2,"pm2_5":28.7,"mosquito_risk":3,"arthritis_risk":5,"migraine_risk":7,"frizz_risk":1,"updated_at":"2026-04-05T04:03:53.161993+05:30"},{"city":"Gorakhpur","state":"Uttar Pradesh","latitude":26.7606,"longitude":83.3732,"temp":25.7,"humidity":44,"rain":0.0,"pressure":995.0,"uv_index":7.85,"wind_gusts":45.4,"aqi":98,"pm10":118.3,"pm2_5":42.0,"mosquito_risk":4,"arthritis_risk":5,"migraine_risk":7,"frizz_risk":0,"updated_at":"2026-04-05T04:03:53.161999+05:30"},{"city":"Bareilly","state":"Uttar Pradesh","latitude":28.367,"longitude":79.4304,"temp":20.4,"humidity":82,"rain":0.0,"pressure":987.0,"uv_index":7.2,"wind_gusts":32.0,"aqi":87,"pm10":109.7,"pm2_5":44.5,"mosquito_risk":3,"arthritis_risk":5,"migraine_risk":7,"frizz_risk":1,"updated_at":"2026-04-05T04:03:53.162004+05:30"},{"city":"Aligarh","state":"Uttar Pradesh","latitude":27.8974,"longitude":78.088,"temp":19.2,"humidity":89,"rain":0.0,"pressure":986.2,"uv_index":7.1,"wind_gusts":33.1,"aqi":491,"pm10":321.3,"pm2_5":68.5,"mosquito_risk":3,"arthritis_risk":10,"migraine_risk":7,"frizz_risk":1,"updated_at":"2026-04-05T04:03:53.162010+05:30"},{"city":"Moradabad","state":"Uttar Pradesh","latitude":28.8386,"longitude":78.7733,"temp":19.7,"humidity":89,"rain":0.0,"pressure":984.0,"uv_index":7.0,"wind_gusts":32.8,"aqi":98,"pm10":95.9,"pm2_5":41.7,"mosquito_risk":3,"arthritis_risk":10,"migraine_risk":7,"frizz_risk":1,"updated_at":"2026-04-05T04:03:53.162018+05:30"},{"city":"Saharanpur","state":"Uttar Pradesh","latitude":29.9637,"longitude":77.546,"temp":18.7,"humidity":78,"rain":0.0,"pressure":975.8,"uv_index":6.6,"wind_gusts":34.9,"aqi":117,"pm10":52.5,"pm2_5":35.6,"mosquito_risk":3,"arthritis_risk":5,"migraine_risk":7,"frizz_risk":0,"updated_at":"2026-04-05T04:03:53.162026+05:30"},{"city":"Jhansi","state":"Uttar Pradesh","latitude":25.4484,"longitude":78.5685,"temp":20.8,"humidity":91,"rain":0.0,"pressure":978.4,"uv_index":7.85,"wind_gusts":30.6,"aqi":87,"pm10":31.1,"pm2_5":19.0,"mosquito_risk":3,"arthritis_risk":5,"migraine_risk":7,"frizz_risk":1,"updated_at":"2026-04-05T04:03:56.387017+05:30"},{"city":"Surat","state":"Gujarat","latitude":21.1702,"longitude":72.8311,"temp":26.2,"humidity":68,"rain":0.0,"pressure":1007.6,"uv_index":7.7,"wind_gusts":28.4,"aqi":78,"pm10":34.5,"pm2_5":21.7,"mosquito_risk":7,"arthritis_risk":5,"migraine_risk":4,"frizz_risk":1,"updated_at":"2026-04-05T04:03:56.387042+05:30"},{"city":"Vadodara","state":"Gujarat","latitude":22.3072,"longitude":73.1812,"temp":25.1,"humidity":88,"rain":0.0,"pressure":1005.3,"uv_index":7.8,"wind_gusts":21.2,"aqi":75,"pm10":36.6,"pm2_5":21.7,"mosquito_risk":7,"arthritis_risk":5,"migraine_risk":4,"frizz_risk":1,"updated_at":"2026-04-05T04:03:56.387054+05:30"},{"city":"Rajkot","state":"Gujarat","latitude":22.3039,"longitude":70.8022,"temp":21.5,"humidity":79,"rain":0.0,"pressure":995.8,"uv_index":7.65,"wind_gusts":33.5,"aqi":52,"pm10":26.2,"pm2_5":11.3,"mosquito_risk":3,"arthritis_risk":5,"migraine_risk":7,"frizz_risk":1,"updated_at":"2026-04-05T04:03:56.387064+05:30"},{"city":"Thane","state":"Maharashtra","latitude":19.2183,"longitude":72.9781,"temp":26.2,"humidity":80,"rain":0.0,"pressure":1008.7,"uv_index":7.9,"wind_gusts":33.8,"aqi":73,"pm10":72.2,"pm2_5":25.0,"mosquito_risk":7,"arthritis_risk":0,"migraine_risk":4,"frizz_risk":1,"updated_at":"2026-04-05T04:03:56.387073+05:30"},{"city":"Nagpur","state":"Maharashtra","latitude":21.1458,"longitude":79.0882,"temp":24.9,"humidity":67,"rain":0.0,"pressure":972.6,"uv_index":8.7,"wind_gusts":27.7,"aqi":101,"pm10":36.9,"pm2_5":33.9,"mosquito_risk":3,"arthritis_risk":5,"migraine_risk":7,"frizz_risk":1,"updated_at":"2026-04-05T04:03:56.387081+05:30"},{"city":"Nashik","state":"Maharashtra","latitude":19.9975,"longitude":73.7898,"temp":20.0,"humidity":83,"rain":0.0,"pressure":945.6,"uv_index":8.15,"wind_gusts":33.5,"aqi":55,"pm10":36.4,"pm2_5":16.8,"mosquito_risk":3,"arthritis_risk":5,"migraine_risk":7,"frizz_risk":1,"updated_at":"2026-04-05T04:03:56.387090+05:30"},{"city":"Aurangabad","state":"Maharashtra","latitude":19.8762,"longitude":75.3433,"temp":23.0,"humidity":64,"rain":0.0,"pressure":943.8,"uv_index":8.85,"wind_gusts":38.5,"aqi":59,"pm10":29.9,"pm2_5":17.6,"mosquito_risk":3,"arthritis_risk":5,"migraine_risk":7,"frizz_risk":0,"updated_at":"2026-04-05T04:03:56.387098+05:30"},{"city":"Solapur","state":"Maharashtra","latitude":17.6599,"longitude":75.9064,"temp":25.4,"humidity":63,"rain":0.0,"pressure":956.8,"uv_index":8.6,"wind_gusts":29.9,"aqi":82,"pm10":23.3,"pm2_5":21.4,"mosquito_risk":7,"arthritis_risk":5,"migraine_risk":7,"frizz_risk":1,"updated_at":"2026-04-05T04:03:56.387107+05:30"},{"city":"Kolhapur","state":"Maharashtra","latitude":16.705,"longitude":74.2433,"temp":19.2,"humidity":79,"rain":0.0,"pressure":947.2,"uv_index":8.15,"wind_gusts":42.8,"aqi":81,"pm10":28.0,"pm2_5":23.3,"mosquito_risk":3,"arthritis_risk":5,"migraine_risk":7,"frizz_risk":0,"updated_at":"2026-04-05T04:03:56.387116+05:30"},{"city":"Goa","state":"Goa","latitude":15.2993,"longitude":74.124,"temp":26.7,"humidity":76,"rain":0.0,"pressure":998.0,"uv_index":8.9,"wind_gusts":39.2,"aqi":64,"pm10":34.5,"pm2_5":21.2,"mosquito_risk":7,"arthritis_risk":5,"migraine_risk":7,"frizz_risk":1,"updated_at":"2026-04-05T04:03:56.387124+05:30"},{"city":"Jodhpur","state":"Rajasthan","latitude":26.2389,"longitude":73.0243,"temp":21.5,"humidity":49,"rain":0.0,"pressure":983.9,"uv_index":7.8,"wind_gusts":25.9,"aqi":83,"pm10":189.1,"pm2_5":30.6,"mosquito_risk":0,"arthritis_risk":5,"migraine_risk":7,"frizz_risk":0,"updated_at":"2026-04-05T04:03:56.387133+05:30"},{"city":"Udaipur","state":"Rajasthan","latitude":24.5854,"longitude":73.7125,"temp":19.1,"humidity":54,"rain":0.0,"pressure":946.7,"uv_index":8.0,"wind_gusts":33.5,"aqi":46,"pm10":18.9,"pm2_5":9.9,"mosquito_risk":0,"arthritis_risk":5,"migraine_risk":7,"frizz_risk":0,"updated_at":"2026-04-05T04:03:56.387141+05:30"},{"city":"Kota","state":"Rajasthan","latitude":25.2138,"longitude":75.8648,"temp":23.2,"humidity":54,"rain":0.0,"pressure":979.2,"uv_index":7.85,"wind_gusts":26.6,"aqi":65,"pm10":21.0,"pm2_5":11.4,"mosquito_risk":0,"arthritis_risk":5,"migraine_risk":7,"frizz_risk":0,"updated_at":"2026-04-05T04:03:56.387149+05:30"},{"city":"Bikaner","state":"Rajasthan","latitude":28.0229,"longitude":73.3119,"temp":20.9,"humidity":61,"rain":0.0,"pressure":983.3,"uv_index":7.6,"wind_gusts":27.0,"aqi":60,"pm10":46.0,"pm2_5":18.1,"mosquito_risk":3,"arthritis_risk":5,"migraine_risk":7,"frizz_risk":0,"updated_at":"2026-04-05T04:03:56.387157+05:30"},{"city":"Ajmer","state":"Rajasthan","latitude":26.4499,"longitude":74.6399,"temp":20.8,"humidity":54,"rain":0.0,"pressure":954.6,"uv_index":7.75,"wind_gusts":30.2,"aqi":66,"pm10":73.8,"pm2_5":22.3,"mosquito_risk":0,"arthritis_risk":5,"migraine_risk":7,"frizz_risk":0,"updated_at":"2026-04-05T04:03:56.387165+05:30"},{"city":"Gwalior","state":"Madhya Pradesh","latitude":26.2183,"longitude":78.1828,"temp":20.2,"humidity":89,"rain":0.0,"pressure":983.9,"uv_index":7.6,"wind_gusts":50.8,"aqi":99,"pm10":41.1,"pm2_5":20.2,"mosquito_risk":3,"arthritis_risk":5,"migraine_risk":7,"frizz_risk":1,"updated_at":"2026-04-05T04:03:56.387174+05:30"},{"city":"Indore","state":"Madhya Pradesh","latitude":22.7196,"longitude":75.8577,"temp":20.8,"humidity":75,"rain":0.0,"pressure":947.8,"uv_index":8.35,"wind_gusts":29.5,"aqi":69,"pm10":45.5,"pm2_5":26.7,"mosquito_risk":3,"arthritis_risk":5,"migraine_risk":7,"frizz_risk":1,"updated_at":"2026-04-05T04:03:56.387182+05:30"},{"city":"Bhopal","state":"Madhya Pradesh","latitude":23.2599,"longitude":77.4126,"temp":21.5,"humidity":72,"rain":0.0,"pressure":953.4,"uv_index":8.3,"wind_gusts":32.4,"aqi":61,"pm10":21.7,"pm2_5":14.4,"mosquito_risk":3,"arthritis_risk":5,"migraine_risk":7,"frizz_risk":1,"updated_at":"2026-04-05T04:03:56.387190+05:30"},{"city":"Jabalpur","state":"Madhya Pradesh","latitude":23.1815,"longitude":79.9864,"temp":23.4,"humidity":75,"rain":0.0,"pressure":961.5,"uv_index":8.5,"wind_gusts":35.6,"aqi":72,"pm10":27.0,"pm2_5":20.9,"mosquito_risk":3,"arthritis_risk":5,"migraine_risk":7,"frizz_risk":1,"updated_at":"2026-04-05T04:03:56.387198+05:30"},{"city":"Ujjain","state":"Madhya Pradesh","latitude":23.1765,"longitude":75.7885,"temp":21.7,"humidity":58,"rain":0.0,"pressure":953.7,"uv_index":8.25,"wind_gusts":31.3,"aqi":70,"pm10":32.7,"pm2_5":20.9,"mosquito_risk":0,"arthritis_risk":5,"migraine_risk":7,"frizz_risk":0,"updated_at":"2026-04-05T04:03:56.387207+05:30"},{"city":"Visakhapatnam","state":"Andhra Pradesh","latitude":17.6868,"longitude":83.2185,"temp":26.2,"humidity":92,"rain":0.0,"pressure":1002.7,"uv_index":9.1,"wind_gusts":34.9,"aqi":61,"pm10":22.7,"pm2_5":19.9,"mosquito_risk":7,"arthritis_risk":5,"migraine_risk":4,"frizz_risk":1,"updated_at":"2026-04-05T04:03:56.387215+05:30"},{"city":"Vijayawada","state":"Andhra Pradesh","latitude":16.5062,"longitude":80.648,"temp":26.2,"humidity":91,"rain":0.0,"pressure":1001.4,"uv_index":8.65,"wind_gusts":24.8,"aqi":61,"pm10":25.7,"pm2_5":24.2,"mosquito_risk":7,"arthritis_risk":5,"migraine_risk":4,"frizz_risk":1,"updated_at":"2026-04-05T04:03:56.387224+05:30"},{"city":"Guntur","state":"Andhra Pradesh","latitude":16.3067,"longitude":80.4365,"temp":26.5,"humidity":92,"rain":0.0,"pressure":1002.3,"uv_index":8.65,"wind_gusts":29.9,"aqi":60,"pm10":23.3,"pm2_5":21.9,"mosquito_risk":7,"arthritis_risk":5,"migraine_risk":4,"frizz_risk":1,"updated_at":"2026-04-05T04:03:56.387232+05:30"},{"city":"Nellore","state":"Andhra Pradesh","latitude":14.4426,"longitude":79.9865,"temp":27.3,"humidity":89,"rain":0.0,"pressure":1004.0,"uv_index":9.3,"wind_gusts":25.2,"aqi":56,"pm10":15.9,"pm2_5":15.0,"mosquito_risk":7,"arthritis_risk":5,"migraine_risk":4,"frizz_risk":1,"updated_at":"2026-04-05T04:03:56.387241+05:30"},{"city":"Kurnool","state":"Andhra Pradesh","latitude":15.8281,"longitude":78.0373,"temp":29.5,"humidity":52,"rain":0.0,"pressure":975.4,"uv_index":9.2,"wind_gusts":33.5,"aqi":67,"pm10":36.7,"pm2_5":32.5,"mosquito_risk":4,"arthritis_risk":5,"migraine_risk":7,"frizz_risk":1,"updated_at":"2026-04-05T04:03:56.387250+05:30"},{"city":"Kakinada","state":"Andhra Pradesh","latitude":16.9891,"longitude":82.2475,"temp":25.2,"humidity":93,"rain":0.0,"pressure":1006.5,"uv_index":9.05,"wind_gusts":26.3,"aqi":40,"pm10":22.8,"pm2_5":19.4,"mosquito_risk":7,"arthritis_risk":5,"migraine_risk":4,"frizz_risk":1,"updated_at":"2026-04-05T04:03:56.387259+05:30"},{"city":"Tirupati","state":"Andhra Pradesh","latitude":13.6288,"longitude":79.4192,"temp":26.2,"humidity":92,"rain":0.0,"pressure":990.5,"uv_index":8.6,"wind_gusts":36.7,"aqi":68,"pm10":28.2,"pm2_5":27.5,"mosquito_risk":7,"arthritis_risk":5,"migraine_risk":7,"frizz_risk":1,"updated_at":"2026-04-05T04:03:56.387267+05:30"},{"city":"Warangal","state":"Telangana","latitude":17.9689,"longitude":79.5941,"temp":24.8,"humidity":84,"rain":0.0,"pressure":978.0,"uv_index":7.25,"wind_gusts":36.0,"aqi":116,"pm10":47.8,"pm2_5":43.9,"mosquito_risk":3,"arthritis_risk":5,"migraine_risk":7,"frizz_risk":1,"updated_at":"2026-04-05T04:03:56.387275+05:30"},{"city":"Nizamabad","state":"Telangana","latitude":18.6725,"longitude":78.0941,"temp":25.7,"humidity":68,"rain":0.0,"pressure":964.3,"uv_index":8.3,"wind_gusts":55.1,"aqi":117,"pm10":68.9,"pm2_5":59.6,"mosquito_risk":7,"arthritis_risk":5,"migraine_risk":7,"frizz_risk":1,"updated_at":"2026-04-05T04:03:56.387283+05:30"},{"city":"Mysore","state":"Karnataka","latitude":12.2958,"longitude":76.6396,"temp":21.6,"humidity":94,"rain":0.0,"pressure":927.3,"uv_index":8.3,"wind_gusts":37.1,"aqi":69,"pm10":21.9,"pm2_5":21.0,"mosquito_risk":3,"arthritis_risk":5,"migraine_risk":7,"frizz_risk":1,"updated_at":"2026-04-05T04:03:56.387291+05:30"},{"city":"Mangalore","state":"Karnataka","latitude":12.9141,"longitude":74.856,"temp":29.2,"humidity":78,"rain":0.0,"pressure":1006.0,"uv_index":9.2,"wind_gusts":33.1,"aqi":65,"pm10":32.4,"pm2_5":28.5,"mosquito_risk":7,"arthritis_risk":5,"migraine_risk":4,"frizz_risk":1,"updated_at":"2026-04-05T04:03:56.387299+05:30"},{"city":"Hubli-Dharwad","state":"Karnataka","latitude":15.3647,"longitude":75.124,"temp":21.9,"humidity":86,"rain":0.0,"pressure":940.2,"uv_index":9.25,"wind_gusts":36.0,"aqi":65,"pm10":22.7,"pm2_5":13.6,"mosquito_risk":3,"arthritis_risk":5,"migraine_risk":7,"frizz_risk":1,"updated_at":"2026-04-05T04:03:56.387308+05:30"},{"city":"Belgaum","state":"Karnataka","latitude":15.8497,"longitude":74.4977,"temp":19.1,"humidity":90,"rain":0.0,"pressure":924.6,"uv_index":9.3,"wind_gusts":37.8,"aqi":68,"pm10":31.8,"pm2_5":20.4,"mosquito_risk":3,"arthritis_risk":10,"migraine_risk":7,"frizz_risk":1,"updated_at":"2026-04-05T04:03:59.611283+05:30"},{"city":"Coimbatore","state":"Tamil Nadu","latitude":11.0168,"longitude":76.9558,"temp":24.2,"humidity":84,"rain":0.0,"pressure":961.0,"uv_index":9.3,"wind_gusts":50.4,"aqi":59,"pm10":19.5,"pm2_5":18.4,"mosquito_risk":3,"arthritis_risk":5,"migraine_risk":7,"frizz_risk":1,"updated_at":"2026-04-05T04:03:59.611308+05:30"},{"city":"Madurai","state":"Tamil Nadu","latitude":9.9252,"longitude":78.1198,"temp":25.9,"humidity":85,"rain":0.0,"pressure":991.8,"uv_index":6.05,"wind_gusts":25.9,"aqi":80,"pm10":32.4,"pm2_5":31.8,"mosquito_risk":7,"arthritis_risk":5,"migraine_risk":7,"frizz_risk":1,"updated_at":"2026-04-05T04:03:59.611320+05:30"},{"city":"Trichy","state":"Tamil Nadu","latitude":10.7905,"longitude":78.7047,"temp":25.9,"humidity":87,"rain":0.0,"pressure":998.8,"uv_index":8.9,"wind_gusts":40.7,"aqi":70,"pm10":29.2,"pm2_5":28.3,"mosquito_risk":7,"arthritis_risk":5,"migraine_risk":7,"frizz_risk":1,"updated_at":"2026-04-05T04:03:59.611330+05:30"},{"city":"Salem","state":"Tamil Nadu","latitude":11.6643,"longitude":78.146,"temp":25.6,"humidity":80,"rain":0.0,"pressure":976.5,"uv_index":9.5,"wind_gusts":24.5,"aqi":82,"pm10":26.8,"pm2_5":24.8,"mosquito_risk":7,"arthritis_risk":5,"migraine_risk":7,"frizz_risk":1,"updated_at":"2026-04-05T04:03:59.611339+05:30"},{"city":"Tirunelveli","state":"Tamil Nadu","latitude":8.7139,"longitude":77.7567,"temp":26.4,"humidity":74,"rain":0.0,"pressure":1001.8,"uv_index":9.4,"wind_gusts":34.2,"aqi":59,"pm10":17.1,"pm2_5":16.3,"mosquito_risk":7,"arthritis_risk":5,"migraine_risk":4,"frizz_risk":1,"updated_at":"2026-04-05T04:03:59.611348+05:30"},{"city":"Vellore","state":"Tamil Nadu","latitude":12.9165,"longitude":79.1325,"temp":25.2,"humidity":87,"rain":0.0,"pressure":983.5,"uv_index":8.75,"wind_gusts":38.5,"aqi":80,"pm10":41.1,"pm2_5":39.3,"mosquito_risk":7,"arthritis_risk":5,"migraine_risk":7,"frizz_risk":1,"updated_at":"2026-04-05T04:03:59.611357+05:30"},{"city":"Erode","state":"Tamil Nadu","latitude":11.341,"longitude":77.7172,"temp":27.1,"humidity":80,"rain":0.0,"pressure":988.1,"uv_index":9.45,"wind_gusts":34.9,"aqi":71,"pm10":28.5,"pm2_5":27.0,"mosquito_risk":7,"arthritis_risk":5,"migraine_risk":7,"frizz_risk":1,"updated_at":"2026-04-05T04:03:59.611365+05:30"},{"city":"Kochi","state":"Kerala","latitude":9.9312,"longitude":76.2673,"temp":28.4,"humidity":83,"rain":0.0,"pressure":1007.9,"uv_index":9.15,"wind_gusts":28.1,"aqi":62,"pm10":24.5,"pm2_5":23.2,"mosquito_risk":7,"arthritis_risk":5,"migraine_risk":4,"frizz_risk":1,"updated_at":"2026-04-05T04:03:59.611373+05:30"},{"city":"Thiruvananthapuram","state":"Kerala","latitude":8.5241,"longitude":76.9366,"temp":28.4,"humidity":81,"rain":0.0,"pressure":1007.0,"uv_index":9.05,"wind_gusts":32.4,"aqi":54,"pm10":17.2,"pm2_5":13.1,"mosquito_risk":7,"arthritis_risk":5,"migraine_risk":4,"frizz_risk":1,"updated_at":"2026-04-05T04:03:59.611382+05:30"},{"city":"Kozhikode","state":"Kerala","latitude":11.2588,"longitude":75.7804,"temp":28.4,"humidity":83,"rain":0.0,"pressure":1007.0,"uv_index":9.15,"wind_gusts":34.2,"aqi":44,"pm10":16.6,"pm2_5":12.5,"mosquito_risk":7,"arthritis_risk":5,"migraine_risk":4,"frizz_risk":1,"updated_at":"2026-04-05T04:03:59.611390+05:30"},{"city":"Thrissur","state":"Kerala","latitude":10.5276,"longitude":76.2144,"temp":27.0,"humidity":90,"rain":0.0,"pressure":1006.2,"uv_index":8.95,"wind_gusts":35.6,"aqi":60,"pm10":29.3,"pm2_5":26.6,"mosquito_risk":7,"arthritis_risk":5,"migraine_risk":4,"frizz_risk":1,"updated_at":"2026-04-05T04:03:59.611399+05:30"},{"city":"Kannur","state":"Kerala","latitude":11.8745,"longitude":75.3704,"temp":27.4,"humidity":82,"rain":0.0,"pressure":1006.5,"uv_index":9.2,"wind_gusts":37.4,"aqi":60,"pm10":23.2,"pm2_5":21.3,"mosquito_risk":7,"arthritis_risk":5,"migraine_risk":4,"frizz_risk":1,"updated_at":"2026-04-05T04:03:59.611407+05:30"},{"city":"Patna","state":"Bihar","latitude":25.5941,"longitude":85.1376,"temp":26.4,"humidity":63,"rain":0.0,"pressure":999.6,"uv_index":8.25,"wind_gusts":45.0,"aqi":85,"pm10":71.0,"pm2_5":39.1,"mosquito_risk":7,"arthritis_risk":5,"migraine_risk":7,"frizz_risk":1,"updated_at":"2026-04-05T04:03:59.611415+05:30"},{"city":"Gaya","state":"Bihar","latitude":24.7914,"longitude":85.0002,"temp":24.0,"humidity":75,"rain":0.0,"pressure":994.6,"uv_index":8.4,"wind_gusts":41.4,"aqi":75,"pm10":39.0,"pm2_5":27.4,"mosquito_risk":3,"arthritis_risk":5,"migraine_risk":7,"frizz_risk":1,"updated_at":"2026-04-05T04:03:59.611424+05:30"},{"city":"Muzaffarpur","state":"Bihar","latitude":26.1209,"longitude":85.3647,"temp":25.7,"humidity":64,"rain":0.0,"pressure":998.9,"uv_index":8.25,"wind_gusts":41.0,"aqi":88,"pm10":73.1,"pm2_5":40.0,"mosquito_risk":7,"arthritis_risk":5,"migraine_risk":7,"frizz_risk":1,"updated_at":"2026-04-05T04:03:59.611432+05:30"},{"city":"Bhagalpur","state":"Bihar","latitude":25.2425,"longitude":87.0117,"temp":25.5,"humidity":70,"rain":0.0,"pressure":998.7,"uv_index":7.95,"wind_gusts":33.1,"aqi":81,"pm10":45.6,"pm2_5":29.2,"mosquito_risk":7,"arthritis_risk":5,"migraine_risk":7,"frizz_risk":1,"updated_at":"2026-04-05T04:03:59.611439+05:30"},{"city":"Ranchi","state":"Jharkhand","latitude":23.3441,"longitude":85.3096,"temp":21.9,"humidity":69,"rain":0.0,"pressure":937.7,"uv_index":8.55,"wind_gusts":36.4,"aqi":74,"pm10":21.4,"pm2_5":19.2,"mosquito_risk":3,"arthritis_risk":5,"migraine_risk":7,"frizz_risk":0,"updated_at":"2026-04-05T04:03:59.611448+05:30"},{"city":"Jamshedpur","state":"Jharkhand","latitude":22.8046,"longitude":86.2029,"temp":26.2,"humidity":70,"rain":0.0,"pressure":988.6,"uv_index":8.15,"wind_gusts":23.4,"aqi":102,"pm10":38.1,"pm2_5":35.5,"mosquito_risk":7,"arthritis_risk":5,"migraine_risk":7,"frizz_risk":1,"updated_at":"2026-04-05T04:03:59.611456+05:30"},{"city":"Dhanbad","state":"Jharkhand","latitude":23.7957,"longitude":86.4304,"temp":25.6,"humidity":57,"rain":0.0,"pressure":978.3,"uv_index":8.05,"wind_gusts":37.4,"aqi":87,"pm10":34.7,"pm2_5":32.8,"mosquito_risk":4,"arthritis_risk":5,"migraine_risk":7,"frizz_risk":1,"updated_at":"2026-04-05T04:03:59.611464+05:30"},{"city":"Bokaro","state":"Jharkhand","latitude":23.6693,"longitude":86.1511,"temp":25.6,"humidity":55,"rain":0.0,"pressure":983.1,"uv_index":8.65,"wind_gusts":38.2,"aqi":90,"pm10":36.0,"pm2_5":34.3,"mosquito_risk":4,"arthritis_risk":5,"migraine_risk":7,"frizz_risk":0,"updated_at":"2026-04-05T04:03:59.611473+05:30"},{"city":"Bhubaneswar","state":"Odisha","latitude":20.2961,"longitude":85.8245,"temp":26.1,"humidity":94,"rain":0.0,"pressure":1000.5,"uv_index":8.5,"wind_gusts":30.2,"aqi":88,"pm10":29.0,"pm2_5":26.4,"mosquito_risk":7,"arthritis_risk":5,"migraine_risk":4,"frizz_risk":1,"updated_at":"2026-04-05T04:03:59.611481+05:30"},{"city":"Cuttack","state":"Odisha","latitude":20.4625,"longitude":85.8828,"temp":26.1,"humidity":92,"rain":0.0,"pressure":1002.3,"uv_index":8.45,"wind_gusts":25.2,"aqi":88,"pm10":29.0,"pm2_5":26.4,"mosquito_risk":7,"arthritis_risk":5,"migraine_risk":4,"frizz_risk":1,"updated_at":"2026-04-05T04:03:59.611490+05:30"},{"city":"Rourkela","state":"Odisha","latitude":22.2604,"longitude":84.8536,"temp":25.4,"humidity":76,"rain":0.0,"pressure":984.3,"uv_index":8.55,"wind_gusts":48.2,"aqi":115,"pm10":54.4,"pm2_5":51.2,"mosquito_risk":7,"arthritis_risk":5,"migraine_risk":7,"frizz_risk":1,"updated_at":"2026-04-05T04:03:59.611498+05:30"},{"city":"Raipur","state":"Chhattisgarh","latitude":21.2514,"longitude":81.6296,"temp":26.0,"humidity":70,"rain":0.0,"pressure":973.3,"uv_index":8.65,"wind_gusts":24.5,"aqi":124,"pm10":55.5,"pm2_5":51.5,"mosquito_risk":7,"arthritis_risk":5,"migraine_risk":7,"frizz_risk":1,"updated_at":"2026-04-05T04:03:59.611506+05:30"},{"city":"Bhilai","state":"Chhattisgarh","latitude":21.1938,"longitude":81.3509,"temp":25.4,"humidity":72,"rain":0.0,"pressure":973.6,"uv_index":8.7,"wind_gusts":23.0,"aqi":110,"pm10":55.4,"pm2_5":51.8,"mosquito_risk":7,"arthritis_risk":5,"migraine_risk":7,"frizz_risk":1,"updated_at":"2026-04-05T04:03:59.611514+05:30"},{"city":"Guwahati","state":"Assam","latitude":26.1158,"longitude":91.7086,"temp":24.7,"humidity":88,"rain":0.0,"pressure":997.9,"uv_index":7.45,"wind_gusts":46.8,"aqi":121,"pm10":50.5,"pm2_5":45.6,"mosquito_risk":3,"arthritis_risk":5,"migraine_risk":7,"frizz_risk":1,"updated_at":"2026-04-05T04:03:59.611522+05:30"},{"city":"Agartala","state":"Tripura","latitude":23.8315,"longitude":91.2868,"temp":26.2,"humidity":94,"rain":0.0,"pressure":1003.5,"uv_index":8.5,"wind_gusts":32.8,"aqi":83,"pm10":20.4,"pm2_5":18.9,"mosquito_risk":7,"arthritis_risk":5,"migraine_risk":4,"frizz_risk":1,"updated_at":"2026-04-05T04:03:59.611530+05:30"},{"city":"Shillong","state":"Meghalaya","latitude":25.5788,"longitude":91.8933,"temp":15.3,"humidity":85,"rain":0.0,"pressure":853.7,"uv_index":7.6,"wind_gusts":63.0,"aqi":90,"pm10":50.2,"pm2_5":43.3,"mosquito_risk":3,"arthritis_risk":10,"migraine_risk":7,"frizz_risk":0,"updated_at":"2026-04-05T04:03:59.611538+05:30"},{"city":"Imphal","state":"Manipur","latitude":24.817,"longitude":93.9368,"temp":19.3,"humidity":85,"rain":0.0,"pressure":921.4,"uv_index":8.85,"wind_gusts":74.5,"aqi":111,"pm10":53.2,"pm2_5":47.6,"mosquito_risk":3,"arthritis_risk":10,"migraine_risk":7,"frizz_risk":1,"updated_at":"2026-04-05T04:03:59.611546+05:30"},{"city":"Aizawl","state":"Mizoram","latitude":23.7271,"longitude":92.7176,"temp":18.7,"humidity":94,"rain":0.0,"pressure":890.4,"uv_index":8.5,"wind_gusts":47.5,"aqi":102,"pm10":40.7,"pm2_5":34.8,"mosquito_risk":3,"arthritis_risk":10,"migraine_risk":7,"frizz_risk":1,"updated_at":"2026-04-05T04:03:59.611554+05:30"},{"city":"Kohima","state":"Nagaland","latitude":25.6701,"longitude":94.1077,"temp":17.0,"humidity":68,"rain":0.0,"pressure":852.9,"uv_index":8.45,"wind_gusts":82.1,"aqi":91,"pm10":43.1,"pm2_5":37.7,"mosquito_risk":3,"arthritis_risk":5,"migraine_risk":7,"frizz_risk":0,"updated_at":"2026-04-05T04:03:59.611563+05:30"},{"city":"Gangtok","state":"Sikkim","latitude":27.3314,"longitude":88.6138,"temp":14.6,"humidity":94,"rain":0.0,"pressure":834.6,"uv_index":8.05,"wind_gusts":29.2,"aqi":113,"pm10":28.9,"pm2_5":23.7,"mosquito_risk":3,"arthritis_risk":10,"migraine_risk":7,"frizz_risk":0,"updated_at":"2026-04-05T04:03:59.611571+05:30"},{"city":"Siliguri","state":"West Bengal","latitude":26.7271,"longitude":88.3953,"temp":22.0,"humidity":73,"rain":0.0,"pressure":991.1,"uv_index":8.1,"wind_gusts":33.1,"aqi":159,"pm10":79.9,"pm2_5":71.0,"mosquito_risk":3,"arthritis_risk":5,"migraine_risk":7,"frizz_risk":1,"updated_at":"2026-04-05T04:04:02.864163+05:30"},{"city":"Durgapur","state":"West Bengal","latitude":23.5204,"longitude":87.3119,"temp":27.3,"humidity":67,"rain":0.0,"pressure":992.2,"uv_index":7.85,"wind_gusts":36.7,"aqi":97,"pm10":28.9,"pm2_5":25.0,"mosquito_risk":7,"arthritis_risk":5,"migraine_risk":7,"frizz_risk":1,"updated_at":"2026-04-05T04:04:02.864186+05:30"},{"city":"Asansol","state":"West Bengal","latitude":23.6739,"longitude":86.9524,"temp":27.5,"humidity":57,"rain":0.0,"pressure":991.0,"uv_index":7.7,"wind_gusts":37.4,"aqi":80,"pm10":26.7,"pm2_5":24.2,"mosquito_risk":4,"arthritis_risk":5,"migraine_risk":7,"frizz_risk":1,"updated_at":"2026-04-05T04:04:02.864196+05:30"},{"city":"Pondicherry","state":"Puducherry","latitude":11.9139,"longitude":79.8145,"temp":26.6,"humidity":93,"rain":0.0,"pressure":1007.2,"uv_index":9.35,"wind_gusts":26.6,"aqi":52,"pm10":26.1,"pm2_5":23.5,"mosquito_risk":7,"arthritis_risk":5,"migraine_risk":4,"frizz_risk":1,"updated_at":"2026-04-05T04:04:02.864205+05:30"},{"city":"Port Blair","state":"Andaman and Nicobar Islands","latitude":11.6234,"longitude":92.7265,"temp":29.0,"humidity":71,"rain":0.0,"pressure":1005.4,"uv_index":8.7,"wind_gusts":19.4,"aqi":43,"pm10":13.3,"pm2_5":8.9,"mosquito_risk":7,"arthritis_risk":5,"migraine_risk":4,"frizz_risk":1,"updated_at":"2026-04-05T04:04:02.864213+05:30"},{"city":"Haridwar","state":"Uttarakhand","latitude":29.9457,"longitude":78.1642,"temp":19.3,"humidity":77,"rain":0.0,"pressure":973.9,"uv_index":6.6,"wind_gusts":28.8,"aqi":72,"pm10":20.9,"pm2_5":15.3,"mosquito_risk":3,"arthritis_risk":5,"migraine_risk":7,"frizz_risk":0,"updated_at":"2026-04-05T04:04:02.864221+05:30"},{"city":"Rishikesh","state":"Uttarakhand","latitude":30.0869,"longitude":78.2676,"temp":19.4,"humidity":67,"rain":0.0,"pressure":966.5,"uv_index":6.75,"wind_gusts":24.5,"aqi":44,"pm10":18.4,"pm2_5":10.0,"mosquito_risk":3,"arthritis_risk":5,"migraine_risk":7,"frizz_risk":0,"updated_at":"2026-04-05T04:04:02.864229+05:30"},{"city":"Nainital","state":"Uttarakhand","latitude":29.3919,"longitude":79.4542,"temp":17.6,"humidity":49,"rain":0.0,"pressure":804.6,"uv_index":5.45,"wind_gusts":35.3,"aqi":52,"pm10":18.5,"pm2_5":11.9,"mosquito_risk":0,"arthritis_risk":5,"migraine_risk":3,"frizz_risk":0,"updated_at":"2026-04-05T04:04:02.864237+05:30"},{"city":"Mussoorie","state":"Uttarakhand","latitude":30.4599,"longitude":78.0664,"temp":13.3,"humidity":69,"rain":0.0,"pressure":800.6,"uv_index":6.5,"wind_gusts":45.7,"aqi":52,"pm10":18.0,"pm2_5":12.9,"mosquito_risk":3,"arthritis_risk":5,"migraine_risk":7,"frizz_risk":0,"updated_at":"2026-04-05T04:04:02.864244+05:30"},{"city":"Dharamshala","state":"Himachal Pradesh","latitude":32.219,"longitude":76.3234,"temp":15.5,"humidity":61,"rain":0.0,"pressure":867.6,"uv_index":7.35,"wind_gusts":32.8,"aqi":39,"pm10":3.6,"pm2_5":1.9,"mosquito_risk":3,"arthritis_risk":5,"migraine_risk":7,"frizz_risk":0,"updated_at":"2026-04-05T04:04:02.864251+05:30"},{"city":"Dalhousie","state":"Himachal Pradesh","latitude":32.5387,"longitude":75.971,"temp":11.9,"humidity":58,"rain":0.0,"pressure":801.2,"uv_index":7.35,"wind_gusts":25.2,"aqi":72,"pm10":21.0,"pm2_5":15.5,"mosquito_risk":0,"arthritis_risk":5,"migraine_risk":7,"frizz_risk":0,"updated_at":"2026-04-05T04:04:02.864259+05:30"},{"city":"Patiala","state":"Punjab","latitude":30.3398,"longitude":76.3869,"temp":17.5,"humidity":88,"rain":0.0,"pressure":978.8,"uv_index":6.7,"wind_gusts":32.8,"aqi":143,"pm10":82.7,"pm2_5":49.6,"mosquito_risk":3,"arthritis_risk":10,"migraine_risk":7,"frizz_risk":0,"updated_at":"2026-04-05T04:04:02.864267+05:30"},{"city":"Bhatinda","state":"Punjab","latitude":30.211,"longitude":74.9455,"temp":16.9,"humidity":94,"rain":0.0,"pressure":985.1,"uv_index":7.35,"wind_gusts":31.0,"aqi":88,"pm10":147.1,"pm2_5":42.1,"mosquito_risk":3,"arthritis_risk":10,"migraine_risk":7,"frizz_risk":0,"updated_at":"2026-04-05T04:04:02.864274+05:30"},{"city":"Rohtak","state":"Haryana","latitude":28.8955,"longitude":76.6066,"temp":17.2,"humidity":93,"rain":0.0,"pressure":982.3,"uv_index":6.15,"wind_gusts":36.7,"aqi":103,"pm10":54.6,"pm2_5":34.2,"mosquito_risk":3,"arthritis_risk":10,"migraine_risk":7,"frizz_risk":1,"updated_at":"2026-04-05T04:04:02.864282+05:30"},{"city":"Panipat","state":"Haryana","latitude":29.3909,"longitude":76.9635,"temp":16.8,"humidity":93,"rain":0.0,"pressure":981.0,"uv_index":6.75,"wind_gusts":32.0,"aqi":224,"pm10":148.5,"pm2_5":59.0,"mosquito_risk":3,"arthritis_risk":10,"migraine_risk":7,"frizz_risk":0,"updated_at":"2026-04-05T04:04:02.864289+05:30"},{"city":"Mathura","state":"Uttar Pradesh","latitude":27.4924,"longitude":77.6737,"temp":18.9,"humidity":93,"rain":0.0,"pressure":987.9,"uv_index":7.2,"wind_gusts":31.7,"aqi":326,"pm10":172.3,"pm2_5":46.8,"mosquito_risk":3,"arthritis_risk":10,"migraine_risk":7,"frizz_risk":1,"updated_at":"2026-04-05T04:04:02.864296+05:30"},{"city":"Vrindavan","state":"Uttar Pradesh","latitude":27.5823,"longitude":77.7027,"temp":18.6,"humidity":94,"rain":0.0,"pressure":988.4,"uv_index":7.2,"wind_gusts":35.3,"aqi":326,"pm10":172.3,"pm2_5":46.8,"mosquito_risk":3,"arthritis_risk":10,"migraine_risk":7,"frizz_risk":1,"updated_at":"2026-04-05T04:04:02.864303+05:30"},{"city":"Ayodhya","state":"Uttar Pradesh","latitude":26.7922,"longitude":82.1998,"temp":21.2,"humidity":77,"rain":0.0,"pressure":994.2,"uv_index":7.6,"wind_gusts":46.1,"aqi":124,"pm10":99.7,"pm2_5":34.9,"mosquito_risk":3,"arthritis_risk":5,"migraine_risk":7,"frizz_risk":1,"updated_at":"2026-04-05T04:04:02.864311+05:30"},{"city":"Ratlam","state":"Madhya Pradesh","latitude":23.3315,"longitude":75.0367,"temp":21.8,"humidity":51,"rain":0.0,"pressure":954.5,"uv_index":8.15,"wind_gusts":32.4,"aqi":65,"pm10":25.8,"pm2_5":17.1,"mosquito_risk":0,"arthritis_risk":5,"migraine_risk":7,"frizz_risk":0,"updated_at":"2026-04-05T04:04:02.864318+05:30"},{"city":"Sagar","state":"Madhya Pradesh","latitude":23.8388,"longitude":78.7378,"temp":21.6,"humidity":81,"rain":0.0,"pressure":949.9,"uv_index":8.3,"wind_gusts":31.0,"aqi":57,"pm10":32.1,"pm2_5":18.7,"mosquito_risk":3,"arthritis_risk":5,"migraine_risk":7,"frizz_risk":1,"updated_at":"2026-04-05T04:04:02.864325+05:30"},{"city":"Satna","state":"Madhya Pradesh","latitude":24.6005,"longitude":80.8322,"temp":22.7,"humidity":84,"rain":0.0,"pressure":970.9,"uv_index":8.3,"wind_gusts":27.4,"aqi":68,"pm10":56.5,"pm2_5":27.1,"mosquito_risk":3,"arthritis_risk":5,"migraine_risk":7,"frizz_risk":1,"updated_at":"2026-04-05T04:04:02.864333+05:30"},{"city":"Akola","state":"Maharashtra","latitude":20.7002,"longitude":77.0082,"temp":25.8,"humidity":61,"rain":0.0,"pressure":975.3,"uv_index":8.7,"wind_gusts":30.2,"aqi":88,"pm10":27.5,"pm2_5":22.4,"mosquito_risk":7,"arthritis_risk":5,"migraine_risk":7,"frizz_risk":1,"updated_at":"2026-04-05T04:04:02.864341+05:30"},{"city":"Amravati","state":"Maharashtra","latitude":20.9374,"longitude":77.7796,"temp":25.5,"humidity":64,"rain":0.0,"pressure":967.1,"uv_index":8.7,"wind_gusts":32.4,"aqi":89,"pm10":35.3,"pm2_5":29.8,"mosquito_risk":7,"arthritis_risk":5,"migraine_risk":7,"frizz_risk":1,"updated_at":"2026-04-05T04:04:02.864349+05:30"},{"city":"Latur","state":"Maharashtra","latitude":18.4088,"longitude":76.5604,"temp":23.7,"humidity":63,"rain":0.0,"pressure":939.2,"uv_index":8.45,"wind_gusts":30.2,"aqi":100,"pm10":37.0,"pm2_5":32.9,"mosquito_risk":3,"arthritis_risk":5,"migraine_risk":7,"frizz_risk":1,"updated_at":"2026-04-05T04:04:02.864356+05:30"},{"city":"Nanded","state":"Maharashtra","latitude":19.1383,"longitude":77.3091,"temp":25.5,"humidity":66,"rain":0.0,"pressure":968.3,"uv_index":8.7,"wind_gusts":28.4,"aqi":97,"pm10":53.4,"pm2_5":48.4,"mosquito_risk":7,"arthritis_risk":5,"migraine_risk":7,"frizz_risk":1,"updated_at":"2026-04-05T04:04:02.864363+05:30"},{"city":"Gulbarga","state":"Karnataka","latitude":17.3297,"longitude":76.8343,"temp":28.1,"humidity":44,"rain":0.0,"pressure":958.2,"uv_index":8.85,"wind_gusts":34.6,"aqi":108,"pm10":41.1,"pm2_5":37.1,"mosquito_risk":4,"arthritis_risk":5,"migraine_risk":7,"frizz_risk":0,"updated_at":"2026-04-05T04:04:02.864370+05:30"},{"city":"Bidar","state":"Karnataka","latitude":17.9104,"longitude":77.5199,"temp":26.3,"humidity":60,"rain":0.0,"pressure":934.9,"uv_index":9.0,"wind_gusts":34.6,"aqi":111,"pm10":71.5,"pm2_5":61.5,"mosquito_risk":4,"arthritis_risk":5,"migraine_risk":7,"frizz_risk":1,"updated_at":"2026-04-05T04:04:02.864378+05:30"},{"city":"Hospet","state":"Karnataka","latitude":15.2689,"longitude":76.3909,"temp":25.6,"humidity":76,"rain":0.0,"pressure":955.3,"uv_index":9.2,"wind_gusts":27.4,"aqi":76,"pm10":14.3,"pm2_5":12.2,"mosquito_risk":7,"arthritis_risk":5,"migraine_risk":7,"frizz_risk":1,"updated_at":"2026-04-05T04:04:02.864385+05:30"},{"city":"Tirupur","state":"Tamil Nadu","latitude":11.1085,"longitude":77.3411,"temp":25.6,"humidity":84,"rain":0.0,"pressure":974.4,"uv_index":9.55,"wind_gusts":33.1,"aqi":69,"pm10":23.1,"pm2_5":21.8,"mosquito_risk":7,"arthritis_risk":5,"migraine_risk":7,"frizz_risk":1,"updated_at":"2026-04-05T04:04:02.864392+05:30"},{"city":"Alappuzha","state":"Kerala","latitude":9.4981,"longitude":76.3388,"temp":28.3,"humidity":83,"rain":0.0,"pressure":1008.0,"uv_index":9.15,"wind_gusts":26.3,"aqi":61,"pm10":22.1,"pm2_5":19.0,"mosquito_risk":7,"arthritis_risk":0,"migraine_risk":4,"frizz_risk":1,"updated_at":"2026-04-05T04:04:02.864399+05:30"},{"city":"Munnar","state":"Kerala","latitude":10.0889,"longitude":77.0595,"temp":18.9,"humidity":96,"rain":0.0,"pressure":855.2,"uv_index":9.75,"wind_gusts":38.2,"aqi":57,"pm10":13.4,"pm2_5":12.9,"mosquito_risk":3,"arthritis_risk":10,"migraine_risk":7,"frizz_risk":1,"updated_at":"2026-04-05T04:04:02.864407+05:30"},{"city":"Silchar","state":"Assam","latitude":24.8333,"longitude":92.7789,"temp":23.2,"humidity":90,"rain":0.0,"pressure":1003.2,"uv_index":8.55,"wind_gusts":33.1,"aqi":136,"pm10":69.4,"pm2_5":58.4,"mosquito_risk":3,"arthritis_risk":5,"migraine_risk":4,"frizz_risk":1,"updated_at":"2026-04-05T04:04:02.864414+05:30"},{"city":"Dibrugarh","state":"Assam","latitude":27.4728,"longitude":94.912,"temp":22.8,"humidity":92,"rain":0.0,"pressure":992.8,"uv_index":7.7,"wind_gusts":52.9,"aqi":101,"pm10":38.9,"pm2_5":33.6,"mosquito_risk":3,"arthritis_risk":5,"migraine_risk":7,"frizz_risk":1,"updated_at":"2026-04-05T04:04:02.864421+05:30"}]