[{"city":"Delhi","state":"Delhi","latitude":28.6139,"longitude":77.209,"temp":21.6,"humidity":63,"rain":0.0,"pressure":985.8,"uv_index":3.1,"wind_gusts":20.2,"aqi":152,"pm10":45.1,"pm2_5":25.8,"mosquito_risk":3,"arthritis_risk":5,"migraine_risk":3,"frizz_risk":0,"updated_at":"2026-03-20T14:17:32.584412+05:30"},{"city":"Mumbai","state":"Maharashtra","latitude":19.076,"longitude":72.8777,"temp":27.1,"humidity":71,"rain":0.0,"pressure":1009.4,"uv_index":7.8,"wind_gusts":24.5,"aqi":77,"pm10":52.2,"pm2_5":38.0,"mosquito_risk":7,"arthritis_risk":0,"migraine_risk":4,"frizz_risk":1,"updated_at":"2026-03-20T14:17:32.584468+05:30"},{"city":"Bangalore","state":"Karnataka","latitude":12.9716,"longitude":77.5946,"temp":30.5,"humidity":36,"rain":0.0,"pressure":911.6,"uv_index":9.4,"wind_gusts":19.1,"aqi":88,"pm10":26.8,"pm2_5":18.5,"mosquito_risk":0,"arthritis_risk":5,"migraine_risk":7,"frizz_risk":0,"updated_at":"2026-03-20T14:17:32.584484+05:30"},{"city":"Hyderabad","state":"Telangana","latitude":17.385,"longitude":78.4867,"temp":31.5,"humidity":34,"rain":0.0,"pressure":953.2,"uv_index":8.8,"wind_gusts":25.6,"aqi":66,"pm10":30.4,"pm2_5":18.0,"mosquito_risk":0,"arthritis_risk":5,"migraine_risk":7,"frizz_risk":0,"updated_at":"2026-03-20T14:17:32.584493+05:30"},{"city":"Chennai","state":"Tamil Nadu","latitude":13.0827,"longitude":80.2707,"temp":33.2,"humidity":51,"rain":0.0,"pressure":1007.1,"uv_index":9.15,"wind_gusts":30.6,"aqi":34,"pm10":17.8,"pm2_5":14.1,"mosquito_risk":0,"arthritis_risk":5,"migraine_risk":4,"frizz_risk":1,"updated_at":"2026-03-20T14:17:32.584502+05:30"},{"city":"Kolkata","state":"West Bengal","latitude":22.5726,"longitude":88.3639,"temp":29.5,"humidity":65,"rain":0.0,"pressure":1006.0,"uv_index":7.15,"wind_gusts":33.8,"aqi":83,"pm10":58.8,"pm2_5":44.5,"mosquito_risk":7,"arthritis_risk":5,"migraine_risk":4,"frizz_risk":1,"updated_at":"2026-03-20T14:17:32.584510+05:30"},{"city":"Pune","state":"Maharashtra","latitude":18.5204,"longitude":73.8567,"temp":33.8,"humidity":21,"rain":0.0,"pressure":948.5,"uv_index":8.35,"wind_gusts":37.8,"aqi":72,"pm10":37.1,"pm2_5":20.8,"mosquito_risk":0,"arthritis_risk":5,"migraine_risk":7,"frizz_risk":0,"updated_at":"2026-03-20T14:17:32.584522+05:30"},{"city":"Ahmedabad","state":"Gujarat","latitude":23.0225,"longitude":72.5714,"temp":31.4,"humidity":36,"rain":0.0,"pressure":1003.7,"uv_index":7.6,"wind_gusts":33.8,"aqi":78,"pm10":99.2,"pm2_5":28.1,"mosquito_risk":0,"arthritis_risk":5,"migraine_risk":4,"frizz_risk":0,"updated_at":"2026-03-20T14:17:32.584529+05:30"},{"city":"Jaipur","state":"Rajasthan","latitude":26.9124,"longitude":75.7873,"temp":22.1,"humidity":64,"rain":0.0,"pressure":961.7,"uv_index":6.7,"wind_gusts":25.2,"aqi":88,"pm10":32.0,"pm2_5":14.4,"mosquito_risk":3,"arthritis_risk":5,"migraine_risk":7,"frizz_risk":0,"updated_at":"2026-03-20T14:17:32.584537+05:30"},{"city":"Lucknow","state":"Uttar Pradesh","latitude":26.8467,"longitude":80.9462,"temp":25.9,"humidity":61,"rain":0.0,"pressure":995.5,"uv_index":4.95,"wind_gusts":36.0,"aqi":91,"pm10":55.5,"pm2_5":29.9,"mosquito_risk":7,"arthritis_risk":5,"migraine_risk":3,"frizz_risk":1,"updated_at":"2026-03-20T14:17:32.584545+05:30"},{"city":"Kanpur","state":"Uttar Pradesh","latitude":26.4499,"longitude":80.3319,"temp":25.4,"humidity":59,"rain":0.0,"pressure":994.0,"uv_index":2.95,"wind_gusts":37.8,"aqi":119,"pm10":300.8,"pm2_5":50.6,"mosquito_risk":4,"arthritis_risk":5,"migraine_risk":3,"frizz_risk":1,"updated_at":"2026-03-20T14:17:32.584553+05:30"},{"city":"Chandigarh","state":"Chandigarh","latitude":30.7333,"longitude":76.7794,"temp":19.0,"humidity":79,"rain":0.0,"pressure":971.5,"uv_index":1.45,"wind_gusts":25.2,"aqi":92,"pm10":53.6,"pm2_5":22.7,"mosquito_risk":3,"arthritis_risk":5,"migraine_risk":3,"frizz_risk":0,"updated_at":"2026-03-20T14:17:32.584561+05:30"},{"city":"Srinagar","state":"Jammu and Kashmir","latitude":34.0837,"longitude":74.7973,"temp":10.3,"humidity":71,"rain":0.0,"pressure":839.2,"uv_index":4.05,"wind_gusts":14.4,"aqi":91,"pm10":10.3,"pm2_5":10.2,"mosquito_risk":3,"arthritis_risk":5,"migraine_risk":3,"frizz_risk":0,"updated_at":"2026-03-20T14:17:32.584567+05:30"},{"city":"Jammu","state":"Jammu and Kashmir","latitude":32.7266,"longitude":74.857,"temp":20.0,"humidity":78,"rain":0.0,"pressure":975.8,"uv_index":4.5,"wind_gusts":17.3,"aqi":99,"pm10":15.3,"pm2_5":7.5,"mosquito_risk":3,"arthritis_risk":5,"migraine_risk":3,"frizz_risk":0,"updated_at":"2026-03-20T14:17:32.584574+05:30"},{"city":"Amritsar","state":"Punjab","latitude":31.634,"longitude":74.8723,"temp":21.6,"humidity":67,"rain":0.0,"pressure":983.7,"uv_index":5.3,"wind_gusts":16.2,"aqi":98,"pm10":39.1,"pm2_5":16.9,"mosquito_risk":3,"arthritis_risk":5,"migraine_risk":3,"frizz_risk":0,"updated_at":"2026-03-20T14:17:32.584581+05:30"},{"city":"Ludhiana","state":"Punjab","latitude":30.901,"longitude":75.8573,"temp":19.8,"humidity":74,"rain":0.0,"pressure":981.8,"uv_index":3.25,"wind_gusts":15.1,"aqi":103,"pm10":50.4,"pm2_5":19.1,"mosquito_risk":3,"arthritis_risk":5,"migraine_risk":3,"frizz_risk":0,"updated_at":"2026-03-20T14:17:32.584587+05:30"},{"city":"Jalandhar","state":"Punjab","latitude":31.326,"longitude":75.5762,"temp":19.8,"humidity":76,"rain":0.0,"pressure":983.1,"uv_index":4.0,"wind_gusts":14.0,"aqi":96,"pm10":54.4,"pm2_5":23.9,"mosquito_risk":3,"arthritis_risk":5,"migraine_risk":3,"frizz_risk":0,"updated_at":"2026-03-20T14:17:32.584596+05:30"},{"city":"Dehradun","state":"Uttarakhand","latitude":30.6284,"longitude":78.0322,"temp":10.9,"humidity":86,"rain":0.6,"pressure":828.0,"uv_index":0.35,"wind_gusts":34.6,"aqi":49,"pm10":7.9,"pm2_5":4.5,"mosquito_risk":6,"arthritis_risk":10,"migraine_risk":3,"frizz_risk":0,"updated_at":"2026-03-20T14:17:32.584603+05:30"},{"city":"Shimla","state":"Himachal Pradesh","latitude":31.1048,"longitude":77.1734,"temp":9.0,"humidity":88,"rain":0.4,"pressure":781.3,"uv_index":0.5,"wind_gusts":33.5,"aqi":49,"pm10":22.9,"pm2_5":10.0,"mosquito_risk":6,"arthritis_risk":10,"migraine_risk":3,"frizz_risk":0,"updated_at":"2026-03-20T14:17:32.584610+05:30"},{"city":"Manali","state":"Himachal Pradesh","latitude":32.2396,"longitude":77.1887,"temp":9.9,"humidity":97,"rain":0.8,"pressure":814.1,"uv_index":3.15,"wind_gusts":26.3,"aqi":51,"pm10":0.8,"pm2_5":0.7,"mosquito_risk":6,"arthritis_risk":10,"migraine_risk":3,"frizz_risk":0,"updated_at":"2026-03-20T14:17:32.584617+05:30"},{"city":"Gurgaon","state":"Haryana","latitude":28.4595,"longitude":77.0266,"temp":21.4,"humidity":70,"rain":0.0,"pressure":984.3,"uv_index":3.0,"wind_gusts":18.4,"aqi":157,"pm10":35.4,"pm2_5":21.0,"mosquito_risk":3,"arthritis_risk":5,"migraine_risk":3,"frizz_risk":0,"updated_at":"2026-03-20T14:17:32.584623+05:30"},{"city":"Noida","state":"Uttar Pradesh","latitude":28.5355,"longitude":77.391,"temp":21.6,"humidity":64,"rain":0.0,"pressure":987.4,"uv_index":2.6,"wind_gusts":22.3,"aqi":157,"pm10":35.4,"pm2_5":21.0,"mosquito_risk":3,"arthritis_risk":5,"migraine_risk":3,"frizz_risk":0,"updated_at":"2026-03-20T14:17:32.584630+05:30"},{"city":"Ghaziabad","state":"Uttar Pradesh","latitude":28.6692,"longitude":77.4538,"temp":20.2,"humidity":74,"rain":0.0,"pressure":985.8,"uv_index":2.25,"wind_gusts":20.2,"aqi":133,"pm10":33.2,"pm2_5":19.4,"mosquito_risk":3,"arthritis_risk":5,"migraine_risk":3,"frizz_risk":0,"updated_at":"2026-03-20T14:17:32.584636+05:30"},{"city":"Faridabad","state":"Haryana","latitude":28.4089,"longitude":77.3178,"temp":21.7,"humidity":65,"rain":0.0,"pressure":986.6,"uv_index":3.7,"wind_gusts":19.1,"aqi":157,"pm10":35.4,"pm2_5":21.0,"mosquito_risk":3,"arthritis_risk":5,"migraine_risk":3,"frizz_risk":0,"updated_at":"2026-03-20T14:17:32.584642+05:30"},{"city":"Meerut","state":"Uttar Pradesh","latitude":28.9845,"longitude":77.7064,"temp":19.4,"humidity":85,"rain":0.0,"pressure":984.6,"uv_index":2.2,"wind_gusts":24.8,"aqi":133,"pm10":33.2,"pm2_5":19.4,"mosquito_risk":3,"arthritis_risk":10,"migraine_risk":3,"frizz_risk":1,"updated_at":"2026-03-20T14:17:32.584648+05:30"},{"city":"Agra","state":"Uttar Pradesh","latitude":27.1767,"longitude":78.0081,"temp":22.9,"humidity":62,"rain":0.0,"pressure":990.5,"uv_index":5.65,"wind_gusts":24.8,"aqi":447,"pm10":132.2,"pm2_5":22.5,"mosquito_risk":3,"arthritis_risk":5,"migraine_risk":3,"frizz_risk":0,"updated_at":"2026-03-20T14:17:32.584654+05:30"},{"city":"Varanasi","state":"Uttar Pradesh","latitude":25.3176,"longitude":82.9739,"temp":32.5,"humidity":34,"rain":0.0,"pressure":997.1,"uv_index":7.35,"wind_gusts":51.1,"aqi":117,"pm10":45.6,"pm2_5":33.4,"mosquito_risk":0,"arthritis_risk":5,"migraine_risk":7,"frizz_risk":0,"updated_at":"2026-03-20T14:17:32.584664+05:30"},{"city":"Prayagraj","state":"Uttar Pradesh","latitude":25.4358,"longitude":81.8463,"temp":26.3,"humidity":64,"rain":0.0,"pressure":997.5,"uv_index":5.95,"wind_gusts":46.4,"aqi":106,"pm10":46.0,"pm2_5":30.9,"mosquito_risk":7,"arthritis_risk":5,"migraine_risk":3,"frizz_risk":1,"updated_at":"2026-03-20T14:17:32.584670+05:30"},{"city":"Gorakhpur","state":"Uttar Pradesh","latitude":26.7606,"longitude":83.3732,"temp":29.8,"humidity":51,"rain":0.0,"pressure":997.3,"uv_index":6.85,"wind_gusts":49.0,"aqi":149,"pm10":73.1,"pm2_5":41.2,"mosquito_risk":4,"arthritis_risk":5,"migraine_risk":7,"frizz_risk":1,"updated_at":"2026-03-20T14:17:32.584677+05:30"},{"city":"Bareilly","state":"Uttar Pradesh","latitude":28.367,"longitude":79.4304,"temp":20.7,"humidity":77,"rain":0.0,"pressure":989.7,"uv_index":4.05,"wind_gusts":29.9,"aqi":83,"pm10":107.6,"pm2_5":48.1,"mosquito_risk":3,"arthritis_risk":5,"migraine_risk":3,"frizz_risk":1,"updated_at":"2026-03-20T14:17:32.584684+05:30"},{"city":"Aligarh","state":"Uttar Pradesh","latitude":27.8974,"longitude":78.088,"temp":20.7,"humidity":77,"rain":0.0,"pressure":988.5,"uv_index":4.05,"wind_gusts":23.4,"aqi":132,"pm10":20.0,"pm2_5":12.7,"mosquito_risk":3,"arthritis_risk":5,"migraine_risk":3,"frizz_risk":1,"updated_at":"2026-03-20T14:17:32.584690+05:30"},{"city":"Moradabad","state":"Uttar Pradesh","latitude":28.8386,"longitude":78.7733,"temp":19.1,"humidity":85,"rain":0.1,"pressure":986.5,"uv_index":2.3,"wind_gusts":28.8,"aqi":93,"pm10":73.1,"pm2_5":33.1,"mosquito_risk":6,"arthritis_risk":10,"migraine_risk":3,"frizz_risk":1,"updated_at":"2026-03-20T14:17:32.584697+05:30"},{"city":"Saharanpur","state":"Uttar Pradesh","latitude":29.9637,"longitude":77.546,"temp":18.4,"humidity":84,"rain":0.2,"pressure":978.8,"uv_index":0.6,"wind_gusts":14.4,"aqi":132,"pm10":59.0,"pm2_5":28.1,"mosquito_risk":6,"arthritis_risk":10,"migraine_risk":3,"frizz_risk":0,"updated_at":"2026-03-20T14:17:32.584705+05:30"},{"city":"Jhansi","state":"Uttar Pradesh","latitude":25.4484,"longitude":78.5685,"temp":24.7,"humidity":58,"rain":0.0,"pressure":979.6,"uv_index":6.1,"wind_gusts":33.1,"aqi":91,"pm10":93.6,"pm2_5":32.0,"mosquito_risk":0,"arthritis_risk":5,"migraine_risk":7,"frizz_risk":0,"updated_at":"2026-03-20T14:17:35.802972+05:30"},{"city":"Surat","state":"Gujarat","latitude":21.1702,"longitude":72.8311,"temp":29.6,"humidity":50,"rain":0.0,"pressure":1008.5,"uv_index":7.5,"wind_gusts":24.5,"aqi":106,"pm10":102.4,"pm2_5":45.3,"mosquito_risk":4,"arthritis_risk":0,"migraine_risk":4,"frizz_risk":1,"updated_at":"2026-03-20T14:17:35.802997+05:30"},{"city":"Vadodara","state":"Gujarat","latitude":22.3072,"longitude":73.1812,"temp":31.8,"humidity":41,"rain":0.0,"pressure":1005.9,"uv_index":7.65,"wind_gusts":29.2,"aqi":68,"pm10":107.1,"pm2_5":32.1,"mosquito_risk":0,"arthritis_risk":5,"migraine_risk":4,"frizz_risk":1,"updated_at":"2026-03-20T14:17:35.803006+05:30"},{"city":"Rajkot","state":"Gujarat","latitude":22.3039,"longitude":70.8022,"temp":30.7,"humidity":43,"rain":0.0,"pressure":996.1,"uv_index":7.4,"wind_gusts":31.3,"aqi":73,"pm10":110.1,"pm2_5":25.2,"mosquito_risk":0,"arthritis_risk":5,"migraine_risk":7,"frizz_risk":1,"updated_at":"2026-03-20T14:17:35.803013+05:30"},{"city":"Thane","state":"Maharashtra","latitude":19.2183,"longitude":72.9781,"temp":29.9,"humidity":54,"rain":0.0,"pressure":1009.0,"uv_index":7.8,"wind_gusts":37.1,"aqi":77,"pm10":52.2,"pm2_5":38.0,"mosquito_risk":4,"arthritis_risk":0,"migraine_risk":4,"frizz_risk":1,"updated_at":"2026-03-20T14:17:35.803020+05:30"},{"city":"Nagpur","state":"Maharashtra","latitude":21.1458,"longitude":79.0882,"temp":31.5,"humidity":36,"rain":0.0,"pressure":973.5,"uv_index":7.85,"wind_gusts":47.2,"aqi":101,"pm10":39.2,"pm2_5":22.6,"mosquito_risk":0,"arthritis_risk":5,"migraine_risk":7,"frizz_risk":0,"updated_at":"2026-03-20T14:17:35.803027+05:30"},{"city":"Nashik","state":"Maharashtra","latitude":19.9975,"longitude":73.7898,"temp":29.5,"humidity":39,"rain":0.0,"pressure":946.1,"uv_index":8.0,"wind_gusts":35.6,"aqi":54,"pm10":47.0,"pm2_5":15.7,"mosquito_risk":4,"arthritis_risk":5,"migraine_risk":7,"frizz_risk":0,"updated_at":"2026-03-20T14:17:35.803032+05:30"},{"city":"Aurangabad","state":"Maharashtra","latitude":19.8762,"longitude":75.3433,"temp":32.6,"humidity":19,"rain":0.0,"pressure":944.2,"uv_index":8.5,"wind_gusts":34.6,"aqi":73,"pm10":51.1,"pm2_5":19.0,"mosquito_risk":0,"arthritis_risk":5,"migraine_risk":7,"frizz_risk":0,"updated_at":"2026-03-20T14:17:35.803038+05:30"},{"city":"Solapur","state":"Maharashtra","latitude":17.6599,"longitude":75.9064,"temp":34.7,"humidity":22,"rain":0.0,"pressure":956.6,"uv_index":8.7,"wind_gusts":27.4,"aqi":76,"pm10":38.9,"pm2_5":20.9,"mosquito_risk":0,"arthritis_risk":5,"migraine_risk":7,"frizz_risk":0,"updated_at":"2026-03-20T14:17:35.803044+05:30"},{"city":"Kolhapur","state":"Maharashtra","latitude":16.705,"longitude":74.2433,"temp":32.2,"humidity":30,"rain":0.0,"pressure":948.0,"uv_index":8.8,"wind_gusts":43.6,"aqi":85,"pm10":27.8,"pm2_5":20.5,"mosquito_risk":0,"arthritis_risk":5,"migraine_risk":7,"frizz_risk":0,"updated_at":"2026-03-20T14:17:35.803050+05:30"},{"city":"Goa","state":"Goa","latitude":15.2993,"longitude":74.124,"temp":32.0,"humidity":46,"rain":0.0,"pressure":997.6,"uv_index":8.85,"wind_gusts":36.7,"aqi":64,"pm10":28.4,"pm2_5":18.5,"mosquito_risk":0,"arthritis_risk":5,"migraine_risk":7,"frizz_risk":1,"updated_at":"2026-03-20T14:17:35.803056+05:30"},{"city":"Jodhpur","state":"Rajasthan","latitude":26.2389,"longitude":73.0243,"temp":27.7,"humidity":41,"rain":0.0,"pressure":985.3,"uv_index":7.25,"wind_gusts":18.7,"aqi":68,"pm10":71.2,"pm2_5":19.1,"mosquito_risk":4,"arthritis_risk":5,"migraine_risk":7,"frizz_risk":0,"updated_at":"2026-03-20T14:17:35.803061+05:30"},{"city":"Udaipur","state":"Rajasthan","latitude":24.5854,"longitude":73.7125,"temp":26.3,"humidity":37,"rain":0.0,"pressure":947.4,"uv_index":6.0,"wind_gusts":31.0,"aqi":63,"pm10":57.4,"pm2_5":14.2,"mosquito_risk":4,"arthritis_risk":5,"migraine_risk":3,"frizz_risk":0,"updated_at":"2026-03-20T14:17:35.803067+05:30"},{"city":"Kota","state":"Rajasthan","latitude":25.2138,"longitude":75.8648,"temp":24.7,"humidity":57,"rain":0.0,"pressure":980.6,"uv_index":7.0,"wind_gusts":36.0,"aqi":66,"pm10":35.7,"pm2_5":11.6,"mosquito_risk":0,"arthritis_risk":5,"migraine_risk":7,"frizz_risk":0,"updated_at":"2026-03-20T14:17:35.803073+05:30"},{"city":"Bikaner","state":"Rajasthan","latitude":28.0229,"longitude":73.3119,"temp":26.2,"humidity":43,"rain":0.0,"pressure":984.7,"uv_index":6.95,"wind_gusts":16.6,"aqi":63,"pm10":54.2,"pm2_5":19.7,"mosquito_risk":4,"arthritis_risk":5,"migraine_risk":7,"frizz_risk":0,"updated_at":"2026-03-20T14:17:35.803078+05:30"},{"city":"Ajmer","state":"Rajasthan","latitude":26.4499,"longitude":74.6399,"temp":23.7,"humidity":55,"rain":0.0,"pressure":956.4,"uv_index":6.85,"wind_gusts":25.6,"aqi":62,"pm10":38.1,"pm2_5":14.0,"mosquito_risk":0,"arthritis_risk":5,"migraine_risk":7,"frizz_risk":0,"updated_at":"2026-03-20T14:17:35.803084+05:30"},{"city":"Gwalior","state":"Madhya Pradesh","latitude":26.2183,"longitude":78.1828,"temp":24.4,"humidity":58,"rain":0.0,"pressure":985.2,"uv_index":6.35,"wind_gusts":31.0,"aqi":118,"pm10":47.6,"pm2_5":18.6,"mosquito_risk":0,"arthritis_risk":5,"migraine_risk":7,"frizz_risk":0,"updated_at":"2026-03-20T14:17:35.803089+05:30"},{"city":"Indore","state":"Madhya Pradesh","latitude":22.7196,"longitude":75.8577,"temp":27.7,"humidity":42,"rain":0.0,"pressure":948.8,"uv_index":7.85,"wind_gusts":38.5,"aqi":64,"pm10":60.5,"pm2_5":18.7,"mosquito_risk":4,"arthritis_risk":5,"migraine_risk":7,"frizz_risk":0,"updated_at":"2026-03-20T14:17:35.803095+05:30"},{"city":"Bhopal","state":"Madhya Pradesh","latitude":23.2599,"longitude":77.4126,"temp":29.1,"humidity":34,"rain":0.0,"pressure":953.9,"uv_index":7.75,"wind_gusts":37.1,"aqi":69,"pm10":63.1,"pm2_5":18.2,"mosquito_risk":4,"arthritis_risk":5,"migraine_risk":7,"frizz_risk":0,"updated_at":"2026-03-20T14:17:35.803100+05:30"},{"city":"Jabalpur","state":"Madhya Pradesh","latitude":23.1815,"longitude":79.9864,"temp":28.2,"humidity":43,"rain":0.0,"pressure":962.0,"uv_index":4.35,"wind_gusts":34.2,"aqi":68,"pm10":32.0,"pm2_5":19.2,"mosquito_risk":4,"arthritis_risk":5,"migraine_risk":3,"frizz_risk":0,"updated_at":"2026-03-20T14:17:35.803106+05:30"},{"city":"Ujjain","state":"Madhya Pradesh","latitude":23.1765,"longitude":75.7885,"temp":28.1,"humidity":40,"rain":0.0,"pressure":954.5,"uv_index":7.75,"wind_gusts":39.2,"aqi":63,"pm10":48.9,"pm2_5":15.3,"mosquito_risk":4,"arthritis_risk":5,"migraine_risk":7,"frizz_risk":0,"updated_at":"2026-03-20T14:17:35.803112+05:30"},{"city":"Visakhapatnam","state":"Andhra Pradesh","latitude":17.6868,"longitude":83.2185,"temp":31.8,"humidity":47,"rain":0.0,"pressure":1003.7,"uv_index":8.8,"wind_gusts":37.8,"aqi":63,"pm10":16.7,"pm2_5":13.3,"mosquito_risk":0,"arthritis_risk":5,"migraine_risk":4,"frizz_risk":1,"updated_at":"2026-03-20T14:17:35.803118+05:30"},{"city":"Vijayawada","state":"Andhra Pradesh","latitude":16.5062,"longitude":80.648,"temp":32.0,"humidity":47,"rain":0.0,"pressure":1002.9,"uv_index":8.85,"wind_gusts":22.3,"aqi":60,"pm10":16.7,"pm2_5":11.9,"mosquito_risk":0,"arthritis_risk":5,"migraine_risk":4,"frizz_risk":1,"updated_at":"2026-03-20T14:17:35.803123+05:30"},{"city":"Guntur","state":"Andhra Pradesh","latitude":16.3067,"longitude":80.4365,"temp":31.9,"humidity":49,"rain":0.0,"pressure":1004.5,"uv_index":8.85,"wind_gusts":24.8,"aqi":53,"pm10":15.3,"pm2_5":10.1,"mosquito_risk":0,"arthritis_risk":5,"migraine_risk":4,"frizz_risk":1,"updated_at":"2026-03-20T14:17:35.803128+05:30"},{"city":"Nellore","state":"Andhra Pradesh","latitude":14.4426,"longitude":79.9865,"temp":33.4,"humidity":44,"rain":0.0,"pressure":1005.5,"uv_index":9.0,"wind_gusts":29.9,"aqi":37,"pm10":16.8,"pm2_5":13.7,"mosquito_risk":0,"arthritis_risk":5,"migraine_risk":4,"frizz_risk":1,"updated_at":"2026-03-20T14:17:35.803135+05:30"},{"city":"Kurnool","state":"Andhra Pradesh","latitude":15.8281,"longitude":78.0373,"temp":35.0,"humidity":30,"rain":0.0,"pressure":976.2,"uv_index":8.85,"wind_gusts":19.4,"aqi":60,"pm10":21.7,"pm2_5":14.7,"mosquito_risk":0,"arthritis_risk":5,"migraine_risk":7,"frizz_risk":0,"updated_at":"2026-03-20T14:17:35.803141+05:30"},{"city":"Kakinada","state":"Andhra Pradesh","latitude":16.9891,"longitude":82.2475,"temp":32.7,"humidity":44,"rain":0.0,"pressure":1007.5,"uv_index":8.8,"wind_gusts":30.6,"aqi":50,"pm10":13.0,"pm2_5":10.1,"mosquito_risk":0,"arthritis_risk":5,"migraine_risk":4,"frizz_risk":1,"updated_at":"2026-03-20T14:17:35.803146+05:30"},{"city":"Tirupati","state":"Andhra Pradesh","latitude":13.6288,"longitude":79.4192,"temp":33.4,"humidity":40,"rain":0.0,"pressure":990.7,"uv_index":9.15,"wind_gusts":17.6,"aqi":52,"pm10":16.6,"pm2_5":12.1,"mosquito_risk":0,"arthritis_risk":5,"migraine_risk":7,"frizz_risk":1,"updated_at":"2026-03-20T14:17:35.803152+05:30"},{"city":"Warangal","state":"Telangana","latitude":17.9689,"longitude":79.5941,"temp":30.3,"humidity":51,"rain":0.0,"pressure":979.3,"uv_index":8.65,"wind_gusts":28.4,"aqi":80,"pm10":20.3,"pm2_5":13.7,"mosquito_risk":0,"arthritis_risk":5,"migraine_risk":7,"frizz_risk":1,"updated_at":"2026-03-20T14:17:35.803157+05:30"},{"city":"Nizamabad","state":"Telangana","latitude":18.6725,"longitude":78.0941,"temp":31.4,"humidity":36,"rain":0.0,"pressure":965.2,"uv_index":8.55,"wind_gusts":25.6,"aqi":92,"pm10":36.1,"pm2_5":20.4,"mosquito_risk":0,"arthritis_risk":5,"migraine_risk":7,"frizz_risk":0,"updated_at":"2026-03-20T14:17:35.803163+05:30"},{"city":"Mysore","state":"Karnataka","latitude":12.2958,"longitude":76.6396,"temp":31.7,"humidity":34,"rain":0.0,"pressure":928.1,"uv_index":9.35,"wind_gusts":33.5,"aqi":75,"pm10":23.6,"pm2_5":17.2,"mosquito_risk":0,"arthritis_risk":5,"migraine_risk":7,"frizz_risk":0,"updated_at":"2026-03-20T14:17:35.803169+05:30"},{"city":"Mangalore","state":"Karnataka","latitude":12.9141,"longitude":74.856,"temp":28.5,"humidity":77,"rain":0.0,"pressure":1005.9,"uv_index":9.0,"wind_gusts":29.9,"aqi":70,"pm10":26.8,"pm2_5":18.7,"mosquito_risk":7,"arthritis_risk":5,"migraine_risk":4,"frizz_risk":1,"updated_at":"2026-03-20T14:17:35.803175+05:30"},{"city":"Hubli-Dharwad","state":"Karnataka","latitude":15.3647,"longitude":75.124,"temp":32.7,"humidity":28,"rain":0.0,"pressure":940.6,"uv_index":9.0,"wind_gusts":40.7,"aqi":68,"pm10":26.0,"pm2_5":15.1,"mosquito_risk":0,"arthritis_risk":5,"migraine_risk":7,"frizz_risk":0,"updated_at":"2026-03-20T14:17:35.803181+05:30"},{"city":"Belgaum","state":"Karnataka","latitude":15.8497,"longitude":74.4977,"temp":31.9,"humidity":26,"rain":0.0,"pressure":925.7,"uv_index":9.1,"wind_gusts":44.6,"aqi":72,"pm10":26.0,"pm2_5":19.7,"mosquito_risk":0,"arthritis_risk":5,"migraine_risk":7,"frizz_risk":0,"updated_at":"2026-03-20T14:17:39.020198+05:30"},{"city":"Coimbatore","state":"Tamil Nadu","latitude":11.0168,"longitude":76.9558,"temp":33.0,"humidity":35,"rain":0.0,"pressure":960.9,"uv_index":9.35,"wind_gusts":36.7,"aqi":60,"pm10":19.3,"pm2_5":15.1,"mosquito_risk":0,"arthritis_risk":5,"migraine_risk":7,"frizz_risk":0,"updated_at":"2026-03-20T14:17:39.020228+05:30"},{"city":"Madurai","state":"Tamil Nadu","latitude":9.9252,"longitude":78.1198,"temp":34.9,"humidity":39,"rain":0.0,"pressure":991.8,"uv_index":9.3,"wind_gusts":20.9,"aqi":57,"pm10":16.6,"pm2_5":12.6,"mosquito_risk":0,"arthritis_risk":5,"migraine_risk":7,"frizz_risk":1,"updated_at":"2026-03-20T14:17:39.020238+05:30"},{"city":"Trichy","state":"Tamil Nadu","latitude":10.7905,"longitude":78.7047,"temp":32.6,"humidity":53,"rain":0.0,"pressure":999.2,"uv_index":9.25,"wind_gusts":21.6,"aqi":65,"pm10":17.9,"pm2_5":15.3,"mosquito_risk":0,"arthritis_risk":5,"migraine_risk":7,"frizz_risk":1,"updated_at":"2026-03-20T14:17:39.020246+05:30"},{"city":"Salem","state":"Tamil Nadu","latitude":11.6643,"longitude":78.146,"temp":32.9,"humidity":48,"rain":0.0,"pressure":976.8,"uv_index":9.3,"wind_gusts":20.9,"aqi":73,"pm10":26.4,"pm2_5":19.9,"mosquito_risk":0,"arthritis_risk":5,"migraine_risk":7,"frizz_risk":1,"updated_at":"2026-03-20T14:17:39.020254+05:30"},{"city":"Tirunelveli","state":"Tamil Nadu","latitude":8.7139,"longitude":77.7567,"temp":34.6,"humidity":45,"rain":0.0,"pressure":1002.2,"uv_index":9.3,"wind_gusts":33.5,"aqi":62,"pm10":15.0,"pm2_5":12.9,"mosquito_risk":0,"arthritis_risk":5,"migraine_risk":4,"frizz_risk":1,"updated_at":"2026-03-20T14:17:39.020261+05:30"},{"city":"Vellore","state":"Tamil Nadu","latitude":12.9165,"longitude":79.1325,"temp":33.0,"humidity":42,"rain":0.0,"pressure":984.1,"uv_index":9.2,"wind_gusts":19.4,"aqi":61,"pm10":18.8,"pm2_5":14.5,"mosquito_risk":0,"arthritis_risk":5,"migraine_risk":7,"frizz_risk":1,"updated_at":"2026-03-20T14:17:39.020268+05:30"},{"city":"Erode","state":"Tamil Nadu","latitude":11.341,"longitude":77.7172,"temp":34.3,"humidity":43,"rain":0.0,"pressure":988.2,"uv_index":9.3,"wind_gusts":26.6,"aqi":65,"pm10":18.3,"pm2_5":14.5,"mosquito_risk":0,"arthritis_risk":5,"migraine_risk":7,"frizz_risk":1,"updated_at":"2026-03-20T14:17:39.020275+05:30"},{"city":"Kochi","state":"Kerala","latitude":9.9312,"longitude":76.2673,"temp":28.6,"humidity":74,"rain":0.0,"pressure":1007.7,"uv_index":9.15,"wind_gusts":36.0,"aqi":65,"pm10":15.0,"pm2_5":11.8,"mosquito_risk":7,"arthritis_risk":5,"migraine_risk":4,"frizz_risk":1,"updated_at":"2026-03-20T14:17:39.020282+05:30"},{"city":"Thiruvananthapuram","state":"Kerala","latitude":8.5241,"longitude":76.9366,"temp":28.8,"humidity":75,"rain":0.0,"pressure":1006.7,"uv_index":9.15,"wind_gusts":26.6,"aqi":50,"pm10":16.6,"pm2_5":13.9,"mosquito_risk":7,"arthritis_risk":5,"migraine_risk":4,"frizz_risk":1,"updated_at":"2026-03-20T14:17:39.020289+05:30"},{"city":"Kozhikode","state":"Kerala","latitude":11.2588,"longitude":75.7804,"temp":29.9,"humidity":70,"rain":0.0,"pressure":1006.7,"uv_index":9.05,"wind_gusts":30.2,"aqi":61,"pm10":25.3,"pm2_5":17.4,"mosquito_risk":7,"arthritis_risk":5,"migraine_risk":4,"frizz_risk":1,"updated_at":"2026-03-20T14:17:39.020296+05:30"},{"city":"Thrissur","state":"Kerala","latitude":10.5276,"longitude":76.2144,"temp":33.2,"humidity":54,"rain":0.0,"pressure":1005.9,"uv_index":9.15,"wind_gusts":37.4,"aqi":65,"pm10":13.8,"pm2_5":10.5,"mosquito_risk":0,"arthritis_risk":5,"migraine_risk":4,"frizz_risk":1,"updated_at":"2026-03-20T14:17:39.020303+05:30"},{"city":"Kannur","state":"Kerala","latitude":11.8745,"longitude":75.3704,"temp":31.5,"humidity":58,"rain":0.0,"pressure":1006.3,"uv_index":9.05,"wind_gusts":38.5,"aqi":57,"pm10":22.4,"pm2_5":15.8,"mosquito_risk":0,"arthritis_risk":5,"migraine_risk":4,"frizz_risk":1,"updated_at":"2026-03-20T14:17:39.020310+05:30"},{"city":"Patna","state":"Bihar","latitude":25.5941,"longitude":85.1376,"temp":30.1,"humidity":55,"rain":0.0,"pressure":1000.4,"uv_index":7.7,"wind_gusts":37.1,"aqi":158,"pm10":65.2,"pm2_5":58.7,"mosquito_risk":0,"arthritis_risk":5,"migraine_risk":4,"frizz_risk":1,"updated_at":"2026-03-20T14:17:39.020316+05:30"},{"city":"Gaya","state":"Bihar","latitude":24.7914,"longitude":85.0002,"temp":32.6,"humidity":37,"rain":0.0,"pressure":992.7,"uv_index":7.8,"wind_gusts":27.4,"aqi":130,"pm10":47.1,"pm2_5":39.5,"mosquito_risk":0,"arthritis_risk":5,"migraine_risk":7,"frizz_risk":0,"updated_at":"2026-03-20T14:17:39.020323+05:30"},{"city":"Muzaffarpur","state":"Bihar","latitude":26.1209,"longitude":85.3647,"temp":26.1,"humidity":69,"rain":0.0,"pressure":1002.1,"uv_index":7.25,"wind_gusts":35.6,"aqi":161,"pm10":65.9,"pm2_5":56.2,"mosquito_risk":7,"arthritis_risk":5,"migraine_risk":4,"frizz_risk":1,"updated_at":"2026-03-20T14:17:39.020329+05:30"},{"city":"Bhagalpur","state":"Bihar","latitude":25.2425,"longitude":87.0117,"temp":28.5,"humidity":66,"rain":0.0,"pressure":1001.4,"uv_index":7.75,"wind_gusts":47.2,"aqi":143,"pm10":60.1,"pm2_5":53.7,"mosquito_risk":7,"arthritis_risk":5,"migraine_risk":4,"frizz_risk":1,"updated_at":"2026-03-20T14:17:39.020335+05:30"},{"city":"Ranchi","state":"Jharkhand","latitude":23.3441,"longitude":85.3096,"temp":28.4,"humidity":43,"rain":0.0,"pressure":937.9,"uv_index":7.7,"wind_gusts":31.3,"aqi":102,"pm10":36.8,"pm2_5":24.7,"mosquito_risk":4,"arthritis_risk":5,"migraine_risk":7,"frizz_risk":0,"updated_at":"2026-03-20T14:17:39.020342+05:30"},{"city":"Jamshedpur","state":"Jharkhand","latitude":22.8046,"longitude":86.2029,"temp":33.0,"humidity":36,"rain":0.0,"pressure":990.2,"uv_index":7.55,"wind_gusts":37.8,"aqi":117,"pm10":48.3,"pm2_5":36.4,"mosquito_risk":0,"arthritis_risk":5,"migraine_risk":7,"frizz_risk":0,"updated_at":"2026-03-20T14:17:39.020348+05:30"},{"city":"Dhanbad","state":"Jharkhand","latitude":23.7957,"longitude":86.4304,"temp":33.5,"humidity":27,"rain":0.0,"pressure":978.6,"uv_index":7.8,"wind_gusts":33.1,"aqi":155,"pm10":51.3,"pm2_5":39.6,"mosquito_risk":0,"arthritis_risk":5,"migraine_risk":7,"frizz_risk":0,"updated_at":"2026-03-20T14:17:39.020355+05:30"},{"city":"Bokaro","state":"Jharkhand","latitude":23.6693,"longitude":86.1511,"temp":30.9,"humidity":41,"rain":0.0,"pressure":983.3,"uv_index":7.7,"wind_gusts":33.8,"aqi":148,"pm10":41.3,"pm2_5":30.6,"mosquito_risk":0,"arthritis_risk":5,"migraine_risk":7,"frizz_risk":1,"updated_at":"2026-03-20T14:17:39.020362+05:30"},{"city":"Bhubaneswar","state":"Odisha","latitude":20.2961,"longitude":85.8245,"temp":32.3,"humidity":48,"rain":0.0,"pressure":1002.1,"uv_index":8.55,"wind_gusts":32.0,"aqi":67,"pm10":32.7,"pm2_5":25.4,"mosquito_risk":0,"arthritis_risk":5,"migraine_risk":4,"frizz_risk":1,"updated_at":"2026-03-20T14:17:39.020369+05:30"},{"city":"Cuttack","state":"Odisha","latitude":20.4625,"longitude":85.8828,"temp":33.2,"humidity":43,"rain":0.0,"pressure":1003.7,"uv_index":8.45,"wind_gusts":28.8,"aqi":67,"pm10":32.7,"pm2_5":25.4,"mosquito_risk":0,"arthritis_risk":5,"migraine_risk":4,"frizz_risk":1,"updated_at":"2026-03-20T14:17:39.020375+05:30"},{"city":"Rourkela","state":"Odisha","latitude":22.2604,"longitude":84.8536,"temp":28.2,"humidity":57,"rain":0.0,"pressure":985.7,"uv_index":7.9,"wind_gusts":47.9,"aqi":118,"pm10":53.0,"pm2_5":40.4,"mosquito_risk":4,"arthritis_risk":5,"migraine_risk":7,"frizz_risk":1,"updated_at":"2026-03-20T14:17:39.020382+05:30"},{"city":"Raipur","state":"Chhattisgarh","latitude":21.2514,"longitude":81.6296,"temp":30.2,"humidity":42,"rain":0.0,"pressure":975.0,"uv_index":7.4,"wind_gusts":28.1,"aqi":130,"pm10":44.4,"pm2_5":35.2,"mosquito_risk":0,"arthritis_risk":5,"migraine_risk":7,"frizz_risk":0,"updated_at":"2026-03-20T14:17:39.020388+05:30"},{"city":"Bhilai","state":"Chhattisgarh","latitude":21.1938,"longitude":81.3509,"temp":29.9,"humidity":48,"rain":0.0,"pressure":975.3,"uv_index":6.45,"wind_gusts":27.0,"aqi":125,"pm10":41.4,"pm2_5":32.5,"mosquito_risk":4,"arthritis_risk":5,"migraine_risk":7,"frizz_risk":1,"updated_at":"2026-03-20T14:17:39.020395+05:30"},{"city":"Guwahati","state":"Assam","latitude":26.1158,"longitude":91.7086,"temp":28.9,"humidity":56,"rain":0.0,"pressure":1002.9,"uv_index":7.1,"wind_gusts":27.4,"aqi":98,"pm10":43.0,"pm2_5":31.9,"mosquito_risk":4,"arthritis_risk":5,"migraine_risk":4,"frizz_risk":1,"updated_at":"2026-03-20T14:17:39.020401+05:30"},{"city":"Agartala","state":"Tripura","latitude":23.8315,"longitude":91.2868,"temp":29.3,"humidity":62,"rain":0.0,"pressure":1007.7,"uv_index":6.3,"wind_gusts":29.2,"aqi":95,"pm10":33.2,"pm2_5":27.5,"mosquito_risk":7,"arthritis_risk":5,"migraine_risk":4,"frizz_risk":1,"updated_at":"2026-03-20T14:17:39.020407+05:30"},{"city":"Shillong","state":"Meghalaya","latitude":25.5788,"longitude":91.8933,"temp":17.8,"humidity":53,"rain":0.0,"pressure":857.7,"uv_index":7.5,"wind_gusts":32.4,"aqi":85,"pm10":42.4,"pm2_5":28.3,"mosquito_risk":0,"arthritis_risk":5,"migraine_risk":7,"frizz_risk":0,"updated_at":"2026-03-20T14:17:39.020414+05:30"},{"city":"Imphal","state":"Manipur","latitude":24.817,"longitude":93.9368,"temp":21.9,"humidity":63,"rain":0.0,"pressure":924.7,"uv_index":7.9,"wind_gusts":44.6,"aqi":91,"pm10":29.9,"pm2_5":17.9,"mosquito_risk":3,"arthritis_risk":5,"migraine_risk":7,"frizz_risk":0,"updated_at":"2026-03-20T14:17:39.020420+05:30"},{"city":"Aizawl","state":"Mizoram","latitude":23.7271,"longitude":92.7176,"temp":25.1,"humidity":41,"rain":0.0,"pressure":894.8,"uv_index":7.6,"wind_gusts":23.8,"aqi":76,"pm10":37.1,"pm2_5":26.5,"mosquito_risk":4,"arthritis_risk":5,"migraine_risk":7,"frizz_risk":0,"updated_at":"2026-03-20T14:17:39.020444+05:30"},{"city":"Kohima","state":"Nagaland","latitude":25.6701,"longitude":94.1077,"temp":17.0,"humidity":82,"rain":0.0,"pressure":856.2,"uv_index":7.5,"wind_gusts":62.3,"aqi":71,"pm10":38.2,"pm2_5":22.8,"mosquito_risk":3,"arthritis_risk":10,"migraine_risk":7,"frizz_risk":0,"updated_at":"2026-03-20T14:17:39.020452+05:30"},{"city":"Gangtok","state":"Sikkim","latitude":27.3314,"longitude":88.6138,"temp":17.9,"humidity":64,"rain":0.0,"pressure":837.9,"uv_index":7.9,"wind_gusts":18.4,"aqi":102,"pm10":42.5,"pm2_5":30.9,"mosquito_risk":3,"arthritis_risk":5,"migraine_risk":7,"frizz_risk":0,"updated_at":"2026-03-20T14:17:39.020460+05:30"},{"city":"Siliguri","state":"West Bengal","latitude":26.7271,"longitude":88.3953,"temp":22.9,"humidity":72,"rain":0.0,"pressure":995.4,"uv_index":7.6,"wind_gusts":23.0,"aqi":152,"pm10":64.0,"pm2_5":47.0,"mosquito_risk":3,"arthritis_risk":5,"migraine_risk":7,"frizz_risk":1,"updated_at":"2026-03-20T14:17:42.238820+05:30"},{"city":"Durgapur","state":"West Bengal","latitude":23.5204,"longitude":87.3119,"temp":33.0,"humidity":37,"rain":0.0,"pressure":994.0,"uv_index":7.0,"wind_gusts":42.1,"aqi":156,"pm10":70.1,"pm2_5":59.6,"mosquito_risk":0,"arthritis_risk":5,"migraine_risk":7,"frizz_risk":1,"updated_at":"2026-03-20T14:17:42.238850+05:30"},{"city":"Asansol","state":"West Bengal","latitude":23.6739,"longitude":86.9524,"temp":33.2,"humidity":36,"rain":0.0,"pressure":992.3,"uv_index":5.4,"wind_gusts":40.0,"aqi":153,"pm10":59.8,"pm2_5":47.3,"mosquito_risk":0,"arthritis_risk":5,"migraine_risk":3,"frizz_risk":1,"updated_at":"2026-03-20T14:17:42.238863+05:30"},{"city":"Pondicherry","state":"Puducherry","latitude":11.9139,"longitude":79.8145,"temp":33.1,"humidity":52,"rain":0.0,"pressure":1007.8,"uv_index":9.1,"wind_gusts":23.4,"aqi":35,"pm10":16.5,"pm2_5":15.4,"mosquito_risk":0,"arthritis_risk":5,"migraine_risk":4,"frizz_risk":1,"updated_at":"2026-03-20T14:17:42.238872+05:30"},{"city":"Port Blair","state":"Andaman and Nicobar Islands","latitude":11.6234,"longitude":92.7265,"temp":28.8,"humidity":76,"rain":0.0,"pressure":1006.9,"uv_index":7.75,"wind_gusts":14.8,"aqi":47,"pm10":16.5,"pm2_5":12.7,"mosquito_risk":7,"arthritis_risk":5,"migraine_risk":4,"frizz_risk":1,"updated_at":"2026-03-20T14:17:42.238881+05:30"},{"city":"Haridwar","state":"Uttarakhand","latitude":29.9457,"longitude":78.1642,"temp":17.7,"humidity":88,"rain":1.1,"pressure":977.4,"uv_index":0.65,"wind_gusts":27.7,"aqi":77,"pm10":37.0,"pm2_5":17.6,"mosquito_risk":6,"arthritis_risk":10,"migraine_risk":3,"frizz_risk":0,"updated_at":"2026-03-20T14:17:42.238890+05:30"},{"city":"Rishikesh","state":"Uttarakhand","latitude":30.0869,"longitude":78.2676,"temp":16.8,"humidity":92,"rain":1.4,"pressure":969.5,"uv_index":0.8,"wind_gusts":27.7,"aqi":64,"pm10":22.5,"pm2_5":11.9,"mosquito_risk":6,"arthritis_risk":10,"migraine_risk":3,"frizz_risk":0,"updated_at":"2026-03-20T14:17:42.238899+05:30"},{"city":"Nainital","state":"Uttarakhand","latitude":29.3919,"longitude":79.4542,"temp":13.3,"humidity":90,"rain":0.1,"pressure":804.3,"uv_index":2.25,"wind_gusts":65.2,"aqi":64,"pm10":45.2,"pm2_5":22.1,"mosquito_risk":6,"arthritis_risk":10,"migraine_risk":3,"frizz_risk":0,"updated_at":"2026-03-20T14:17:42.238907+05:30"},{"city":"Mussoorie","state":"Uttarakhand","latitude":30.4599,"longitude":78.0664,"temp":10.8,"humidity":92,"rain":0.9,"pressure":800.2,"uv_index":0.45,"wind_gusts":46.8,"aqi":66,"pm10":18.9,"pm2_5":11.3,"mosquito_risk":6,"arthritis_risk":10,"migraine_risk":3,"frizz_risk":0,"updated_at":"2026-03-20T14:17:42.238916+05:30"},{"city":"Dharamshala","state":"Himachal Pradesh","latitude":32.219,"longitude":76.3234,"temp":13.8,"humidity":89,"rain":0.1,"pressure":867.9,"uv_index":2.15,"wind_gusts":27.0,"aqi":47,"pm10":3.8,"pm2_5":2.5,"mosquito_risk":6,"arthritis_risk":10,"migraine_risk":3,"frizz_risk":0,"updated_at":"2026-03-20T14:17:42.238923+05:30"},{"city":"Dalhousie","state":"Himachal Pradesh","latitude":32.5387,"longitude":75.971,"temp":10.5,"humidity":77,"rain":0.0,"pressure":801.2,"uv_index":1.6,"wind_gusts":25.9,"aqi":66,"pm10":12.5,"pm2_5":10.5,"mosquito_risk":3,"arthritis_risk":5,"migraine_risk":3,"frizz_risk":0,"updated_at":"2026-03-20T14:17:42.238933+05:30"},{"city":"Patiala","state":"Punjab","latitude":30.3398,"longitude":76.3869,"temp":19.0,"humidity":82,"rain":0.0,"pressure":981.4,"uv_index":2.6,"wind_gusts":17.6,"aqi":94,"pm10":46.0,"pm2_5":16.7,"mosquito_risk":3,"arthritis_risk":10,"migraine_risk":3,"frizz_risk":0,"updated_at":"2026-03-20T14:17:42.238941+05:30"},{"city":"Bhatinda","state":"Punjab","latitude":30.211,"longitude":74.9455,"temp":22.5,"humidity":65,"rain":0.0,"pressure":986.7,"uv_index":5.85,"wind_gusts":19.4,"aqi":101,"pm10":42.7,"pm2_5":26.0,"mosquito_risk":3,"arthritis_risk":5,"migraine_risk":3,"frizz_risk":0,"updated_at":"2026-03-20T14:17:42.238948+05:30"},{"city":"Rohtak","state":"Haryana","latitude":28.8955,"longitude":76.6066,"temp":20.9,"humidity":80,"rain":0.0,"pressure":984.9,"uv_index":3.65,"wind_gusts":19.1,"aqi":149,"pm10":43.3,"pm2_5":17.1,"mosquito_risk":3,"arthritis_risk":5,"migraine_risk":3,"frizz_risk":1,"updated_at":"2026-03-20T14:17:42.238954+05:30"},{"city":"Panipat","state":"Haryana","latitude":29.3909,"longitude":76.9635,"temp":19.5,"humidity":83,"rain":0.0,"pressure":983.5,"uv_index":2.65,"wind_gusts":18.7,"aqi":153,"pm10":50.1,"pm2_5":22.0,"mosquito_risk":3,"arthritis_risk":10,"migraine_risk":3,"frizz_risk":1,"updated_at":"2026-03-20T14:17:42.238960+05:30"},{"city":"Mathura","state":"Uttar Pradesh","latitude":27.4924,"longitude":77.6737,"temp":21.2,"humidity":76,"rain":0.0,"pressure":989.8,"uv_index":5.55,"wind_gusts":20.9,"aqi":144,"pm10":20.7,"pm2_5":12.5,"mosquito_risk":3,"arthritis_risk":5,"migraine_risk":3,"frizz_risk":1,"updated_at":"2026-03-20T14:17:42.238966+05:30"},{"city":"Vrindavan","state":"Uttar Pradesh","latitude":27.5823,"longitude":77.7027,"temp":20.8,"humidity":77,"rain":0.0,"pressure":990.2,"uv_index":5.4,"wind_gusts":22.3,"aqi":144,"pm10":20.7,"pm2_5":12.5,"mosquito_risk":3,"arthritis_risk":5,"migraine_risk":3,"frizz_risk":1,"updated_at":"2026-03-20T14:17:42.238972+05:30"},{"city":"Ayodhya","state":"Uttar Pradesh","latitude":26.7922,"longitude":82.1998,"temp":30.9,"humidity":38,"rain":0.0,"pressure":995.1,"uv_index":6.05,"wind_gusts":31.3,"aqi":131,"pm10":50.2,"pm2_5":28.7,"mosquito_risk":0,"arthritis_risk":5,"migraine_risk":7,"frizz_risk":0,"updated_at":"2026-03-20T14:17:42.238978+05:30"},{"city":"Ratlam","state":"Madhya Pradesh","latitude":23.3315,"longitude":75.0367,"temp":28.1,"humidity":39,"rain":0.0,"pressure":955.6,"uv_index":7.75,"wind_gusts":41.4,"aqi":60,"pm10":50.4,"pm2_5":15.1,"mosquito_risk":4,"arthritis_risk":5,"migraine_risk":7,"frizz_risk":0,"updated_at":"2026-03-20T14:17:42.238984+05:30"},{"city":"Sagar","state":"Madhya Pradesh","latitude":23.8388,"longitude":78.7378,"temp":28.2,"humidity":35,"rain":0.0,"pressure":950.6,"uv_index":7.65,"wind_gusts":35.3,"aqi":63,"pm10":60.3,"pm2_5":20.8,"mosquito_risk":4,"arthritis_risk":5,"migraine_risk":7,"frizz_risk":0,"updated_at":"2026-03-20T14:17:42.238990+05:30"},{"city":"Satna","state":"Madhya Pradesh","latitude":24.6005,"longitude":80.8322,"temp":28.6,"humidity":46,"rain":0.0,"pressure":972.1,"uv_index":3.95,"wind_gusts":55.1,"aqi":63,"pm10":42.4,"pm2_5":21.8,"mosquito_risk":4,"arthritis_risk":5,"migraine_risk":3,"frizz_risk":0,"updated_at":"2026-03-20T14:17:42.238996+05:30"},{"city":"Akola","state":"Maharashtra","latitude":20.7002,"longitude":77.0082,"temp":33.3,"humidity":25,"rain":0.0,"pressure":975.7,"uv_index":8.2,"wind_gusts":28.4,"aqi":74,"pm10":59.8,"pm2_5":19.0,"mosquito_risk":0,"arthritis_risk":5,"migraine_risk":7,"frizz_risk":0,"updated_at":"2026-03-20T14:17:42.239004+05:30"},{"city":"Amravati","state":"Maharashtra","latitude":20.9374,"longitude":77.7796,"temp":32.3,"humidity":29,"rain":0.0,"pressure":967.8,"uv_index":8.1,"wind_gusts":25.9,"aqi":76,"pm10":59.8,"pm2_5":18.8,"mosquito_risk":0,"arthritis_risk":5,"migraine_risk":7,"frizz_risk":0,"updated_at":"2026-03-20T14:17:42.239011+05:30"},{"city":"Latur","state":"Maharashtra","latitude":18.4088,"longitude":76.5604,"temp":31.9,"humidity":26,"rain":0.0,"pressure":939.9,"uv_index":8.6,"wind_gusts":26.3,"aqi":80,"pm10":37.6,"pm2_5":23.6,"mosquito_risk":0,"arthritis_risk":5,"migraine_risk":7,"frizz_risk":0,"updated_at":"2026-03-20T14:17:42.239017+05:30"},{"city":"Nanded","state":"Maharashtra","latitude":19.1383,"longitude":77.3091,"temp":33.4,"humidity":31,"rain":0.0,"pressure":968.5,"uv_index":8.4,"wind_gusts":27.7,"aqi":72,"pm10":36.3,"pm2_5":20.4,"mosquito_risk":0,"arthritis_risk":5,"migraine_risk":7,"frizz_risk":0,"updated_at":"2026-03-20T14:17:42.239023+05:30"},{"city":"Gulbarga","state":"Karnataka","latitude":17.3297,"longitude":76.8343,"temp":34.7,"humidity":23,"rain":0.0,"pressure":958.2,"uv_index":8.7,"wind_gusts":25.9,"aqi":70,"pm10":36.9,"pm2_5":19.2,"mosquito_risk":0,"arthritis_risk":5,"migraine_risk":7,"frizz_risk":0,"updated_at":"2026-03-20T14:17:42.239029+05:30"},{"city":"Bidar","state":"Karnataka","latitude":17.9104,"longitude":77.5199,"temp":32.2,"humidity":27,"rain":0.0,"pressure":935.3,"uv_index":8.65,"wind_gusts":27.7,"aqi":79,"pm10":36.6,"pm2_5":21.7,"mosquito_risk":0,"arthritis_risk":5,"migraine_risk":7,"frizz_risk":0,"updated_at":"2026-03-20T14:17:42.239035+05:30"},{"city":"Hospet","state":"Karnataka","latitude":15.2689,"longitude":76.3909,"temp":33.2,"humidity":28,"rain":0.0,"pressure":955.5,"uv_index":8.95,"wind_gusts":14.8,"aqi":69,"pm10":31.7,"pm2_5":18.7,"mosquito_risk":0,"arthritis_risk":5,"migraine_risk":7,"frizz_risk":0,"updated_at":"2026-03-20T14:17:42.239041+05:30"},{"city":"Tirupur","state":"Tamil Nadu","latitude":11.1085,"longitude":77.3411,"temp":35.0,"humidity":36,"rain":0.0,"pressure":974.2,"uv_index":9.35,"wind_gusts":28.1,"aqi":66,"pm10":18.2,"pm2_5":15.0,"mosquito_risk":0,"arthritis_risk":5,"migraine_risk":7,"frizz_risk":1,"updated_at":"2026-03-20T14:17:42.239047+05:30"},{"city":"Alappuzha","state":"Kerala","latitude":9.4981,"longitude":76.3388,"temp":28.5,"humidity":76,"rain":0.0,"pressure":1007.8,"uv_index":9.1,"wind_gusts":32.4,"aqi":63,"pm10":21.1,"pm2_5":17.3,"mosquito_risk":7,"arthritis_risk":5,"migraine_risk":4,"frizz_risk":1,"updated_at":"2026-03-20T14:17:42.239053+05:30"},{"city":"Munnar","state":"Kerala","latitude":10.0889,"longitude":77.0595,"temp":29.4,"humidity":38,"rain":0.0,"pressure":858.3,"uv_index":9.6,"wind_gusts":37.4,"aqi":49,"pm10":14.0,"pm2_5":9.5,"mosquito_risk":4,"arthritis_risk":5,"migraine_risk":7,"frizz_risk":0,"updated_at":"2026-03-20T14:17:42.239059+05:30"},{"city":"Silchar","state":"Assam","latitude":24.8333,"longitude":92.7789,"temp":28.7,"humidity":61,"rain":0.0,"pressure":1006.4,"uv_index":7.55,"wind_gusts":19.1,"aqi":105,"pm10":33.1,"pm2_5":24.4,"mosquito_risk":7,"arthritis_risk":5,"migraine_risk":4,"frizz_risk":1,"updated_at":"2026-03-20T14:17:42.239066+05:30"},{"city":"Dibrugarh","state":"Assam","latitude":27.4728,"longitude":94.912,"temp":26.0,"humidity":61,"rain":0.0,"pressure":998.1,"uv_index":7.75,"wind_gusts":14.0,"aqi":88,"pm10":49.7,"pm2_5":29.9,"mosquito_risk":7,"arthritis_risk":5,"migraine_risk":7,"frizz_risk":1,"updated_at":"2026-03-20T14:17:42.239071+05:30"}]