[{"city":"Delhi","state":"Delhi","latitude":28.6139,"longitude":77.209,"temp":26.6,"humidity":42,"rain":0.0,"pressure":986.9,"uv_index":5.7,"wind_gusts":23.8,"aqi":161,"pm10":217.5,"pm2_5":41.8,"mosquito_risk":4,"arthritis_risk":5,"migraine_risk":3,"frizz_risk":0,"updated_at":"2026-03-21T16:00:59.224380+05:30"},{"city":"Mumbai","state":"Maharashtra","latitude":19.076,"longitude":72.8777,"temp":27.7,"humidity":69,"rain":0.0,"pressure":1008.4,"uv_index":7.85,"wind_gusts":28.8,"aqi":78,"pm10":44.0,"pm2_5":23.3,"mosquito_risk":7,"arthritis_risk":0,"migraine_risk":4,"frizz_risk":1,"updated_at":"2026-03-21T16:00:59.224418+05:30"},{"city":"Bangalore","state":"Karnataka","latitude":12.9716,"longitude":77.5946,"temp":31.3,"humidity":32,"rain":0.0,"pressure":911.1,"uv_index":8.55,"wind_gusts":21.2,"aqi":136,"pm10":36.1,"pm2_5":26.5,"mosquito_risk":0,"arthritis_risk":5,"migraine_risk":7,"frizz_risk":0,"updated_at":"2026-03-21T16:00:59.224433+05:30"},{"city":"Hyderabad","state":"Telangana","latitude":17.385,"longitude":78.4867,"temp":34.4,"humidity":23,"rain":0.0,"pressure":952.5,"uv_index":8.85,"wind_gusts":31.0,"aqi":82,"pm10":30.5,"pm2_5":18.7,"mosquito_risk":0,"arthritis_risk":5,"migraine_risk":7,"frizz_risk":0,"updated_at":"2026-03-21T16:00:59.224443+05:30"},{"city":"Chennai","state":"Tamil Nadu","latitude":13.0827,"longitude":80.2707,"temp":31.9,"humidity":56,"rain":0.0,"pressure":1006.6,"uv_index":9.15,"wind_gusts":35.6,"aqi":38,"pm10":13.6,"pm2_5":9.3,"mosquito_risk":0,"arthritis_risk":5,"migraine_risk":4,"frizz_risk":1,"updated_at":"2026-03-21T16:00:59.224451+05:30"},{"city":"Kolkata","state":"West Bengal","latitude":22.5726,"longitude":88.3639,"temp":24.7,"humidity":73,"rain":0.0,"pressure":1008.0,"uv_index":7.5,"wind_gusts":19.8,"aqi":59,"pm10":21.5,"pm2_5":20.0,"mosquito_risk":3,"arthritis_risk":0,"migraine_risk":4,"frizz_risk":1,"updated_at":"2026-03-21T16:00:59.224460+05:30"},{"city":"Pune","state":"Maharashtra","latitude":18.5204,"longitude":73.8567,"temp":33.6,"humidity":25,"rain":0.0,"pressure":948.1,"uv_index":8.4,"wind_gusts":28.8,"aqi":88,"pm10":36.4,"pm2_5":14.9,"mosquito_risk":0,"arthritis_risk":5,"migraine_risk":7,"frizz_risk":0,"updated_at":"2026-03-21T16:00:59.224471+05:30"},{"city":"Ahmedabad","state":"Gujarat","latitude":23.0225,"longitude":72.5714,"temp":33.2,"humidity":20,"rain":0.0,"pressure":1003.7,"uv_index":7.7,"wind_gusts":15.1,"aqi":65,"pm10":25.3,"pm2_5":11.8,"mosquito_risk":0,"arthritis_risk":5,"migraine_risk":4,"frizz_risk":0,"updated_at":"2026-03-21T16:00:59.224479+05:30"},{"city":"Jaipur","state":"Rajasthan","latitude":26.9124,"longitude":75.7873,"temp":26.9,"humidity":43,"rain":0.0,"pressure":963.0,"uv_index":6.5,"wind_gusts":36.4,"aqi":74,"pm10":126.7,"pm2_5":23.8,"mosquito_risk":4,"arthritis_risk":5,"migraine_risk":7,"frizz_risk":0,"updated_at":"2026-03-21T16:00:59.224487+05:30"},{"city":"Lucknow","state":"Uttar Pradesh","latitude":26.8467,"longitude":80.9462,"temp":24.5,"humidity":57,"rain":0.0,"pressure":997.7,"uv_index":6.25,"wind_gusts":24.5,"aqi":113,"pm10":68.0,"pm2_5":21.9,"mosquito_risk":0,"arthritis_risk":5,"migraine_risk":7,"frizz_risk":0,"updated_at":"2026-03-21T16:00:59.224494+05:30"},{"city":"Kanpur","state":"Uttar Pradesh","latitude":26.4499,"longitude":80.3319,"temp":25.2,"humidity":52,"rain":0.0,"pressure":995.6,"uv_index":6.7,"wind_gusts":25.6,"aqi":109,"pm10":295.2,"pm2_5":39.1,"mosquito_risk":4,"arthritis_risk":5,"migraine_risk":7,"frizz_risk":0,"updated_at":"2026-03-21T16:00:59.224502+05:30"},{"city":"Chandigarh","state":"Chandigarh","latitude":30.7333,"longitude":76.7794,"temp":24.5,"humidity":45,"rain":0.0,"pressure":972.6,"uv_index":6.35,"wind_gusts":28.4,"aqi":73,"pm10":26.1,"pm2_5":18.9,"mosquito_risk":0,"arthritis_risk":5,"migraine_risk":7,"frizz_risk":0,"updated_at":"2026-03-21T16:00:59.224509+05:30"},{"city":"Srinagar","state":"Jammu and Kashmir","latitude":34.0837,"longitude":74.7973,"temp":14.3,"humidity":46,"rain":0.0,"pressure":842.5,"uv_index":6.55,"wind_gusts":14.0,"aqi":109,"pm10":14.9,"pm2_5":11.6,"mosquito_risk":0,"arthritis_risk":5,"migraine_risk":7,"frizz_risk":0,"updated_at":"2026-03-21T16:00:59.224517+05:30"},{"city":"Jammu","state":"Jammu and Kashmir","latitude":32.7266,"longitude":74.857,"temp":24.5,"humidity":48,"rain":0.0,"pressure":977.4,"uv_index":6.8,"wind_gusts":16.9,"aqi":86,"pm10":24.3,"pm2_5":13.6,"mosquito_risk":0,"arthritis_risk":5,"migraine_risk":7,"frizz_risk":0,"updated_at":"2026-03-21T16:00:59.224524+05:30"},{"city":"Amritsar","state":"Punjab","latitude":31.634,"longitude":74.8723,"temp":24.4,"humidity":51,"rain":0.0,"pressure":985.8,"uv_index":6.2,"wind_gusts":15.8,"aqi":106,"pm10":41.2,"pm2_5":27.4,"mosquito_risk":0,"arthritis_risk":5,"migraine_risk":7,"frizz_risk":0,"updated_at":"2026-03-21T16:00:59.224530+05:30"},{"city":"Ludhiana","state":"Punjab","latitude":30.901,"longitude":75.8573,"temp":24.3,"humidity":47,"rain":0.0,"pressure":983.3,"uv_index":5.75,"wind_gusts":23.0,"aqi":130,"pm10":32.7,"pm2_5":21.8,"mosquito_risk":0,"arthritis_risk":5,"migraine_risk":3,"frizz_risk":0,"updated_at":"2026-03-21T16:00:59.224537+05:30"},{"city":"Jalandhar","state":"Punjab","latitude":31.326,"longitude":75.5762,"temp":24.0,"humidity":49,"rain":0.0,"pressure":984.6,"uv_index":6.1,"wind_gusts":20.5,"aqi":117,"pm10":36.8,"pm2_5":22.6,"mosquito_risk":0,"arthritis_risk":5,"migraine_risk":7,"frizz_risk":0,"updated_at":"2026-03-21T16:00:59.224545+05:30"},{"city":"Dehradun","state":"Uttarakhand","latitude":30.6284,"longitude":78.0322,"temp":14.0,"humidity":72,"rain":0.0,"pressure":830.6,"uv_index":6.7,"wind_gusts":22.7,"aqi":83,"pm10":11.0,"pm2_5":6.4,"mosquito_risk":3,"arthritis_risk":5,"migraine_risk":7,"frizz_risk":0,"updated_at":"2026-03-21T16:00:59.224552+05:30"},{"city":"Shimla","state":"Himachal Pradesh","latitude":31.1048,"longitude":77.1734,"temp":12.9,"humidity":62,"rain":0.0,"pressure":784.8,"uv_index":6.35,"wind_gusts":33.5,"aqi":70,"pm10":17.8,"pm2_5":11.2,"mosquito_risk":3,"arthritis_risk":5,"migraine_risk":7,"frizz_risk":0,"updated_at":"2026-03-21T16:00:59.224559+05:30"},{"city":"Manali","state":"Himachal Pradesh","latitude":32.2396,"longitude":77.1887,"temp":15.8,"humidity":39,"rain":0.0,"pressure":819.1,"uv_index":8.55,"wind_gusts":22.0,"aqi":84,"pm10":11.6,"pm2_5":6.4,"mosquito_risk":0,"arthritis_risk":5,"migraine_risk":7,"frizz_risk":0,"updated_at":"2026-03-21T16:00:59.224567+05:30"},{"city":"Gurgaon","state":"Haryana","latitude":28.4595,"longitude":77.0266,"temp":26.3,"humidity":46,"rain":0.0,"pressure":985.5,"uv_index":5.85,"wind_gusts":20.5,"aqi":170,"pm10":1110.1,"pm2_5":118.3,"mosquito_risk":4,"arthritis_risk":5,"migraine_risk":3,"frizz_risk":0,"updated_at":"2026-03-21T16:00:59.224573+05:30"},{"city":"Noida","state":"Uttar Pradesh","latitude":28.5355,"longitude":77.391,"temp":26.9,"humidity":41,"rain":0.0,"pressure":988.4,"uv_index":6.0,"wind_gusts":22.7,"aqi":170,"pm10":1110.1,"pm2_5":118.3,"mosquito_risk":4,"arthritis_risk":5,"migraine_risk":3,"frizz_risk":0,"updated_at":"2026-03-21T16:00:59.224580+05:30"},{"city":"Ghaziabad","state":"Uttar Pradesh","latitude":28.6692,"longitude":77.4538,"temp":26.1,"humidity":47,"rain":0.0,"pressure":986.6,"uv_index":5.7,"wind_gusts":21.6,"aqi":161,"pm10":159.7,"pm2_5":39.1,"mosquito_risk":4,"arthritis_risk":5,"migraine_risk":3,"frizz_risk":0,"updated_at":"2026-03-21T16:00:59.224586+05:30"},{"city":"Faridabad","state":"Haryana","latitude":28.4089,"longitude":77.3178,"temp":26.5,"humidity":43,"rain":0.0,"pressure":987.7,"uv_index":6.3,"wind_gusts":20.9,"aqi":170,"pm10":1110.1,"pm2_5":118.3,"mosquito_risk":4,"arthritis_risk":5,"migraine_risk":7,"frizz_risk":0,"updated_at":"2026-03-21T16:00:59.224593+05:30"},{"city":"Meerut","state":"Uttar Pradesh","latitude":28.9845,"longitude":77.7064,"temp":25.8,"humidity":47,"rain":0.0,"pressure":985.3,"uv_index":6.05,"wind_gusts":22.0,"aqi":161,"pm10":159.7,"pm2_5":39.1,"mosquito_risk":4,"arthritis_risk":5,"migraine_risk":7,"frizz_risk":0,"updated_at":"2026-03-21T16:00:59.224599+05:30"},{"city":"Agra","state":"Uttar Pradesh","latitude":27.1767,"longitude":78.0081,"temp":29.0,"humidity":30,"rain":0.0,"pressure":991.4,"uv_index":6.8,"wind_gusts":28.1,"aqi":154,"pm10":666.8,"pm2_5":73.3,"mosquito_risk":4,"arthritis_risk":5,"migraine_risk":7,"frizz_risk":0,"updated_at":"2026-03-21T16:00:59.224605+05:30"},{"city":"Varanasi","state":"Uttar Pradesh","latitude":25.3176,"longitude":82.9739,"temp":24.6,"humidity":59,"rain":0.0,"pressure":1001.7,"uv_index":5.1,"wind_gusts":26.3,"aqi":99,"pm10":54.6,"pm2_5":27.1,"mosquito_risk":0,"arthritis_risk":5,"migraine_risk":0,"frizz_risk":1,"updated_at":"2026-03-21T16:00:59.224614+05:30"},{"city":"Prayagraj","state":"Uttar Pradesh","latitude":25.4358,"longitude":81.8463,"temp":24.4,"humidity":63,"rain":0.0,"pressure":1000.2,"uv_index":7.35,"wind_gusts":25.2,"aqi":100,"pm10":49.0,"pm2_5":23.4,"mosquito_risk":3,"arthritis_risk":5,"migraine_risk":4,"frizz_risk":1,"updated_at":"2026-03-21T16:00:59.224621+05:30"},{"city":"Gorakhpur","state":"Uttar Pradesh","latitude":26.7606,"longitude":83.3732,"temp":22.8,"humidity":74,"rain":0.0,"pressure":1001.7,"uv_index":5.65,"wind_gusts":17.3,"aqi":115,"pm10":42.0,"pm2_5":24.0,"mosquito_risk":3,"arthritis_risk":5,"migraine_risk":0,"frizz_risk":1,"updated_at":"2026-03-21T16:00:59.224627+05:30"},{"city":"Bareilly","state":"Uttar Pradesh","latitude":28.367,"longitude":79.4304,"temp":24.8,"humidity":54,"rain":0.0,"pressure":990.5,"uv_index":6.55,"wind_gusts":18.0,"aqi":151,"pm10":26.8,"pm2_5":19.8,"mosquito_risk":0,"arthritis_risk":5,"migraine_risk":7,"frizz_risk":0,"updated_at":"2026-03-21T16:00:59.224633+05:30"},{"city":"Aligarh","state":"Uttar Pradesh","latitude":27.8974,"longitude":78.088,"temp":25.8,"humidity":47,"rain":0.0,"pressure":989.4,"uv_index":6.4,"wind_gusts":20.2,"aqi":163,"pm10":491.7,"pm2_5":69.8,"mosquito_risk":4,"arthritis_risk":5,"migraine_risk":7,"frizz_risk":0,"updated_at":"2026-03-21T16:00:59.224639+05:30"},{"city":"Moradabad","state":"Uttar Pradesh","latitude":28.8386,"longitude":78.7733,"temp":25.5,"humidity":47,"rain":0.0,"pressure":987.3,"uv_index":6.45,"wind_gusts":18.4,"aqi":152,"pm10":33.5,"pm2_5":18.7,"mosquito_risk":4,"arthritis_risk":5,"migraine_risk":7,"frizz_risk":0,"updated_at":"2026-03-21T16:00:59.224645+05:30"},{"city":"Saharanpur","state":"Uttar Pradesh","latitude":29.9637,"longitude":77.546,"temp":25.5,"humidity":43,"rain":0.0,"pressure":979.1,"uv_index":6.1,"wind_gusts":27.0,"aqi":156,"pm10":51.7,"pm2_5":25.7,"mosquito_risk":4,"arthritis_risk":5,"migraine_risk":7,"frizz_risk":0,"updated_at":"2026-03-21T16:00:59.224654+05:30"},{"city":"Jhansi","state":"Uttar Pradesh","latitude":25.4484,"longitude":78.5685,"temp":27.7,"humidity":32,"rain":0.0,"pressure":981.6,"uv_index":7.4,"wind_gusts":24.5,"aqi":112,"pm10":34.9,"pm2_5":15.1,"mosquito_risk":4,"arthritis_risk":5,"migraine_risk":7,"frizz_risk":0,"updated_at":"2026-03-21T16:01:02.459221+05:30"},{"city":"Surat","state":"Gujarat","latitude":21.1702,"longitude":72.8311,"temp":30.7,"humidity":41,"rain":0.0,"pressure":1007.8,"uv_index":7.55,"wind_gusts":28.1,"aqi":107,"pm10":26.3,"pm2_5":20.6,"mosquito_risk":0,"arthritis_risk":5,"migraine_risk":4,"frizz_risk":0,"updated_at":"2026-03-21T16:01:02.459252+05:30"},{"city":"Vadodara","state":"Gujarat","latitude":22.3072,"longitude":73.1812,"temp":35.3,"humidity":21,"rain":0.0,"pressure":1005.0,"uv_index":7.35,"wind_gusts":15.5,"aqi":64,"pm10":16.7,"pm2_5":7.6,"mosquito_risk":0,"arthritis_risk":5,"migraine_risk":7,"frizz_risk":0,"updated_at":"2026-03-21T16:01:02.459264+05:30"},{"city":"Rajkot","state":"Gujarat","latitude":22.3039,"longitude":70.8022,"temp":33.5,"humidity":29,"rain":0.0,"pressure":995.5,"uv_index":7.0,"wind_gusts":20.5,"aqi":55,"pm10":21.8,"pm2_5":8.1,"mosquito_risk":0,"arthritis_risk":5,"migraine_risk":7,"frizz_risk":0,"updated_at":"2026-03-21T16:01:02.459274+05:30"},{"city":"Thane","state":"Maharashtra","latitude":19.2183,"longitude":72.9781,"temp":30.5,"humidity":49,"rain":0.0,"pressure":1008.2,"uv_index":7.85,"wind_gusts":42.8,"aqi":78,"pm10":44.0,"pm2_5":23.3,"mosquito_risk":0,"arthritis_risk":0,"migraine_risk":4,"frizz_risk":1,"updated_at":"2026-03-21T16:01:02.459283+05:30"},{"city":"Nagpur","state":"Maharashtra","latitude":21.1458,"longitude":79.0882,"temp":32.5,"humidity":21,"rain":0.0,"pressure":974.2,"uv_index":8.3,"wind_gusts":24.8,"aqi":67,"pm10":28.4,"pm2_5":16.3,"mosquito_risk":0,"arthritis_risk":5,"migraine_risk":7,"frizz_risk":0,"updated_at":"2026-03-21T16:01:02.459291+05:30"},{"city":"Nashik","state":"Maharashtra","latitude":19.9975,"longitude":73.7898,"temp":31.3,"humidity":25,"rain":0.0,"pressure":945.8,"uv_index":8.05,"wind_gusts":22.7,"aqi":66,"pm10":11.7,"pm2_5":6.4,"mosquito_risk":0,"arthritis_risk":5,"migraine_risk":7,"frizz_risk":0,"updated_at":"2026-03-21T16:01:02.459299+05:30"},{"city":"Aurangabad","state":"Maharashtra","latitude":19.8762,"longitude":75.3433,"temp":32.6,"humidity":22,"rain":0.0,"pressure":944.1,"uv_index":8.6,"wind_gusts":24.5,"aqi":87,"pm10":15.8,"pm2_5":10.2,"mosquito_risk":0,"arthritis_risk":5,"migraine_risk":7,"frizz_risk":0,"updated_at":"2026-03-21T16:01:02.459307+05:30"},{"city":"Solapur","state":"Maharashtra","latitude":17.6599,"longitude":75.9064,"temp":34.9,"humidity":21,"rain":0.0,"pressure":956.7,"uv_index":8.75,"wind_gusts":27.7,"aqi":73,"pm10":33.2,"pm2_5":16.7,"mosquito_risk":0,"arthritis_risk":5,"migraine_risk":7,"frizz_risk":0,"updated_at":"2026-03-21T16:01:02.459316+05:30"},{"city":"Kolhapur","state":"Maharashtra","latitude":16.705,"longitude":74.2433,"temp":32.1,"humidity":28,"rain":0.0,"pressure":947.7,"uv_index":8.85,"wind_gusts":28.8,"aqi":77,"pm10":41.2,"pm2_5":14.2,"mosquito_risk":0,"arthritis_risk":5,"migraine_risk":7,"frizz_risk":0,"updated_at":"2026-03-21T16:01:02.459324+05:30"},{"city":"Goa","state":"Goa","latitude":15.2993,"longitude":74.124,"temp":31.1,"humidity":58,"rain":0.0,"pressure":997.1,"uv_index":8.85,"wind_gusts":35.3,"aqi":74,"pm10":30.7,"pm2_5":19.4,"mosquito_risk":0,"arthritis_risk":5,"migraine_risk":7,"frizz_risk":1,"updated_at":"2026-03-21T16:01:02.459331+05:30"},{"city":"Jodhpur","state":"Rajasthan","latitude":26.2389,"longitude":73.0243,"temp":30.0,"humidity":31,"rain":0.0,"pressure":986.0,"uv_index":6.65,"wind_gusts":24.1,"aqi":67,"pm10":65.2,"pm2_5":13.9,"mosquito_risk":4,"arthritis_risk":5,"migraine_risk":7,"frizz_risk":0,"updated_at":"2026-03-21T16:01:02.459339+05:30"},{"city":"Udaipur","state":"Rajasthan","latitude":24.5854,"longitude":73.7125,"temp":28.2,"humidity":26,"rain":0.0,"pressure":948.7,"uv_index":6.9,"wind_gusts":11.9,"aqi":51,"pm10":32.9,"pm2_5":9.8,"mosquito_risk":4,"arthritis_risk":5,"migraine_risk":7,"frizz_risk":0,"updated_at":"2026-03-21T16:01:02.459347+05:30"},{"city":"Kota","state":"Rajasthan","latitude":25.2138,"longitude":75.8648,"temp":31.0,"humidity":24,"rain":0.0,"pressure":981.5,"uv_index":7.5,"wind_gusts":22.0,"aqi":81,"pm10":27.9,"pm2_5":12.1,"mosquito_risk":0,"arthritis_risk":5,"migraine_risk":7,"frizz_risk":0,"updated_at":"2026-03-21T16:01:02.459355+05:30"},{"city":"Bikaner","state":"Rajasthan","latitude":28.0229,"longitude":73.3119,"temp":30.3,"humidity":29,"rain":0.0,"pressure":984.8,"uv_index":6.25,"wind_gusts":28.4,"aqi":56,"pm10":79.4,"pm2_5":15.1,"mosquito_risk":0,"arthritis_risk":5,"migraine_risk":7,"frizz_risk":0,"updated_at":"2026-03-21T16:01:02.459362+05:30"},{"city":"Ajmer","state":"Rajasthan","latitude":26.4499,"longitude":74.6399,"temp":28.6,"humidity":32,"rain":0.0,"pressure":957.3,"uv_index":7.25,"wind_gusts":25.2,"aqi":66,"pm10":38.0,"pm2_5":11.6,"mosquito_risk":4,"arthritis_risk":5,"migraine_risk":7,"frizz_risk":0,"updated_at":"2026-03-21T16:01:02.459370+05:30"},{"city":"Gwalior","state":"Madhya Pradesh","latitude":26.2183,"longitude":78.1828,"temp":28.0,"humidity":35,"rain":0.0,"pressure":986.8,"uv_index":7.1,"wind_gusts":25.6,"aqi":82,"pm10":49.1,"pm2_5":19.3,"mosquito_risk":4,"arthritis_risk":5,"migraine_risk":7,"frizz_risk":0,"updated_at":"2026-03-21T16:01:02.459377+05:30"},{"city":"Indore","state":"Madhya Pradesh","latitude":22.7196,"longitude":75.8577,"temp":29.3,"humidity":26,"rain":0.0,"pressure":949.9,"uv_index":7.95,"wind_gusts":22.7,"aqi":61,"pm10":17.2,"pm2_5":9.9,"mosquito_risk":4,"arthritis_risk":5,"migraine_risk":7,"frizz_risk":0,"updated_at":"2026-03-21T16:01:02.459385+05:30"},{"city":"Bhopal","state":"Madhya Pradesh","latitude":23.2599,"longitude":77.4126,"temp":29.8,"humidity":24,"rain":0.0,"pressure":955.9,"uv_index":7.9,"wind_gusts":23.8,"aqi":69,"pm10":20.5,"pm2_5":8.9,"mosquito_risk":4,"arthritis_risk":5,"migraine_risk":7,"frizz_risk":0,"updated_at":"2026-03-21T16:01:02.459392+05:30"},{"city":"Jabalpur","state":"Madhya Pradesh","latitude":23.1815,"longitude":79.9864,"temp":28.6,"humidity":23,"rain":0.0,"pressure":964.0,"uv_index":8.0,"wind_gusts":31.3,"aqi":65,"pm10":19.9,"pm2_5":10.2,"mosquito_risk":4,"arthritis_risk":5,"migraine_risk":7,"frizz_risk":0,"updated_at":"2026-03-21T16:01:02.459400+05:30"},{"city":"Ujjain","state":"Madhya Pradesh","latitude":23.1765,"longitude":75.7885,"temp":29.0,"humidity":30,"rain":0.0,"pressure":955.7,"uv_index":7.65,"wind_gusts":19.4,"aqi":62,"pm10":20.2,"pm2_5":10.5,"mosquito_risk":4,"arthritis_risk":5,"migraine_risk":7,"frizz_risk":0,"updated_at":"2026-03-21T16:01:02.459408+05:30"},{"city":"Visakhapatnam","state":"Andhra Pradesh","latitude":17.6868,"longitude":83.2185,"temp":30.2,"humidity":58,"rain":0.0,"pressure":1004.2,"uv_index":8.8,"wind_gusts":35.3,"aqi":79,"pm10":29.2,"pm2_5":22.2,"mosquito_risk":0,"arthritis_risk":5,"migraine_risk":4,"frizz_risk":1,"updated_at":"2026-03-21T16:01:02.459416+05:30"},{"city":"Vijayawada","state":"Andhra Pradesh","latitude":16.5062,"longitude":80.648,"temp":33.6,"humidity":46,"rain":0.0,"pressure":1001.8,"uv_index":8.85,"wind_gusts":24.8,"aqi":60,"pm10":26.8,"pm2_5":17.7,"mosquito_risk":0,"arthritis_risk":5,"migraine_risk":4,"frizz_risk":1,"updated_at":"2026-03-21T16:01:02.459423+05:30"},{"city":"Guntur","state":"Andhra Pradesh","latitude":16.3067,"longitude":80.4365,"temp":32.2,"humidity":55,"rain":0.0,"pressure":1003.2,"uv_index":8.85,"wind_gusts":23.8,"aqi":54,"pm10":23.6,"pm2_5":13.9,"mosquito_risk":0,"arthritis_risk":5,"migraine_risk":4,"frizz_risk":1,"updated_at":"2026-03-21T16:01:02.459431+05:30"},{"city":"Nellore","state":"Andhra Pradesh","latitude":14.4426,"longitude":79.9865,"temp":32.8,"humidity":54,"rain":0.0,"pressure":1004.9,"uv_index":9.05,"wind_gusts":35.3,"aqi":42,"pm10":20.0,"pm2_5":13.5,"mosquito_risk":0,"arthritis_risk":5,"migraine_risk":4,"frizz_risk":1,"updated_at":"2026-03-21T16:01:02.459440+05:30"},{"city":"Kurnool","state":"Andhra Pradesh","latitude":15.8281,"longitude":78.0373,"temp":36.6,"humidity":21,"rain":0.0,"pressure":975.5,"uv_index":8.9,"wind_gusts":19.4,"aqi":77,"pm10":23.5,"pm2_5":16.2,"mosquito_risk":0,"arthritis_risk":5,"migraine_risk":10,"frizz_risk":0,"updated_at":"2026-03-21T16:01:02.459448+05:30"},{"city":"Kakinada","state":"Andhra Pradesh","latitude":16.9891,"longitude":82.2475,"temp":32.3,"humidity":52,"rain":0.0,"pressure":1007.5,"uv_index":8.85,"wind_gusts":26.6,"aqi":45,"pm10":14.3,"pm2_5":9.7,"mosquito_risk":0,"arthritis_risk":5,"migraine_risk":4,"frizz_risk":1,"updated_at":"2026-03-21T16:01:02.459456+05:30"},{"city":"Tirupati","state":"Andhra Pradesh","latitude":13.6288,"longitude":79.4192,"temp":34.3,"humidity":37,"rain":0.0,"pressure":990.1,"uv_index":9.15,"wind_gusts":26.3,"aqi":71,"pm10":31.1,"pm2_5":21.9,"mosquito_risk":0,"arthritis_risk":5,"migraine_risk":7,"frizz_risk":1,"updated_at":"2026-03-21T16:01:02.459464+05:30"},{"city":"Warangal","state":"Telangana","latitude":17.9689,"longitude":79.5941,"temp":32.8,"humidity":43,"rain":0.0,"pressure":978.5,"uv_index":8.65,"wind_gusts":28.4,"aqi":115,"pm10":31.3,"pm2_5":21.8,"mosquito_risk":0,"arthritis_risk":5,"migraine_risk":7,"frizz_risk":1,"updated_at":"2026-03-21T16:01:02.459471+05:30"},{"city":"Nizamabad","state":"Telangana","latitude":18.6725,"longitude":78.0941,"temp":33.7,"humidity":28,"rain":0.0,"pressure":964.6,"uv_index":8.6,"wind_gusts":34.9,"aqi":101,"pm10":36.9,"pm2_5":20.6,"mosquito_risk":0,"arthritis_risk":5,"migraine_risk":7,"frizz_risk":0,"updated_at":"2026-03-21T16:01:02.459478+05:30"},{"city":"Mysore","state":"Karnataka","latitude":12.2958,"longitude":76.6396,"temp":33.1,"humidity":28,"rain":0.0,"pressure":927.2,"uv_index":9.4,"wind_gusts":44.3,"aqi":128,"pm10":27.0,"pm2_5":19.0,"mosquito_risk":0,"arthritis_risk":5,"migraine_risk":7,"frizz_risk":0,"updated_at":"2026-03-21T16:01:02.459484+05:30"},{"city":"Mangalore","state":"Karnataka","latitude":12.9141,"longitude":74.856,"temp":29.3,"humidity":75,"rain":0.0,"pressure":1005.4,"uv_index":9.05,"wind_gusts":29.2,"aqi":75,"pm10":29.7,"pm2_5":16.7,"mosquito_risk":7,"arthritis_risk":5,"migraine_risk":4,"frizz_risk":1,"updated_at":"2026-03-21T16:01:02.459490+05:30"},{"city":"Hubli-Dharwad","state":"Karnataka","latitude":15.3647,"longitude":75.124,"temp":33.2,"humidity":24,"rain":0.0,"pressure":940.1,"uv_index":9.05,"wind_gusts":28.8,"aqi":71,"pm10":23.3,"pm2_5":12.5,"mosquito_risk":0,"arthritis_risk":5,"migraine_risk":7,"frizz_risk":0,"updated_at":"2026-03-21T16:01:02.459496+05:30"},{"city":"Belgaum","state":"Karnataka","latitude":15.8497,"longitude":74.4977,"temp":32.4,"humidity":24,"rain":0.0,"pressure":925.5,"uv_index":9.1,"wind_gusts":36.4,"aqi":75,"pm10":26.7,"pm2_5":14.0,"mosquito_risk":0,"arthritis_risk":5,"migraine_risk":7,"frizz_risk":0,"updated_at":"2026-03-21T16:01:05.671046+05:30"},{"city":"Coimbatore","state":"Tamil Nadu","latitude":11.0168,"longitude":76.9558,"temp":33.8,"humidity":35,"rain":0.0,"pressure":960.1,"uv_index":9.35,"wind_gusts":47.2,"aqi":122,"pm10":27.4,"pm2_5":17.9,"mosquito_risk":0,"arthritis_risk":5,"migraine_risk":7,"frizz_risk":1,"updated_at":"2026-03-21T16:01:05.671075+05:30"},{"city":"Madurai","state":"Tamil Nadu","latitude":9.9252,"longitude":78.1198,"temp":36.0,"humidity":34,"rain":0.0,"pressure":990.7,"uv_index":9.35,"wind_gusts":38.9,"aqi":74,"pm10":18.2,"pm2_5":11.9,"mosquito_risk":0,"arthritis_risk":5,"migraine_risk":10,"frizz_risk":1,"updated_at":"2026-03-21T16:01:05.671085+05:30"},{"city":"Trichy","state":"Tamil Nadu","latitude":10.7905,"longitude":78.7047,"temp":35.2,"humidity":39,"rain":0.0,"pressure":997.7,"uv_index":9.15,"wind_gusts":29.5,"aqi":62,"pm10":19.2,"pm2_5":15.3,"mosquito_risk":0,"arthritis_risk":5,"migraine_risk":10,"frizz_risk":1,"updated_at":"2026-03-21T16:01:05.671093+05:30"},{"city":"Salem","state":"Tamil Nadu","latitude":11.6643,"longitude":78.146,"temp":35.5,"humidity":34,"rain":0.0,"pressure":975.4,"uv_index":9.3,"wind_gusts":26.6,"aqi":106,"pm10":31.2,"pm2_5":23.6,"mosquito_risk":0,"arthritis_risk":5,"migraine_risk":10,"frizz_risk":1,"updated_at":"2026-03-21T16:01:05.671100+05:30"},{"city":"Tirunelveli","state":"Tamil Nadu","latitude":8.7139,"longitude":77.7567,"temp":34.9,"humidity":40,"rain":0.0,"pressure":1001.0,"uv_index":9.3,"wind_gusts":42.8,"aqi":123,"pm10":22.6,"pm2_5":18.7,"mosquito_risk":0,"arthritis_risk":5,"migraine_risk":4,"frizz_risk":1,"updated_at":"2026-03-21T16:01:05.671107+05:30"},{"city":"Vellore","state":"Tamil Nadu","latitude":12.9165,"longitude":79.1325,"temp":34.3,"humidity":36,"rain":0.0,"pressure":983.1,"uv_index":9.2,"wind_gusts":37.1,"aqi":103,"pm10":22.6,"pm2_5":18.6,"mosquito_risk":0,"arthritis_risk":5,"migraine_risk":7,"frizz_risk":1,"updated_at":"2026-03-21T16:01:05.671114+05:30"},{"city":"Erode","state":"Tamil Nadu","latitude":11.341,"longitude":77.7172,"temp":36.5,"humidity":34,"rain":0.0,"pressure":986.7,"uv_index":9.3,"wind_gusts":24.5,"aqi":70,"pm10":21.1,"pm2_5":15.4,"mosquito_risk":0,"arthritis_risk":5,"migraine_risk":10,"frizz_risk":1,"updated_at":"2026-03-21T16:01:05.671121+05:30"},{"city":"Kochi","state":"Kerala","latitude":9.9312,"longitude":76.2673,"temp":29.3,"humidity":70,"rain":0.0,"pressure":1006.9,"uv_index":9.15,"wind_gusts":33.8,"aqi":93,"pm10":19.9,"pm2_5":15.5,"mosquito_risk":7,"arthritis_risk":5,"migraine_risk":4,"frizz_risk":1,"updated_at":"2026-03-21T16:01:05.671128+05:30"},{"city":"Thiruvananthapuram","state":"Kerala","latitude":8.5241,"longitude":76.9366,"temp":29.0,"humidity":76,"rain":0.0,"pressure":1006.3,"uv_index":8.3,"wind_gusts":24.8,"aqi":99,"pm10":22.6,"pm2_5":17.9,"mosquito_risk":7,"arthritis_risk":5,"migraine_risk":4,"frizz_risk":1,"updated_at":"2026-03-21T16:01:05.671135+05:30"},{"city":"Kozhikode","state":"Kerala","latitude":11.2588,"longitude":75.7804,"temp":30.4,"humidity":69,"rain":0.0,"pressure":1006.4,"uv_index":9.05,"wind_gusts":31.3,"aqi":71,"pm10":24.2,"pm2_5":17.1,"mosquito_risk":3,"arthritis_risk":5,"migraine_risk":4,"frizz_risk":1,"updated_at":"2026-03-21T16:01:05.671142+05:30"},{"city":"Thrissur","state":"Kerala","latitude":10.5276,"longitude":76.2144,"temp":32.6,"humidity":55,"rain":0.0,"pressure":1005.4,"uv_index":9.15,"wind_gusts":38.9,"aqi":75,"pm10":20.9,"pm2_5":15.6,"mosquito_risk":0,"arthritis_risk":5,"migraine_risk":4,"frizz_risk":1,"updated_at":"2026-03-21T16:01:05.671149+05:30"},{"city":"Kannur","state":"Kerala","latitude":11.8745,"longitude":75.3704,"temp":30.9,"humidity":67,"rain":0.0,"pressure":1006.0,"uv_index":9.1,"wind_gusts":34.9,"aqi":83,"pm10":23.3,"pm2_5":16.4,"mosquito_risk":3,"arthritis_risk":5,"migraine_risk":4,"frizz_risk":1,"updated_at":"2026-03-21T16:01:05.671155+05:30"},{"city":"Patna","state":"Bihar","latitude":25.5941,"longitude":85.1376,"temp":22.6,"humidity":71,"rain":0.0,"pressure":1004.9,"uv_index":6.7,"wind_gusts":24.5,"aqi":144,"pm10":39.7,"pm2_5":29.7,"mosquito_risk":3,"arthritis_risk":5,"migraine_risk":4,"frizz_risk":1,"updated_at":"2026-03-21T16:01:05.671162+05:30"},{"city":"Gaya","state":"Bihar","latitude":24.7914,"longitude":85.0002,"temp":24.2,"humidity":62,"rain":0.0,"pressure":997.4,"uv_index":7.7,"wind_gusts":24.8,"aqi":119,"pm10":41.6,"pm2_5":29.0,"mosquito_risk":3,"arthritis_risk":5,"migraine_risk":7,"frizz_risk":1,"updated_at":"2026-03-21T16:01:05.671168+05:30"},{"city":"Muzaffarpur","state":"Bihar","latitude":26.1209,"longitude":85.3647,"temp":21.0,"humidity":81,"rain":0.0,"pressure":1005.2,"uv_index":3.65,"wind_gusts":23.8,"aqi":147,"pm10":36.8,"pm2_5":29.5,"mosquito_risk":3,"arthritis_risk":5,"migraine_risk":0,"frizz_risk":1,"updated_at":"2026-03-21T16:01:05.671174+05:30"},{"city":"Bhagalpur","state":"Bihar","latitude":25.2425,"longitude":87.0117,"temp":22.2,"humidity":81,"rain":0.0,"pressure":1005.0,"uv_index":5.85,"wind_gusts":24.5,"aqi":129,"pm10":44.5,"pm2_5":39.9,"mosquito_risk":3,"arthritis_risk":5,"migraine_risk":0,"frizz_risk":1,"updated_at":"2026-03-21T16:01:05.671180+05:30"},{"city":"Ranchi","state":"Jharkhand","latitude":23.3441,"longitude":85.3096,"temp":23.7,"humidity":50,"rain":0.0,"pressure":938.7,"uv_index":8.35,"wind_gusts":32.0,"aqi":109,"pm10":37.3,"pm2_5":27.8,"mosquito_risk":0,"arthritis_risk":5,"migraine_risk":7,"frizz_risk":0,"updated_at":"2026-03-21T16:01:05.671186+05:30"},{"city":"Jamshedpur","state":"Jharkhand","latitude":22.8046,"longitude":86.2029,"temp":28.6,"humidity":44,"rain":0.0,"pressure":991.6,"uv_index":8.15,"wind_gusts":29.9,"aqi":147,"pm10":45.3,"pm2_5":39.7,"mosquito_risk":4,"arthritis_risk":5,"migraine_risk":7,"frizz_risk":0,"updated_at":"2026-03-21T16:01:05.671192+05:30"},{"city":"Dhanbad","state":"Jharkhand","latitude":23.7957,"longitude":86.4304,"temp":24.5,"humidity":64,"rain":0.0,"pressure":981.7,"uv_index":7.6,"wind_gusts":27.0,"aqi":151,"pm10":40.7,"pm2_5":36.0,"mosquito_risk":3,"arthritis_risk":5,"migraine_risk":7,"frizz_risk":1,"updated_at":"2026-03-21T16:01:05.671199+05:30"},{"city":"Bokaro","state":"Jharkhand","latitude":23.6693,"longitude":86.1511,"temp":22.3,"humidity":78,"rain":1.4,"pressure":985.6,"uv_index":5.8,"wind_gusts":37.4,"aqi":140,"pm10":42.1,"pm2_5":37.6,"mosquito_risk":6,"arthritis_risk":5,"migraine_risk":3,"frizz_risk":1,"updated_at":"2026-03-21T16:01:05.671206+05:30"},{"city":"Bhubaneswar","state":"Odisha","latitude":20.2961,"longitude":85.8245,"temp":31.9,"humidity":40,"rain":0.0,"pressure":1002.6,"uv_index":8.55,"wind_gusts":28.1,"aqi":154,"pm10":60.1,"pm2_5":46.6,"mosquito_risk":0,"arthritis_risk":5,"migraine_risk":4,"frizz_risk":1,"updated_at":"2026-03-21T16:01:05.671212+05:30"},{"city":"Cuttack","state":"Odisha","latitude":20.4625,"longitude":85.8828,"temp":32.0,"humidity":40,"rain":0.0,"pressure":1004.5,"uv_index":8.6,"wind_gusts":25.9,"aqi":154,"pm10":60.1,"pm2_5":46.6,"mosquito_risk":0,"arthritis_risk":5,"migraine_risk":4,"frizz_risk":1,"updated_at":"2026-03-21T16:01:05.671218+05:30"},{"city":"Rourkela","state":"Odisha","latitude":22.2604,"longitude":84.8536,"temp":30.4,"humidity":37,"rain":0.0,"pressure":985.7,"uv_index":8.15,"wind_gusts":29.9,"aqi":126,"pm10":46.2,"pm2_5":29.3,"mosquito_risk":0,"arthritis_risk":5,"migraine_risk":7,"frizz_risk":0,"updated_at":"2026-03-21T16:01:05.671225+05:30"},{"city":"Raipur","state":"Chhattisgarh","latitude":21.2514,"longitude":81.6296,"temp":32.9,"humidity":24,"rain":0.0,"pressure":975.0,"uv_index":8.35,"wind_gusts":31.7,"aqi":123,"pm10":32.5,"pm2_5":16.0,"mosquito_risk":0,"arthritis_risk":5,"migraine_risk":7,"frizz_risk":0,"updated_at":"2026-03-21T16:01:05.671230+05:30"},{"city":"Bhilai","state":"Chhattisgarh","latitude":21.1938,"longitude":81.3509,"temp":33.3,"humidity":20,"rain":0.0,"pressure":975.2,"uv_index":8.35,"wind_gusts":33.8,"aqi":113,"pm10":25.7,"pm2_5":12.8,"mosquito_risk":0,"arthritis_risk":5,"migraine_risk":7,"frizz_risk":0,"updated_at":"2026-03-21T16:01:05.671236+05:30"},{"city":"Guwahati","state":"Assam","latitude":26.1158,"longitude":91.7086,"temp":24.0,"humidity":81,"rain":0.0,"pressure":1004.4,"uv_index":2.65,"wind_gusts":18.7,"aqi":94,"pm10":47.1,"pm2_5":33.3,"mosquito_risk":3,"arthritis_risk":5,"migraine_risk":0,"frizz_risk":1,"updated_at":"2026-03-21T16:01:05.671242+05:30"},{"city":"Agartala","state":"Tripura","latitude":23.8315,"longitude":91.2868,"temp":26.1,"humidity":61,"rain":0.0,"pressure":1007.6,"uv_index":5.1,"wind_gusts":18.4,"aqi":118,"pm10":56.0,"pm2_5":40.4,"mosquito_risk":7,"arthritis_risk":5,"migraine_risk":0,"frizz_risk":1,"updated_at":"2026-03-21T16:01:05.671248+05:30"},{"city":"Shillong","state":"Meghalaya","latitude":25.5788,"longitude":91.8933,"temp":14.2,"humidity":73,"rain":0.0,"pressure":856.1,"uv_index":3.35,"wind_gusts":23.8,"aqi":87,"pm10":51.7,"pm2_5":33.3,"mosquito_risk":3,"arthritis_risk":5,"migraine_risk":3,"frizz_risk":0,"updated_at":"2026-03-21T16:01:05.671255+05:30"},{"city":"Imphal","state":"Manipur","latitude":24.817,"longitude":93.9368,"temp":20.8,"humidity":59,"rain":0.0,"pressure":923.8,"uv_index":7.45,"wind_gusts":35.3,"aqi":88,"pm10":36.0,"pm2_5":24.5,"mosquito_risk":0,"arthritis_risk":5,"migraine_risk":7,"frizz_risk":0,"updated_at":"2026-03-21T16:01:05.671261+05:30"},{"city":"Aizawl","state":"Mizoram","latitude":23.7271,"longitude":92.7176,"temp":20.9,"humidity":62,"rain":0.0,"pressure":893.2,"uv_index":5.8,"wind_gusts":34.6,"aqi":120,"pm10":68.9,"pm2_5":53.8,"mosquito_risk":3,"arthritis_risk":5,"migraine_risk":3,"frizz_risk":0,"updated_at":"2026-03-21T16:01:05.671268+05:30"},{"city":"Kohima","state":"Nagaland","latitude":25.6701,"longitude":94.1077,"temp":15.5,"humidity":91,"rain":0.0,"pressure":855.3,"uv_index":7.0,"wind_gusts":57.2,"aqi":87,"pm10":49.1,"pm2_5":33.4,"mosquito_risk":3,"arthritis_risk":10,"migraine_risk":7,"frizz_risk":0,"updated_at":"2026-03-21T16:01:05.671274+05:30"},{"city":"Gangtok","state":"Sikkim","latitude":27.3314,"longitude":88.6138,"temp":11.4,"humidity":94,"rain":0.5,"pressure":837.3,"uv_index":1.95,"wind_gusts":16.6,"aqi":106,"pm10":28.3,"pm2_5":21.4,"mosquito_risk":6,"arthritis_risk":10,"migraine_risk":3,"frizz_risk":0,"updated_at":"2026-03-21T16:01:05.671280+05:30"},{"city":"Siliguri","state":"West Bengal","latitude":26.7271,"longitude":88.3953,"temp":17.8,"humidity":88,"rain":0.6,"pressure":997.9,"uv_index":0.45,"wind_gusts":29.2,"aqi":98,"pm10":56.2,"pm2_5":43.4,"mosquito_risk":6,"arthritis_risk":10,"migraine_risk":3,"frizz_risk":0,"updated_at":"2026-03-21T16:01:08.882818+05:30"},{"city":"Durgapur","state":"West Bengal","latitude":23.5204,"longitude":87.3119,"temp":25.6,"humidity":60,"rain":0.0,"pressure":997.2,"uv_index":7.65,"wind_gusts":19.1,"aqi":147,"pm10":44.5,"pm2_5":38.1,"mosquito_risk":4,"arthritis_risk":5,"migraine_risk":7,"frizz_risk":1,"updated_at":"2026-03-21T16:01:08.882847+05:30"},{"city":"Asansol","state":"West Bengal","latitude":23.6739,"longitude":86.9524,"temp":25.4,"humidity":61,"rain":0.0,"pressure":996.0,"uv_index":6.2,"wind_gusts":21.2,"aqi":150,"pm10":42.4,"pm2_5":35.5,"mosquito_risk":7,"arthritis_risk":5,"migraine_risk":7,"frizz_risk":1,"updated_at":"2026-03-21T16:01:08.882873+05:30"},{"city":"Pondicherry","state":"Puducherry","latitude":11.9139,"longitude":79.8145,"temp":32.9,"humidity":57,"rain":0.0,"pressure":1007.3,"uv_index":9.15,"wind_gusts":30.6,"aqi":38,"pm10":11.7,"pm2_5":7.3,"mosquito_risk":0,"arthritis_risk":5,"migraine_risk":4,"frizz_risk":1,"updated_at":"2026-03-21T16:01:08.882882+05:30"},{"city":"Port Blair","state":"Andaman and Nicobar Islands","latitude":11.6234,"longitude":92.7265,"temp":28.6,"humidity":76,"rain":0.0,"pressure":1007.2,"uv_index":9.1,"wind_gusts":14.8,"aqi":56,"pm10":18.4,"pm2_5":14.4,"mosquito_risk":7,"arthritis_risk":5,"migraine_risk":4,"frizz_risk":1,"updated_at":"2026-03-21T16:01:08.882890+05:30"},{"city":"Haridwar","state":"Uttarakhand","latitude":29.9457,"longitude":78.1642,"temp":25.7,"humidity":43,"rain":0.0,"pressure":977.6,"uv_index":6.15,"wind_gusts":21.6,"aqi":96,"pm10":27.1,"pm2_5":19.6,"mosquito_risk":4,"arthritis_risk":5,"migraine_risk":7,"frizz_risk":0,"updated_at":"2026-03-21T16:01:08.882897+05:30"},{"city":"Rishikesh","state":"Uttarakhand","latitude":30.0869,"longitude":78.2676,"temp":24.6,"humidity":46,"rain":0.0,"pressure":970.0,"uv_index":6.15,"wind_gusts":20.9,"aqi":80,"pm10":22.4,"pm2_5":14.7,"mosquito_risk":0,"arthritis_risk":5,"migraine_risk":7,"frizz_risk":0,"updated_at":"2026-03-21T16:01:08.882904+05:30"},{"city":"Nainital","state":"Uttarakhand","latitude":29.3919,"longitude":79.4542,"temp":15.3,"humidity":80,"rain":0.0,"pressure":806.3,"uv_index":6.9,"wind_gusts":34.2,"aqi":77,"pm10":20.1,"pm2_5":15.0,"mosquito_risk":3,"arthritis_risk":5,"migraine_risk":7,"frizz_risk":0,"updated_at":"2026-03-21T16:01:08.882911+05:30"},{"city":"Mussoorie","state":"Uttarakhand","latitude":30.4599,"longitude":78.0664,"temp":15.6,"humidity":57,"rain":0.0,"pressure":803.6,"uv_index":6.55,"wind_gusts":26.3,"aqi":79,"pm10":22.6,"pm2_5":15.4,"mosquito_risk":0,"arthritis_risk":5,"migraine_risk":7,"frizz_risk":0,"updated_at":"2026-03-21T16:01:08.882918+05:30"},{"city":"Dharamshala","state":"Himachal Pradesh","latitude":32.219,"longitude":76.3234,"temp":17.2,"humidity":67,"rain":0.0,"pressure":870.6,"uv_index":6.2,"wind_gusts":17.6,"aqi":75,"pm10":15.7,"pm2_5":8.4,"mosquito_risk":3,"arthritis_risk":5,"migraine_risk":7,"frizz_risk":0,"updated_at":"2026-03-21T16:01:08.882924+05:30"},{"city":"Dalhousie","state":"Himachal Pradesh","latitude":32.5387,"longitude":75.971,"temp":14.6,"humidity":67,"rain":0.0,"pressure":804.7,"uv_index":6.35,"wind_gusts":17.3,"aqi":72,"pm10":20.1,"pm2_5":11.9,"mosquito_risk":3,"arthritis_risk":5,"migraine_risk":7,"frizz_risk":0,"updated_at":"2026-03-21T16:01:08.882932+05:30"},{"city":"Patiala","state":"Punjab","latitude":30.3398,"longitude":76.3869,"temp":24.6,"humidity":50,"rain":0.0,"pressure":982.4,"uv_index":5.65,"wind_gusts":23.8,"aqi":150,"pm10":540.2,"pm2_5":62.6,"mosquito_risk":0,"arthritis_risk":5,"migraine_risk":3,"frizz_risk":0,"updated_at":"2026-03-21T16:01:08.882939+05:30"},{"city":"Bhatinda","state":"Punjab","latitude":30.211,"longitude":74.9455,"temp":25.4,"humidity":48,"rain":0.0,"pressure":988.2,"uv_index":5.5,"wind_gusts":18.0,"aqi":143,"pm10":63.3,"pm2_5":31.7,"mosquito_risk":4,"arthritis_risk":5,"migraine_risk":3,"frizz_risk":0,"updated_at":"2026-03-21T16:01:08.882945+05:30"},{"city":"Rohtak","state":"Haryana","latitude":28.8955,"longitude":76.6066,"temp":26.1,"humidity":46,"rain":0.0,"pressure":985.8,"uv_index":5.75,"wind_gusts":22.7,"aqi":162,"pm10":380.0,"pm2_5":50.3,"mosquito_risk":4,"arthritis_risk":5,"migraine_risk":3,"frizz_risk":0,"updated_at":"2026-03-21T16:01:08.882951+05:30"},{"city":"Panipat","state":"Haryana","latitude":29.3909,"longitude":76.9635,"temp":25.5,"humidity":47,"rain":0.0,"pressure":984.5,"uv_index":6.15,"wind_gusts":24.8,"aqi":161,"pm10":787.9,"pm2_5":82.2,"mosquito_risk":4,"arthritis_risk":5,"migraine_risk":7,"frizz_risk":0,"updated_at":"2026-03-21T16:01:08.882957+05:30"},{"city":"Mathura","state":"Uttar Pradesh","latitude":27.4924,"longitude":77.6737,"temp":28.0,"humidity":36,"rain":0.0,"pressure":990.7,"uv_index":6.7,"wind_gusts":23.8,"aqi":153,"pm10":568.1,"pm2_5":66.4,"mosquito_risk":4,"arthritis_risk":5,"migraine_risk":7,"frizz_risk":0,"updated_at":"2026-03-21T16:01:08.882963+05:30"},{"city":"Vrindavan","state":"Uttar Pradesh","latitude":27.5823,"longitude":77.7027,"temp":26.8,"humidity":42,"rain":0.0,"pressure":991.2,"uv_index":6.65,"wind_gusts":21.6,"aqi":153,"pm10":568.1,"pm2_5":66.4,"mosquito_risk":4,"arthritis_risk":5,"migraine_risk":7,"frizz_risk":0,"updated_at":"2026-03-21T16:01:08.882969+05:30"},{"city":"Ayodhya","state":"Uttar Pradesh","latitude":26.7922,"longitude":82.1998,"temp":23.8,"humidity":64,"rain":0.0,"pressure":999.6,"uv_index":6.9,"wind_gusts":22.0,"aqi":108,"pm10":51.0,"pm2_5":27.2,"mosquito_risk":3,"arthritis_risk":5,"migraine_risk":7,"frizz_risk":1,"updated_at":"2026-03-21T16:01:08.882976+05:30"},{"city":"Ratlam","state":"Madhya Pradesh","latitude":23.3315,"longitude":75.0367,"temp":30.2,"humidity":29,"rain":0.0,"pressure":956.3,"uv_index":7.35,"wind_gusts":21.2,"aqi":57,"pm10":20.1,"pm2_5":10.0,"mosquito_risk":0,"arthritis_risk":5,"migraine_risk":7,"frizz_risk":0,"updated_at":"2026-03-21T16:01:08.882982+05:30"},{"city":"Sagar","state":"Madhya Pradesh","latitude":23.8388,"longitude":78.7378,"temp":28.3,"humidity":27,"rain":0.0,"pressure":952.8,"uv_index":7.9,"wind_gusts":28.4,"aqi":92,"pm10":27.8,"pm2_5":13.3,"mosquito_risk":4,"arthritis_risk":5,"migraine_risk":7,"frizz_risk":0,"updated_at":"2026-03-21T16:01:08.882988+05:30"},{"city":"Satna","state":"Madhya Pradesh","latitude":24.6005,"longitude":80.8322,"temp":25.5,"humidity":45,"rain":0.0,"pressure":974.6,"uv_index":7.8,"wind_gusts":32.8,"aqi":77,"pm10":26.1,"pm2_5":12.6,"mosquito_risk":4,"arthritis_risk":5,"migraine_risk":7,"frizz_risk":0,"updated_at":"2026-03-21T16:01:08.882995+05:30"},{"city":"Akola","state":"Maharashtra","latitude":20.7002,"longitude":77.0082,"temp":33.8,"humidity":24,"rain":0.0,"pressure":975.4,"uv_index":8.25,"wind_gusts":23.0,"aqi":62,"pm10":22.1,"pm2_5":13.5,"mosquito_risk":0,"arthritis_risk":5,"migraine_risk":7,"frizz_risk":0,"updated_at":"2026-03-21T16:01:08.883002+05:30"},{"city":"Amravati","state":"Maharashtra","latitude":20.9374,"longitude":77.7796,"temp":33.5,"humidity":23,"rain":0.0,"pressure":967.8,"uv_index":8.3,"wind_gusts":25.2,"aqi":62,"pm10":20.4,"pm2_5":11.0,"mosquito_risk":0,"arthritis_risk":5,"migraine_risk":7,"frizz_risk":0,"updated_at":"2026-03-21T16:01:08.883009+05:30"},{"city":"Latur","state":"Maharashtra","latitude":18.4088,"longitude":76.5604,"temp":32.6,"humidity":25,"rain":0.0,"pressure":939.7,"uv_index":8.65,"wind_gusts":34.2,"aqi":71,"pm10":39.1,"pm2_5":17.5,"mosquito_risk":0,"arthritis_risk":5,"migraine_risk":7,"frizz_risk":0,"updated_at":"2026-03-21T16:01:08.883016+05:30"},{"city":"Nanded","state":"Maharashtra","latitude":19.1383,"longitude":77.3091,"temp":35.0,"humidity":22,"rain":0.0,"pressure":968.4,"uv_index":8.5,"wind_gusts":28.1,"aqi":64,"pm10":42.8,"pm2_5":14.0,"mosquito_risk":0,"arthritis_risk":5,"migraine_risk":7,"frizz_risk":0,"updated_at":"2026-03-21T16:01:08.883022+05:30"},{"city":"Gulbarga","state":"Karnataka","latitude":17.3297,"longitude":76.8343,"temp":35.3,"humidity":21,"rain":0.0,"pressure":957.9,"uv_index":8.75,"wind_gusts":42.1,"aqi":111,"pm10":28.2,"pm2_5":18.2,"mosquito_risk":0,"arthritis_risk":5,"migraine_risk":10,"frizz_risk":0,"updated_at":"2026-03-21T16:01:08.883028+05:30"},{"city":"Bidar","state":"Karnataka","latitude":17.9104,"longitude":77.5199,"temp":33.1,"humidity":25,"rain":0.0,"pressure":935.4,"uv_index":8.75,"wind_gusts":40.3,"aqi":85,"pm10":32.6,"pm2_5":19.6,"mosquito_risk":0,"arthritis_risk":5,"migraine_risk":7,"frizz_risk":0,"updated_at":"2026-03-21T16:01:08.883034+05:30"},{"city":"Hospet","state":"Karnataka","latitude":15.2689,"longitude":76.3909,"temp":33.9,"humidity":27,"rain":0.0,"pressure":955.1,"uv_index":9.0,"wind_gusts":19.4,"aqi":98,"pm10":28.7,"pm2_5":17.3,"mosquito_risk":0,"arthritis_risk":5,"migraine_risk":7,"frizz_risk":0,"updated_at":"2026-03-21T16:01:08.883040+05:30"},{"city":"Tirupur","state":"Tamil Nadu","latitude":11.1085,"longitude":77.3411,"temp":36.3,"humidity":28,"rain":0.0,"pressure":973.0,"uv_index":9.4,"wind_gusts":33.5,"aqi":100,"pm10":22.6,"pm2_5":15.5,"mosquito_risk":0,"arthritis_risk":5,"migraine_risk":10,"frizz_risk":0,"updated_at":"2026-03-21T16:01:08.883046+05:30"},{"city":"Alappuzha","state":"Kerala","latitude":9.4981,"longitude":76.3388,"temp":29.2,"humidity":73,"rain":0.0,"pressure":1007.1,"uv_index":9.1,"wind_gusts":29.2,"aqi":108,"pm10":22.2,"pm2_5":16.9,"mosquito_risk":7,"arthritis_risk":5,"migraine_risk":4,"frizz_risk":1,"updated_at":"2026-03-21T16:01:08.883053+05:30"},{"city":"Munnar","state":"Kerala","latitude":10.0889,"longitude":77.0595,"temp":27.2,"humidity":57,"rain":0.0,"pressure":857.6,"uv_index":9.65,"wind_gusts":30.6,"aqi":94,"pm10":20.1,"pm2_5":13.4,"mosquito_risk":4,"arthritis_risk":5,"migraine_risk":7,"frizz_risk":1,"updated_at":"2026-03-21T16:01:08.883059+05:30"},{"city":"Silchar","state":"Assam","latitude":24.8333,"longitude":92.7789,"temp":26.0,"humidity":60,"rain":0.0,"pressure":1005.9,"uv_index":6.8,"wind_gusts":22.3,"aqi":90,"pm10":48.4,"pm2_5":34.0,"mosquito_risk":4,"arthritis_risk":5,"migraine_risk":4,"frizz_risk":1,"updated_at":"2026-03-21T16:01:08.883066+05:30"},{"city":"Dibrugarh","state":"Assam","latitude":27.4728,"longitude":94.912,"temp":26.6,"humidity":63,"rain":0.0,"pressure":997.2,"uv_index":6.3,"wind_gusts":20.5,"aqi":94,"pm10":43.4,"pm2_5":27.5,"mosquito_risk":7,"arthritis_risk":5,"migraine_risk":7,"frizz_risk":1,"updated_at":"2026-03-21T16:01:08.883073+05:30"}]