[{"city":"Delhi","state":"Delhi","latitude":28.6139,"longitude":77.209,"temp":27.9,"humidity":41,"rain":0.0,"pressure":989.0,"uv_index":7.05,"wind_gusts":23.8,"aqi":129,"pm10":156.5,"pm2_5":49.0,"mosquito_risk":4,"arthritis_risk":5,"migraine_risk":7,"frizz_risk":0,"updated_at":"2026-04-09T12:58:10.423749+05:30"},{"city":"Mumbai","state":"Maharashtra","latitude":19.076,"longitude":72.8777,"temp":28.0,"humidity":76,"rain":0.0,"pressure":1011.5,"uv_index":7.95,"wind_gusts":19.1,"aqi":78,"pm10":130.9,"pm2_5":42.4,"mosquito_risk":7,"arthritis_risk":0,"migraine_risk":4,"frizz_risk":1,"updated_at":"2026-04-09T12:58:10.423802+05:30"},{"city":"Bangalore","state":"Karnataka","latitude":12.9716,"longitude":77.5946,"temp":32.9,"humidity":35,"rain":0.0,"pressure":914.1,"uv_index":9.6,"wind_gusts":27.4,"aqi":72,"pm10":20.1,"pm2_5":13.0,"mosquito_risk":0,"arthritis_risk":5,"migraine_risk":7,"frizz_risk":0,"updated_at":"2026-04-09T12:58:10.423818+05:30"},{"city":"Hyderabad","state":"Telangana","latitude":17.385,"longitude":78.4867,"temp":37.1,"humidity":22,"rain":0.0,"pressure":954.9,"uv_index":9.2,"wind_gusts":27.7,"aqi":99,"pm10":47.8,"pm2_5":26.9,"mosquito_risk":0,"arthritis_risk":5,"migraine_risk":10,"frizz_risk":0,"updated_at":"2026-04-09T12:58:10.423828+05:30"},{"city":"Chennai","state":"Tamil Nadu","latitude":13.0827,"longitude":80.2707,"temp":37.4,"humidity":43,"rain":0.0,"pressure":1008.1,"uv_index":9.35,"wind_gusts":38.9,"aqi":66,"pm10":26.0,"pm2_5":20.2,"mosquito_risk":0,"arthritis_risk":0,"migraine_risk":7,"frizz_risk":1,"updated_at":"2026-04-09T12:58:10.423838+05:30"},{"city":"Kolkata","state":"West Bengal","latitude":22.5726,"longitude":88.3639,"temp":26.1,"humidity":77,"rain":0.0,"pressure":1009.1,"uv_index":8.45,"wind_gusts":14.4,"aqi":75,"pm10":48.1,"pm2_5":36.6,"mosquito_risk":7,"arthritis_risk":0,"migraine_risk":4,"frizz_risk":1,"updated_at":"2026-04-09T12:58:10.423847+05:30"},{"city":"Pune","state":"Maharashtra","latitude":18.5204,"longitude":73.8567,"temp":33.7,"humidity":38,"rain":0.0,"pressure":951.2,"uv_index":8.5,"wind_gusts":34.2,"aqi":77,"pm10":144.4,"pm2_5":35.4,"mosquito_risk":0,"arthritis_risk":5,"migraine_risk":7,"frizz_risk":1,"updated_at":"2026-04-09T12:58:10.423860+05:30"},{"city":"Ahmedabad","state":"Gujarat","latitude":23.0225,"longitude":72.5714,"temp":34.9,"humidity":34,"rain":0.0,"pressure":1005.3,"uv_index":8.0,"wind_gusts":17.3,"aqi":77,"pm10":55.8,"pm2_5":22.4,"mosquito_risk":0,"arthritis_risk":5,"migraine_risk":4,"frizz_risk":1,"updated_at":"2026-04-09T12:58:10.423869+05:30"},{"city":"Jaipur","state":"Rajasthan","latitude":26.9124,"longitude":75.7873,"temp":28.4,"humidity":40,"rain":0.0,"pressure":964.9,"uv_index":7.75,"wind_gusts":27.0,"aqi":160,"pm10":184.4,"pm2_5":36.7,"mosquito_risk":4,"arthritis_risk":5,"migraine_risk":7,"frizz_risk":0,"updated_at":"2026-04-09T12:58:10.423877+05:30"},{"city":"Lucknow","state":"Uttar Pradesh","latitude":26.8467,"longitude":80.9462,"temp":29.8,"humidity":38,"rain":0.0,"pressure":998.8,"uv_index":7.55,"wind_gusts":32.8,"aqi":134,"pm10":89.2,"pm2_5":28.5,"mosquito_risk":4,"arthritis_risk":5,"migraine_risk":7,"frizz_risk":0,"updated_at":"2026-04-09T12:58:10.423885+05:30"},{"city":"Kanpur","state":"Uttar Pradesh","latitude":26.4499,"longitude":80.3319,"temp":29.2,"humidity":42,"rain":0.0,"pressure":997.3,"uv_index":7.6,"wind_gusts":32.4,"aqi":134,"pm10":201.2,"pm2_5":36.4,"mosquito_risk":4,"arthritis_risk":5,"migraine_risk":7,"frizz_risk":0,"updated_at":"2026-04-09T12:58:10.423892+05:30"},{"city":"Chandigarh","state":"Chandigarh","latitude":30.7333,"longitude":76.7794,"temp":25.1,"humidity":49,"rain":0.0,"pressure":975.8,"uv_index":7.05,"wind_gusts":24.1,"aqi":66,"pm10":30.3,"pm2_5":14.7,"mosquito_risk":4,"arthritis_risk":5,"migraine_risk":7,"frizz_risk":0,"updated_at":"2026-04-09T12:58:10.423901+05:30"},{"city":"Srinagar","state":"Jammu and Kashmir","latitude":34.0837,"longitude":74.7973,"temp":11.3,"humidity":73,"rain":0.0,"pressure":843.9,"uv_index":7.9,"wind_gusts":22.0,"aqi":47,"pm10":9.9,"pm2_5":6.5,"mosquito_risk":3,"arthritis_risk":5,"migraine_risk":7,"frizz_risk":0,"updated_at":"2026-04-09T12:58:10.423914+05:30"},{"city":"Jammu","state":"Jammu and Kashmir","latitude":32.7266,"longitude":74.857,"temp":23.9,"humidity":55,"rain":0.0,"pressure":980.6,"uv_index":7.65,"wind_gusts":27.4,"aqi":67,"pm10":18.6,"pm2_5":8.8,"mosquito_risk":0,"arthritis_risk":5,"migraine_risk":7,"frizz_risk":0,"updated_at":"2026-04-09T12:58:10.423929+05:30"},{"city":"Amritsar","state":"Punjab","latitude":31.634,"longitude":74.8723,"temp":23.9,"humidity":56,"rain":0.0,"pressure":988.6,"uv_index":7.6,"wind_gusts":18.4,"aqi":78,"pm10":48.9,"pm2_5":19.7,"mosquito_risk":0,"arthritis_risk":5,"migraine_risk":7,"frizz_risk":0,"updated_at":"2026-04-09T12:58:10.423942+05:30"},{"city":"Ludhiana","state":"Punjab","latitude":30.901,"longitude":75.8573,"temp":25.2,"humidity":49,"rain":0.0,"pressure":986.3,"uv_index":7.25,"wind_gusts":19.8,"aqi":95,"pm10":49.6,"pm2_5":20.1,"mosquito_risk":4,"arthritis_risk":5,"migraine_risk":7,"frizz_risk":0,"updated_at":"2026-04-09T12:58:10.423955+05:30"},{"city":"Jalandhar","state":"Punjab","latitude":31.326,"longitude":75.5762,"temp":25.2,"humidity":48,"rain":0.0,"pressure":987.5,"uv_index":7.4,"wind_gusts":21.2,"aqi":90,"pm10":44.1,"pm2_5":17.5,"mosquito_risk":4,"arthritis_risk":5,"migraine_risk":7,"frizz_risk":0,"updated_at":"2026-04-09T12:58:10.423972+05:30"},{"city":"Dehradun","state":"Uttarakhand","latitude":30.6284,"longitude":78.0322,"temp":15.0,"humidity":63,"rain":0.0,"pressure":833.3,"uv_index":7.05,"wind_gusts":23.4,"aqi":44,"pm10":10.6,"pm2_5":4.4,"mosquito_risk":3,"arthritis_risk":5,"migraine_risk":7,"frizz_risk":0,"updated_at":"2026-04-09T12:58:10.423988+05:30"},{"city":"Shimla","state":"Himachal Pradesh","latitude":31.1048,"longitude":77.1734,"temp":12.3,"humidity":75,"rain":0.0,"pressure":787.1,"uv_index":7.4,"wind_gusts":27.0,"aqi":50,"pm10":15.9,"pm2_5":9.1,"mosquito_risk":3,"arthritis_risk":5,"migraine_risk":7,"frizz_risk":0,"updated_at":"2026-04-09T12:58:10.423998+05:30"},{"city":"Manali","state":"Himachal Pradesh","latitude":32.2396,"longitude":77.1887,"temp":14.9,"humidity":44,"rain":0.0,"pressure":820.5,"uv_index":9.7,"wind_gusts":24.8,"aqi":103,"pm10":6.9,"pm2_5":4.4,"mosquito_risk":0,"arthritis_risk":5,"migraine_risk":7,"frizz_risk":0,"updated_at":"2026-04-09T12:58:10.424006+05:30"},{"city":"Gurgaon","state":"Haryana","latitude":28.4595,"longitude":77.0266,"temp":27.8,"humidity":48,"rain":0.0,"pressure":987.5,"uv_index":7.15,"wind_gusts":17.3,"aqi":146,"pm10":353.0,"pm2_5":57.2,"mosquito_risk":4,"arthritis_risk":5,"migraine_risk":7,"frizz_risk":0,"updated_at":"2026-04-09T12:58:10.424016+05:30"},{"city":"Noida","state":"Uttar Pradesh","latitude":28.5355,"longitude":77.391,"temp":28.2,"humidity":40,"rain":0.0,"pressure":990.7,"uv_index":7.1,"wind_gusts":22.7,"aqi":146,"pm10":353.0,"pm2_5":57.2,"mosquito_risk":4,"arthritis_risk":5,"migraine_risk":7,"frizz_risk":0,"updated_at":"2026-04-09T12:58:10.424029+05:30"},{"city":"Ghaziabad","state":"Uttar Pradesh","latitude":28.6692,"longitude":77.4538,"temp":27.6,"humidity":40,"rain":0.0,"pressure":989.0,"uv_index":7.05,"wind_gusts":23.8,"aqi":111,"pm10":136.4,"pm2_5":41.9,"mosquito_risk":4,"arthritis_risk":5,"migraine_risk":7,"frizz_risk":0,"updated_at":"2026-04-09T12:58:10.424060+05:30"},{"city":"Faridabad","state":"Haryana","latitude":28.4089,"longitude":77.3178,"temp":27.6,"humidity":51,"rain":0.0,"pressure":989.9,"uv_index":7.15,"wind_gusts":19.4,"aqi":146,"pm10":353.0,"pm2_5":57.2,"mosquito_risk":4,"arthritis_risk":5,"migraine_risk":7,"frizz_risk":1,"updated_at":"2026-04-09T12:58:10.424070+05:30"},{"city":"Meerut","state":"Uttar Pradesh","latitude":28.9845,"longitude":77.7064,"temp":27.7,"humidity":40,"rain":0.0,"pressure":987.6,"uv_index":6.95,"wind_gusts":29.2,"aqi":111,"pm10":136.4,"pm2_5":41.9,"mosquito_risk":4,"arthritis_risk":5,"migraine_risk":7,"frizz_risk":0,"updated_at":"2026-04-09T12:58:10.424078+05:30"},{"city":"Agra","state":"Uttar Pradesh","latitude":27.1767,"longitude":78.0081,"temp":27.8,"humidity":52,"rain":0.0,"pressure":994.1,"uv_index":7.45,"wind_gusts":17.3,"aqi":520,"pm10":281.3,"pm2_5":54.6,"mosquito_risk":4,"arthritis_risk":5,"migraine_risk":7,"frizz_risk":1,"updated_at":"2026-04-09T12:58:10.424087+05:30"},{"city":"Varanasi","state":"Uttar Pradesh","latitude":25.3176,"longitude":82.9739,"temp":31.4,"humidity":37,"rain":0.0,"pressure":1001.8,"uv_index":8.15,"wind_gusts":29.2,"aqi":116,"pm10":62.2,"pm2_5":23.3,"mosquito_risk":0,"arthritis_risk":5,"migraine_risk":4,"frizz_risk":0,"updated_at":"2026-04-09T12:58:10.424097+05:30"},{"city":"Prayagraj","state":"Uttar Pradesh","latitude":25.4358,"longitude":81.8463,"temp":30.8,"humidity":38,"rain":0.0,"pressure":1000.5,"uv_index":8.05,"wind_gusts":31.0,"aqi":117,"pm10":70.3,"pm2_5":24.6,"mosquito_risk":0,"arthritis_risk":5,"migraine_risk":4,"frizz_risk":0,"updated_at":"2026-04-09T12:58:10.424107+05:30"},{"city":"Gorakhpur","state":"Uttar Pradesh","latitude":26.7606,"longitude":83.3732,"temp":30.4,"humidity":35,"rain":0.0,"pressure":1001.7,"uv_index":7.95,"wind_gusts":31.0,"aqi":152,"pm10":91.5,"pm2_5":36.1,"mosquito_risk":0,"arthritis_risk":5,"migraine_risk":4,"frizz_risk":0,"updated_at":"2026-04-09T12:58:10.424114+05:30"},{"city":"Bareilly","state":"Uttar Pradesh","latitude":28.367,"longitude":79.4304,"temp":28.5,"humidity":41,"rain":0.0,"pressure":992.8,"uv_index":7.35,"wind_gusts":33.1,"aqi":100,"pm10":59.6,"pm2_5":26.3,"mosquito_risk":4,"arthritis_risk":5,"migraine_risk":7,"frizz_risk":0,"updated_at":"2026-04-09T12:58:10.424121+05:30"},{"city":"Aligarh","state":"Uttar Pradesh","latitude":27.8974,"longitude":78.088,"temp":28.9,"humidity":45,"rain":0.0,"pressure":991.6,"uv_index":7.2,"wind_gusts":26.6,"aqi":114,"pm10":199.8,"pm2_5":42.0,"mosquito_risk":4,"arthritis_risk":5,"migraine_risk":7,"frizz_risk":0,"updated_at":"2026-04-09T12:58:10.424127+05:30"},{"city":"Moradabad","state":"Uttar Pradesh","latitude":28.8386,"longitude":78.7733,"temp":27.3,"humidity":45,"rain":0.0,"pressure":989.9,"uv_index":7.15,"wind_gusts":30.6,"aqi":111,"pm10":66.6,"pm2_5":30.9,"mosquito_risk":4,"arthritis_risk":5,"migraine_risk":7,"frizz_risk":0,"updated_at":"2026-04-09T12:58:10.424136+05:30"},{"city":"Saharanpur","state":"Uttar Pradesh","latitude":29.9637,"longitude":77.546,"temp":25.9,"humidity":45,"rain":0.0,"pressure":982.5,"uv_index":6.75,"wind_gusts":27.4,"aqi":94,"pm10":41.6,"pm2_5":16.9,"mosquito_risk":4,"arthritis_risk":5,"migraine_risk":7,"frizz_risk":0,"updated_at":"2026-04-09T12:58:10.424143+05:30"},{"city":"Jhansi","state":"Uttar Pradesh","latitude":25.4484,"longitude":78.5685,"temp":29.5,"humidity":40,"rain":0.0,"pressure":983.3,"uv_index":8.0,"wind_gusts":25.2,"aqi":93,"pm10":104.3,"pm2_5":26.3,"mosquito_risk":4,"arthritis_risk":5,"migraine_risk":7,"frizz_risk":0,"updated_at":"2026-04-09T12:58:13.776652+05:30"},{"city":"Surat","state":"Gujarat","latitude":21.1702,"longitude":72.8311,"temp":30.1,"humidity":52,"rain":0.0,"pressure":1010.5,"uv_index":7.7,"wind_gusts":28.1,"aqi":80,"pm10":107.1,"pm2_5":40.0,"mosquito_risk":0,"arthritis_risk":0,"migraine_risk":4,"frizz_risk":1,"updated_at":"2026-04-09T12:58:13.776682+05:30"},{"city":"Vadodara","state":"Gujarat","latitude":22.3072,"longitude":73.1812,"temp":33.5,"humidity":39,"rain":0.0,"pressure":1007.9,"uv_index":8.0,"wind_gusts":20.5,"aqi":68,"pm10":45.6,"pm2_5":23.8,"mosquito_risk":0,"arthritis_risk":5,"migraine_risk":4,"frizz_risk":1,"updated_at":"2026-04-09T12:58:13.776692+05:30"},{"city":"Rajkot","state":"Gujarat","latitude":22.3039,"longitude":70.8022,"temp":33.1,"humidity":35,"rain":0.0,"pressure":997.5,"uv_index":7.7,"wind_gusts":21.2,"aqi":62,"pm10":65.0,"pm2_5":25.6,"mosquito_risk":0,"arthritis_risk":5,"migraine_risk":7,"frizz_risk":0,"updated_at":"2026-04-09T12:58:13.776701+05:30"},{"city":"Thane","state":"Maharashtra","latitude":19.2183,"longitude":72.9781,"temp":32.0,"humidity":52,"rain":0.0,"pressure":1011.0,"uv_index":7.95,"wind_gusts":33.8,"aqi":78,"pm10":130.9,"pm2_5":42.4,"mosquito_risk":0,"arthritis_risk":0,"migraine_risk":4,"frizz_risk":1,"updated_at":"2026-04-09T12:58:13.776708+05:30"},{"city":"Nagpur","state":"Maharashtra","latitude":21.1458,"longitude":79.0882,"temp":33.2,"humidity":35,"rain":0.0,"pressure":975.8,"uv_index":8.75,"wind_gusts":20.5,"aqi":90,"pm10":67.8,"pm2_5":29.6,"mosquito_risk":0,"arthritis_risk":5,"migraine_risk":7,"frizz_risk":0,"updated_at":"2026-04-09T12:58:13.776716+05:30"},{"city":"Nashik","state":"Maharashtra","latitude":19.9975,"longitude":73.7898,"temp":30.6,"humidity":39,"rain":0.0,"pressure":948.6,"uv_index":8.2,"wind_gusts":27.0,"aqi":66,"pm10":92.4,"pm2_5":23.2,"mosquito_risk":0,"arthritis_risk":5,"migraine_risk":7,"frizz_risk":0,"updated_at":"2026-04-09T12:58:13.776724+05:30"},{"city":"Aurangabad","state":"Maharashtra","latitude":19.8762,"longitude":75.3433,"temp":33.0,"humidity":30,"rain":0.0,"pressure":947.1,"uv_index":8.9,"wind_gusts":28.8,"aqi":66,"pm10":62.2,"pm2_5":19.2,"mosquito_risk":0,"arthritis_risk":5,"migraine_risk":7,"frizz_risk":0,"updated_at":"2026-04-09T12:58:13.776732+05:30"},{"city":"Solapur","state":"Maharashtra","latitude":17.6599,"longitude":75.9064,"temp":36.0,"humidity":22,"rain":0.0,"pressure":959.5,"uv_index":8.95,"wind_gusts":23.0,"aqi":72,"pm10":125.7,"pm2_5":34.9,"mosquito_risk":0,"arthritis_risk":5,"migraine_risk":10,"frizz_risk":0,"updated_at":"2026-04-09T12:58:13.776740+05:30"},{"city":"Kolhapur","state":"Maharashtra","latitude":16.705,"longitude":74.2433,"temp":32.0,"humidity":44,"rain":0.0,"pressure":950.7,"uv_index":9.0,"wind_gusts":38.9,"aqi":79,"pm10":138.8,"pm2_5":30.0,"mosquito_risk":0,"arthritis_risk":5,"migraine_risk":7,"frizz_risk":1,"updated_at":"2026-04-09T12:58:13.776747+05:30"},{"city":"Goa","state":"Goa","latitude":15.2993,"longitude":74.124,"temp":32.7,"humidity":56,"rain":0.0,"pressure":1000.6,"uv_index":9.0,"wind_gusts":35.3,"aqi":73,"pm10":66.1,"pm2_5":19.8,"mosquito_risk":0,"arthritis_risk":5,"migraine_risk":4,"frizz_risk":1,"updated_at":"2026-04-09T12:58:13.776755+05:30"},{"city":"Jodhpur","state":"Rajasthan","latitude":26.2389,"longitude":73.0243,"temp":32.1,"humidity":20,"rain":0.0,"pressure":988.2,"uv_index":8.0,"wind_gusts":26.3,"aqi":95,"pm10":90.1,"pm2_5":15.7,"mosquito_risk":0,"arthritis_risk":5,"migraine_risk":7,"frizz_risk":0,"updated_at":"2026-04-09T12:58:13.776762+05:30"},{"city":"Udaipur","state":"Rajasthan","latitude":24.5854,"longitude":73.7125,"temp":32.0,"humidity":14,"rain":0.0,"pressure":951.1,"uv_index":8.5,"wind_gusts":39.6,"aqi":69,"pm10":81.0,"pm2_5":19.3,"mosquito_risk":0,"arthritis_risk":5,"migraine_risk":7,"frizz_risk":0,"updated_at":"2026-04-09T12:58:13.776770+05:30"},{"city":"Kota","state":"Rajasthan","latitude":25.2138,"longitude":75.8648,"temp":32.2,"humidity":32,"rain":0.0,"pressure":983.2,"uv_index":8.0,"wind_gusts":21.6,"aqi":117,"pm10":110.1,"pm2_5":33.3,"mosquito_risk":0,"arthritis_risk":5,"migraine_risk":7,"frizz_risk":0,"updated_at":"2026-04-09T12:58:13.776777+05:30"},{"city":"Bikaner","state":"Rajasthan","latitude":28.0229,"longitude":73.3119,"temp":30.6,"humidity":20,"rain":0.0,"pressure":987.7,"uv_index":7.8,"wind_gusts":21.2,"aqi":87,"pm10":92.2,"pm2_5":21.4,"mosquito_risk":0,"arthritis_risk":5,"migraine_risk":7,"frizz_risk":0,"updated_at":"2026-04-09T12:58:13.776784+05:30"},{"city":"Ajmer","state":"Rajasthan","latitude":26.4499,"longitude":74.6399,"temp":30.1,"humidity":25,"rain":0.0,"pressure":959.3,"uv_index":7.95,"wind_gusts":27.4,"aqi":79,"pm10":115.5,"pm2_5":26.6,"mosquito_risk":0,"arthritis_risk":5,"migraine_risk":7,"frizz_risk":0,"updated_at":"2026-04-09T12:58:13.776792+05:30"},{"city":"Gwalior","state":"Madhya Pradesh","latitude":26.2183,"longitude":78.1828,"temp":29.5,"humidity":40,"rain":0.0,"pressure":988.6,"uv_index":7.75,"wind_gusts":34.6,"aqi":112,"pm10":131.3,"pm2_5":32.7,"mosquito_risk":4,"arthritis_risk":5,"migraine_risk":7,"frizz_risk":0,"updated_at":"2026-04-09T12:58:13.776799+05:30"},{"city":"Indore","state":"Madhya Pradesh","latitude":22.7196,"longitude":75.8577,"temp":31.3,"humidity":36,"rain":0.0,"pressure":951.8,"uv_index":8.4,"wind_gusts":23.4,"aqi":79,"pm10":41.4,"pm2_5":18.4,"mosquito_risk":0,"arthritis_risk":5,"migraine_risk":7,"frizz_risk":0,"updated_at":"2026-04-09T12:58:13.776806+05:30"},{"city":"Bhopal","state":"Madhya Pradesh","latitude":23.2599,"longitude":77.4126,"temp":33.0,"humidity":26,"rain":0.0,"pressure":957.3,"uv_index":8.4,"wind_gusts":26.6,"aqi":70,"pm10":71.2,"pm2_5":22.5,"mosquito_risk":0,"arthritis_risk":5,"migraine_risk":7,"frizz_risk":0,"updated_at":"2026-04-09T12:58:13.776813+05:30"},{"city":"Jabalpur","state":"Madhya Pradesh","latitude":23.1815,"longitude":79.9864,"temp":32.0,"humidity":30,"rain":0.0,"pressure":965.1,"uv_index":8.55,"wind_gusts":26.6,"aqi":131,"pm10":79.6,"pm2_5":26.8,"mosquito_risk":0,"arthritis_risk":5,"migraine_risk":7,"frizz_risk":0,"updated_at":"2026-04-09T12:58:13.776820+05:30"},{"city":"Ujjain","state":"Madhya Pradesh","latitude":23.1765,"longitude":75.7885,"temp":32.0,"humidity":31,"rain":0.0,"pressure":957.6,"uv_index":8.35,"wind_gusts":20.5,"aqi":75,"pm10":46.2,"pm2_5":18.6,"mosquito_risk":0,"arthritis_risk":5,"migraine_risk":7,"frizz_risk":0,"updated_at":"2026-04-09T12:58:13.776827+05:30"},{"city":"Visakhapatnam","state":"Andhra Pradesh","latitude":17.6868,"longitude":83.2185,"temp":35.0,"humidity":53,"rain":0.0,"pressure":1004.5,"uv_index":9.15,"wind_gusts":44.6,"aqi":98,"pm10":39.6,"pm2_5":33.5,"mosquito_risk":0,"arthritis_risk":5,"migraine_risk":4,"frizz_risk":1,"updated_at":"2026-04-09T12:58:13.776834+05:30"},{"city":"Vijayawada","state":"Andhra Pradesh","latitude":16.5062,"longitude":80.648,"temp":36.3,"humidity":46,"rain":0.0,"pressure":1003.4,"uv_index":9.15,"wind_gusts":33.1,"aqi":91,"pm10":30.6,"pm2_5":27.4,"mosquito_risk":0,"arthritis_risk":5,"migraine_risk":7,"frizz_risk":1,"updated_at":"2026-04-09T12:58:13.776841+05:30"},{"city":"Guntur","state":"Andhra Pradesh","latitude":16.3067,"longitude":80.4365,"temp":36.6,"humidity":46,"rain":0.0,"pressure":1004.4,"uv_index":8.95,"wind_gusts":33.8,"aqi":92,"pm10":30.6,"pm2_5":27.5,"mosquito_risk":0,"arthritis_risk":5,"migraine_risk":7,"frizz_risk":1,"updated_at":"2026-04-09T12:58:13.776848+05:30"},{"city":"Nellore","state":"Andhra Pradesh","latitude":14.4426,"longitude":79.9865,"temp":39.0,"humidity":35,"rain":0.0,"pressure":1005.5,"uv_index":9.3,"wind_gusts":35.3,"aqi":79,"pm10":32.4,"pm2_5":29.5,"mosquito_risk":0,"arthritis_risk":5,"migraine_risk":7,"frizz_risk":1,"updated_at":"2026-04-09T12:58:13.776856+05:30"},{"city":"Kurnool","state":"Andhra Pradesh","latitude":15.8281,"longitude":78.0373,"temp":39.2,"humidity":22,"rain":0.0,"pressure":977.5,"uv_index":9.2,"wind_gusts":27.7,"aqi":79,"pm10":46.4,"pm2_5":25.9,"mosquito_risk":0,"arthritis_risk":5,"migraine_risk":10,"frizz_risk":0,"updated_at":"2026-04-09T12:58:13.776863+05:30"},{"city":"Kakinada","state":"Andhra Pradesh","latitude":16.9891,"longitude":82.2475,"temp":36.5,"humidity":46,"rain":0.0,"pressure":1008.0,"uv_index":9.15,"wind_gusts":30.6,"aqi":81,"pm10":28.6,"pm2_5":22.5,"mosquito_risk":0,"arthritis_risk":0,"migraine_risk":7,"frizz_risk":1,"updated_at":"2026-04-09T12:58:13.776871+05:30"},{"city":"Tirupati","state":"Andhra Pradesh","latitude":13.6288,"longitude":79.4192,"temp":35.5,"humidity":45,"rain":0.0,"pressure":992.4,"uv_index":9.35,"wind_gusts":29.9,"aqi":98,"pm10":34.6,"pm2_5":31.7,"mosquito_risk":0,"arthritis_risk":5,"migraine_risk":10,"frizz_risk":1,"updated_at":"2026-04-09T12:58:13.776878+05:30"},{"city":"Warangal","state":"Telangana","latitude":17.9689,"longitude":79.5941,"temp":35.1,"humidity":48,"rain":0.0,"pressure":979.8,"uv_index":9.05,"wind_gusts":24.5,"aqi":105,"pm10":36.9,"pm2_5":30.0,"mosquito_risk":0,"arthritis_risk":5,"migraine_risk":10,"frizz_risk":1,"updated_at":"2026-04-09T12:58:13.776885+05:30"},{"city":"Nizamabad","state":"Telangana","latitude":18.6725,"longitude":78.0941,"temp":34.4,"humidity":33,"rain":0.0,"pressure":967.2,"uv_index":8.95,"wind_gusts":25.9,"aqi":90,"pm10":78.9,"pm2_5":28.3,"mosquito_risk":0,"arthritis_risk":5,"migraine_risk":7,"frizz_risk":0,"updated_at":"2026-04-09T12:58:13.776892+05:30"},{"city":"Mysore","state":"Karnataka","latitude":12.2958,"longitude":76.6396,"temp":33.6,"humidity":35,"rain":0.0,"pressure":930.9,"uv_index":9.55,"wind_gusts":37.1,"aqi":49,"pm10":17.3,"pm2_5":10.4,"mosquito_risk":0,"arthritis_risk":5,"migraine_risk":7,"frizz_risk":0,"updated_at":"2026-04-09T12:58:13.776899+05:30"},{"city":"Mangalore","state":"Karnataka","latitude":12.9141,"longitude":74.856,"temp":29.1,"humidity":76,"rain":0.0,"pressure":1009.1,"uv_index":9.15,"wind_gusts":34.2,"aqi":75,"pm10":59.8,"pm2_5":21.2,"mosquito_risk":7,"arthritis_risk":0,"migraine_risk":4,"frizz_risk":1,"updated_at":"2026-04-09T12:58:13.776906+05:30"},{"city":"Hubli-Dharwad","state":"Karnataka","latitude":15.3647,"longitude":75.124,"temp":33.0,"humidity":38,"rain":0.0,"pressure":943.6,"uv_index":9.2,"wind_gusts":40.3,"aqi":66,"pm10":84.3,"pm2_5":23.6,"mosquito_risk":0,"arthritis_risk":5,"migraine_risk":7,"frizz_risk":1,"updated_at":"2026-04-09T12:58:13.776913+05:30"},{"city":"Belgaum","state":"Karnataka","latitude":15.8497,"longitude":74.4977,"temp":30.6,"humidity":48,"rain":0.0,"pressure":928.8,"uv_index":9.2,"wind_gusts":36.4,"aqi":76,"pm10":104.8,"pm2_5":24.3,"mosquito_risk":0,"arthritis_risk":5,"migraine_risk":7,"frizz_risk":1,"updated_at":"2026-04-09T12:58:17.125921+05:30"},{"city":"Coimbatore","state":"Tamil Nadu","latitude":11.0168,"longitude":76.9558,"temp":33.5,"humidity":46,"rain":0.0,"pressure":964.0,"uv_index":9.5,"wind_gusts":38.9,"aqi":44,"pm10":14.3,"pm2_5":8.6,"mosquito_risk":0,"arthritis_risk":5,"migraine_risk":7,"frizz_risk":1,"updated_at":"2026-04-09T12:58:17.125952+05:30"},{"city":"Madurai","state":"Tamil Nadu","latitude":9.9252,"longitude":78.1198,"temp":35.4,"humidity":45,"rain":0.0,"pressure":994.3,"uv_index":9.4,"wind_gusts":21.6,"aqi":91,"pm10":34.8,"pm2_5":29.7,"mosquito_risk":0,"arthritis_risk":5,"migraine_risk":10,"frizz_risk":1,"updated_at":"2026-04-09T12:58:17.125962+05:30"},{"city":"Trichy","state":"Tamil Nadu","latitude":10.7905,"longitude":78.7047,"temp":35.0,"humidity":48,"rain":0.0,"pressure":1001.1,"uv_index":9.4,"wind_gusts":20.9,"aqi":79,"pm10":31.5,"pm2_5":26.5,"mosquito_risk":0,"arthritis_risk":5,"migraine_risk":4,"frizz_risk":1,"updated_at":"2026-04-09T12:58:17.125971+05:30"},{"city":"Salem","state":"Tamil Nadu","latitude":11.6643,"longitude":78.146,"temp":34.6,"humidity":47,"rain":0.0,"pressure":979.1,"uv_index":9.3,"wind_gusts":36.4,"aqi":74,"pm10":19.4,"pm2_5":17.0,"mosquito_risk":0,"arthritis_risk":5,"migraine_risk":7,"frizz_risk":1,"updated_at":"2026-04-09T12:58:17.125978+05:30"},{"city":"Tirunelveli","state":"Tamil Nadu","latitude":8.7139,"longitude":77.7567,"temp":36.6,"humidity":40,"rain":0.0,"pressure":1004.0,"uv_index":9.25,"wind_gusts":32.0,"aqi":68,"pm10":21.1,"pm2_5":16.9,"mosquito_risk":0,"arthritis_risk":5,"migraine_risk":7,"frizz_risk":1,"updated_at":"2026-04-09T12:58:17.125987+05:30"},{"city":"Vellore","state":"Tamil Nadu","latitude":12.9165,"longitude":79.1325,"temp":34.3,"humidity":50,"rain":0.0,"pressure":986.0,"uv_index":9.45,"wind_gusts":19.4,"aqi":117,"pm10":32.9,"pm2_5":29.3,"mosquito_risk":0,"arthritis_risk":5,"migraine_risk":7,"frizz_risk":1,"updated_at":"2026-04-09T12:58:17.125994+05:30"},{"city":"Erode","state":"Tamil Nadu","latitude":11.341,"longitude":77.7172,"temp":36.4,"humidity":42,"rain":0.0,"pressure":990.3,"uv_index":8.8,"wind_gusts":22.0,"aqi":59,"pm10":11.8,"pm2_5":9.3,"mosquito_risk":0,"arthritis_risk":5,"migraine_risk":10,"frizz_risk":1,"updated_at":"2026-04-09T12:58:17.126002+05:30"},{"city":"Kochi","state":"Kerala","latitude":9.9312,"longitude":76.2673,"temp":28.8,"humidity":79,"rain":0.0,"pressure":1010.7,"uv_index":8.3,"wind_gusts":25.2,"aqi":66,"pm10":27.7,"pm2_5":17.5,"mosquito_risk":7,"arthritis_risk":0,"migraine_risk":4,"frizz_risk":1,"updated_at":"2026-04-09T12:58:17.126010+05:30"},{"city":"Thiruvananthapuram","state":"Kerala","latitude":8.5241,"longitude":76.9366,"temp":28.8,"humidity":80,"rain":0.0,"pressure":1009.7,"uv_index":9.05,"wind_gusts":30.6,"aqi":51,"pm10":23.6,"pm2_5":15.2,"mosquito_risk":7,"arthritis_risk":0,"migraine_risk":4,"frizz_risk":1,"updated_at":"2026-04-09T12:58:17.126017+05:30"},{"city":"Kozhikode","state":"Kerala","latitude":11.2588,"longitude":75.7804,"temp":31.0,"humidity":71,"rain":0.0,"pressure":1010.0,"uv_index":9.15,"wind_gusts":25.9,"aqi":64,"pm10":67.1,"pm2_5":25.1,"mosquito_risk":3,"arthritis_risk":0,"migraine_risk":4,"frizz_risk":1,"updated_at":"2026-04-09T12:58:17.126024+05:30"},{"city":"Thrissur","state":"Kerala","latitude":10.5276,"longitude":76.2144,"temp":33.7,"humidity":54,"rain":0.0,"pressure":1009.0,"uv_index":7.7,"wind_gusts":28.8,"aqi":63,"pm10":29.0,"pm2_5":16.2,"mosquito_risk":0,"arthritis_risk":0,"migraine_risk":4,"frizz_risk":1,"updated_at":"2026-04-09T12:58:17.126037+05:30"},{"city":"Kannur","state":"Kerala","latitude":11.8745,"longitude":75.3704,"temp":32.4,"humidity":59,"rain":0.0,"pressure":1009.3,"uv_index":9.15,"wind_gusts":32.8,"aqi":69,"pm10":60.5,"pm2_5":22.7,"mosquito_risk":0,"arthritis_risk":0,"migraine_risk":4,"frizz_risk":1,"updated_at":"2026-04-09T12:58:17.126069+05:30"},{"city":"Patna","state":"Bihar","latitude":25.5941,"longitude":85.1376,"temp":30.3,"humidity":42,"rain":0.0,"pressure":1004.1,"uv_index":8.3,"wind_gusts":27.4,"aqi":111,"pm10":71.5,"pm2_5":34.2,"mosquito_risk":0,"arthritis_risk":5,"migraine_risk":4,"frizz_risk":0,"updated_at":"2026-04-09T12:58:17.126078+05:30"},{"city":"Gaya","state":"Bihar","latitude":24.7914,"longitude":85.0002,"temp":30.1,"humidity":47,"rain":0.0,"pressure":997.5,"uv_index":8.4,"wind_gusts":22.7,"aqi":115,"pm10":79.4,"pm2_5":37.4,"mosquito_risk":0,"arthritis_risk":5,"migraine_risk":7,"frizz_risk":1,"updated_at":"2026-04-09T12:58:17.126085+05:30"},{"city":"Muzaffarpur","state":"Bihar","latitude":26.1209,"longitude":85.3647,"temp":29.8,"humidity":44,"rain":0.0,"pressure":1004.2,"uv_index":7.75,"wind_gusts":20.5,"aqi":121,"pm10":69.2,"pm2_5":35.2,"mosquito_risk":4,"arthritis_risk":5,"migraine_risk":4,"frizz_risk":1,"updated_at":"2026-04-09T12:58:17.126093+05:30"},{"city":"Bhagalpur","state":"Bihar","latitude":25.2425,"longitude":87.0117,"temp":29.1,"humidity":51,"rain":0.0,"pressure":1004.4,"uv_index":8.25,"wind_gusts":23.4,"aqi":102,"pm10":34.9,"pm2_5":27.2,"mosquito_risk":4,"arthritis_risk":5,"migraine_risk":4,"frizz_risk":1,"updated_at":"2026-04-09T12:58:17.126100+05:30"},{"city":"Ranchi","state":"Jharkhand","latitude":23.3441,"longitude":85.3096,"temp":27.4,"humidity":49,"rain":0.0,"pressure":940.9,"uv_index":8.85,"wind_gusts":32.4,"aqi":122,"pm10":55.6,"pm2_5":19.2,"mosquito_risk":4,"arthritis_risk":5,"migraine_risk":7,"frizz_risk":0,"updated_at":"2026-04-09T12:58:17.126107+05:30"},{"city":"Jamshedpur","state":"Jharkhand","latitude":22.8046,"longitude":86.2029,"temp":29.9,"humidity":54,"rain":0.0,"pressure":994.0,"uv_index":8.6,"wind_gusts":15.8,"aqi":109,"pm10":129.0,"pm2_5":64.5,"mosquito_risk":4,"arthritis_risk":5,"migraine_risk":7,"frizz_risk":1,"updated_at":"2026-04-09T12:58:17.126114+05:30"},{"city":"Dhanbad","state":"Jharkhand","latitude":23.7957,"longitude":86.4304,"temp":29.8,"humidity":45,"rain":0.0,"pressure":983.0,"uv_index":8.7,"wind_gusts":24.5,"aqi":151,"pm10":101.5,"pm2_5":43.9,"mosquito_risk":4,"arthritis_risk":5,"migraine_risk":7,"frizz_risk":1,"updated_at":"2026-04-09T12:58:17.126121+05:30"},{"city":"Bokaro","state":"Jharkhand","latitude":23.6693,"longitude":86.1511,"temp":29.2,"humidity":50,"rain":0.0,"pressure":987.2,"uv_index":8.7,"wind_gusts":22.7,"aqi":154,"pm10":94.8,"pm2_5":41.4,"mosquito_risk":4,"arthritis_risk":5,"migraine_risk":7,"frizz_risk":1,"updated_at":"2026-04-09T12:58:17.126129+05:30"},{"city":"Bhubaneswar","state":"Odisha","latitude":20.2961,"longitude":85.8245,"temp":32.9,"humidity":57,"rain":0.0,"pressure":1003.8,"uv_index":9.0,"wind_gusts":32.8,"aqi":85,"pm10":51.8,"pm2_5":41.1,"mosquito_risk":0,"arthritis_risk":5,"migraine_risk":4,"frizz_risk":1,"updated_at":"2026-04-09T12:58:17.126136+05:30"},{"city":"Cuttack","state":"Odisha","latitude":20.4625,"longitude":85.8828,"temp":32.0,"humidity":64,"rain":0.0,"pressure":1006.4,"uv_index":9.05,"wind_gusts":31.7,"aqi":85,"pm10":51.8,"pm2_5":41.1,"mosquito_risk":3,"arthritis_risk":5,"migraine_risk":4,"frizz_risk":1,"updated_at":"2026-04-09T12:58:17.126145+05:30"},{"city":"Rourkela","state":"Odisha","latitude":22.2604,"longitude":84.8536,"temp":31.7,"humidity":50,"rain":0.0,"pressure":987.6,"uv_index":8.75,"wind_gusts":20.2,"aqi":129,"pm10":90.6,"pm2_5":34.9,"mosquito_risk":0,"arthritis_risk":5,"migraine_risk":7,"frizz_risk":1,"updated_at":"2026-04-09T12:58:17.126151+05:30"},{"city":"Raipur","state":"Chhattisgarh","latitude":21.2514,"longitude":81.6296,"temp":34.6,"humidity":32,"rain":0.0,"pressure":977.0,"uv_index":8.85,"wind_gusts":27.0,"aqi":113,"pm10":98.0,"pm2_5":40.2,"mosquito_risk":0,"arthritis_risk":5,"migraine_risk":7,"frizz_risk":0,"updated_at":"2026-04-09T12:58:17.126158+05:30"},{"city":"Bhilai","state":"Chhattisgarh","latitude":21.1938,"longitude":81.3509,"temp":34.6,"humidity":33,"rain":0.0,"pressure":977.2,"uv_index":8.6,"wind_gusts":25.9,"aqi":115,"pm10":97.6,"pm2_5":42.0,"mosquito_risk":0,"arthritis_risk":5,"migraine_risk":7,"frizz_risk":0,"updated_at":"2026-04-09T12:58:17.126165+05:30"},{"city":"Guwahati","state":"Assam","latitude":26.1158,"longitude":91.7086,"temp":27.4,"humidity":65,"rain":0.0,"pressure":1004.2,"uv_index":8.05,"wind_gusts":22.3,"aqi":79,"pm10":31.0,"pm2_5":25.0,"mosquito_risk":7,"arthritis_risk":5,"migraine_risk":4,"frizz_risk":1,"updated_at":"2026-04-09T12:58:17.126172+05:30"},{"city":"Agartala","state":"Tripura","latitude":23.8315,"longitude":91.2868,"temp":25.5,"humidity":84,"rain":0.0,"pressure":1009.5,"uv_index":8.25,"wind_gusts":18.7,"aqi":112,"pm10":18.3,"pm2_5":16.8,"mosquito_risk":7,"arthritis_risk":0,"migraine_risk":4,"frizz_risk":1,"updated_at":"2026-04-09T12:58:17.126180+05:30"},{"city":"Shillong","state":"Meghalaya","latitude":25.5788,"longitude":91.8933,"temp":15.0,"humidity":77,"rain":0.1,"pressure":857.2,"uv_index":8.3,"wind_gusts":45.4,"aqi":66,"pm10":31.2,"pm2_5":25.2,"mosquito_risk":6,"arthritis_risk":5,"migraine_risk":7,"frizz_risk":0,"updated_at":"2026-04-09T12:58:17.126187+05:30"},{"city":"Imphal","state":"Manipur","latitude":24.817,"longitude":93.9368,"temp":18.4,"humidity":84,"rain":0.1,"pressure":925.6,"uv_index":7.55,"wind_gusts":53.3,"aqi":77,"pm10":24.9,"pm2_5":18.6,"mosquito_risk":6,"arthritis_risk":10,"migraine_risk":7,"frizz_risk":0,"updated_at":"2026-04-09T12:58:17.126195+05:30"},{"city":"Aizawl","state":"Mizoram","latitude":23.7271,"longitude":92.7176,"temp":21.8,"humidity":73,"rain":0.0,"pressure":895.1,"uv_index":6.4,"wind_gusts":49.3,"aqi":69,"pm10":30.3,"pm2_5":24.2,"mosquito_risk":3,"arthritis_risk":5,"migraine_risk":7,"frizz_risk":1,"updated_at":"2026-04-09T12:58:17.126202+05:30"},{"city":"Kohima","state":"Nagaland","latitude":25.6701,"longitude":94.1077,"temp":16.0,"humidity":84,"rain":0.0,"pressure":856.5,"uv_index":6.7,"wind_gusts":70.6,"aqi":57,"pm10":24.2,"pm2_5":16.5,"mosquito_risk":3,"arthritis_risk":10,"migraine_risk":7,"frizz_risk":0,"updated_at":"2026-04-09T12:58:17.126210+05:30"},{"city":"Gangtok","state":"Sikkim","latitude":27.3314,"longitude":88.6138,"temp":17.0,"humidity":67,"rain":0.0,"pressure":838.8,"uv_index":5.8,"wind_gusts":20.5,"aqi":91,"pm10":15.2,"pm2_5":11.4,"mosquito_risk":3,"arthritis_risk":5,"migraine_risk":3,"frizz_risk":0,"updated_at":"2026-04-09T12:58:17.126217+05:30"},{"city":"Siliguri","state":"West Bengal","latitude":26.7271,"longitude":88.3953,"temp":23.5,"humidity":68,"rain":0.0,"pressure":996.9,"uv_index":4.4,"wind_gusts":21.6,"aqi":104,"pm10":25.0,"pm2_5":17.9,"mosquito_risk":3,"arthritis_risk":5,"migraine_risk":3,"frizz_risk":1,"updated_at":"2026-04-09T12:58:20.480381+05:30"},{"city":"Durgapur","state":"West Bengal","latitude":23.5204,"longitude":87.3119,"temp":29.3,"humidity":53,"rain":0.0,"pressure":998.3,"uv_index":8.7,"wind_gusts":18.0,"aqi":127,"pm10":88.7,"pm2_5":44.2,"mosquito_risk":4,"arthritis_risk":5,"migraine_risk":7,"frizz_risk":1,"updated_at":"2026-04-09T12:58:20.480413+05:30"},{"city":"Asansol","state":"West Bengal","latitude":23.6739,"longitude":86.9524,"temp":29.8,"humidity":51,"rain":0.0,"pressure":996.7,"uv_index":8.7,"wind_gusts":19.8,"aqi":128,"pm10":105.9,"pm2_5":45.6,"mosquito_risk":4,"arthritis_risk":5,"migraine_risk":7,"frizz_risk":1,"updated_at":"2026-04-09T12:58:20.480423+05:30"},{"city":"Pondicherry","state":"Puducherry","latitude":11.9139,"longitude":79.8145,"temp":36.7,"humidity":45,"rain":0.0,"pressure":1009.0,"uv_index":9.3,"wind_gusts":29.9,"aqi":67,"pm10":29.5,"pm2_5":24.4,"mosquito_risk":0,"arthritis_risk":0,"migraine_risk":7,"frizz_risk":1,"updated_at":"2026-04-09T12:58:20.480432+05:30"},{"city":"Port Blair","state":"Andaman and Nicobar Islands","latitude":11.6234,"longitude":92.7265,"temp":29.1,"humidity":75,"rain":0.0,"pressure":1009.0,"uv_index":9.25,"wind_gusts":12.2,"aqi":31,"pm10":7.3,"pm2_5":5.9,"mosquito_risk":7,"arthritis_risk":0,"migraine_risk":4,"frizz_risk":1,"updated_at":"2026-04-09T12:58:20.480440+05:30"},{"city":"Haridwar","state":"Uttarakhand","latitude":29.9457,"longitude":78.1642,"temp":26.5,"humidity":43,"rain":0.0,"pressure":980.8,"uv_index":6.9,"wind_gusts":30.2,"aqi":64,"pm10":24.3,"pm2_5":10.9,"mosquito_risk":4,"arthritis_risk":5,"migraine_risk":7,"frizz_risk":0,"updated_at":"2026-04-09T12:58:20.480447+05:30"},{"city":"Rishikesh","state":"Uttarakhand","latitude":30.0869,"longitude":78.2676,"temp":25.6,"humidity":43,"rain":0.0,"pressure":973.2,"uv_index":6.95,"wind_gusts":29.9,"aqi":46,"pm10":18.4,"pm2_5":7.9,"mosquito_risk":4,"arthritis_risk":5,"migraine_risk":7,"frizz_risk":0,"updated_at":"2026-04-09T12:58:20.480455+05:30"},{"city":"Nainital","state":"Uttarakhand","latitude":29.3919,"longitude":79.4542,"temp":17.8,"humidity":56,"rain":0.0,"pressure":809.6,"uv_index":7.8,"wind_gusts":40.7,"aqi":54,"pm10":37.1,"pm2_5":14.6,"mosquito_risk":0,"arthritis_risk":5,"migraine_risk":7,"frizz_risk":0,"updated_at":"2026-04-09T12:58:20.480462+05:30"},{"city":"Mussoorie","state":"Uttarakhand","latitude":30.4599,"longitude":78.0664,"temp":15.7,"humidity":62,"rain":0.0,"pressure":806.1,"uv_index":6.6,"wind_gusts":27.7,"aqi":60,"pm10":15.7,"pm2_5":7.3,"mosquito_risk":3,"arthritis_risk":5,"migraine_risk":7,"frizz_risk":0,"updated_at":"2026-04-09T12:58:20.480469+05:30"},{"city":"Dharamshala","state":"Himachal Pradesh","latitude":32.219,"longitude":76.3234,"temp":17.0,"humidity":70,"rain":0.0,"pressure":873.6,"uv_index":7.5,"wind_gusts":19.8,"aqi":98,"pm10":13.4,"pm2_5":5.4,"mosquito_risk":3,"arthritis_risk":5,"migraine_risk":7,"frizz_risk":0,"updated_at":"2026-04-09T12:58:20.480476+05:30"},{"city":"Dalhousie","state":"Himachal Pradesh","latitude":32.5387,"longitude":75.971,"temp":15.8,"humidity":55,"rain":0.0,"pressure":807.8,"uv_index":7.65,"wind_gusts":18.4,"aqi":56,"pm10":21.0,"pm2_5":7.9,"mosquito_risk":0,"arthritis_risk":5,"migraine_risk":7,"frizz_risk":0,"updated_at":"2026-04-09T12:58:20.480484+05:30"},{"city":"Patiala","state":"Punjab","latitude":30.3398,"longitude":76.3869,"temp":26.9,"humidity":40,"rain":0.0,"pressure":985.0,"uv_index":6.9,"wind_gusts":25.2,"aqi":81,"pm10":143.9,"pm2_5":30.7,"mosquito_risk":4,"arthritis_risk":5,"migraine_risk":7,"frizz_risk":0,"updated_at":"2026-04-09T12:58:20.480491+05:30"},{"city":"Bhatinda","state":"Punjab","latitude":30.211,"longitude":74.9455,"temp":26.2,"humidity":54,"rain":0.0,"pressure":990.8,"uv_index":7.6,"wind_gusts":25.6,"aqi":97,"pm10":71.9,"pm2_5":32.4,"mosquito_risk":4,"arthritis_risk":5,"migraine_risk":7,"frizz_risk":1,"updated_at":"2026-04-09T12:58:20.480498+05:30"},{"city":"Rohtak","state":"Haryana","latitude":28.8955,"longitude":76.6066,"temp":28.3,"humidity":42,"rain":0.0,"pressure":987.9,"uv_index":7.05,"wind_gusts":19.4,"aqi":143,"pm10":224.0,"pm2_5":47.3,"mosquito_risk":4,"arthritis_risk":5,"migraine_risk":7,"frizz_risk":0,"updated_at":"2026-04-09T12:58:20.480505+05:30"},{"city":"Panipat","state":"Haryana","latitude":29.3909,"longitude":76.9635,"temp":28.1,"humidity":36,"rain":0.0,"pressure":986.7,"uv_index":6.9,"wind_gusts":22.3,"aqi":127,"pm10":278.5,"pm2_5":55.2,"mosquito_risk":4,"arthritis_risk":5,"migraine_risk":7,"frizz_risk":0,"updated_at":"2026-04-09T12:58:20.480511+05:30"},{"city":"Mathura","state":"Uttar Pradesh","latitude":27.4924,"longitude":77.6737,"temp":28.6,"humidity":47,"rain":0.0,"pressure":992.9,"uv_index":7.35,"wind_gusts":25.2,"aqi":303,"pm10":233.8,"pm2_5":50.4,"mosquito_risk":4,"arthritis_risk":5,"migraine_risk":7,"frizz_risk":1,"updated_at":"2026-04-09T12:58:20.480518+05:30"},{"city":"Vrindavan","state":"Uttar Pradesh","latitude":27.5823,"longitude":77.7027,"temp":28.5,"humidity":48,"rain":0.0,"pressure":993.5,"uv_index":7.35,"wind_gusts":24.8,"aqi":303,"pm10":233.8,"pm2_5":50.4,"mosquito_risk":4,"arthritis_risk":5,"migraine_risk":7,"frizz_risk":1,"updated_at":"2026-04-09T12:58:20.480525+05:30"},{"city":"Ayodhya","state":"Uttar Pradesh","latitude":26.7922,"longitude":82.1998,"temp":30.7,"humidity":33,"rain":0.0,"pressure":1000.0,"uv_index":7.75,"wind_gusts":32.8,"aqi":123,"pm10":83.6,"pm2_5":29.7,"mosquito_risk":0,"arthritis_risk":5,"migraine_risk":4,"frizz_risk":0,"updated_at":"2026-04-09T12:58:20.480531+05:30"},{"city":"Ratlam","state":"Madhya Pradesh","latitude":23.3315,"longitude":75.0367,"temp":32.0,"humidity":35,"rain":0.0,"pressure":958.5,"uv_index":8.3,"wind_gusts":26.6,"aqi":67,"pm10":45.4,"pm2_5":17.1,"mosquito_risk":0,"arthritis_risk":5,"migraine_risk":7,"frizz_risk":0,"updated_at":"2026-04-09T12:58:20.480538+05:30"},{"city":"Sagar","state":"Madhya Pradesh","latitude":23.8388,"longitude":78.7378,"temp":31.5,"humidity":27,"rain":0.0,"pressure":953.9,"uv_index":8.4,"wind_gusts":27.0,"aqi":69,"pm10":85.4,"pm2_5":23.3,"mosquito_risk":0,"arthritis_risk":5,"migraine_risk":7,"frizz_risk":0,"updated_at":"2026-04-09T12:58:20.480544+05:30"},{"city":"Satna","state":"Madhya Pradesh","latitude":24.6005,"longitude":80.8322,"temp":30.9,"humidity":33,"rain":0.0,"pressure":975.6,"uv_index":8.4,"wind_gusts":25.2,"aqi":83,"pm10":64.3,"pm2_5":15.8,"mosquito_risk":0,"arthritis_risk":5,"migraine_risk":7,"frizz_risk":0,"updated_at":"2026-04-09T12:58:20.480550+05:30"},{"city":"Akola","state":"Maharashtra","latitude":20.7002,"longitude":77.0082,"temp":34.5,"humidity":33,"rain":0.0,"pressure":977.7,"uv_index":8.7,"wind_gusts":25.6,"aqi":71,"pm10":59.3,"pm2_5":23.9,"mosquito_risk":0,"arthritis_risk":5,"migraine_risk":7,"frizz_risk":0,"updated_at":"2026-04-09T12:58:20.480558+05:30"},{"city":"Amravati","state":"Maharashtra","latitude":20.9374,"longitude":77.7796,"temp":35.0,"humidity":27,"rain":0.0,"pressure":970.0,"uv_index":8.7,"wind_gusts":17.6,"aqi":70,"pm10":53.1,"pm2_5":21.9,"mosquito_risk":0,"arthritis_risk":5,"migraine_risk":7,"frizz_risk":0,"updated_at":"2026-04-09T12:58:20.480565+05:30"},{"city":"Latur","state":"Maharashtra","latitude":18.4088,"longitude":76.5604,"temp":32.5,"humidity":29,"rain":0.0,"pressure":942.7,"uv_index":8.95,"wind_gusts":28.4,"aqi":76,"pm10":135.0,"pm2_5":39.2,"mosquito_risk":0,"arthritis_risk":5,"migraine_risk":7,"frizz_risk":0,"updated_at":"2026-04-09T12:58:20.480572+05:30"},{"city":"Nanded","state":"Maharashtra","latitude":19.1383,"longitude":77.3091,"temp":34.5,"humidity":33,"rain":0.0,"pressure":971.4,"uv_index":8.85,"wind_gusts":20.2,"aqi":76,"pm10":100.8,"pm2_5":31.4,"mosquito_risk":0,"arthritis_risk":5,"migraine_risk":7,"frizz_risk":0,"updated_at":"2026-04-09T12:58:20.480579+05:30"},{"city":"Gulbarga","state":"Karnataka","latitude":17.3297,"longitude":76.8343,"temp":36.8,"humidity":20,"rain":0.0,"pressure":960.8,"uv_index":9.0,"wind_gusts":31.3,"aqi":75,"pm10":70.1,"pm2_5":25.7,"mosquito_risk":0,"arthritis_risk":5,"migraine_risk":10,"frizz_risk":0,"updated_at":"2026-04-09T12:58:20.480585+05:30"},{"city":"Bidar","state":"Karnataka","latitude":17.9104,"longitude":77.5199,"temp":34.1,"humidity":29,"rain":0.0,"pressure":938.0,"uv_index":9.05,"wind_gusts":32.4,"aqi":91,"pm10":64.3,"pm2_5":24.7,"mosquito_risk":0,"arthritis_risk":5,"migraine_risk":7,"frizz_risk":0,"updated_at":"2026-04-09T12:58:20.480592+05:30"},{"city":"Hospet","state":"Karnataka","latitude":15.2689,"longitude":76.3909,"temp":34.2,"humidity":32,"rain":0.0,"pressure":957.9,"uv_index":9.2,"wind_gusts":22.7,"aqi":67,"pm10":88.0,"pm2_5":26.1,"mosquito_risk":0,"arthritis_risk":5,"migraine_risk":7,"frizz_risk":0,"updated_at":"2026-04-09T12:58:20.480598+05:30"},{"city":"Tirupur","state":"Tamil Nadu","latitude":11.1085,"longitude":77.3411,"temp":36.6,"humidity":35,"rain":0.0,"pressure":976.7,"uv_index":9.25,"wind_gusts":34.2,"aqi":55,"pm10":14.3,"pm2_5":10.4,"mosquito_risk":0,"arthritis_risk":5,"migraine_risk":10,"frizz_risk":1,"updated_at":"2026-04-09T12:58:20.480604+05:30"},{"city":"Alappuzha","state":"Kerala","latitude":9.4981,"longitude":76.3388,"temp":28.9,"humidity":80,"rain":0.0,"pressure":1010.8,"uv_index":8.2,"wind_gusts":24.5,"aqi":60,"pm10":31.4,"pm2_5":20.5,"mosquito_risk":7,"arthritis_risk":0,"migraine_risk":4,"frizz_risk":1,"updated_at":"2026-04-09T12:58:20.480611+05:30"},{"city":"Munnar","state":"Kerala","latitude":10.0889,"longitude":77.0595,"temp":25.7,"humidity":73,"rain":0.0,"pressure":860.4,"uv_index":9.05,"wind_gusts":33.8,"aqi":63,"pm10":21.4,"pm2_5":16.8,"mosquito_risk":7,"arthritis_risk":5,"migraine_risk":7,"frizz_risk":1,"updated_at":"2026-04-09T12:58:20.480618+05:30"},{"city":"Silchar","state":"Assam","latitude":24.8333,"longitude":92.7789,"temp":24.0,"humidity":82,"rain":0.1,"pressure":1008.7,"uv_index":4.85,"wind_gusts":24.1,"aqi":88,"pm10":32.1,"pm2_5":26.5,"mosquito_risk":6,"arthritis_risk":0,"migraine_risk":0,"frizz_risk":1,"updated_at":"2026-04-09T12:58:20.480624+05:30"},{"city":"Dibrugarh","state":"Assam","latitude":27.4728,"longitude":94.912,"temp":24.7,"humidity":71,"rain":0.0,"pressure":998.8,"uv_index":3.6,"wind_gusts":25.9,"aqi":93,"pm10":34.9,"pm2_5":22.2,"mosquito_risk":3,"arthritis_risk":5,"migraine_risk":3,"frizz_risk":1,"updated_at":"2026-04-09T12:58:20.480631+05:30"}]