[{"city":"Delhi","state":"Delhi","latitude":28.6139,"longitude":77.209,"temp":32.3,"humidity":49,"rain":0.0,"pressure":981.0,"uv_index":7.65,"wind_gusts":34.6,"aqi":401,"pm10":366.0,"pm2_5":73.1,"no2":8.2,"co":553.0,"o3":197.0,"so2":19.6,"mosquito_risk":0,"arthritis_risk":5,"migraine_risk":7,"frizz_risk":1,"updated_at":"2026-05-30T16:53:07.894145+05:30"},{"city":"Mumbai","state":"Maharashtra","latitude":19.076,"longitude":72.8777,"temp":33.2,"humidity":60,"rain":0.0,"pressure":1005.4,"uv_index":7.6,"wind_gusts":40.0,"aqi":65,"pm10":23.0,"pm2_5":14.9,"no2":6.0,"co":167.0,"o3":72.0,"so2":4.8,"mosquito_risk":0,"arthritis_risk":5,"migraine_risk":4,"frizz_risk":1,"updated_at":"2026-05-30T16:53:07.894191+05:30"},{"city":"Bangalore","state":"Karnataka","latitude":12.9716,"longitude":77.5946,"temp":28.1,"humidity":59,"rain":0.0,"pressure":910.6,"uv_index":8.95,"wind_gusts":38.9,"aqi":58,"pm10":25.5,"pm2_5":17.4,"no2":29.3,"co":556.0,"o3":91.0,"so2":4.0,"mosquito_risk":4,"arthritis_risk":5,"migraine_risk":7,"frizz_risk":1,"updated_at":"2026-05-30T16:53:07.894207+05:30"},{"city":"Hyderabad","state":"Telangana","latitude":17.385,"longitude":78.4867,"temp":37.0,"humidity":26,"rain":0.0,"pressure":950.2,"uv_index":8.95,"wind_gusts":43.6,"aqi":60,"pm10":33.2,"pm2_5":18.9,"no2":1.9,"co":248.0,"o3":130.0,"so2":3.5,"mosquito_risk":0,"arthritis_risk":5,"migraine_risk":10,"frizz_risk":0,"updated_at":"2026-05-30T16:53:07.894217+05:30"},{"city":"Chennai","state":"Tamil Nadu","latitude":13.0827,"longitude":80.2707,"temp":34.8,"humidity":50,"rain":0.0,"pressure":1003.4,"uv_index":9.0,"wind_gusts":42.5,"aqi":102,"pm10":36.1,"pm2_5":27.4,"no2":5.2,"co":320.0,"o3":167.0,"so2":8.3,"mosquito_risk":0,"arthritis_risk":5,"migraine_risk":4,"frizz_risk":1,"updated_at":"2026-05-30T16:53:07.894225+05:30"},{"city":"Kolkata","state":"West Bengal","latitude":22.5726,"longitude":88.3639,"temp":33.1,"humidity":59,"rain":0.0,"pressure":1001.9,"uv_index":8.9,"wind_gusts":18.0,"aqi":151,"pm10":37.0,"pm2_5":23.5,"no2":5.3,"co":703.0,"o3":108.0,"so2":7.2,"mosquito_risk":0,"arthritis_risk":5,"migraine_risk":4,"frizz_risk":1,"updated_at":"2026-05-30T16:53:07.894233+05:30"},{"city":"Pune","state":"Maharashtra","latitude":18.5204,"longitude":73.8567,"temp":34.0,"humidity":40,"rain":0.0,"pressure":946.0,"uv_index":8.35,"wind_gusts":42.5,"aqi":47,"pm10":25.2,"pm2_5":12.0,"no2":2.3,"co":144.0,"o3":90.0,"so2":3.0,"mosquito_risk":0,"arthritis_risk":5,"migraine_risk":7,"frizz_risk":1,"updated_at":"2026-05-30T16:53:07.894239+05:30"},{"city":"Ahmedabad","state":"Gujarat","latitude":23.0225,"longitude":72.5714,"temp":39.3,"humidity":36,"rain":0.0,"pressure":995.0,"uv_index":8.1,"wind_gusts":55.8,"aqi":73,"pm10":59.0,"pm2_5":21.4,"no2":1.9,"co":145.0,"o3":92.0,"so2":2.7,"mosquito_risk":0,"arthritis_risk":5,"migraine_risk":10,"frizz_risk":1,"updated_at":"2026-05-30T16:53:07.894245+05:30"},{"city":"Jaipur","state":"Rajasthan","latitude":26.9124,"longitude":75.7873,"temp":28.1,"humidity":59,"rain":0.0,"pressure":958.1,"uv_index":8.15,"wind_gusts":42.8,"aqi":102,"pm10":122.5,"pm2_5":29.6,"no2":2.0,"co":214.0,"o3":129.0,"so2":4.3,"mosquito_risk":4,"arthritis_risk":5,"migraine_risk":7,"frizz_risk":1,"updated_at":"2026-05-30T16:53:07.894256+05:30"},{"city":"Lucknow","state":"Uttar Pradesh","latitude":26.8467,"longitude":80.9462,"temp":33.3,"humidity":40,"rain":0.0,"pressure":990.2,"uv_index":8.15,"wind_gusts":31.7,"aqi":139,"pm10":38.5,"pm2_5":21.3,"no2":2.4,"co":269.0,"o3":148.0,"so2":3.3,"mosquito_risk":0,"arthritis_risk":5,"migraine_risk":7,"frizz_risk":1,"updated_at":"2026-05-30T16:53:07.894262+05:30"},{"city":"Kanpur","state":"Uttar Pradesh","latitude":26.4499,"longitude":80.3319,"temp":34.5,"humidity":33,"rain":0.0,"pressure":988.0,"uv_index":8.1,"wind_gusts":41.8,"aqi":154,"pm10":58.3,"pm2_5":21.7,"no2":2.3,"co":273.0,"o3":172.0,"so2":5.6,"mosquito_risk":0,"arthritis_risk":5,"migraine_risk":7,"frizz_risk":0,"updated_at":"2026-05-30T16:53:07.894268+05:30"},{"city":"Chandigarh","state":"Chandigarh","latitude":30.7333,"longitude":76.7794,"temp":32.4,"humidity":30,"rain":0.0,"pressure":966.9,"uv_index":7.2,"wind_gusts":40.0,"aqi":156,"pm10":129.9,"pm2_5":35.6,"no2":1.0,"co":544.0,"o3":184.0,"so2":5.1,"mosquito_risk":0,"arthritis_risk":5,"migraine_risk":7,"frizz_risk":0,"updated_at":"2026-05-30T16:53:07.894274+05:30"},{"city":"Srinagar","state":"Jammu and Kashmir","latitude":34.0837,"longitude":74.7973,"temp":25.0,"humidity":32,"rain":0.0,"pressure":842.2,"uv_index":8.95,"wind_gusts":37.1,"aqi":136,"pm10":31.5,"pm2_5":20.4,"no2":2.1,"co":233.0,"o3":159.0,"so2":3.4,"mosquito_risk":4,"arthritis_risk":5,"migraine_risk":7,"frizz_risk":0,"updated_at":"2026-05-30T16:53:07.894281+05:30"},{"city":"Jammu","state":"Jammu and Kashmir","latitude":32.7266,"longitude":74.857,"temp":34.9,"humidity":21,"rain":0.0,"pressure":971.1,"uv_index":8.5,"wind_gusts":46.4,"aqi":137,"pm10":185.3,"pm2_5":43.5,"no2":1.2,"co":229.0,"o3":175.0,"so2":3.5,"mosquito_risk":0,"arthritis_risk":5,"migraine_risk":7,"frizz_risk":0,"updated_at":"2026-05-30T16:53:07.894288+05:30"},{"city":"Amritsar","state":"Punjab","latitude":31.634,"longitude":74.8723,"temp":34.7,"humidity":27,"rain":0.0,"pressure":978.5,"uv_index":8.35,"wind_gusts":51.8,"aqi":160,"pm10":141.6,"pm2_5":37.0,"no2":0.7,"co":287.0,"o3":172.0,"so2":5.7,"mosquito_risk":0,"arthritis_risk":5,"migraine_risk":7,"frizz_risk":0,"updated_at":"2026-05-30T16:53:07.894296+05:30"},{"city":"Ludhiana","state":"Punjab","latitude":30.901,"longitude":75.8573,"temp":32.0,"humidity":41,"rain":0.0,"pressure":976.3,"uv_index":7.95,"wind_gusts":49.0,"aqi":249,"pm10":192.3,"pm2_5":45.5,"no2":1.2,"co":345.0,"o3":187.0,"so2":8.5,"mosquito_risk":0,"arthritis_risk":5,"migraine_risk":7,"frizz_risk":1,"updated_at":"2026-05-30T16:53:07.894303+05:30"},{"city":"Jalandhar","state":"Punjab","latitude":31.326,"longitude":75.5762,"temp":34.1,"humidity":28,"rain":0.0,"pressure":977.2,"uv_index":7.85,"wind_gusts":44.6,"aqi":152,"pm10":157.4,"pm2_5":39.6,"no2":0.2,"co":308.0,"o3":182.0,"so2":7.3,"mosquito_risk":0,"arthritis_risk":5,"migraine_risk":7,"frizz_risk":0,"updated_at":"2026-05-30T16:53:07.894308+05:30"},{"city":"Dehradun","state":"Uttarakhand","latitude":30.6284,"longitude":78.0322,"temp":21.7,"humidity":36,"rain":0.0,"pressure":831.2,"uv_index":7.9,"wind_gusts":35.6,"aqi":142,"pm10":38.5,"pm2_5":17.8,"no2":1.5,"co":253.0,"o3":163.0,"so2":2.1,"mosquito_risk":0,"arthritis_risk":5,"migraine_risk":7,"frizz_risk":0,"updated_at":"2026-05-30T16:53:07.894315+05:30"},{"city":"Shimla","state":"Himachal Pradesh","latitude":31.1048,"longitude":77.1734,"temp":18.8,"humidity":36,"rain":0.0,"pressure":785.7,"uv_index":5.6,"wind_gusts":43.9,"aqi":134,"pm10":78.0,"pm2_5":23.8,"no2":1.8,"co":291.0,"o3":169.0,"so2":1.8,"mosquito_risk":0,"arthritis_risk":5,"migraine_risk":3,"frizz_risk":0,"updated_at":"2026-05-30T16:53:07.894325+05:30"},{"city":"Manali","state":"Himachal Pradesh","latitude":32.2396,"longitude":77.1887,"temp":17.4,"humidity":63,"rain":0.0,"pressure":819.2,"uv_index":8.1,"wind_gusts":39.6,"aqi":140,"pm10":17.7,"pm2_5":9.8,"no2":0.2,"co":166.0,"o3":184.0,"so2":0.4,"mosquito_risk":3,"arthritis_risk":5,"migraine_risk":7,"frizz_risk":0,"updated_at":"2026-05-30T16:53:07.894331+05:30"},{"city":"Gurgaon","state":"Haryana","latitude":28.4595,"longitude":77.0266,"temp":33.0,"humidity":42,"rain":0.0,"pressure":979.0,"uv_index":7.75,"wind_gusts":41.4,"aqi":1271,"pm10":657.5,"pm2_5":98.3,"no2":6.5,"co":555.0,"o3":164.0,"so2":11.6,"mosquito_risk":0,"arthritis_risk":5,"migraine_risk":7,"frizz_risk":1,"updated_at":"2026-05-30T16:53:07.894337+05:30"},{"city":"Noida","state":"Uttar Pradesh","latitude":28.5355,"longitude":77.391,"temp":32.0,"humidity":52,"rain":0.0,"pressure":982.4,"uv_index":7.65,"wind_gusts":35.3,"aqi":1271,"pm10":657.5,"pm2_5":98.3,"no2":6.5,"co":627.0,"o3":164.0,"so2":11.6,"mosquito_risk":0,"arthritis_risk":5,"migraine_risk":7,"frizz_risk":1,"updated_at":"2026-05-30T16:53:07.894343+05:30"},{"city":"Ghaziabad","state":"Uttar Pradesh","latitude":28.6692,"longitude":77.4538,"temp":32.8,"humidity":47,"rain":0.0,"pressure":980.7,"uv_index":7.65,"wind_gusts":37.1,"aqi":153,"pm10":188.1,"pm2_5":46.2,"no2":2.8,"co":264.0,"o3":177.0,"so2":12.1,"mosquito_risk":0,"arthritis_risk":5,"migraine_risk":7,"frizz_risk":1,"updated_at":"2026-05-30T16:53:07.894349+05:30"},{"city":"Faridabad","state":"Haryana","latitude":28.4089,"longitude":77.3178,"temp":31.8,"humidity":52,"rain":0.0,"pressure":981.7,"uv_index":7.7,"wind_gusts":36.0,"aqi":1271,"pm10":657.5,"pm2_5":98.3,"no2":6.5,"co":490.0,"o3":164.0,"so2":11.6,"mosquito_risk":0,"arthritis_risk":5,"migraine_risk":7,"frizz_risk":1,"updated_at":"2026-05-30T16:53:07.894355+05:30"},{"city":"Meerut","state":"Uttar Pradesh","latitude":28.9845,"longitude":77.7064,"temp":32.0,"humidity":49,"rain":0.0,"pressure":979.4,"uv_index":7.55,"wind_gusts":47.2,"aqi":153,"pm10":188.1,"pm2_5":46.2,"no2":2.8,"co":278.0,"o3":177.0,"so2":12.1,"mosquito_risk":0,"arthritis_risk":5,"migraine_risk":7,"frizz_risk":1,"updated_at":"2026-05-30T16:53:07.894360+05:30"},{"city":"Agra","state":"Uttar Pradesh","latitude":27.1767,"longitude":78.0081,"temp":34.5,"humidity":38,"rain":0.0,"pressure":985.0,"uv_index":8.0,"wind_gusts":29.5,"aqi":269,"pm10":281.3,"pm2_5":44.5,"no2":0.9,"co":222.0,"o3":139.0,"so2":3.3,"mosquito_risk":0,"arthritis_risk":5,"migraine_risk":7,"frizz_risk":1,"updated_at":"2026-05-30T16:53:07.894366+05:30"},{"city":"Varanasi","state":"Uttar Pradesh","latitude":25.3176,"longitude":82.9739,"temp":32.8,"humidity":43,"rain":0.0,"pressure":993.6,"uv_index":8.55,"wind_gusts":36.7,"aqi":165,"pm10":49.1,"pm2_5":29.9,"no2":2.1,"co":410.0,"o3":188.0,"so2":7.0,"mosquito_risk":0,"arthritis_risk":5,"migraine_risk":7,"frizz_risk":1,"updated_at":"2026-05-30T16:53:07.894373+05:30"},{"city":"Prayagraj","state":"Uttar Pradesh","latitude":25.4358,"longitude":81.8463,"temp":33.9,"humidity":40,"rain":0.0,"pressure":991.9,"uv_index":8.3,"wind_gusts":31.7,"aqi":158,"pm10":37.6,"pm2_5":25.1,"no2":2.5,"co":312.0,"o3":178.0,"so2":5.2,"mosquito_risk":0,"arthritis_risk":5,"migraine_risk":7,"frizz_risk":1,"updated_at":"2026-05-30T16:53:07.894380+05:30"},{"city":"Gorakhpur","state":"Uttar Pradesh","latitude":26.7606,"longitude":83.3732,"temp":28.7,"humidity":66,"rain":0.0,"pressure":994.6,"uv_index":8.5,"wind_gusts":45.7,"aqi":106,"pm10":31.0,"pm2_5":20.4,"no2":2.4,"co":296.0,"o3":147.0,"so2":4.3,"mosquito_risk":7,"arthritis_risk":5,"migraine_risk":7,"frizz_risk":1,"updated_at":"2026-05-30T16:53:07.894388+05:30"},{"city":"Bareilly","state":"Uttar Pradesh","latitude":28.367,"longitude":79.4304,"temp":32.7,"humidity":43,"rain":0.0,"pressure":984.2,"uv_index":7.95,"wind_gusts":35.3,"aqi":160,"pm10":179.3,"pm2_5":40.7,"no2":2.6,"co":261.0,"o3":188.0,"so2":10.9,"mosquito_risk":0,"arthritis_risk":5,"migraine_risk":7,"frizz_risk":1,"updated_at":"2026-05-30T16:53:07.894394+05:30"},{"city":"Aligarh","state":"Uttar Pradesh","latitude":27.8974,"longitude":78.088,"temp":29.4,"humidity":66,"rain":0.1,"pressure":983.5,"uv_index":7.8,"wind_gusts":30.2,"aqi":230,"pm10":390.2,"pm2_5":61.2,"no2":0.9,"co":272.0,"o3":157.0,"so2":8.0,"mosquito_risk":10,"arthritis_risk":5,"migraine_risk":7,"frizz_risk":1,"updated_at":"2026-05-30T16:53:07.894400+05:30"},{"city":"Moradabad","state":"Uttar Pradesh","latitude":28.8386,"longitude":78.7733,"temp":30.8,"humidity":54,"rain":0.0,"pressure":981.5,"uv_index":7.75,"wind_gusts":45.7,"aqi":159,"pm10":95.9,"pm2_5":33.8,"no2":2.2,"co":262.0,"o3":186.0,"so2":10.7,"mosquito_risk":0,"arthritis_risk":5,"migraine_risk":7,"frizz_risk":1,"updated_at":"2026-05-30T16:53:07.894406+05:30"},{"city":"Saharanpur","state":"Uttar Pradesh","latitude":29.9637,"longitude":77.546,"temp":31.0,"humidity":50,"rain":0.0,"pressure":973.8,"uv_index":7.4,"wind_gusts":47.2,"aqi":154,"pm10":40.3,"pm2_5":21.5,"no2":2.0,"co":260.0,"o3":175.0,"so2":4.1,"mosquito_risk":0,"arthritis_risk":5,"migraine_risk":7,"frizz_risk":1,"updated_at":"2026-05-30T16:53:07.894412+05:30"},{"city":"Jhansi","state":"Uttar Pradesh","latitude":25.4484,"longitude":78.5685,"temp":34.4,"humidity":42,"rain":0.0,"pressure":973.9,"uv_index":8.35,"wind_gusts":53.6,"aqi":90,"pm10":35.5,"pm2_5":14.6,"no2":1.1,"co":206.0,"o3":136.0,"so2":6.3,"mosquito_risk":0,"arthritis_risk":5,"migraine_risk":7,"frizz_risk":1,"updated_at":"2026-05-30T16:53:11.167746+05:30"},{"city":"Surat","state":"Gujarat","latitude":21.1702,"longitude":72.8311,"temp":33.4,"humidity":58,"rain":0.0,"pressure":1002.4,"uv_index":7.65,"wind_gusts":56.9,"aqi":84,"pm10":38.3,"pm2_5":22.1,"no2":8.5,"co":182.0,"o3":55.0,"so2":22.4,"mosquito_risk":0,"arthritis_risk":5,"migraine_risk":4,"frizz_risk":1,"updated_at":"2026-05-30T16:53:11.167783+05:30"},{"city":"Vadodara","state":"Gujarat","latitude":22.3072,"longitude":73.1812,"temp":37.2,"humidity":42,"rain":0.0,"pressure":998.1,"uv_index":8.0,"wind_gusts":54.4,"aqi":79,"pm10":53.3,"pm2_5":23.2,"no2":2.0,"co":137.0,"o3":96.0,"so2":3.9,"mosquito_risk":0,"arthritis_risk":5,"migraine_risk":10,"frizz_risk":1,"updated_at":"2026-05-30T16:53:11.167794+05:30"},{"city":"Rajkot","state":"Gujarat","latitude":22.3039,"longitude":70.8022,"temp":37.5,"humidity":37,"rain":0.0,"pressure":988.6,"uv_index":7.7,"wind_gusts":52.9,"aqi":68,"pm10":44.8,"pm2_5":22.1,"no2":1.1,"co":112.0,"o3":82.0,"so2":2.8,"mosquito_risk":0,"arthritis_risk":5,"migraine_risk":10,"frizz_risk":1,"updated_at":"2026-05-30T16:53:11.167802+05:30"},{"city":"Thane","state":"Maharashtra","latitude":19.2183,"longitude":72.9781,"temp":34.8,"humidity":51,"rain":0.0,"pressure":1004.5,"uv_index":7.8,"wind_gusts":38.9,"aqi":65,"pm10":23.0,"pm2_5":14.9,"no2":6.0,"co":155.0,"o3":72.0,"so2":4.8,"mosquito_risk":0,"arthritis_risk":5,"migraine_risk":4,"frizz_risk":1,"updated_at":"2026-05-30T16:53:11.167810+05:30"},{"city":"Nagpur","state":"Maharashtra","latitude":21.1458,"longitude":79.0882,"temp":39.5,"humidity":22,"rain":0.0,"pressure":967.9,"uv_index":8.85,"wind_gusts":41.8,"aqi":93,"pm10":70.5,"pm2_5":29.7,"no2":4.6,"co":147.0,"o3":121.0,"so2":13.8,"mosquito_risk":0,"arthritis_risk":5,"migraine_risk":10,"frizz_risk":0,"updated_at":"2026-05-30T16:53:11.167818+05:30"},{"city":"Nashik","state":"Maharashtra","latitude":19.9975,"longitude":73.7898,"temp":33.3,"humidity":42,"rain":0.0,"pressure":942.8,"uv_index":8.1,"wind_gusts":51.1,"aqi":62,"pm10":31.4,"pm2_5":15.8,"no2":1.3,"co":126.0,"o3":77.0,"so2":1.1,"mosquito_risk":0,"arthritis_risk":5,"migraine_risk":7,"frizz_risk":1,"updated_at":"2026-05-30T16:53:11.167826+05:30"},{"city":"Aurangabad","state":"Maharashtra","latitude":19.8762,"longitude":75.3433,"temp":36.5,"humidity":29,"rain":0.0,"pressure":941.0,"uv_index":8.95,"wind_gusts":48.6,"aqi":64,"pm10":50.5,"pm2_5":20.9,"no2":1.3,"co":132.0,"o3":108.0,"so2":3.2,"mosquito_risk":0,"arthritis_risk":5,"migraine_risk":10,"frizz_risk":0,"updated_at":"2026-05-30T16:53:11.167833+05:30"},{"city":"Solapur","state":"Maharashtra","latitude":17.6599,"longitude":75.9064,"temp":37.5,"humidity":23,"rain":0.0,"pressure":954.0,"uv_index":8.95,"wind_gusts":37.8,"aqi":48,"pm10":21.4,"pm2_5":9.8,"no2":0.4,"co":132.0,"o3":114.0,"so2":1.4,"mosquito_risk":0,"arthritis_risk":5,"migraine_risk":10,"frizz_risk":0,"updated_at":"2026-05-30T16:53:11.167841+05:30"},{"city":"Kolhapur","state":"Maharashtra","latitude":16.705,"longitude":74.2433,"temp":33.5,"humidity":43,"rain":0.0,"pressure":946.3,"uv_index":8.75,"wind_gusts":45.0,"aqi":38,"pm10":13.6,"pm2_5":8.3,"no2":2.5,"co":132.0,"o3":87.0,"so2":1.3,"mosquito_risk":0,"arthritis_risk":5,"migraine_risk":7,"frizz_risk":1,"updated_at":"2026-05-30T16:53:11.167849+05:30"},{"city":"Goa","state":"Goa","latitude":15.2993,"longitude":74.124,"temp":31.1,"humidity":71,"rain":0.1,"pressure":996.4,"uv_index":6.85,"wind_gusts":31.7,"aqi":54,"pm10":14.8,"pm2_5":9.6,"no2":0.8,"co":125.0,"o3":60.0,"so2":0.9,"mosquito_risk":6,"arthritis_risk":5,"migraine_risk":7,"frizz_risk":1,"updated_at":"2026-05-30T16:53:11.167857+05:30"},{"city":"Jodhpur","state":"Rajasthan","latitude":26.2389,"longitude":73.0243,"temp":25.6,"humidity":73,"rain":0.1,"pressure":980.2,"uv_index":8.35,"wind_gusts":75.6,"aqi":146,"pm10":226.8,"pm2_5":43.4,"no2":1.6,"co":109.0,"o3":102.0,"so2":2.3,"mosquito_risk":10,"arthritis_risk":5,"migraine_risk":7,"frizz_risk":1,"updated_at":"2026-05-30T16:53:11.167864+05:30"},{"city":"Udaipur","state":"Rajasthan","latitude":24.5854,"longitude":73.7125,"temp":35.2,"humidity":31,"rain":0.0,"pressure":942.9,"uv_index":8.75,"wind_gusts":69.8,"aqi":72,"pm10":61.5,"pm2_5":26.3,"no2":0.6,"co":126.0,"o3":115.0,"so2":5.4,"mosquito_risk":0,"arthritis_risk":5,"migraine_risk":10,"frizz_risk":0,"updated_at":"2026-05-30T16:53:11.167872+05:30"},{"city":"Kota","state":"Rajasthan","latitude":25.2138,"longitude":75.8648,"temp":36.0,"humidity":31,"rain":0.1,"pressure":974.4,"uv_index":8.3,"wind_gusts":58.0,"aqi":74,"pm10":69.6,"pm2_5":27.3,"no2":1.2,"co":199.0,"o3":137.0,"so2":6.3,"mosquito_risk":3,"arthritis_risk":5,"migraine_risk":10,"frizz_risk":1,"updated_at":"2026-05-30T16:53:11.167878+05:30"},{"city":"Bikaner","state":"Rajasthan","latitude":28.0229,"longitude":73.3119,"temp":33.3,"humidity":43,"rain":0.0,"pressure":977.7,"uv_index":8.35,"wind_gusts":85.0,"aqi":97,"pm10":133.6,"pm2_5":37.5,"no2":2.0,"co":140.0,"o3":110.0,"so2":5.2,"mosquito_risk":0,"arthritis_risk":5,"migraine_risk":7,"frizz_risk":1,"updated_at":"2026-05-30T16:53:11.167886+05:30"},{"city":"Ajmer","state":"Rajasthan","latitude":26.4499,"longitude":74.6399,"temp":24.5,"humidity":84,"rain":0.8,"pressure":952.5,"uv_index":8.3,"wind_gusts":76.3,"aqi":74,"pm10":61.2,"pm2_5":21.8,"no2":1.5,"co":162.0,"o3":122.0,"so2":2.7,"mosquito_risk":6,"arthritis_risk":5,"migraine_risk":7,"frizz_risk":1,"updated_at":"2026-05-30T16:53:11.167893+05:30"},{"city":"Gwalior","state":"Madhya Pradesh","latitude":26.2183,"longitude":78.1828,"temp":33.9,"humidity":44,"rain":0.0,"pressure":979.3,"uv_index":8.15,"wind_gusts":29.9,"aqi":82,"pm10":36.6,"pm2_5":14.1,"no2":0.5,"co":215.0,"o3":130.0,"so2":3.0,"mosquito_risk":0,"arthritis_risk":5,"migraine_risk":7,"frizz_risk":1,"updated_at":"2026-05-30T16:53:11.167900+05:30"},{"city":"Indore","state":"Madhya Pradesh","latitude":22.7196,"longitude":75.8577,"temp":37.3,"humidity":22,"rain":0.0,"pressure":943.9,"uv_index":8.6,"wind_gusts":66.6,"aqi":78,"pm10":70.8,"pm2_5":27.0,"no2":1.1,"co":178.0,"o3":109.0,"so2":3.8,"mosquito_risk":0,"arthritis_risk":5,"migraine_risk":10,"frizz_risk":0,"updated_at":"2026-05-30T16:53:11.167908+05:30"},{"city":"Bhopal","state":"Madhya Pradesh","latitude":23.2599,"longitude":77.4126,"temp":38.1,"humidity":19,"rain":0.0,"pressure":949.0,"uv_index":8.65,"wind_gusts":52.9,"aqi":70,"pm10":52.9,"pm2_5":24.9,"no2":0.5,"co":161.0,"o3":120.0,"so2":3.8,"mosquito_risk":0,"arthritis_risk":5,"migraine_risk":10,"frizz_risk":0,"updated_at":"2026-05-30T16:53:11.167915+05:30"},{"city":"Jabalpur","state":"Madhya Pradesh","latitude":23.1815,"longitude":79.9864,"temp":35.6,"humidity":31,"rain":0.0,"pressure":957.3,"uv_index":8.8,"wind_gusts":33.8,"aqi":118,"pm10":44.7,"pm2_5":18.3,"no2":1.3,"co":180.0,"o3":136.0,"so2":5.1,"mosquito_risk":0,"arthritis_risk":5,"migraine_risk":10,"frizz_risk":0,"updated_at":"2026-05-30T16:53:11.167923+05:30"},{"city":"Ujjain","state":"Madhya Pradesh","latitude":23.1765,"longitude":75.7885,"temp":37.9,"humidity":22,"rain":0.0,"pressure":949.2,"uv_index":8.55,"wind_gusts":71.3,"aqi":77,"pm10":74.7,"pm2_5":26.9,"no2":0.6,"co":140.0,"o3":107.0,"so2":3.4,"mosquito_risk":0,"arthritis_risk":5,"migraine_risk":10,"frizz_risk":0,"updated_at":"2026-05-30T16:53:11.167930+05:30"},{"city":"Visakhapatnam","state":"Andhra Pradesh","latitude":17.6868,"longitude":83.2185,"temp":35.0,"humidity":60,"rain":0.0,"pressure":997.7,"uv_index":8.65,"wind_gusts":34.6,"aqi":150,"pm10":41.7,"pm2_5":35.0,"no2":16.1,"co":461.0,"o3":160.0,"so2":41.2,"mosquito_risk":0,"arthritis_risk":5,"migraine_risk":7,"frizz_risk":1,"updated_at":"2026-05-30T16:53:11.167938+05:30"},{"city":"Vijayawada","state":"Andhra Pradesh","latitude":16.5062,"longitude":80.648,"temp":40.0,"humidity":30,"rain":0.0,"pressure":997.1,"uv_index":8.85,"wind_gusts":44.6,"aqi":102,"pm10":37.3,"pm2_5":26.0,"no2":4.3,"co":194.0,"o3":143.0,"so2":7.6,"mosquito_risk":0,"arthritis_risk":5,"migraine_risk":10,"frizz_risk":1,"updated_at":"2026-05-30T16:53:11.167944+05:30"},{"city":"Guntur","state":"Andhra Pradesh","latitude":16.3067,"longitude":80.4365,"temp":38.8,"humidity":34,"rain":0.0,"pressure":998.3,"uv_index":8.65,"wind_gusts":36.4,"aqi":81,"pm10":41.4,"pm2_5":25.7,"no2":1.5,"co":191.0,"o3":142.0,"so2":5.9,"mosquito_risk":0,"arthritis_risk":5,"migraine_risk":10,"frizz_risk":1,"updated_at":"2026-05-30T16:53:11.167952+05:30"},{"city":"Nellore","state":"Andhra Pradesh","latitude":14.4426,"longitude":79.9865,"temp":36.5,"humidity":43,"rain":0.0,"pressure":1001.7,"uv_index":8.35,"wind_gusts":35.3,"aqi":80,"pm10":26.8,"pm2_5":20.9,"no2":5.0,"co":156.0,"o3":144.0,"so2":5.3,"mosquito_risk":0,"arthritis_risk":5,"migraine_risk":7,"frizz_risk":1,"updated_at":"2026-05-30T16:53:11.167960+05:30"},{"city":"Kurnool","state":"Andhra Pradesh","latitude":15.8281,"longitude":78.0373,"temp":37.2,"humidity":35,"rain":0.0,"pressure":973.2,"uv_index":9.0,"wind_gusts":58.7,"aqi":58,"pm10":22.2,"pm2_5":15.0,"no2":0.6,"co":146.0,"o3":135.0,"so2":7.6,"mosquito_risk":0,"arthritis_risk":5,"migraine_risk":10,"frizz_risk":1,"updated_at":"2026-05-30T16:53:11.167968+05:30"},{"city":"Kakinada","state":"Andhra Pradesh","latitude":16.9891,"longitude":82.2475,"temp":38.5,"humidity":42,"rain":0.0,"pressure":1001.3,"uv_index":7.55,"wind_gusts":40.0,"aqi":137,"pm10":32.1,"pm2_5":25.0,"no2":3.4,"co":276.0,"o3":154.0,"so2":3.9,"mosquito_risk":0,"arthritis_risk":5,"migraine_risk":7,"frizz_risk":1,"updated_at":"2026-05-30T16:53:11.167976+05:30"},{"city":"Tirupati","state":"Andhra Pradesh","latitude":13.6288,"longitude":79.4192,"temp":29.5,"humidity":79,"rain":0.0,"pressure":988.3,"uv_index":9.05,"wind_gusts":40.7,"aqi":82,"pm10":22.9,"pm2_5":15.0,"no2":4.0,"co":151.0,"o3":124.0,"so2":2.3,"mosquito_risk":7,"arthritis_risk":5,"migraine_risk":7,"frizz_risk":1,"updated_at":"2026-05-30T16:53:11.167983+05:30"},{"city":"Warangal","state":"Telangana","latitude":17.9689,"longitude":79.5941,"temp":37.8,"humidity":31,"rain":0.0,"pressure":974.2,"uv_index":9.05,"wind_gusts":45.7,"aqi":80,"pm10":51.2,"pm2_5":27.1,"no2":2.6,"co":189.0,"o3":121.0,"so2":3.4,"mosquito_risk":0,"arthritis_risk":5,"migraine_risk":10,"frizz_risk":1,"updated_at":"2026-05-30T16:53:11.167991+05:30"},{"city":"Nizamabad","state":"Telangana","latitude":18.6725,"longitude":78.0941,"temp":38.2,"humidity":23,"rain":0.0,"pressure":960.6,"uv_index":8.95,"wind_gusts":41.4,"aqi":74,"pm10":56.7,"pm2_5":23.7,"no2":0.8,"co":148.0,"o3":121.0,"so2":3.7,"mosquito_risk":0,"arthritis_risk":5,"migraine_risk":10,"frizz_risk":0,"updated_at":"2026-05-30T16:53:11.167998+05:30"},{"city":"Mysore","state":"Karnataka","latitude":12.2958,"longitude":76.6396,"temp":23.9,"humidity":91,"rain":0.1,"pressure":927.6,"uv_index":9.0,"wind_gusts":49.0,"aqi":46,"pm10":22.8,"pm2_5":12.3,"no2":4.3,"co":177.0,"o3":115.0,"so2":1.7,"mosquito_risk":6,"arthritis_risk":5,"migraine_risk":7,"frizz_risk":1,"updated_at":"2026-05-30T16:53:11.168005+05:30"},{"city":"Mangalore","state":"Karnataka","latitude":12.9141,"longitude":74.856,"temp":28.5,"humidity":85,"rain":0.1,"pressure":1005.8,"uv_index":7.95,"wind_gusts":30.6,"aqi":36,"pm10":7.3,"pm2_5":4.6,"no2":1.2,"co":158.0,"o3":65.0,"so2":1.1,"mosquito_risk":10,"arthritis_risk":5,"migraine_risk":4,"frizz_risk":1,"updated_at":"2026-05-30T16:53:11.168012+05:30"},{"city":"Hubli-Dharwad","state":"Karnataka","latitude":15.3647,"longitude":75.124,"temp":30.7,"humidity":55,"rain":0.1,"pressure":939.9,"uv_index":8.9,"wind_gusts":40.7,"aqi":38,"pm10":12.2,"pm2_5":8.5,"no2":2.2,"co":143.0,"o3":85.0,"so2":0.9,"mosquito_risk":3,"arthritis_risk":5,"migraine_risk":7,"frizz_risk":1,"updated_at":"2026-05-30T16:53:11.168020+05:30"},{"city":"Belgaum","state":"Karnataka","latitude":15.8497,"longitude":74.4977,"temp":27.7,"humidity":74,"rain":0.0,"pressure":924.8,"uv_index":8.65,"wind_gusts":42.5,"aqi":34,"pm10":9.7,"pm2_5":7.0,"no2":2.3,"co":132.0,"o3":70.0,"so2":1.1,"mosquito_risk":7,"arthritis_risk":5,"migraine_risk":7,"frizz_risk":1,"updated_at":"2026-05-30T16:53:14.403935+05:30"},{"city":"Coimbatore","state":"Tamil Nadu","latitude":11.0168,"longitude":76.9558,"temp":31.1,"humidity":57,"rain":0.0,"pressure":960.2,"uv_index":9.0,"wind_gusts":52.2,"aqi":34,"pm10":7.3,"pm2_5":5.4,"no2":3.3,"co":161.0,"o3":87.0,"so2":2.1,"mosquito_risk":0,"arthritis_risk":5,"migraine_risk":7,"frizz_risk":1,"updated_at":"2026-05-30T16:53:14.403970+05:30"},{"city":"Madurai","state":"Tamil Nadu","latitude":9.9252,"longitude":78.1198,"temp":35.3,"humidity":43,"rain":0.1,"pressure":989.7,"uv_index":8.65,"wind_gusts":28.1,"aqi":66,"pm10":23.4,"pm2_5":12.0,"no2":0.0,"co":170.0,"o3":128.0,"so2":1.7,"mosquito_risk":3,"arthritis_risk":5,"migraine_risk":10,"frizz_risk":1,"updated_at":"2026-05-30T16:53:14.403982+05:30"},{"city":"Trichy","state":"Tamil Nadu","latitude":10.7905,"longitude":78.7047,"temp":37.3,"humidity":37,"rain":0.0,"pressure":995.9,"uv_index":8.4,"wind_gusts":41.4,"aqi":40,"pm10":16.6,"pm2_5":10.1,"no2":6.9,"co":161.0,"o3":104.0,"so2":2.4,"mosquito_risk":0,"arthritis_risk":5,"migraine_risk":10,"frizz_risk":1,"updated_at":"2026-05-30T16:53:14.403990+05:30"},{"city":"Salem","state":"Tamil Nadu","latitude":11.6643,"longitude":78.146,"temp":35.6,"humidity":38,"rain":0.0,"pressure":974.4,"uv_index":8.7,"wind_gusts":44.6,"aqi":89,"pm10":27.5,"pm2_5":16.8,"no2":3.8,"co":175.0,"o3":154.0,"so2":8.3,"mosquito_risk":0,"arthritis_risk":5,"migraine_risk":10,"frizz_risk":1,"updated_at":"2026-05-30T16:53:14.403998+05:30"},{"city":"Tirunelveli","state":"Tamil Nadu","latitude":8.7139,"longitude":77.7567,"temp":35.5,"humidity":43,"rain":0.1,"pressure":1000.3,"uv_index":8.5,"wind_gusts":37.4,"aqi":28,"pm10":4.8,"pm2_5":3.7,"no2":2.1,"co":132.0,"o3":65.0,"so2":0.9,"mosquito_risk":3,"arthritis_risk":5,"migraine_risk":7,"frizz_risk":1,"updated_at":"2026-05-30T16:53:14.404005+05:30"},{"city":"Vellore","state":"Tamil Nadu","latitude":12.9165,"longitude":79.1325,"temp":29.9,"humidity":71,"rain":0.0,"pressure":982.5,"uv_index":8.95,"wind_gusts":41.4,"aqi":91,"pm10":21.8,"pm2_5":15.4,"no2":4.4,"co":211.0,"o3":144.0,"so2":2.6,"mosquito_risk":7,"arthritis_risk":5,"migraine_risk":7,"frizz_risk":1,"updated_at":"2026-05-30T16:53:14.404013+05:30"},{"city":"Erode","state":"Tamil Nadu","latitude":11.341,"longitude":77.7172,"temp":34.4,"humidity":44,"rain":0.0,"pressure":986.0,"uv_index":8.9,"wind_gusts":54.4,"aqi":41,"pm10":14.1,"pm2_5":8.9,"no2":4.1,"co":176.0,"o3":112.0,"so2":1.9,"mosquito_risk":0,"arthritis_risk":5,"migraine_risk":7,"frizz_risk":1,"updated_at":"2026-05-30T16:53:14.404020+05:30"},{"city":"Kochi","state":"Kerala","latitude":9.9312,"longitude":76.2673,"temp":28.5,"humidity":79,"rain":0.0,"pressure":1008.1,"uv_index":8.15,"wind_gusts":27.7,"aqi":41,"pm10":7.5,"pm2_5":5.8,"no2":6.1,"co":131.0,"o3":65.0,"so2":3.2,"mosquito_risk":7,"arthritis_risk":0,"migraine_risk":4,"frizz_risk":1,"updated_at":"2026-05-30T16:53:14.404028+05:30"},{"city":"Thiruvananthapuram","state":"Kerala","latitude":8.5241,"longitude":76.9366,"temp":27.9,"humidity":81,"rain":0.0,"pressure":1008.1,"uv_index":7.7,"wind_gusts":37.8,"aqi":27,"pm10":9.8,"pm2_5":5.6,"no2":1.8,"co":113.0,"o3":57.0,"so2":0.5,"mosquito_risk":7,"arthritis_risk":0,"migraine_risk":4,"frizz_risk":1,"updated_at":"2026-05-30T16:53:14.404035+05:30"},{"city":"Kozhikode","state":"Kerala","latitude":11.2588,"longitude":75.7804,"temp":29.0,"humidity":81,"rain":0.1,"pressure":1007.2,"uv_index":8.2,"wind_gusts":33.5,"aqi":34,"pm10":4.6,"pm2_5":2.9,"no2":0.6,"co":153.0,"o3":71.0,"so2":0.5,"mosquito_risk":10,"arthritis_risk":5,"migraine_risk":4,"frizz_risk":1,"updated_at":"2026-05-30T16:53:14.404042+05:30"},{"city":"Thrissur","state":"Kerala","latitude":10.5276,"longitude":76.2144,"temp":28.9,"humidity":78,"rain":0.1,"pressure":1006.1,"uv_index":8.1,"wind_gusts":32.0,"aqi":38,"pm10":6.2,"pm2_5":5.2,"no2":4.9,"co":111.0,"o3":64.0,"so2":3.1,"mosquito_risk":10,"arthritis_risk":5,"migraine_risk":4,"frizz_risk":1,"updated_at":"2026-05-30T16:53:14.404049+05:30"},{"city":"Kannur","state":"Kerala","latitude":11.8745,"longitude":75.3704,"temp":28.8,"humidity":82,"rain":0.1,"pressure":1006.4,"uv_index":8.35,"wind_gusts":33.5,"aqi":33,"pm10":6.4,"pm2_5":4.1,"no2":0.4,"co":178.0,"o3":71.0,"so2":0.6,"mosquito_risk":10,"arthritis_risk":5,"migraine_risk":4,"frizz_risk":1,"updated_at":"2026-05-30T16:53:14.404057+05:30"},{"city":"Patna","state":"Bihar","latitude":25.5941,"longitude":85.1376,"temp":32.8,"humidity":49,"rain":0.0,"pressure":996.5,"uv_index":8.7,"wind_gusts":30.6,"aqi":177,"pm10":68.7,"pm2_5":49.8,"no2":7.8,"co":337.0,"o3":177.0,"so2":17.2,"mosquito_risk":0,"arthritis_risk":5,"migraine_risk":7,"frizz_risk":1,"updated_at":"2026-05-30T16:53:14.404063+05:30"},{"city":"Gaya","state":"Bihar","latitude":24.7914,"longitude":85.0002,"temp":33.2,"humidity":49,"rain":0.0,"pressure":989.6,"uv_index":8.8,"wind_gusts":26.6,"aqi":176,"pm10":89.9,"pm2_5":64.5,"no2":5.5,"co":348.0,"o3":194.0,"so2":20.2,"mosquito_risk":0,"arthritis_risk":5,"migraine_risk":7,"frizz_risk":1,"updated_at":"2026-05-30T16:53:14.404070+05:30"},{"city":"Muzaffarpur","state":"Bihar","latitude":26.1209,"longitude":85.3647,"temp":31.1,"humidity":61,"rain":0.0,"pressure":996.9,"uv_index":8.2,"wind_gusts":35.3,"aqi":175,"pm10":61.5,"pm2_5":47.1,"no2":7.8,"co":295.0,"o3":180.0,"so2":16.6,"mosquito_risk":3,"arthritis_risk":5,"migraine_risk":7,"frizz_risk":1,"updated_at":"2026-05-30T16:53:14.404076+05:30"},{"city":"Bhagalpur","state":"Bihar","latitude":25.2425,"longitude":87.0117,"temp":32.5,"humidity":56,"rain":0.0,"pressure":997.6,"uv_index":8.7,"wind_gusts":21.6,"aqi":188,"pm10":87.3,"pm2_5":53.7,"no2":6.3,"co":368.0,"o3":203.0,"so2":25.2,"mosquito_risk":0,"arthritis_risk":5,"migraine_risk":7,"frizz_risk":1,"updated_at":"2026-05-30T16:53:14.404082+05:30"},{"city":"Ranchi","state":"Jharkhand","latitude":23.3441,"longitude":85.3096,"temp":28.1,"humidity":71,"rain":0.1,"pressure":934.8,"uv_index":9.25,"wind_gusts":29.9,"aqi":151,"pm10":58.0,"pm2_5":38.1,"no2":3.4,"co":265.0,"o3":165.0,"so2":10.5,"mosquito_risk":10,"arthritis_risk":5,"migraine_risk":7,"frizz_risk":1,"updated_at":"2026-05-30T16:53:14.404089+05:30"},{"city":"Jamshedpur","state":"Jharkhand","latitude":22.8046,"longitude":86.2029,"temp":31.8,"humidity":62,"rain":0.0,"pressure":987.0,"uv_index":9.0,"wind_gusts":40.3,"aqi":141,"pm10":62.9,"pm2_5":39.8,"no2":5.1,"co":340.0,"o3":153.0,"so2":12.4,"mosquito_risk":3,"arthritis_risk":5,"migraine_risk":7,"frizz_risk":1,"updated_at":"2026-05-30T16:53:14.404095+05:30"},{"city":"Dhanbad","state":"Jharkhand","latitude":23.7957,"longitude":86.4304,"temp":32.0,"humidity":58,"rain":0.0,"pressure":976.4,"uv_index":9.05,"wind_gusts":45.7,"aqi":162,"pm10":82.2,"pm2_5":65.4,"no2":18.5,"co":604.0,"o3":183.0,"so2":60.1,"mosquito_risk":0,"arthritis_risk":5,"migraine_risk":7,"frizz_risk":1,"updated_at":"2026-05-30T16:53:14.404102+05:30"},{"city":"Bokaro","state":"Jharkhand","latitude":23.6693,"longitude":86.1511,"temp":32.0,"humidity":60,"rain":0.1,"pressure":980.1,"uv_index":9.05,"wind_gusts":52.6,"aqi":165,"pm10":90.3,"pm2_5":74.7,"no2":19.1,"co":766.0,"o3":212.0,"so2":73.8,"mosquito_risk":3,"arthritis_risk":5,"migraine_risk":7,"frizz_risk":1,"updated_at":"2026-05-30T16:53:14.404109+05:30"},{"city":"Bhubaneswar","state":"Odisha","latitude":20.2961,"longitude":85.8245,"temp":31.6,"humidity":69,"rain":0.0,"pressure":998.1,"uv_index":9.05,"wind_gusts":41.4,"aqi":112,"pm10":38.2,"pm2_5":25.6,"no2":3.2,"co":238.0,"o3":115.0,"so2":4.4,"mosquito_risk":3,"arthritis_risk":5,"migraine_risk":7,"frizz_risk":1,"updated_at":"2026-05-30T16:53:14.404115+05:30"},{"city":"Cuttack","state":"Odisha","latitude":20.4625,"longitude":85.8828,"temp":32.2,"humidity":68,"rain":0.0,"pressure":999.6,"uv_index":9.1,"wind_gusts":42.5,"aqi":112,"pm10":38.2,"pm2_5":25.6,"no2":3.2,"co":252.0,"o3":115.0,"so2":4.4,"mosquito_risk":3,"arthritis_risk":5,"migraine_risk":7,"frizz_risk":1,"updated_at":"2026-05-30T16:53:14.404122+05:30"},{"city":"Rourkela","state":"Odisha","latitude":22.2604,"longitude":84.8536,"temp":33.9,"humidity":54,"rain":0.0,"pressure":980.7,"uv_index":8.95,"wind_gusts":37.4,"aqi":169,"pm10":58.6,"pm2_5":38.2,"no2":3.9,"co":552.0,"o3":188.0,"so2":15.9,"mosquito_risk":0,"arthritis_risk":5,"migraine_risk":7,"frizz_risk":1,"updated_at":"2026-05-30T16:53:14.404129+05:30"},{"city":"Raipur","state":"Chhattisgarh","latitude":21.2514,"longitude":81.6296,"temp":38.5,"humidity":30,"rain":0.0,"pressure":969.3,"uv_index":8.95,"wind_gusts":53.6,"aqi":177,"pm10":61.2,"pm2_5":40.4,"no2":7.6,"co":228.0,"o3":189.0,"so2":29.9,"mosquito_risk":0,"arthritis_risk":5,"migraine_risk":10,"frizz_risk":1,"updated_at":"2026-05-30T16:53:14.404136+05:30"},{"city":"Bhilai","state":"Chhattisgarh","latitude":21.1938,"longitude":81.3509,"temp":37.5,"humidity":30,"rain":0.0,"pressure":969.7,"uv_index":8.95,"wind_gusts":43.9,"aqi":185,"pm10":53.2,"pm2_5":32.0,"no2":8.6,"co":349.0,"o3":163.0,"so2":26.7,"mosquito_risk":0,"arthritis_risk":5,"migraine_risk":10,"frizz_risk":1,"updated_at":"2026-05-30T16:53:14.404143+05:30"},{"city":"Guwahati","state":"Assam","latitude":26.1158,"longitude":91.7086,"temp":30.2,"humidity":73,"rain":0.0,"pressure":998.3,"uv_index":8.7,"wind_gusts":33.8,"aqi":95,"pm10":37.5,"pm2_5":22.3,"no2":3.1,"co":315.0,"o3":105.0,"so2":2.0,"mosquito_risk":3,"arthritis_risk":5,"migraine_risk":7,"frizz_risk":1,"updated_at":"2026-05-30T16:53:14.404149+05:30"},{"city":"Agartala","state":"Tripura","latitude":23.8315,"longitude":91.2868,"temp":31.5,"humidity":64,"rain":0.0,"pressure":1002.6,"uv_index":8.85,"wind_gusts":22.0,"aqi":201,"pm10":95.5,"pm2_5":59.3,"no2":12.0,"co":322.0,"o3":175.0,"so2":13.4,"mosquito_risk":3,"arthritis_risk":5,"migraine_risk":4,"frizz_risk":1,"updated_at":"2026-05-30T16:53:14.404156+05:30"},{"city":"Shillong","state":"Meghalaya","latitude":25.5788,"longitude":91.8933,"temp":22.3,"humidity":77,"rain":0.0,"pressure":856.9,"uv_index":8.05,"wind_gusts":26.3,"aqi":89,"pm10":63.1,"pm2_5":25.1,"no2":3.8,"co":243.0,"o3":116.0,"so2":3.4,"mosquito_risk":3,"arthritis_risk":5,"migraine_risk":7,"frizz_risk":1,"updated_at":"2026-05-30T16:53:14.404163+05:30"},{"city":"Imphal","state":"Manipur","latitude":24.817,"longitude":93.9368,"temp":22.8,"humidity":96,"rain":0.3,"pressure":921.5,"uv_index":8.9,"wind_gusts":26.6,"aqi":118,"pm10":40.9,"pm2_5":21.9,"no2":6.5,"co":250.0,"o3":87.0,"so2":2.2,"mosquito_risk":6,"arthritis_risk":5,"migraine_risk":7,"frizz_risk":1,"updated_at":"2026-05-30T16:53:14.404170+05:30"},{"city":"Aizawl","state":"Mizoram","latitude":23.7271,"longitude":92.7176,"temp":21.0,"humidity":98,"rain":0.0,"pressure":890.4,"uv_index":9.1,"wind_gusts":28.4,"aqi":64,"pm10":30.7,"pm2_5":16.6,"no2":2.5,"co":226.0,"o3":103.0,"so2":2.5,"mosquito_risk":3,"arthritis_risk":5,"migraine_risk":7,"frizz_risk":1,"updated_at":"2026-05-30T16:53:14.404176+05:30"},{"city":"Kohima","state":"Nagaland","latitude":25.6701,"longitude":94.1077,"temp":22.7,"humidity":83,"rain":0.0,"pressure":855.0,"uv_index":8.0,"wind_gusts":23.4,"aqi":85,"pm10":23.4,"pm2_5":15.2,"no2":4.4,"co":255.0,"o3":87.0,"so2":1.0,"mosquito_risk":3,"arthritis_risk":5,"migraine_risk":7,"frizz_risk":1,"updated_at":"2026-05-30T16:53:14.404183+05:30"},{"city":"Gangtok","state":"Sikkim","latitude":27.3314,"longitude":88.6138,"temp":22.2,"humidity":58,"rain":0.0,"pressure":837.8,"uv_index":9.15,"wind_gusts":34.2,"aqi":75,"pm10":30.4,"pm2_5":14.5,"no2":2.2,"co":217.0,"o3":125.0,"so2":1.3,"mosquito_risk":0,"arthritis_risk":5,"migraine_risk":7,"frizz_risk":0,"updated_at":"2026-05-30T16:53:14.404190+05:30"},{"city":"Siliguri","state":"West Bengal","latitude":26.7271,"longitude":88.3953,"temp":31.1,"humidity":63,"rain":0.0,"pressure":989.5,"uv_index":8.65,"wind_gusts":50.4,"aqi":108,"pm10":61.9,"pm2_5":25.9,"no2":2.3,"co":562.0,"o3":144.0,"so2":3.0,"mosquito_risk":3,"arthritis_risk":5,"migraine_risk":7,"frizz_risk":1,"updated_at":"2026-05-30T16:53:17.651192+05:30"},{"city":"Durgapur","state":"West Bengal","latitude":23.5204,"longitude":87.3119,"temp":31.4,"humidity":66,"rain":0.0,"pressure":991.6,"uv_index":8.95,"wind_gusts":17.6,"aqi":164,"pm10":85.2,"pm2_5":56.1,"no2":17.3,"co":363.0,"o3":166.0,"so2":40.4,"mosquito_risk":3,"arthritis_risk":5,"migraine_risk":7,"frizz_risk":1,"updated_at":"2026-05-30T16:53:17.651227+05:30"},{"city":"Asansol","state":"West Bengal","latitude":23.6739,"longitude":86.9524,"temp":32.0,"humidity":59,"rain":0.0,"pressure":990.0,"uv_index":9.0,"wind_gusts":24.8,"aqi":160,"pm10":81.0,"pm2_5":58.4,"no2":16.6,"co":642.0,"o3":168.0,"so2":40.5,"mosquito_risk":0,"arthritis_risk":5,"migraine_risk":7,"frizz_risk":1,"updated_at":"2026-05-30T16:53:17.651238+05:30"},{"city":"Pondicherry","state":"Puducherry","latitude":11.9139,"longitude":79.8145,"temp":31.8,"humidity":71,"rain":0.0,"pressure":1005.2,"uv_index":8.9,"wind_gusts":35.6,"aqi":133,"pm10":43.8,"pm2_5":37.1,"no2":19.9,"co":253.0,"o3":179.0,"so2":10.3,"mosquito_risk":3,"arthritis_risk":5,"migraine_risk":4,"frizz_risk":1,"updated_at":"2026-05-30T16:53:17.651247+05:30"},{"city":"Port Blair","state":"Andaman and Nicobar Islands","latitude":11.6234,"longitude":92.7265,"temp":26.9,"humidity":85,"rain":0.2,"pressure":1005.2,"uv_index":8.7,"wind_gusts":34.2,"aqi":34,"pm10":10.3,"pm2_5":6.2,"no2":0.5,"co":129.0,"o3":73.0,"so2":0.4,"mosquito_risk":10,"arthritis_risk":5,"migraine_risk":4,"frizz_risk":1,"updated_at":"2026-05-30T16:53:17.651255+05:30"},{"city":"Haridwar","state":"Uttarakhand","latitude":29.9457,"longitude":78.1642,"temp":32.0,"humidity":41,"rain":0.0,"pressure":971.8,"uv_index":7.45,"wind_gusts":59.4,"aqi":154,"pm10":40.5,"pm2_5":19.8,"no2":1.2,"co":230.0,"o3":173.0,"so2":3.9,"mosquito_risk":0,"arthritis_risk":5,"migraine_risk":7,"frizz_risk":1,"updated_at":"2026-05-30T16:53:17.651263+05:30"},{"city":"Rishikesh","state":"Uttarakhand","latitude":30.0869,"longitude":78.2676,"temp":32.2,"humidity":32,"rain":0.0,"pressure":964.8,"uv_index":7.6,"wind_gusts":57.6,"aqi":149,"pm10":39.2,"pm2_5":17.5,"no2":0.4,"co":277.0,"o3":168.0,"so2":3.5,"mosquito_risk":0,"arthritis_risk":5,"migraine_risk":7,"frizz_risk":0,"updated_at":"2026-05-30T16:53:17.651271+05:30"},{"city":"Nainital","state":"Uttarakhand","latitude":29.3919,"longitude":79.4542,"temp":18.4,"humidity":72,"rain":0.0,"pressure":806.3,"uv_index":7.75,"wind_gusts":30.6,"aqi":135,"pm10":37.7,"pm2_5":18.4,"no2":1.9,"co":224.0,"o3":167.0,"so2":5.8,"mosquito_risk":3,"arthritis_risk":5,"migraine_risk":7,"frizz_risk":0,"updated_at":"2026-05-30T16:53:17.651278+05:30"},{"city":"Mussoorie","state":"Uttarakhand","latitude":30.4599,"longitude":78.0664,"temp":19.6,"humidity":39,"rain":0.0,"pressure":803.9,"uv_index":7.9,"wind_gusts":40.0,"aqi":151,"pm10":46.4,"pm2_5":19.3,"no2":1.0,"co":257.0,"o3":173.0,"so2":3.2,"mosquito_risk":0,"arthritis_risk":5,"migraine_risk":7,"frizz_risk":0,"updated_at":"2026-05-30T16:53:17.651286+05:30"},{"city":"Dharamshala","state":"Himachal Pradesh","latitude":32.219,"longitude":76.3234,"temp":20.4,"humidity":73,"rain":0.1,"pressure":869.0,"uv_index":6.6,"wind_gusts":42.1,"aqi":110,"pm10":22.9,"pm2_5":10.2,"no2":0.9,"co":249.0,"o3":155.0,"so2":1.0,"mosquito_risk":6,"arthritis_risk":5,"migraine_risk":7,"frizz_risk":0,"updated_at":"2026-05-30T16:53:17.651293+05:30"},{"city":"Dalhousie","state":"Himachal Pradesh","latitude":32.5387,"longitude":75.971,"temp":17.4,"humidity":70,"rain":0.0,"pressure":805.6,"uv_index":8.0,"wind_gusts":28.8,"aqi":125,"pm10":66.4,"pm2_5":19.5,"no2":0.9,"co":229.0,"o3":171.0,"so2":1.8,"mosquito_risk":3,"arthritis_risk":5,"migraine_risk":7,"frizz_risk":0,"updated_at":"2026-05-30T16:53:17.651300+05:30"},{"city":"Patiala","state":"Punjab","latitude":30.3398,"longitude":76.3869,"temp":31.5,"humidity":44,"rain":0.0,"pressure":976.0,"uv_index":7.55,"wind_gusts":47.2,"aqi":1018,"pm10":263.6,"pm2_5":49.0,"no2":1.9,"co":323.0,"o3":189.0,"so2":8.0,"mosquito_risk":0,"arthritis_risk":5,"migraine_risk":7,"frizz_risk":1,"updated_at":"2026-05-30T16:53:17.651308+05:30"},{"city":"Bhatinda","state":"Punjab","latitude":30.211,"longitude":74.9455,"temp":34.8,"humidity":30,"rain":0.0,"pressure":981.0,"uv_index":8.2,"wind_gusts":65.5,"aqi":951,"pm10":998.4,"pm2_5":162.1,"no2":2.6,"co":252.0,"o3":168.0,"so2":13.2,"mosquito_risk":0,"arthritis_risk":5,"migraine_risk":7,"frizz_risk":0,"updated_at":"2026-05-30T16:53:17.651314+05:30"},{"city":"Rohtak","state":"Haryana","latitude":28.8955,"longitude":76.6066,"temp":30.6,"humidity":52,"rain":0.0,"pressure":979.4,"uv_index":7.65,"wind_gusts":44.3,"aqi":771,"pm10":491.7,"pm2_5":89.2,"no2":4.7,"co":304.0,"o3":193.0,"so2":13.7,"mosquito_risk":0,"arthritis_risk":5,"migraine_risk":7,"frizz_risk":1,"updated_at":"2026-05-30T16:53:17.651321+05:30"},{"city":"Panipat","state":"Haryana","latitude":29.3909,"longitude":76.9635,"temp":28.5,"humidity":57,"rain":0.1,"pressure":978.8,"uv_index":7.5,"wind_gusts":47.5,"aqi":1410,"pm10":231.0,"pm2_5":55.3,"no2":5.3,"co":271.0,"o3":198.0,"so2":19.1,"mosquito_risk":7,"arthritis_risk":5,"migraine_risk":7,"frizz_risk":1,"updated_at":"2026-05-30T16:53:17.651328+05:30"},{"city":"Mathura","state":"Uttar Pradesh","latitude":27.4924,"longitude":77.6737,"temp":33.3,"humidity":45,"rain":0.1,"pressure":984.4,"uv_index":7.9,"wind_gusts":34.9,"aqi":321,"pm10":514.1,"pm2_5":67.5,"no2":0.8,"co":256.0,"o3":140.0,"so2":3.0,"mosquito_risk":3,"arthritis_risk":5,"migraine_risk":7,"frizz_risk":1,"updated_at":"2026-05-30T16:53:17.651335+05:30"},{"city":"Vrindavan","state":"Uttar Pradesh","latitude":27.5823,"longitude":77.7027,"temp":32.9,"humidity":47,"rain":0.1,"pressure":984.9,"uv_index":7.9,"wind_gusts":36.4,"aqi":321,"pm10":514.1,"pm2_5":67.5,"no2":0.8,"co":269.0,"o3":140.0,"so2":3.0,"mosquito_risk":3,"arthritis_risk":5,"migraine_risk":7,"frizz_risk":1,"updated_at":"2026-05-30T16:53:17.651342+05:30"},{"city":"Ayodhya","state":"Uttar Pradesh","latitude":26.7922,"longitude":82.1998,"temp":28.6,"humidity":60,"rain":0.0,"pressure":992.9,"uv_index":8.25,"wind_gusts":36.4,"aqi":119,"pm10":35.3,"pm2_5":22.1,"no2":1.2,"co":297.0,"o3":146.0,"so2":2.7,"mosquito_risk":4,"arthritis_risk":5,"migraine_risk":7,"frizz_risk":1,"updated_at":"2026-05-30T16:53:17.651349+05:30"},{"city":"Ratlam","state":"Madhya Pradesh","latitude":23.3315,"longitude":75.0367,"temp":37.5,"humidity":26,"rain":0.0,"pressure":950.6,"uv_index":8.45,"wind_gusts":48.2,"aqi":77,"pm10":76.8,"pm2_5":27.8,"no2":0.5,"co":124.0,"o3":105.0,"so2":3.3,"mosquito_risk":0,"arthritis_risk":5,"migraine_risk":10,"frizz_risk":0,"updated_at":"2026-05-30T16:53:17.651356+05:30"},{"city":"Sagar","state":"Madhya Pradesh","latitude":23.8388,"longitude":78.7378,"temp":35.5,"humidity":25,"rain":0.0,"pressure":946.4,"uv_index":8.7,"wind_gusts":72.7,"aqi":72,"pm10":43.0,"pm2_5":16.9,"no2":0.6,"co":141.0,"o3":129.0,"so2":2.2,"mosquito_risk":0,"arthritis_risk":5,"migraine_risk":10,"frizz_risk":0,"updated_at":"2026-05-30T16:53:17.651363+05:30"},{"city":"Satna","state":"Madhya Pradesh","latitude":24.6005,"longitude":80.8322,"temp":33.2,"humidity":41,"rain":0.0,"pressure":967.3,"uv_index":8.75,"wind_gusts":28.8,"aqi":119,"pm10":45.6,"pm2_5":18.7,"no2":1.0,"co":230.0,"o3":138.0,"so2":2.7,"mosquito_risk":0,"arthritis_risk":5,"migraine_risk":7,"frizz_risk":1,"updated_at":"2026-05-30T16:53:17.651369+05:30"},{"city":"Akola","state":"Maharashtra","latitude":20.7002,"longitude":77.0082,"temp":39.5,"humidity":22,"rain":0.0,"pressure":970.2,"uv_index":8.8,"wind_gusts":52.2,"aqi":69,"pm10":76.8,"pm2_5":28.3,"no2":1.6,"co":119.0,"o3":109.0,"so2":5.2,"mosquito_risk":0,"arthritis_risk":5,"migraine_risk":10,"frizz_risk":0,"updated_at":"2026-05-30T16:53:17.651377+05:30"},{"city":"Amravati","state":"Maharashtra","latitude":20.9374,"longitude":77.7796,"temp":38.2,"humidity":24,"rain":0.0,"pressure":962.8,"uv_index":8.8,"wind_gusts":48.2,"aqi":68,"pm10":80.1,"pm2_5":29.6,"no2":1.9,"co":126.0,"o3":110.0,"so2":5.8,"mosquito_risk":0,"arthritis_risk":5,"migraine_risk":10,"frizz_risk":0,"updated_at":"2026-05-30T16:53:17.651385+05:30"},{"city":"Latur","state":"Maharashtra","latitude":18.4088,"longitude":76.5604,"temp":37.2,"humidity":27,"rain":0.0,"pressure":936.8,"uv_index":8.95,"wind_gusts":37.8,"aqi":54,"pm10":27.6,"pm2_5":11.8,"no2":0.5,"co":123.0,"o3":106.0,"so2":1.4,"mosquito_risk":0,"arthritis_risk":5,"migraine_risk":10,"frizz_risk":0,"updated_at":"2026-05-30T16:53:17.651393+05:30"},{"city":"Nanded","state":"Maharashtra","latitude":19.1383,"longitude":77.3091,"temp":38.9,"humidity":24,"rain":0.0,"pressure":964.2,"uv_index":8.85,"wind_gusts":41.0,"aqi":71,"pm10":57.6,"pm2_5":23.1,"no2":0.8,"co":141.0,"o3":114.0,"so2":3.0,"mosquito_risk":0,"arthritis_risk":5,"migraine_risk":10,"frizz_risk":0,"updated_at":"2026-05-30T16:53:17.651400+05:30"},{"city":"Gulbarga","state":"Karnataka","latitude":17.3297,"longitude":76.8343,"temp":37.9,"humidity":23,"rain":0.0,"pressure":955.4,"uv_index":8.75,"wind_gusts":40.3,"aqi":51,"pm10":20.3,"pm2_5":10.2,"no2":0.9,"co":138.0,"o3":117.0,"so2":1.7,"mosquito_risk":0,"arthritis_risk":5,"migraine_risk":10,"frizz_risk":0,"updated_at":"2026-05-30T16:53:17.651406+05:30"},{"city":"Bidar","state":"Karnataka","latitude":17.9104,"longitude":77.5199,"temp":36.0,"humidity":28,"rain":0.0,"pressure":932.8,"uv_index":8.9,"wind_gusts":40.0,"aqi":64,"pm10":29.5,"pm2_5":15.0,"no2":0.0,"co":157.0,"o3":121.0,"so2":3.0,"mosquito_risk":0,"arthritis_risk":5,"migraine_risk":10,"frizz_risk":0,"updated_at":"2026-05-30T16:53:17.651413+05:30"},{"city":"Hospet","state":"Karnataka","latitude":15.2689,"longitude":76.3909,"temp":32.5,"humidity":53,"rain":0.1,"pressure":953.2,"uv_index":8.95,"wind_gusts":47.9,"aqi":46,"pm10":19.0,"pm2_5":11.1,"no2":2.5,"co":182.0,"o3":108.0,"so2":1.9,"mosquito_risk":3,"arthritis_risk":5,"migraine_risk":7,"frizz_risk":1,"updated_at":"2026-05-30T16:53:17.651419+05:30"},{"city":"Tirupur","state":"Tamil Nadu","latitude":11.1085,"longitude":77.3411,"temp":33.3,"humidity":49,"rain":0.0,"pressure":972.9,"uv_index":9.0,"wind_gusts":52.9,"aqi":39,"pm10":10.6,"pm2_5":7.3,"no2":4.2,"co":158.0,"o3":104.0,"so2":2.4,"mosquito_risk":0,"arthritis_risk":5,"migraine_risk":7,"frizz_risk":1,"updated_at":"2026-05-30T16:53:17.651425+05:30"},{"city":"Alappuzha","state":"Kerala","latitude":9.4981,"longitude":76.3388,"temp":28.8,"humidity":78,"rain":0.0,"pressure":1008.2,"uv_index":8.0,"wind_gusts":32.0,"aqi":29,"pm10":6.2,"pm2_5":4.4,"no2":5.0,"co":103.0,"o3":61.0,"so2":1.6,"mosquito_risk":7,"arthritis_risk":0,"migraine_risk":4,"frizz_risk":1,"updated_at":"2026-05-30T16:53:17.651432+05:30"},{"city":"Munnar","state":"Kerala","latitude":10.0889,"longitude":77.0595,"temp":20.1,"humidity":91,"rain":0.0,"pressure":857.0,"uv_index":7.0,"wind_gusts":29.2,"aqi":31,"pm10":4.6,"pm2_5":3.3,"no2":3.2,"co":138.0,"o3":68.0,"so2":1.1,"mosquito_risk":3,"arthritis_risk":5,"migraine_risk":7,"frizz_risk":1,"updated_at":"2026-05-30T16:53:17.651439+05:30"},{"city":"Silchar","state":"Assam","latitude":24.8333,"longitude":92.7789,"temp":29.4,"humidity":81,"rain":0.0,"pressure":1001.8,"uv_index":7.8,"wind_gusts":20.9,"aqi":142,"pm10":59.8,"pm2_5":39.2,"no2":4.2,"co":406.0,"o3":163.0,"so2":8.3,"mosquito_risk":7,"arthritis_risk":5,"migraine_risk":4,"frizz_risk":1,"updated_at":"2026-05-30T16:53:17.651445+05:30"},{"city":"Dibrugarh","state":"Assam","latitude":27.4728,"longitude":94.912,"temp":32.0,"humidity":65,"rain":0.0,"pressure":991.4,"uv_index":2.1,"wind_gusts":16.2,"aqi":112,"pm10":42.3,"pm2_5":27.7,"no2":4.2,"co":310.0,"o3":120.0,"so2":2.6,"mosquito_risk":3,"arthritis_risk":5,"migraine_risk":3,"frizz_risk":1,"updated_at":"2026-05-30T16:53:17.651451+05:30"}]