[{"city":"Delhi","state":"Delhi","latitude":28.6139,"longitude":77.209,"temp":16.5,"humidity":87,"rain":0.0,"pressure":985.5,"uv_index":5.5,"aqi":164,"mosquito_risk":3,"arthritis_risk":10,"migraine_risk":3,"frizz_risk":0,"updated_at":"2026-02-24T04:14:27.899581+05:30"},{"city":"Mumbai","state":"Maharashtra","latitude":19.076,"longitude":72.8777,"temp":26.5,"humidity":82,"rain":0.0,"pressure":1006.8,"uv_index":7.3,"aqi":154,"mosquito_risk":7,"arthritis_risk":5,"migraine_risk":4,"frizz_risk":1,"updated_at":"2026-02-24T04:14:27.899629+05:30"},{"city":"Bangalore","state":"Karnataka","latitude":12.9716,"longitude":77.5946,"temp":19.1,"humidity":91,"rain":0.0,"pressure":909.1,"uv_index":8.85,"aqi":68,"mosquito_risk":3,"arthritis_risk":10,"migraine_risk":7,"frizz_risk":1,"updated_at":"2026-02-24T04:14:27.899644+05:30"},{"city":"Hyderabad","state":"Telangana","latitude":17.385,"longitude":78.4867,"temp":21.4,"humidity":86,"rain":0.0,"pressure":952.2,"uv_index":8.05,"aqi":127,"mosquito_risk":3,"arthritis_risk":5,"migraine_risk":7,"frizz_risk":1,"updated_at":"2026-02-24T04:14:27.899653+05:30"},{"city":"Chennai","state":"Tamil Nadu","latitude":13.0827,"longitude":80.2707,"temp":24.6,"humidity":87,"rain":0.0,"pressure":1006.3,"uv_index":8.55,"aqi":31,"mosquito_risk":3,"arthritis_risk":5,"migraine_risk":4,"frizz_risk":1,"updated_at":"2026-02-24T04:14:27.899661+05:30"},{"city":"Kolkata","state":"West Bengal","latitude":22.5726,"longitude":88.3639,"temp":21.4,"humidity":95,"rain":0.0,"pressure":1009.1,"uv_index":7.25,"aqi":163,"mosquito_risk":3,"arthritis_risk":0,"migraine_risk":4,"frizz_risk":1,"updated_at":"2026-02-24T04:14:27.899670+05:30"},{"city":"Pune","state":"Maharashtra","latitude":18.5204,"longitude":73.8567,"temp":21.9,"humidity":53,"rain":0.0,"pressure":946.9,"uv_index":7.75,"aqi":148,"mosquito_risk":0,"arthritis_risk":5,"migraine_risk":7,"frizz_risk":0,"updated_at":"2026-02-24T04:14:27.899677+05:30"},{"city":"Ahmedabad","state":"Gujarat","latitude":23.0225,"longitude":72.5714,"temp":21.1,"humidity":61,"rain":0.0,"pressure":1002.3,"uv_index":7.0,"aqi":98,"mosquito_risk":3,"arthritis_risk":5,"migraine_risk":4,"frizz_risk":0,"updated_at":"2026-02-24T04:14:27.899684+05:30"},{"city":"Jaipur","state":"Rajasthan","latitude":26.9124,"longitude":75.7873,"temp":18.0,"humidity":66,"rain":0.0,"pressure":961.2,"uv_index":6.3,"aqi":136,"mosquito_risk":3,"arthritis_risk":5,"migraine_risk":7,"frizz_risk":0,"updated_at":"2026-02-24T04:14:27.899692+05:30"},{"city":"Lucknow","state":"Uttar Pradesh","latitude":26.8467,"longitude":80.9462,"temp":16.7,"humidity":87,"rain":0.0,"pressure":996.6,"uv_index":5.9,"aqi":160,"mosquito_risk":3,"arthritis_risk":10,"migraine_risk":3,"frizz_risk":0,"updated_at":"2026-02-24T04:14:27.899704+05:30"},{"city":"Kanpur","state":"Uttar Pradesh","latitude":26.4499,"longitude":80.3319,"temp":16.2,"humidity":83,"rain":0.0,"pressure":994.7,"uv_index":5.9,"aqi":155,"mosquito_risk":3,"arthritis_risk":10,"migraine_risk":3,"frizz_risk":0,"updated_at":"2026-02-24T04:14:27.899712+05:30"},{"city":"Chandigarh","state":"Chandigarh","latitude":30.7333,"longitude":76.7794,"temp":14.7,"humidity":87,"rain":0.0,"pressure":970.6,"uv_index":5.4,"aqi":153,"mosquito_risk":3,"arthritis_risk":10,"migraine_risk":3,"frizz_risk":0,"updated_at":"2026-02-24T04:14:27.899722+05:30"},{"city":"Srinagar","state":"Jammu and Kashmir","latitude":34.0837,"longitude":74.7973,"temp":0.8,"humidity":85,"rain":0.0,"pressure":835.9,"uv_index":6.25,"aqi":154,"mosquito_risk":3,"arthritis_risk":10,"migraine_risk":7,"frizz_risk":1,"updated_at":"2026-02-24T04:14:27.899729+05:30"},{"city":"Jammu","state":"Jammu and Kashmir","latitude":32.7266,"longitude":74.857,"temp":15.0,"humidity":92,"rain":0.0,"pressure":974.8,"uv_index":5.95,"aqi":155,"mosquito_risk":3,"arthritis_risk":10,"migraine_risk":3,"frizz_risk":0,"updated_at":"2026-02-24T04:14:27.899736+05:30"},{"city":"Amritsar","state":"Punjab","latitude":31.634,"longitude":74.8723,"temp":13.4,"humidity":97,"rain":0.0,"pressure":983.1,"uv_index":5.9,"aqi":181,"mosquito_risk":3,"arthritis_risk":10,"migraine_risk":3,"frizz_risk":0,"updated_at":"2026-02-24T04:14:27.899743+05:30"},{"city":"Ludhiana","state":"Punjab","latitude":30.901,"longitude":75.8573,"temp":15.3,"humidity":86,"rain":0.0,"pressure":981.2,"uv_index":5.6,"aqi":190,"mosquito_risk":3,"arthritis_risk":10,"migraine_risk":3,"frizz_risk":0,"updated_at":"2026-02-24T04:14:27.899749+05:30"},{"city":"Jalandhar","state":"Punjab","latitude":31.326,"longitude":75.5762,"temp":15.0,"humidity":93,"rain":0.0,"pressure":982.3,"uv_index":5.75,"aqi":185,"mosquito_risk":3,"arthritis_risk":10,"migraine_risk":3,"frizz_risk":0,"updated_at":"2026-02-24T04:14:27.899756+05:30"},{"city":"Dehradun","state":"Uttarakhand","latitude":30.6284,"longitude":78.0322,"temp":8.2,"humidity":80,"rain":0.0,"pressure":827.2,"uv_index":5.7,"aqi":81,"mosquito_risk":3,"arthritis_risk":5,"migraine_risk":3,"frizz_risk":0,"updated_at":"2026-02-24T04:14:27.899762+05:30"},{"city":"Shimla","state":"Himachal Pradesh","latitude":31.1048,"longitude":77.1734,"temp":7.0,"humidity":81,"rain":0.0,"pressure":780.5,"uv_index":5.75,"aqi":114,"mosquito_risk":3,"arthritis_risk":10,"migraine_risk":3,"frizz_risk":0,"updated_at":"2026-02-24T04:14:27.899769+05:30"},{"city":"Manali","state":"Himachal Pradesh","latitude":32.2396,"longitude":77.1887,"temp":10.6,"humidity":13,"rain":0.0,"pressure":816.0,"uv_index":7.1,"aqi":52,"mosquito_risk":0,"arthritis_risk":5,"migraine_risk":7,"frizz_risk":1,"updated_at":"2026-02-24T04:14:27.899778+05:30"},{"city":"Gurgaon","state":"Haryana","latitude":28.4595,"longitude":77.0266,"temp":14.3,"humidity":92,"rain":0.0,"pressure":983.8,"uv_index":5.6,"aqi":166,"mosquito_risk":3,"arthritis_risk":10,"migraine_risk":3,"frizz_risk":0,"updated_at":"2026-02-24T04:14:27.899785+05:30"},{"city":"Noida","state":"Uttar Pradesh","latitude":28.5355,"longitude":77.391,"temp":16.4,"humidity":88,"rain":0.0,"pressure":987.1,"uv_index":5.5,"aqi":166,"mosquito_risk":3,"arthritis_risk":10,"migraine_risk":3,"frizz_risk":0,"updated_at":"2026-02-24T04:14:27.899792+05:30"},{"city":"Ghaziabad","state":"Uttar Pradesh","latitude":28.6692,"longitude":77.4538,"temp":15.6,"humidity":90,"rain":0.0,"pressure":985.2,"uv_index":5.45,"aqi":161,"mosquito_risk":3,"arthritis_risk":10,"migraine_risk":3,"frizz_risk":0,"updated_at":"2026-02-24T04:14:27.899800+05:30"},{"city":"Faridabad","state":"Haryana","latitude":28.4089,"longitude":77.3178,"temp":16.0,"humidity":83,"rain":0.0,"pressure":986.3,"uv_index":5.5,"aqi":166,"mosquito_risk":3,"arthritis_risk":10,"migraine_risk":3,"frizz_risk":0,"updated_at":"2026-02-24T04:14:27.899806+05:30"},{"city":"Meerut","state":"Uttar Pradesh","latitude":28.9845,"longitude":77.7064,"temp":15.2,"humidity":86,"rain":0.0,"pressure":983.8,"uv_index":5.3,"aqi":161,"mosquito_risk":3,"arthritis_risk":10,"migraine_risk":3,"frizz_risk":0,"updated_at":"2026-02-24T04:14:27.899812+05:30"},{"city":"Agra","state":"Uttar Pradesh","latitude":27.1767,"longitude":78.0081,"temp":15.5,"humidity":86,"rain":0.0,"pressure":990.4,"uv_index":5.8,"aqi":163,"mosquito_risk":3,"arthritis_risk":10,"migraine_risk":3,"frizz_risk":0,"updated_at":"2026-02-24T04:14:27.899819+05:30"},{"city":"Varanasi","state":"Uttar Pradesh","latitude":25.3176,"longitude":82.9739,"temp":14.9,"humidity":93,"rain":0.0,"pressure":1000.8,"uv_index":6.55,"aqi":163,"mosquito_risk":3,"arthritis_risk":10,"migraine_risk":4,"frizz_risk":0,"updated_at":"2026-02-24T04:14:27.899826+05:30"},{"city":"Prayagraj","state":"Uttar Pradesh","latitude":25.4358,"longitude":81.8463,"temp":15.6,"humidity":87,"rain":0.0,"pressure":999.0,"uv_index":6.45,"aqi":161,"mosquito_risk":3,"arthritis_risk":10,"migraine_risk":7,"frizz_risk":0,"updated_at":"2026-02-24T04:14:27.899832+05:30"},{"city":"Gorakhpur","state":"Uttar Pradesh","latitude":26.7606,"longitude":83.3732,"temp":14.7,"humidity":86,"rain":0.0,"pressure":1000.5,"uv_index":6.25,"aqi":157,"mosquito_risk":3,"arthritis_risk":10,"migraine_risk":4,"frizz_risk":0,"updated_at":"2026-02-24T04:14:27.899839+05:30"},{"city":"Bareilly","state":"Uttar Pradesh","latitude":28.367,"longitude":79.4304,"temp":13.0,"humidity":100,"rain":0.0,"pressure":989.5,"uv_index":5.55,"aqi":166,"mosquito_risk":3,"arthritis_risk":10,"migraine_risk":3,"frizz_risk":0,"updated_at":"2026-02-24T04:14:27.899848+05:30"},{"city":"Aligarh","state":"Uttar Pradesh","latitude":27.8974,"longitude":78.088,"temp":14.4,"humidity":84,"rain":0.0,"pressure":988.1,"uv_index":5.55,"aqi":171,"mosquito_risk":3,"arthritis_risk":10,"migraine_risk":3,"frizz_risk":0,"updated_at":"2026-02-24T04:14:27.899855+05:30"},{"city":"Moradabad","state":"Uttar Pradesh","latitude":28.8386,"longitude":78.7733,"temp":14.2,"humidity":90,"rain":0.0,"pressure":986.2,"uv_index":5.45,"aqi":170,"mosquito_risk":3,"arthritis_risk":10,"migraine_risk":3,"frizz_risk":0,"updated_at":"2026-02-24T04:14:27.899862+05:30"},{"city":"Saharanpur","state":"Uttar Pradesh","latitude":29.9637,"longitude":77.546,"temp":14.5,"humidity":95,"rain":0.0,"pressure":977.9,"uv_index":5.1,"aqi":166,"mosquito_risk":3,"arthritis_risk":10,"migraine_risk":3,"frizz_risk":0,"updated_at":"2026-02-24T04:14:27.899868+05:30"},{"city":"Jhansi","state":"Uttar Pradesh","latitude":25.4484,"longitude":78.5685,"temp":17.1,"humidity":82,"rain":0.0,"pressure":979.9,"uv_index":6.4,"aqi":145,"mosquito_risk":3,"arthritis_risk":10,"migraine_risk":7,"frizz_risk":0,"updated_at":"2026-02-24T04:14:31.212066+05:30"},{"city":"Surat","state":"Gujarat","latitude":21.1702,"longitude":72.8311,"temp":23.3,"humidity":76,"rain":0.0,"pressure":1005.8,"uv_index":6.95,"aqi":153,"mosquito_risk":3,"arthritis_risk":5,"migraine_risk":4,"frizz_risk":1,"updated_at":"2026-02-24T04:14:31.212100+05:30"},{"city":"Vadodara","state":"Gujarat","latitude":22.3072,"longitude":73.1812,"temp":20.4,"humidity":68,"rain":0.0,"pressure":1004.0,"uv_index":7.0,"aqi":98,"mosquito_risk":3,"arthritis_risk":5,"migraine_risk":4,"frizz_risk":0,"updated_at":"2026-02-24T04:14:31.212112+05:30"},{"city":"Rajkot","state":"Gujarat","latitude":22.3039,"longitude":70.8022,"temp":22.0,"humidity":65,"rain":0.0,"pressure":993.8,"uv_index":6.9,"aqi":83,"mosquito_risk":3,"arthritis_risk":5,"migraine_risk":7,"frizz_risk":0,"updated_at":"2026-02-24T04:14:31.212121+05:30"},{"city":"Thane","state":"Maharashtra","latitude":19.2183,"longitude":72.9781,"temp":23.4,"humidity":91,"rain":0.0,"pressure":1006.3,"uv_index":7.3,"aqi":154,"mosquito_risk":3,"arthritis_risk":5,"migraine_risk":4,"frizz_risk":1,"updated_at":"2026-02-24T04:14:31.212130+05:30"},{"city":"Nagpur","state":"Maharashtra","latitude":21.1458,"longitude":79.0882,"temp":19.2,"humidity":84,"rain":0.0,"pressure":974.3,"uv_index":7.35,"aqi":160,"mosquito_risk":3,"arthritis_risk":10,"migraine_risk":7,"frizz_risk":1,"updated_at":"2026-02-24T04:14:31.212138+05:30"},{"city":"Nashik","state":"Maharashtra","latitude":19.9975,"longitude":73.7898,"temp":19.6,"humidity":52,"rain":0.0,"pressure":944.2,"uv_index":7.4,"aqi":85,"mosquito_risk":0,"arthritis_risk":5,"migraine_risk":7,"frizz_risk":0,"updated_at":"2026-02-24T04:14:31.212145+05:30"},{"city":"Aurangabad","state":"Maharashtra","latitude":19.8762,"longitude":75.3433,"temp":19.1,"humidity":65,"rain":0.0,"pressure":943.0,"uv_index":7.75,"aqi":91,"mosquito_risk":3,"arthritis_risk":5,"migraine_risk":7,"frizz_risk":0,"updated_at":"2026-02-24T04:14:31.212153+05:30"},{"city":"Solapur","state":"Maharashtra","latitude":17.6599,"longitude":75.9064,"temp":21.3,"humidity":85,"rain":0.0,"pressure":955.8,"uv_index":8.0,"aqi":124,"mosquito_risk":3,"arthritis_risk":5,"migraine_risk":7,"frizz_risk":1,"updated_at":"2026-02-24T04:14:31.212160+05:30"},{"city":"Kolhapur","state":"Maharashtra","latitude":16.705,"longitude":74.2433,"temp":20.6,"humidity":97,"rain":0.0,"pressure":945.7,"uv_index":8.2,"aqi":153,"mosquito_risk":3,"arthritis_risk":5,"migraine_risk":7,"frizz_risk":1,"updated_at":"2026-02-24T04:14:31.212167+05:30"},{"city":"Goa","state":"Goa","latitude":15.2993,"longitude":74.124,"temp":25.0,"humidity":92,"rain":0.0,"pressure":995.8,"uv_index":8.2,"aqi":151,"mosquito_risk":7,"arthritis_risk":5,"migraine_risk":7,"frizz_risk":1,"updated_at":"2026-02-24T04:14:31.212175+05:30"},{"city":"Jodhpur","state":"Rajasthan","latitude":26.2389,"longitude":73.0243,"temp":19.5,"humidity":42,"rain":0.0,"pressure":984.1,"uv_index":6.55,"aqi":68,"mosquito_risk":0,"arthritis_risk":5,"migraine_risk":7,"frizz_risk":0,"updated_at":"2026-02-24T04:14:31.212183+05:30"},{"city":"Udaipur","state":"Rajasthan","latitude":24.5854,"longitude":73.7125,"temp":14.4,"humidity":60,"rain":0.0,"pressure":946.4,"uv_index":7.2,"aqi":54,"mosquito_risk":0,"arthritis_risk":5,"migraine_risk":7,"frizz_risk":0,"updated_at":"2026-02-24T04:14:31.212190+05:30"},{"city":"Kota","state":"Rajasthan","latitude":25.2138,"longitude":75.8648,"temp":13.7,"humidity":96,"rain":0.0,"pressure":980.0,"uv_index":6.6,"aqi":133,"mosquito_risk":3,"arthritis_risk":10,"migraine_risk":7,"frizz_risk":0,"updated_at":"2026-02-24T04:14:31.212198+05:30"},{"city":"Bikaner","state":"Rajasthan","latitude":28.0229,"longitude":73.3119,"temp":19.1,"humidity":58,"rain":0.0,"pressure":983.3,"uv_index":6.2,"aqi":64,"mosquito_risk":0,"arthritis_risk":5,"migraine_risk":7,"frizz_risk":0,"updated_at":"2026-02-24T04:14:31.212205+05:30"},{"city":"Ajmer","state":"Rajasthan","latitude":26.4499,"longitude":74.6399,"temp":17.8,"humidity":40,"rain":0.0,"pressure":955.0,"uv_index":6.55,"aqi":91,"mosquito_risk":0,"arthritis_risk":5,"migraine_risk":7,"frizz_risk":0,"updated_at":"2026-02-24T04:14:31.212212+05:30"},{"city":"Gwalior","state":"Madhya Pradesh","latitude":26.2183,"longitude":78.1828,"temp":18.3,"humidity":66,"rain":0.0,"pressure":985.5,"uv_index":6.15,"aqi":123,"mosquito_risk":3,"arthritis_risk":5,"migraine_risk":7,"frizz_risk":0,"updated_at":"2026-02-24T04:14:31.212219+05:30"},{"city":"Indore","state":"Madhya Pradesh","latitude":22.7196,"longitude":75.8577,"temp":17.3,"humidity":61,"rain":0.0,"pressure":947.6,"uv_index":7.15,"aqi":96,"mosquito_risk":3,"arthritis_risk":5,"migraine_risk":7,"frizz_risk":0,"updated_at":"2026-02-24T04:14:31.212227+05:30"},{"city":"Bhopal","state":"Madhya Pradesh","latitude":23.2599,"longitude":77.4126,"temp":17.1,"humidity":75,"rain":0.0,"pressure":953.8,"uv_index":7.0,"aqi":100,"mosquito_risk":3,"arthritis_risk":5,"migraine_risk":7,"frizz_risk":0,"updated_at":"2026-02-24T04:14:31.212234+05:30"},{"city":"Jabalpur","state":"Madhya Pradesh","latitude":23.1815,"longitude":79.9864,"temp":17.8,"humidity":72,"rain":0.0,"pressure":962.5,"uv_index":7.05,"aqi":102,"mosquito_risk":3,"arthritis_risk":5,"migraine_risk":7,"frizz_risk":0,"updated_at":"2026-02-24T04:14:31.212241+05:30"},{"city":"Ujjain","state":"Madhya Pradesh","latitude":23.1765,"longitude":75.7885,"temp":17.7,"humidity":63,"rain":0.0,"pressure":953.7,"uv_index":7.05,"aqi":109,"mosquito_risk":3,"arthritis_risk":5,"migraine_risk":7,"frizz_risk":0,"updated_at":"2026-02-24T04:14:31.212269+05:30"},{"city":"Visakhapatnam","state":"Andhra Pradesh","latitude":17.6868,"longitude":83.2185,"temp":22.2,"humidity":81,"rain":0.0,"pressure":1004.1,"uv_index":8.05,"aqi":102,"mosquito_risk":3,"arthritis_risk":5,"migraine_risk":4,"frizz_risk":1,"updated_at":"2026-02-24T04:14:31.212277+05:30"},{"city":"Vijayawada","state":"Andhra Pradesh","latitude":16.5062,"longitude":80.648,"temp":23.5,"humidity":76,"rain":0.0,"pressure":1002.6,"uv_index":8.15,"aqi":79,"mosquito_risk":3,"arthritis_risk":5,"migraine_risk":4,"frizz_risk":1,"updated_at":"2026-02-24T04:14:31.212285+05:30"},{"city":"Guntur","state":"Andhra Pradesh","latitude":16.3067,"longitude":80.4365,"temp":23.3,"humidity":89,"rain":0.0,"pressure":1004.0,"uv_index":8.15,"aqi":81,"mosquito_risk":3,"arthritis_risk":5,"migraine_risk":4,"frizz_risk":1,"updated_at":"2026-02-24T04:14:31.212292+05:30"},{"city":"Nellore","state":"Andhra Pradesh","latitude":14.4426,"longitude":79.9865,"temp":23.8,"humidity":90,"rain":0.0,"pressure":1005.6,"uv_index":8.4,"aqi":41,"mosquito_risk":3,"arthritis_risk":5,"migraine_risk":4,"frizz_risk":1,"updated_at":"2026-02-24T04:14:31.212300+05:30"},{"city":"Kurnool","state":"Andhra Pradesh","latitude":15.8281,"longitude":78.0373,"temp":24.0,"humidity":74,"rain":0.0,"pressure":976.4,"uv_index":8.15,"aqi":78,"mosquito_risk":3,"arthritis_risk":5,"migraine_risk":7,"frizz_risk":1,"updated_at":"2026-02-24T04:14:31.212308+05:30"},{"city":"Kakinada","state":"Andhra Pradesh","latitude":16.9891,"longitude":82.2475,"temp":22.5,"humidity":95,"rain":0.0,"pressure":1007.6,"uv_index":8.1,"aqi":52,"mosquito_risk":3,"arthritis_risk":5,"migraine_risk":4,"frizz_risk":1,"updated_at":"2026-02-24T04:14:31.212316+05:30"},{"city":"Tirupati","state":"Andhra Pradesh","latitude":13.6288,"longitude":79.4192,"temp":18.8,"humidity":95,"rain":0.0,"pressure":990.9,"uv_index":8.5,"aqi":59,"mosquito_risk":3,"arthritis_risk":10,"migraine_risk":7,"frizz_risk":1,"updated_at":"2026-02-24T04:14:31.212323+05:30"},{"city":"Warangal","state":"Telangana","latitude":17.9689,"longitude":79.5941,"temp":21.7,"humidity":84,"rain":0.0,"pressure":978.6,"uv_index":7.85,"aqi":130,"mosquito_risk":3,"arthritis_risk":5,"migraine_risk":7,"frizz_risk":1,"updated_at":"2026-02-24T04:14:31.212330+05:30"},{"city":"Nizamabad","state":"Telangana","latitude":18.6725,"longitude":78.0941,"temp":21.4,"humidity":85,"rain":0.0,"pressure":964.2,"uv_index":7.75,"aqi":151,"mosquito_risk":3,"arthritis_risk":5,"migraine_risk":7,"frizz_risk":1,"updated_at":"2026-02-24T04:14:31.212338+05:30"},{"city":"Mysore","state":"Karnataka","latitude":12.2958,"longitude":76.6396,"temp":21.2,"humidity":97,"rain":0.0,"pressure":926.0,"uv_index":8.9,"aqi":73,"mosquito_risk":3,"arthritis_risk":5,"migraine_risk":7,"frizz_risk":1,"updated_at":"2026-02-24T04:14:31.212346+05:30"},{"city":"Mangalore","state":"Karnataka","latitude":12.9141,"longitude":74.856,"temp":28.7,"humidity":80,"rain":0.0,"pressure":1004.2,"uv_index":8.5,"aqi":136,"mosquito_risk":7,"arthritis_risk":5,"migraine_risk":4,"frizz_risk":1,"updated_at":"2026-02-24T04:14:31.212354+05:30"},{"city":"Hubli-Dharwad","state":"Karnataka","latitude":15.3647,"longitude":75.124,"temp":21.1,"humidity":91,"rain":0.0,"pressure":938.6,"uv_index":8.35,"aqi":112,"mosquito_risk":3,"arthritis_risk":5,"migraine_risk":7,"frizz_risk":1,"updated_at":"2026-02-24T04:14:31.212361+05:30"},{"city":"Belgaum","state":"Karnataka","latitude":15.8497,"longitude":74.4977,"temp":20.1,"humidity":97,"rain":0.0,"pressure":923.0,"uv_index":8.05,"aqi":139,"mosquito_risk":3,"arthritis_risk":5,"migraine_risk":7,"frizz_risk":1,"updated_at":"2026-02-24T04:14:34.548474+05:30"},{"city":"Coimbatore","state":"Tamil Nadu","latitude":11.0168,"longitude":76.9558,"temp":22.9,"humidity":87,"rain":0.0,"pressure":959.9,"uv_index":8.9,"aqi":85,"mosquito_risk":3,"arthritis_risk":5,"migraine_risk":7,"frizz_risk":1,"updated_at":"2026-02-24T04:14:34.548507+05:30"},{"city":"Madurai","state":"Tamil Nadu","latitude":9.9252,"longitude":78.1198,"temp":24.6,"humidity":92,"rain":0.0,"pressure":991.7,"uv_index":8.9,"aqi":65,"mosquito_risk":3,"arthritis_risk":5,"migraine_risk":7,"frizz_risk":1,"updated_at":"2026-02-24T04:14:34.548518+05:30"},{"city":"Trichy","state":"Tamil Nadu","latitude":10.7905,"longitude":78.7047,"temp":24.2,"humidity":94,"rain":0.0,"pressure":998.8,"uv_index":8.8,"aqi":56,"mosquito_risk":3,"arthritis_risk":5,"migraine_risk":7,"frizz_risk":1,"updated_at":"2026-02-24T04:14:34.548526+05:30"},{"city":"Salem","state":"Tamil Nadu","latitude":11.6643,"longitude":78.146,"temp":23.2,"humidity":89,"rain":0.0,"pressure":975.8,"uv_index":8.75,"aqi":68,"mosquito_risk":3,"arthritis_risk":5,"migraine_risk":7,"frizz_risk":1,"updated_at":"2026-02-24T04:14:34.548534+05:30"},{"city":"Tirunelveli","state":"Tamil Nadu","latitude":8.7139,"longitude":77.7567,"temp":24.9,"humidity":93,"rain":0.0,"pressure":1001.7,"uv_index":8.95,"aqi":66,"mosquito_risk":3,"arthritis_risk":5,"migraine_risk":4,"frizz_risk":1,"updated_at":"2026-02-24T04:14:34.548542+05:30"},{"city":"Vellore","state":"Tamil Nadu","latitude":12.9165,"longitude":79.1325,"temp":20.6,"humidity":97,"rain":0.0,"pressure":983.8,"uv_index":8.6,"aqi":66,"mosquito_risk":3,"arthritis_risk":5,"migraine_risk":7,"frizz_risk":1,"updated_at":"2026-02-24T04:14:34.548550+05:30"},{"city":"Erode","state":"Tamil Nadu","latitude":11.341,"longitude":77.7172,"temp":24.9,"humidity":89,"rain":0.0,"pressure":987.8,"uv_index":8.8,"aqi":62,"mosquito_risk":3,"arthritis_risk":5,"migraine_risk":7,"frizz_risk":1,"updated_at":"2026-02-24T04:14:34.548558+05:30"},{"city":"Kochi","state":"Kerala","latitude":9.9312,"longitude":76.2673,"temp":27.2,"humidity":84,"rain":0.0,"pressure":1006.3,"uv_index":8.65,"aqi":96,"mosquito_risk":7,"arthritis_risk":5,"migraine_risk":4,"frizz_risk":1,"updated_at":"2026-02-24T04:14:34.548567+05:30"},{"city":"Thiruvananthapuram","state":"Kerala","latitude":8.5241,"longitude":76.9366,"temp":27.6,"humidity":81,"rain":0.0,"pressure":1005.4,"uv_index":8.45,"aqi":66,"mosquito_risk":7,"arthritis_risk":5,"migraine_risk":4,"frizz_risk":1,"updated_at":"2026-02-24T04:14:34.548576+05:30"},{"city":"Kozhikode","state":"Kerala","latitude":11.2588,"longitude":75.7804,"temp":27.2,"humidity":86,"rain":0.0,"pressure":1005.5,"uv_index":8.6,"aqi":54,"mosquito_risk":7,"arthritis_risk":5,"migraine_risk":4,"frizz_risk":1,"updated_at":"2026-02-24T04:14:34.548583+05:30"},{"city":"Thrissur","state":"Kerala","latitude":10.5276,"longitude":76.2144,"temp":25.6,"humidity":93,"rain":0.0,"pressure":1004.7,"uv_index":8.7,"aqi":86,"mosquito_risk":7,"arthritis_risk":5,"migraine_risk":4,"frizz_risk":1,"updated_at":"2026-02-24T04:14:34.548591+05:30"},{"city":"Kannur","state":"Kerala","latitude":11.8745,"longitude":75.3704,"temp":27.1,"humidity":86,"rain":0.0,"pressure":1004.7,"uv_index":8.55,"aqi":87,"mosquito_risk":7,"arthritis_risk":5,"migraine_risk":4,"frizz_risk":1,"updated_at":"2026-02-24T04:14:34.548599+05:30"},{"city":"Patna","state":"Bihar","latitude":25.5941,"longitude":85.1376,"temp":18.3,"humidity":73,"rain":0.0,"pressure":1004.0,"uv_index":6.7,"aqi":162,"mosquito_risk":3,"arthritis_risk":5,"migraine_risk":4,"frizz_risk":0,"updated_at":"2026-02-24T04:14:34.548606+05:30"},{"city":"Gaya","state":"Bihar","latitude":24.7914,"longitude":85.0002,"temp":16.2,"humidity":91,"rain":0.0,"pressure":997.1,"uv_index":6.8,"aqi":154,"mosquito_risk":3,"arthritis_risk":10,"migraine_risk":7,"frizz_risk":0,"updated_at":"2026-02-24T04:14:34.548614+05:30"},{"city":"Muzaffarpur","state":"Bihar","latitude":26.1209,"longitude":85.3647,"temp":14.9,"humidity":86,"rain":0.0,"pressure":1004.1,"uv_index":6.65,"aqi":162,"mosquito_risk":3,"arthritis_risk":10,"migraine_risk":4,"frizz_risk":0,"updated_at":"2026-02-24T04:14:34.548622+05:30"},{"city":"Bhagalpur","state":"Bihar","latitude":25.2425,"longitude":87.0117,"temp":17.0,"humidity":83,"rain":0.0,"pressure":1005.1,"uv_index":6.75,"aqi":158,"mosquito_risk":3,"arthritis_risk":10,"migraine_risk":4,"frizz_risk":0,"updated_at":"2026-02-24T04:14:34.548629+05:30"},{"city":"Ranchi","state":"Jharkhand","latitude":23.3441,"longitude":85.3096,"temp":15.8,"humidity":73,"rain":0.0,"pressure":938.4,"uv_index":7.45,"aqi":135,"mosquito_risk":3,"arthritis_risk":5,"migraine_risk":7,"frizz_risk":0,"updated_at":"2026-02-24T04:14:34.548637+05:30"},{"city":"Jamshedpur","state":"Jharkhand","latitude":22.8046,"longitude":86.2029,"temp":20.2,"humidity":87,"rain":0.0,"pressure":993.5,"uv_index":7.35,"aqi":159,"mosquito_risk":3,"arthritis_risk":5,"migraine_risk":7,"frizz_risk":1,"updated_at":"2026-02-24T04:14:34.548645+05:30"},{"city":"Dhanbad","state":"Jharkhand","latitude":23.7957,"longitude":86.4304,"temp":20.0,"humidity":69,"rain":0.0,"pressure":982.5,"uv_index":7.25,"aqi":159,"mosquito_risk":3,"arthritis_risk":5,"migraine_risk":7,"frizz_risk":0,"updated_at":"2026-02-24T04:14:34.548652+05:30"},{"city":"Bokaro","state":"Jharkhand","latitude":23.6693,"longitude":86.1511,"temp":19.5,"humidity":70,"rain":0.0,"pressure":986.8,"uv_index":7.25,"aqi":159,"mosquito_risk":3,"arthritis_risk":5,"migraine_risk":7,"frizz_risk":0,"updated_at":"2026-02-24T04:14:34.548660+05:30"},{"city":"Bhubaneswar","state":"Odisha","latitude":20.2961,"longitude":85.8245,"temp":23.2,"humidity":94,"rain":0.0,"pressure":1004.1,"uv_index":7.75,"aqi":89,"mosquito_risk":3,"arthritis_risk":5,"migraine_risk":4,"frizz_risk":1,"updated_at":"2026-02-24T04:14:34.548667+05:30"},{"city":"Cuttack","state":"Odisha","latitude":20.4625,"longitude":85.8828,"temp":23.2,"humidity":92,"rain":0.0,"pressure":1006.1,"uv_index":7.75,"aqi":89,"mosquito_risk":3,"arthritis_risk":5,"migraine_risk":4,"frizz_risk":1,"updated_at":"2026-02-24T04:14:34.548675+05:30"},{"city":"Rourkela","state":"Odisha","latitude":22.2604,"longitude":84.8536,"temp":20.9,"humidity":74,"rain":0.0,"pressure":986.7,"uv_index":7.3,"aqi":130,"mosquito_risk":3,"arthritis_risk":5,"migraine_risk":7,"frizz_risk":1,"updated_at":"2026-02-24T04:14:34.548682+05:30"},{"city":"Raipur","state":"Chhattisgarh","latitude":21.2514,"longitude":81.6296,"temp":19.0,"humidity":84,"rain":0.0,"pressure":975.7,"uv_index":7.45,"aqi":172,"mosquito_risk":3,"arthritis_risk":10,"migraine_risk":7,"frizz_risk":1,"updated_at":"2026-02-24T04:14:34.548689+05:30"},{"city":"Bhilai","state":"Chhattisgarh","latitude":21.1938,"longitude":81.3509,"temp":18.4,"humidity":89,"rain":0.0,"pressure":976.1,"uv_index":7.45,"aqi":174,"mosquito_risk":3,"arthritis_risk":10,"migraine_risk":7,"frizz_risk":1,"updated_at":"2026-02-24T04:14:34.548696+05:30"},{"city":"Guwahati","state":"Assam","latitude":26.1158,"longitude":91.7086,"temp":20.9,"humidity":90,"rain":0.0,"pressure":1005.0,"uv_index":6.7,"aqi":143,"mosquito_risk":3,"arthritis_risk":5,"migraine_risk":4,"frizz_risk":1,"updated_at":"2026-02-24T04:14:34.548704+05:30"},{"city":"Agartala","state":"Tripura","latitude":23.8315,"longitude":91.2868,"temp":18.1,"humidity":87,"rain":0.0,"pressure":1008.3,"uv_index":7.1,"aqi":169,"mosquito_risk":3,"arthritis_risk":5,"migraine_risk":4,"frizz_risk":0,"updated_at":"2026-02-24T04:14:34.548711+05:30"},{"city":"Shillong","state":"Meghalaya","latitude":25.5788,"longitude":91.8933,"temp":8.1,"humidity":69,"rain":0.0,"pressure":854.1,"uv_index":7.05,"aqi":151,"mosquito_risk":3,"arthritis_risk":5,"migraine_risk":7,"frizz_risk":0,"updated_at":"2026-02-24T04:14:34.548718+05:30"},{"city":"Imphal","state":"Manipur","latitude":24.817,"longitude":93.9368,"temp":12.6,"humidity":70,"rain":0.0,"pressure":923.9,"uv_index":7.2,"aqi":156,"mosquito_risk":3,"arthritis_risk":5,"migraine_risk":7,"frizz_risk":0,"updated_at":"2026-02-24T04:14:34.548725+05:30"},{"city":"Aizawl","state":"Mizoram","latitude":23.7271,"longitude":92.7176,"temp":12.2,"humidity":73,"rain":0.0,"pressure":891.9,"uv_index":7.15,"aqi":150,"mosquito_risk":3,"arthritis_risk":5,"migraine_risk":7,"frizz_risk":0,"updated_at":"2026-02-24T04:14:34.548732+05:30"},{"city":"Kohima","state":"Nagaland","latitude":25.6701,"longitude":94.1077,"temp":10.9,"humidity":80,"rain":0.0,"pressure":854.2,"uv_index":7.1,"aqi":136,"mosquito_risk":3,"arthritis_risk":5,"migraine_risk":7,"frizz_risk":0,"updated_at":"2026-02-24T04:14:34.548739+05:30"},{"city":"Gangtok","state":"Sikkim","latitude":27.3314,"longitude":88.6138,"temp":9.1,"humidity":71,"rain":0.0,"pressure":835.7,"uv_index":6.95,"aqi":134,"mosquito_risk":3,"arthritis_risk":5,"migraine_risk":7,"frizz_risk":0,"updated_at":"2026-02-24T04:14:34.548746+05:30"},{"city":"Siliguri","state":"West Bengal","latitude":26.7271,"longitude":88.3953,"temp":18.7,"humidity":67,"rain":0.0,"pressure":997.1,"uv_index":6.7,"aqi":158,"mosquito_risk":3,"arthritis_risk":5,"migraine_risk":7,"frizz_risk":0,"updated_at":"2026-02-24T04:14:37.873460+05:30"},{"city":"Durgapur","state":"West Bengal","latitude":23.5204,"longitude":87.3119,"temp":20.4,"humidity":80,"rain":0.0,"pressure":998.3,"uv_index":7.2,"aqi":155,"mosquito_risk":3,"arthritis_risk":5,"migraine_risk":7,"frizz_risk":1,"updated_at":"2026-02-24T04:14:37.873493+05:30"},{"city":"Asansol","state":"West Bengal","latitude":23.6739,"longitude":86.9524,"temp":20.2,"humidity":76,"rain":0.0,"pressure":996.9,"uv_index":7.25,"aqi":151,"mosquito_risk":3,"arthritis_risk":5,"migraine_risk":7,"frizz_risk":0,"updated_at":"2026-02-24T04:14:37.873503+05:30"},{"city":"Pondicherry","state":"Puducherry","latitude":11.9139,"longitude":79.8145,"temp":23.8,"humidity":95,"rain":0.0,"pressure":1007.4,"uv_index":7.5,"aqi":33,"mosquito_risk":3,"arthritis_risk":5,"migraine_risk":4,"frizz_risk":1,"updated_at":"2026-02-24T04:14:37.873512+05:30"},{"city":"Port Blair","state":"Andaman and Nicobar Islands","latitude":11.6234,"longitude":92.7265,"temp":26.9,"humidity":82,"rain":0.0,"pressure":1005.2,"uv_index":7.3,"aqi":66,"mosquito_risk":7,"arthritis_risk":5,"migraine_risk":4,"frizz_risk":1,"updated_at":"2026-02-24T04:14:37.873520+05:30"},{"city":"Haridwar","state":"Uttarakhand","latitude":29.9457,"longitude":78.1642,"temp":15.4,"humidity":87,"rain":0.0,"pressure":976.4,"uv_index":5.2,"aqi":143,"mosquito_risk":3,"arthritis_risk":10,"migraine_risk":3,"frizz_risk":0,"updated_at":"2026-02-24T04:14:37.873527+05:30"},{"city":"Rishikesh","state":"Uttarakhand","latitude":30.0869,"longitude":78.2676,"temp":15.8,"humidity":76,"rain":0.0,"pressure":969.0,"uv_index":5.25,"aqi":118,"mosquito_risk":3,"arthritis_risk":5,"migraine_risk":3,"frizz_risk":0,"updated_at":"2026-02-24T04:14:37.873534+05:30"},{"city":"Nainital","state":"Uttarakhand","latitude":29.3919,"longitude":79.4542,"temp":12.3,"humidity":72,"rain":0.0,"pressure":804.0,"uv_index":6.05,"aqi":130,"mosquito_risk":3,"arthritis_risk":5,"migraine_risk":7,"frizz_risk":0,"updated_at":"2026-02-24T04:14:37.873541+05:30"},{"city":"Mussoorie","state":"Uttarakhand","latitude":30.4599,"longitude":78.0664,"temp":10.5,"humidity":71,"rain":0.0,"pressure":800.2,"uv_index":5.6,"aqi":122,"mosquito_risk":3,"arthritis_risk":5,"migraine_risk":3,"frizz_risk":0,"updated_at":"2026-02-24T04:14:37.873547+05:30"},{"city":"Dharamshala","state":"Himachal Pradesh","latitude":32.219,"longitude":76.3234,"temp":14.4,"humidity":55,"rain":0.0,"pressure":867.9,"uv_index":5.85,"aqi":69,"mosquito_risk":0,"arthritis_risk":5,"migraine_risk":3,"frizz_risk":0,"updated_at":"2026-02-24T04:14:37.873554+05:30"},{"city":"Dalhousie","state":"Himachal Pradesh","latitude":32.5387,"longitude":75.971,"temp":10.6,"humidity":60,"rain":0.0,"pressure":800.9,"uv_index":6.05,"aqi":136,"mosquito_risk":0,"arthritis_risk":5,"migraine_risk":7,"frizz_risk":0,"updated_at":"2026-02-24T04:14:37.873562+05:30"},{"city":"Patiala","state":"Punjab","latitude":30.3398,"longitude":76.3869,"temp":13.9,"humidity":90,"rain":0.0,"pressure":980.4,"uv_index":5.3,"aqi":181,"mosquito_risk":3,"arthritis_risk":10,"migraine_risk":3,"frizz_risk":0,"updated_at":"2026-02-24T04:14:37.873575+05:30"},{"city":"Bhatinda","state":"Punjab","latitude":30.211,"longitude":74.9455,"temp":14.8,"humidity":88,"rain":0.0,"pressure":986.1,"uv_index":5.95,"aqi":160,"mosquito_risk":3,"arthritis_risk":10,"migraine_risk":3,"frizz_risk":0,"updated_at":"2026-02-24T04:14:37.873582+05:30"},{"city":"Rohtak","state":"Haryana","latitude":28.8955,"longitude":76.6066,"temp":14.1,"humidity":95,"rain":0.0,"pressure":984.3,"uv_index":5.5,"aqi":166,"mosquito_risk":3,"arthritis_risk":10,"migraine_risk":3,"frizz_risk":0,"updated_at":"2026-02-24T04:14:37.873589+05:30"},{"city":"Panipat","state":"Haryana","latitude":29.3909,"longitude":76.9635,"temp":14.0,"humidity":91,"rain":0.0,"pressure":983.0,"uv_index":5.3,"aqi":168,"mosquito_risk":3,"arthritis_risk":10,"migraine_risk":3,"frizz_risk":0,"updated_at":"2026-02-24T04:14:37.873595+05:30"},{"city":"Mathura","state":"Uttar Pradesh","latitude":27.4924,"longitude":77.6737,"temp":14.5,"humidity":90,"rain":0.0,"pressure":989.5,"uv_index":5.75,"aqi":164,"mosquito_risk":3,"arthritis_risk":10,"migraine_risk":3,"frizz_risk":0,"updated_at":"2026-02-24T04:14:37.873602+05:30"},{"city":"Vrindavan","state":"Uttar Pradesh","latitude":27.5823,"longitude":77.7027,"temp":14.8,"humidity":89,"rain":0.0,"pressure":990.0,"uv_index":5.7,"aqi":164,"mosquito_risk":3,"arthritis_risk":10,"migraine_risk":3,"frizz_risk":0,"updated_at":"2026-02-24T04:14:37.873608+05:30"},{"city":"Ayodhya","state":"Uttar Pradesh","latitude":26.7922,"longitude":82.1998,"temp":14.8,"humidity":88,"rain":0.0,"pressure":998.5,"uv_index":6.05,"aqi":160,"mosquito_risk":3,"arthritis_risk":10,"migraine_risk":7,"frizz_risk":0,"updated_at":"2026-02-24T04:14:37.873614+05:30"},{"city":"Ratlam","state":"Madhya Pradesh","latitude":23.3315,"longitude":75.0367,"temp":14.1,"humidity":87,"rain":0.0,"pressure":953.8,"uv_index":7.05,"aqi":82,"mosquito_risk":3,"arthritis_risk":10,"migraine_risk":7,"frizz_risk":0,"updated_at":"2026-02-24T04:14:37.873621+05:30"},{"city":"Sagar","state":"Madhya Pradesh","latitude":23.8388,"longitude":78.7378,"temp":17.9,"humidity":74,"rain":0.0,"pressure":950.7,"uv_index":6.9,"aqi":109,"mosquito_risk":3,"arthritis_risk":5,"migraine_risk":7,"frizz_risk":0,"updated_at":"2026-02-24T04:14:37.873627+05:30"},{"city":"Satna","state":"Madhya Pradesh","latitude":24.6005,"longitude":80.8322,"temp":16.6,"humidity":83,"rain":0.0,"pressure":973.2,"uv_index":6.85,"aqi":127,"mosquito_risk":3,"arthritis_risk":10,"migraine_risk":7,"frizz_risk":0,"updated_at":"2026-02-24T04:14:37.873634+05:30"},{"city":"Akola","state":"Maharashtra","latitude":20.7002,"longitude":77.0082,"temp":20.1,"humidity":65,"rain":0.0,"pressure":975.1,"uv_index":6.75,"aqi":120,"mosquito_risk":3,"arthritis_risk":5,"migraine_risk":7,"frizz_risk":0,"updated_at":"2026-02-24T04:14:37.873641+05:30"},{"city":"Amravati","state":"Maharashtra","latitude":20.9374,"longitude":77.7796,"temp":21.5,"humidity":77,"rain":0.0,"pressure":967.5,"uv_index":7.25,"aqi":135,"mosquito_risk":3,"arthritis_risk":5,"migraine_risk":7,"frizz_risk":1,"updated_at":"2026-02-24T04:14:37.873648+05:30"},{"city":"Latur","state":"Maharashtra","latitude":18.4088,"longitude":76.5604,"temp":19.8,"humidity":89,"rain":0.0,"pressure":938.3,"uv_index":7.75,"aqi":147,"mosquito_risk":3,"arthritis_risk":10,"migraine_risk":7,"frizz_risk":1,"updated_at":"2026-02-24T04:14:37.873654+05:30"},{"city":"Nanded","state":"Maharashtra","latitude":19.1383,"longitude":77.3091,"temp":21.2,"humidity":89,"rain":0.0,"pressure":968.5,"uv_index":7.65,"aqi":150,"mosquito_risk":3,"arthritis_risk":5,"migraine_risk":7,"frizz_risk":1,"updated_at":"2026-02-24T04:14:37.873661+05:30"},{"city":"Gulbarga","state":"Karnataka","latitude":17.3297,"longitude":76.8343,"temp":21.5,"humidity":80,"rain":0.0,"pressure":958.0,"uv_index":8.0,"aqi":108,"mosquito_risk":3,"arthritis_risk":5,"migraine_risk":7,"frizz_risk":1,"updated_at":"2026-02-24T04:14:37.873668+05:30"},{"city":"Bidar","state":"Karnataka","latitude":17.9104,"longitude":77.5199,"temp":21.0,"humidity":83,"rain":0.0,"pressure":934.2,"uv_index":7.9,"aqi":148,"mosquito_risk":3,"arthritis_risk":5,"migraine_risk":7,"frizz_risk":1,"updated_at":"2026-02-24T04:14:37.873674+05:30"},{"city":"Hospet","state":"Karnataka","latitude":15.2689,"longitude":76.3909,"temp":24.0,"humidity":64,"rain":0.0,"pressure":954.3,"uv_index":8.35,"aqi":75,"mosquito_risk":3,"arthritis_risk":5,"migraine_risk":7,"frizz_risk":1,"updated_at":"2026-02-24T04:14:37.873680+05:30"},{"city":"Tirupur","state":"Tamil Nadu","latitude":11.1085,"longitude":77.3411,"temp":24.1,"humidity":87,"rain":0.0,"pressure":973.8,"uv_index":8.9,"aqi":78,"mosquito_risk":3,"arthritis_risk":5,"migraine_risk":7,"frizz_risk":1,"updated_at":"2026-02-24T04:14:37.873686+05:30"},{"city":"Alappuzha","state":"Kerala","latitude":9.4981,"longitude":76.3388,"temp":27.2,"humidity":85,"rain":0.0,"pressure":1006.3,"uv_index":8.65,"aqi":85,"mosquito_risk":7,"arthritis_risk":5,"migraine_risk":4,"frizz_risk":1,"updated_at":"2026-02-24T04:14:37.873693+05:30"},{"city":"Munnar","state":"Kerala","latitude":10.0889,"longitude":77.0595,"temp":17.5,"humidity":89,"rain":0.0,"pressure":853.1,"uv_index":8.15,"aqi":72,"mosquito_risk":3,"arthritis_risk":10,"migraine_risk":7,"frizz_risk":0,"updated_at":"2026-02-24T04:14:37.873700+05:30"},{"city":"Silchar","state":"Assam","latitude":24.8333,"longitude":92.7789,"temp":16.6,"humidity":87,"rain":0.0,"pressure":1008.0,"uv_index":6.9,"aqi":158,"mosquito_risk":3,"arthritis_risk":5,"migraine_risk":4,"frizz_risk":0,"updated_at":"2026-02-24T04:14:37.873707+05:30"},{"city":"Dibrugarh","state":"Assam","latitude":27.4728,"longitude":94.912,"temp":19.1,"humidity":85,"rain":0.0,"pressure":999.6,"uv_index":6.75,"aqi":136,"mosquito_risk":3,"arthritis_risk":10,"migraine_risk":7,"frizz_risk":1,"updated_at":"2026-02-24T04:14:37.873714+05:30"}]