[{"city":"Delhi","state":"Delhi","latitude":28.6139,"longitude":77.209,"temp":35.3,"humidity":19,"rain":0.0,"pressure":978.6,"uv_index":7.7,"wind_gusts":47.5,"aqi":478,"pm10":817.7,"pm2_5":160.7,"no2":32.9,"co":500.0,"o3":69.0,"so2":18.0,"mosquito_risk":0,"arthritis_risk":5,"migraine_risk":10,"frizz_risk":0,"updated_at":"2026-05-26T23:58:43.474095+05:30"},{"city":"Mumbai","state":"Maharashtra","latitude":19.076,"longitude":72.8777,"temp":30.5,"humidity":71,"rain":0.0,"pressure":1009.6,"uv_index":7.8,"wind_gusts":38.2,"aqi":41,"pm10":14.3,"pm2_5":9.9,"no2":7.4,"co":246.0,"o3":43.0,"so2":5.0,"mosquito_risk":3,"arthritis_risk":0,"migraine_risk":4,"frizz_risk":1,"updated_at":"2026-05-26T23:58:43.474152+05:30"},{"city":"Bangalore","state":"Karnataka","latitude":12.9716,"longitude":77.5946,"temp":21.4,"humidity":98,"rain":0.0,"pressure":913.2,"uv_index":9.3,"wind_gusts":45.7,"aqi":83,"pm10":39.3,"pm2_5":36.1,"no2":50.7,"co":871.0,"o3":34.0,"so2":10.9,"mosquito_risk":3,"arthritis_risk":5,"migraine_risk":7,"frizz_risk":1,"updated_at":"2026-05-26T23:58:43.474170+05:30"},{"city":"Hyderabad","state":"Telangana","latitude":17.385,"longitude":78.4867,"temp":30.0,"humidity":59,"rain":0.0,"pressure":953.6,"uv_index":9.15,"wind_gusts":39.2,"aqi":95,"pm10":97.1,"pm2_5":75.7,"no2":68.7,"co":581.0,"o3":21.0,"so2":17.6,"mosquito_risk":4,"arthritis_risk":5,"migraine_risk":7,"frizz_risk":1,"updated_at":"2026-05-26T23:58:43.474181+05:30"},{"city":"Chennai","state":"Tamil Nadu","latitude":13.0827,"longitude":80.2707,"temp":30.2,"humidity":69,"rain":0.0,"pressure":1007.1,"uv_index":9.05,"wind_gusts":43.2,"aqi":113,"pm10":27.5,"pm2_5":22.5,"no2":12.9,"co":206.0,"o3":85.0,"so2":8.8,"mosquito_risk":3,"arthritis_risk":5,"migraine_risk":4,"frizz_risk":1,"updated_at":"2026-05-26T23:58:43.474191+05:30"},{"city":"Kolkata","state":"West Bengal","latitude":22.5726,"longitude":88.3639,"temp":29.4,"humidity":87,"rain":0.0,"pressure":1003.4,"uv_index":8.95,"wind_gusts":39.2,"aqi":118,"pm10":44.8,"pm2_5":37.7,"no2":5.6,"co":270.0,"o3":89.0,"so2":5.2,"mosquito_risk":7,"arthritis_risk":5,"migraine_risk":4,"frizz_risk":1,"updated_at":"2026-05-26T23:58:43.474200+05:30"},{"city":"Pune","state":"Maharashtra","latitude":18.5204,"longitude":73.8567,"temp":25.5,"humidity":85,"rain":0.0,"pressure":949.5,"uv_index":8.15,"wind_gusts":36.7,"aqi":46,"pm10":13.0,"pm2_5":10.2,"no2":11.2,"co":194.0,"o3":47.0,"so2":11.5,"mosquito_risk":7,"arthritis_risk":5,"migraine_risk":7,"frizz_risk":1,"updated_at":"2026-05-26T23:58:43.474207+05:30"},{"city":"Ahmedabad","state":"Gujarat","latitude":23.0225,"longitude":72.5714,"temp":32.0,"humidity":69,"rain":0.0,"pressure":1000.9,"uv_index":8.15,"wind_gusts":36.4,"aqi":85,"pm10":35.7,"pm2_5":19.7,"no2":6.9,"co":195.0,"o3":66.0,"so2":5.8,"mosquito_risk":3,"arthritis_risk":5,"migraine_risk":4,"frizz_risk":1,"updated_at":"2026-05-26T23:58:43.474216+05:30"},{"city":"Jaipur","state":"Rajasthan","latitude":26.9124,"longitude":75.7873,"temp":34.8,"humidity":23,"rain":0.0,"pressure":957.2,"uv_index":8.25,"wind_gusts":36.7,"aqi":167,"pm10":269.2,"pm2_5":56.8,"no2":9.6,"co":196.0,"o3":69.0,"so2":5.6,"mosquito_risk":0,"arthritis_risk":5,"migraine_risk":7,"frizz_risk":0,"updated_at":"2026-05-26T23:58:43.474233+05:30"},{"city":"Lucknow","state":"Uttar Pradesh","latitude":26.8467,"longitude":80.9462,"temp":32.7,"humidity":30,"rain":0.0,"pressure":988.7,"uv_index":8.2,"wind_gusts":49.0,"aqi":173,"pm10":444.2,"pm2_5":98.3,"no2":21.8,"co":456.0,"o3":83.0,"so2":11.1,"mosquito_risk":0,"arthritis_risk":5,"migraine_risk":7,"frizz_risk":0,"updated_at":"2026-05-26T23:58:43.474242+05:30"},{"city":"Kanpur","state":"Uttar Pradesh","latitude":26.4499,"longitude":80.3319,"temp":34.0,"humidity":29,"rain":0.0,"pressure":987.2,"uv_index":8.2,"wind_gusts":54.4,"aqi":424,"pm10":717.1,"pm2_5":133.6,"no2":19.4,"co":462.0,"o3":83.0,"so2":10.5,"mosquito_risk":0,"arthritis_risk":5,"migraine_risk":7,"frizz_risk":0,"updated_at":"2026-05-26T23:58:43.474251+05:30"},{"city":"Chandigarh","state":"Chandigarh","latitude":30.7333,"longitude":76.7794,"temp":30.0,"humidity":21,"rain":0.0,"pressure":964.5,"uv_index":7.75,"wind_gusts":54.0,"aqi":81,"pm10":24.4,"pm2_5":20.8,"no2":23.8,"co":534.0,"o3":72.0,"so2":9.0,"mosquito_risk":4,"arthritis_risk":5,"migraine_risk":7,"frizz_risk":0,"updated_at":"2026-05-26T23:58:43.474260+05:30"},{"city":"Srinagar","state":"Jammu and Kashmir","latitude":34.0837,"longitude":74.7973,"temp":12.9,"humidity":88,"rain":0.0,"pressure":840.5,"uv_index":8.95,"wind_gusts":19.1,"aqi":78,"pm10":49.2,"pm2_5":43.0,"no2":38.9,"co":869.0,"o3":54.0,"so2":5.6,"mosquito_risk":3,"arthritis_risk":10,"migraine_risk":7,"frizz_risk":0,"updated_at":"2026-05-26T23:58:43.474269+05:30"},{"city":"Jammu","state":"Jammu and Kashmir","latitude":32.7266,"longitude":74.857,"temp":28.2,"humidity":34,"rain":0.0,"pressure":968.8,"uv_index":8.5,"wind_gusts":40.3,"aqi":66,"pm10":34.7,"pm2_5":30.0,"no2":39.0,"co":599.0,"o3":29.0,"so2":4.8,"mosquito_risk":4,"arthritis_risk":5,"migraine_risk":7,"frizz_risk":0,"updated_at":"2026-05-26T23:58:43.474277+05:30"},{"city":"Amritsar","state":"Punjab","latitude":31.634,"longitude":74.8723,"temp":31.0,"humidity":29,"rain":0.0,"pressure":976.5,"uv_index":8.4,"wind_gusts":33.8,"aqi":81,"pm10":70.5,"pm2_5":61.9,"no2":70.7,"co":575.0,"o3":30.0,"so2":15.7,"mosquito_risk":0,"arthritis_risk":5,"migraine_risk":7,"frizz_risk":0,"updated_at":"2026-05-26T23:58:43.474284+05:30"},{"city":"Ludhiana","state":"Punjab","latitude":30.901,"longitude":75.8573,"temp":30.8,"humidity":27,"rain":0.0,"pressure":974.7,"uv_index":8.0,"wind_gusts":47.9,"aqi":69,"pm10":38.3,"pm2_5":32.2,"no2":23.5,"co":563.0,"o3":71.0,"so2":7.8,"mosquito_risk":0,"arthritis_risk":5,"migraine_risk":7,"frizz_risk":0,"updated_at":"2026-05-26T23:58:43.474292+05:30"},{"city":"Jalandhar","state":"Punjab","latitude":31.326,"longitude":75.5762,"temp":30.7,"humidity":26,"rain":0.0,"pressure":975.5,"uv_index":8.2,"wind_gusts":42.5,"aqi":76,"pm10":59.3,"pm2_5":46.1,"no2":35.8,"co":509.0,"o3":63.0,"so2":9.7,"mosquito_risk":0,"arthritis_risk":5,"migraine_risk":7,"frizz_risk":0,"updated_at":"2026-05-26T23:58:43.474300+05:30"},{"city":"Dehradun","state":"Uttarakhand","latitude":30.6284,"longitude":78.0322,"temp":16.3,"humidity":46,"rain":0.0,"pressure":826.9,"uv_index":8.2,"wind_gusts":45.4,"aqi":82,"pm10":22.3,"pm2_5":14.7,"no2":32.3,"co":174.0,"o3":61.0,"so2":1.6,"mosquito_risk":0,"arthritis_risk":5,"migraine_risk":7,"frizz_risk":0,"updated_at":"2026-05-26T23:58:43.474307+05:30"},{"city":"Shimla","state":"Himachal Pradesh","latitude":31.1048,"longitude":77.1734,"temp":16.5,"humidity":31,"rain":0.0,"pressure":783.8,"uv_index":8.25,"wind_gusts":54.4,"aqi":95,"pm10":25.9,"pm2_5":14.6,"no2":20.0,"co":195.0,"o3":97.0,"so2":2.5,"mosquito_risk":0,"arthritis_risk":5,"migraine_risk":7,"frizz_risk":1,"updated_at":"2026-05-26T23:58:43.474317+05:30"},{"city":"Manali","state":"Himachal Pradesh","latitude":32.2396,"longitude":77.1887,"temp":11.3,"humidity":55,"rain":0.0,"pressure":815.0,"uv_index":9.95,"wind_gusts":45.7,"aqi":101,"pm10":21.4,"pm2_5":18.0,"no2":55.2,"co":293.0,"o3":84.0,"so2":0.5,"mosquito_risk":0,"arthritis_risk":5,"migraine_risk":7,"frizz_risk":0,"updated_at":"2026-05-26T23:58:43.474324+05:30"},{"city":"Gurgaon","state":"Haryana","latitude":28.4595,"longitude":77.0266,"temp":33.6,"humidity":22,"rain":0.0,"pressure":976.9,"uv_index":7.8,"wind_gusts":38.5,"aqi":1000,"pm10":596.0,"pm2_5":122.9,"no2":53.3,"co":613.0,"o3":55.0,"so2":29.0,"mosquito_risk":0,"arthritis_risk":5,"migraine_risk":7,"frizz_risk":0,"updated_at":"2026-05-26T23:58:43.474332+05:30"},{"city":"Noida","state":"Uttar Pradesh","latitude":28.5355,"longitude":77.391,"temp":34.2,"humidity":23,"rain":0.0,"pressure":979.7,"uv_index":7.75,"wind_gusts":43.6,"aqi":1000,"pm10":596.0,"pm2_5":122.9,"no2":53.3,"co":722.0,"o3":55.0,"so2":29.0,"mosquito_risk":0,"arthritis_risk":5,"migraine_risk":7,"frizz_risk":0,"updated_at":"2026-05-26T23:58:43.474341+05:30"},{"city":"Ghaziabad","state":"Uttar Pradesh","latitude":28.6692,"longitude":77.4538,"temp":33.0,"humidity":24,"rain":0.0,"pressure":978.0,"uv_index":7.7,"wind_gusts":42.8,"aqi":318,"pm10":676.1,"pm2_5":141.6,"no2":23.6,"co":408.0,"o3":78.0,"so2":16.6,"mosquito_risk":0,"arthritis_risk":5,"migraine_risk":7,"frizz_risk":0,"updated_at":"2026-05-26T23:58:43.474349+05:30"},{"city":"Faridabad","state":"Haryana","latitude":28.4089,"longitude":77.3178,"temp":35.7,"humidity":18,"rain":0.0,"pressure":979.2,"uv_index":7.75,"wind_gusts":47.2,"aqi":1000,"pm10":596.0,"pm2_5":122.9,"no2":53.3,"co":1052.0,"o3":55.0,"so2":29.0,"mosquito_risk":0,"arthritis_risk":5,"migraine_risk":10,"frizz_risk":0,"updated_at":"2026-05-26T23:58:43.474356+05:30"},{"city":"Meerut","state":"Uttar Pradesh","latitude":28.9845,"longitude":77.7064,"temp":33.5,"humidity":21,"rain":0.0,"pressure":976.9,"uv_index":7.65,"wind_gusts":47.5,"aqi":318,"pm10":676.1,"pm2_5":141.6,"no2":23.6,"co":303.0,"o3":78.0,"so2":16.6,"mosquito_risk":0,"arthritis_risk":5,"migraine_risk":7,"frizz_risk":0,"updated_at":"2026-05-26T23:58:43.474363+05:30"},{"city":"Agra","state":"Uttar Pradesh","latitude":27.1767,"longitude":78.0081,"temp":34.3,"humidity":23,"rain":0.0,"pressure":983.5,"uv_index":8.05,"wind_gusts":41.8,"aqi":951,"pm10":354.8,"pm2_5":105.0,"no2":56.6,"co":402.0,"o3":36.0,"so2":22.9,"mosquito_risk":0,"arthritis_risk":5,"migraine_risk":7,"frizz_risk":0,"updated_at":"2026-05-26T23:58:43.474371+05:30"},{"city":"Varanasi","state":"Uttar Pradesh","latitude":25.3176,"longitude":82.9739,"temp":33.0,"humidity":49,"rain":0.0,"pressure":993.1,"uv_index":8.75,"wind_gusts":36.0,"aqi":139,"pm10":95.7,"pm2_5":59.0,"no2":30.8,"co":515.0,"o3":62.0,"so2":15.8,"mosquito_risk":0,"arthritis_risk":5,"migraine_risk":7,"frizz_risk":1,"updated_at":"2026-05-26T23:58:43.474379+05:30"},{"city":"Prayagraj","state":"Uttar Pradesh","latitude":25.4358,"longitude":81.8463,"temp":32.5,"humidity":25,"rain":0.0,"pressure":991.7,"uv_index":8.6,"wind_gusts":52.2,"aqi":151,"pm10":148.1,"pm2_5":63.6,"no2":31.8,"co":441.0,"o3":72.0,"so2":14.6,"mosquito_risk":0,"arthritis_risk":5,"migraine_risk":7,"frizz_risk":0,"updated_at":"2026-05-26T23:58:43.474387+05:30"},{"city":"Gorakhpur","state":"Uttar Pradesh","latitude":26.7606,"longitude":83.3732,"temp":26.1,"humidity":68,"rain":0.0,"pressure":994.1,"uv_index":8.6,"wind_gusts":43.2,"aqi":128,"pm10":54.6,"pm2_5":34.6,"no2":10.1,"co":354.0,"o3":112.0,"so2":6.8,"mosquito_risk":7,"arthritis_risk":5,"migraine_risk":7,"frizz_risk":1,"updated_at":"2026-05-26T23:58:43.474396+05:30"},{"city":"Bareilly","state":"Uttar Pradesh","latitude":28.367,"longitude":79.4304,"temp":29.9,"humidity":32,"rain":0.0,"pressure":981.9,"uv_index":8.0,"wind_gusts":39.6,"aqi":151,"pm10":184.4,"pm2_5":59.5,"no2":25.4,"co":372.0,"o3":75.0,"so2":12.3,"mosquito_risk":4,"arthritis_risk":5,"migraine_risk":7,"frizz_risk":0,"updated_at":"2026-05-26T23:58:43.474404+05:30"},{"city":"Aligarh","state":"Uttar Pradesh","latitude":27.8974,"longitude":78.088,"temp":31.9,"humidity":29,"rain":0.0,"pressure":980.8,"uv_index":7.85,"wind_gusts":43.6,"aqi":677,"pm10":489.9,"pm2_5":120.1,"no2":47.3,"co":426.0,"o3":36.0,"so2":14.2,"mosquito_risk":0,"arthritis_risk":5,"migraine_risk":7,"frizz_risk":0,"updated_at":"2026-05-26T23:58:43.474411+05:30"},{"city":"Moradabad","state":"Uttar Pradesh","latitude":28.8386,"longitude":78.7733,"temp":31.8,"humidity":25,"rain":0.0,"pressure":978.7,"uv_index":7.85,"wind_gusts":41.8,"aqi":158,"pm10":280.3,"pm2_5":78.9,"no2":24.5,"co":305.0,"o3":66.0,"so2":10.8,"mosquito_risk":0,"arthritis_risk":5,"migraine_risk":7,"frizz_risk":0,"updated_at":"2026-05-26T23:58:43.474418+05:30"},{"city":"Saharanpur","state":"Uttar Pradesh","latitude":29.9637,"longitude":77.546,"temp":30.8,"humidity":21,"rain":0.0,"pressure":971.2,"uv_index":7.4,"wind_gusts":62.3,"aqi":103,"pm10":46.2,"pm2_5":20.6,"no2":12.3,"co":275.0,"o3":94.0,"so2":8.4,"mosquito_risk":0,"arthritis_risk":5,"migraine_risk":7,"frizz_risk":0,"updated_at":"2026-05-26T23:58:43.474427+05:30"},{"city":"Jhansi","state":"Uttar Pradesh","latitude":25.4484,"longitude":78.5685,"temp":33.2,"humidity":27,"rain":0.0,"pressure":974.4,"uv_index":8.45,"wind_gusts":43.9,"aqi":81,"pm10":85.4,"pm2_5":39.2,"no2":19.4,"co":217.0,"o3":61.0,"so2":8.1,"mosquito_risk":0,"arthritis_risk":5,"migraine_risk":7,"frizz_risk":0,"updated_at":"2026-05-26T23:58:46.729945+05:30"},{"city":"Surat","state":"Gujarat","latitude":21.1702,"longitude":72.8311,"temp":29.6,"humidity":80,"rain":0.0,"pressure":1007.3,"uv_index":7.75,"wind_gusts":43.6,"aqi":64,"pm10":37.1,"pm2_5":19.2,"no2":16.6,"co":225.0,"o3":37.0,"so2":27.8,"mosquito_risk":7,"arthritis_risk":5,"migraine_risk":4,"frizz_risk":1,"updated_at":"2026-05-26T23:58:46.729981+05:30"},{"city":"Vadodara","state":"Gujarat","latitude":22.3072,"longitude":73.1812,"temp":30.1,"humidity":76,"rain":0.0,"pressure":1003.6,"uv_index":8.1,"wind_gusts":40.3,"aqi":69,"pm10":31.5,"pm2_5":18.9,"no2":21.8,"co":257.0,"o3":27.0,"so2":23.8,"mosquito_risk":3,"arthritis_risk":5,"migraine_risk":4,"frizz_risk":1,"updated_at":"2026-05-26T23:58:46.729991+05:30"},{"city":"Rajkot","state":"Gujarat","latitude":22.3039,"longitude":70.8022,"temp":29.6,"humidity":70,"rain":0.0,"pressure":994.1,"uv_index":7.7,"wind_gusts":49.3,"aqi":69,"pm10":39.8,"pm2_5":19.3,"no2":5.3,"co":128.0,"o3":47.0,"so2":5.7,"mosquito_risk":7,"arthritis_risk":5,"migraine_risk":7,"frizz_risk":1,"updated_at":"2026-05-26T23:58:46.730000+05:30"},{"city":"Thane","state":"Maharashtra","latitude":19.2183,"longitude":72.9781,"temp":29.3,"humidity":82,"rain":0.0,"pressure":1008.9,"uv_index":7.85,"wind_gusts":31.0,"aqi":41,"pm10":14.3,"pm2_5":9.9,"no2":7.4,"co":378.0,"o3":43.0,"so2":5.0,"mosquito_risk":7,"arthritis_risk":0,"migraine_risk":4,"frizz_risk":1,"updated_at":"2026-05-26T23:58:46.730008+05:30"},{"city":"Nagpur","state":"Maharashtra","latitude":21.1458,"longitude":79.0882,"temp":35.8,"humidity":31,"rain":0.0,"pressure":970.9,"uv_index":8.9,"wind_gusts":41.0,"aqi":80,"pm10":48.1,"pm2_5":29.9,"no2":12.9,"co":344.0,"o3":75.0,"so2":9.4,"mosquito_risk":0,"arthritis_risk":5,"migraine_risk":10,"frizz_risk":1,"updated_at":"2026-05-26T23:58:46.730015+05:30"},{"city":"Nashik","state":"Maharashtra","latitude":19.9975,"longitude":73.7898,"temp":25.2,"humidity":89,"rain":0.0,"pressure":946.7,"uv_index":8.15,"wind_gusts":35.6,"aqi":29,"pm10":7.9,"pm2_5":5.9,"no2":5.0,"co":160.0,"o3":41.0,"so2":1.7,"mosquito_risk":7,"arthritis_risk":5,"migraine_risk":7,"frizz_risk":1,"updated_at":"2026-05-26T23:58:46.730023+05:30"},{"city":"Aurangabad","state":"Maharashtra","latitude":19.8762,"longitude":75.3433,"temp":30.4,"humidity":56,"rain":0.0,"pressure":944.8,"uv_index":9.05,"wind_gusts":37.4,"aqi":43,"pm10":11.1,"pm2_5":8.5,"no2":6.7,"co":180.0,"o3":56.0,"so2":4.3,"mosquito_risk":0,"arthritis_risk":5,"migraine_risk":7,"frizz_risk":1,"updated_at":"2026-05-26T23:58:46.730030+05:30"},{"city":"Solapur","state":"Maharashtra","latitude":17.6599,"longitude":75.9064,"temp":28.6,"humidity":69,"rain":0.0,"pressure":958.0,"uv_index":8.5,"wind_gusts":41.8,"aqi":51,"pm10":15.8,"pm2_5":13.1,"no2":10.1,"co":255.0,"o3":60.0,"so2":3.3,"mosquito_risk":7,"arthritis_risk":5,"migraine_risk":7,"frizz_risk":1,"updated_at":"2026-05-26T23:58:46.730038+05:30"},{"city":"Kolhapur","state":"Maharashtra","latitude":16.705,"longitude":74.2433,"temp":25.2,"humidity":89,"rain":0.0,"pressure":949.8,"uv_index":8.85,"wind_gusts":38.2,"aqi":32,"pm10":10.8,"pm2_5":9.1,"no2":8.2,"co":173.0,"o3":42.0,"so2":3.1,"mosquito_risk":7,"arthritis_risk":5,"migraine_risk":7,"frizz_risk":1,"updated_at":"2026-05-26T23:58:46.730045+05:30"},{"city":"Goa","state":"Goa","latitude":15.2993,"longitude":74.124,"temp":27.0,"humidity":93,"rain":0.0,"pressure":1000.3,"uv_index":6.7,"wind_gusts":28.1,"aqi":43,"pm10":18.0,"pm2_5":15.9,"no2":9.0,"co":451.0,"o3":39.0,"so2":2.2,"mosquito_risk":7,"arthritis_risk":5,"migraine_risk":4,"frizz_risk":1,"updated_at":"2026-05-26T23:58:46.730052+05:30"},{"city":"Jodhpur","state":"Rajasthan","latitude":26.2389,"longitude":73.0243,"temp":34.5,"humidity":34,"rain":0.0,"pressure":980.0,"uv_index":8.4,"wind_gusts":38.9,"aqi":164,"pm10":216.5,"pm2_5":49.0,"no2":7.8,"co":160.0,"o3":68.0,"so2":3.2,"mosquito_risk":0,"arthritis_risk":5,"migraine_risk":7,"frizz_risk":1,"updated_at":"2026-05-26T23:58:46.730060+05:30"},{"city":"Udaipur","state":"Rajasthan","latitude":24.5854,"longitude":73.7125,"temp":31.1,"humidity":40,"rain":0.0,"pressure":945.9,"uv_index":8.8,"wind_gusts":38.9,"aqi":90,"pm10":66.6,"pm2_5":25.4,"no2":3.5,"co":178.0,"o3":79.0,"so2":2.8,"mosquito_risk":0,"arthritis_risk":5,"migraine_risk":7,"frizz_risk":0,"updated_at":"2026-05-26T23:58:46.730067+05:30"},{"city":"Kota","state":"Rajasthan","latitude":25.2138,"longitude":75.8648,"temp":35.8,"humidity":26,"rain":0.0,"pressure":976.3,"uv_index":8.4,"wind_gusts":33.1,"aqi":95,"pm10":60.5,"pm2_5":32.7,"no2":6.5,"co":164.0,"o3":72.0,"so2":5.6,"mosquito_risk":0,"arthritis_risk":5,"migraine_risk":10,"frizz_risk":0,"updated_at":"2026-05-26T23:58:46.730075+05:30"},{"city":"Bikaner","state":"Rajasthan","latitude":28.0229,"longitude":73.3119,"temp":35.7,"humidity":21,"rain":0.0,"pressure":978.0,"uv_index":8.4,"wind_gusts":41.0,"aqi":154,"pm10":150.9,"pm2_5":56.8,"no2":3.7,"co":144.0,"o3":69.0,"so2":2.5,"mosquito_risk":0,"arthritis_risk":5,"migraine_risk":10,"frizz_risk":0,"updated_at":"2026-05-26T23:58:46.730082+05:30"},{"city":"Ajmer","state":"Rajasthan","latitude":26.4499,"longitude":74.6399,"temp":32.6,"humidity":34,"rain":0.0,"pressure":952.7,"uv_index":8.35,"wind_gusts":46.4,"aqi":95,"pm10":93.4,"pm2_5":30.2,"no2":5.7,"co":182.0,"o3":81.0,"so2":5.0,"mosquito_risk":0,"arthritis_risk":5,"migraine_risk":7,"frizz_risk":0,"updated_at":"2026-05-26T23:58:46.730089+05:30"},{"city":"Gwalior","state":"Madhya Pradesh","latitude":26.2183,"longitude":78.1828,"temp":35.5,"humidity":23,"rain":0.0,"pressure":979.4,"uv_index":8.25,"wind_gusts":47.2,"aqi":100,"pm10":149.0,"pm2_5":49.1,"no2":17.1,"co":223.0,"o3":76.0,"so2":8.7,"mosquito_risk":0,"arthritis_risk":5,"migraine_risk":10,"frizz_risk":0,"updated_at":"2026-05-26T23:58:46.730097+05:30"},{"city":"Indore","state":"Madhya Pradesh","latitude":22.7196,"longitude":75.8577,"temp":32.5,"humidity":37,"rain":0.0,"pressure":947.9,"uv_index":8.65,"wind_gusts":42.1,"aqi":68,"pm10":46.0,"pm2_5":28.3,"no2":6.1,"co":275.0,"o3":86.0,"so2":6.9,"mosquito_risk":0,"arthritis_risk":5,"migraine_risk":7,"frizz_risk":0,"updated_at":"2026-05-26T23:58:46.730104+05:30"},{"city":"Bhopal","state":"Madhya Pradesh","latitude":23.2599,"longitude":77.4126,"temp":34.2,"humidity":23,"rain":0.0,"pressure":952.3,"uv_index":8.7,"wind_gusts":39.2,"aqi":68,"pm10":39.7,"pm2_5":25.3,"no2":7.0,"co":243.0,"o3":64.0,"so2":4.4,"mosquito_risk":0,"arthritis_risk":5,"migraine_risk":7,"frizz_risk":0,"updated_at":"2026-05-26T23:58:46.730111+05:30"},{"city":"Jabalpur","state":"Madhya Pradesh","latitude":23.1815,"longitude":79.9864,"temp":32.7,"humidity":22,"rain":0.0,"pressure":959.1,"uv_index":8.85,"wind_gusts":42.5,"aqi":78,"pm10":71.9,"pm2_5":35.7,"no2":22.8,"co":367.0,"o3":61.0,"so2":6.7,"mosquito_risk":0,"arthritis_risk":5,"migraine_risk":7,"frizz_risk":0,"updated_at":"2026-05-26T23:58:46.730118+05:30"},{"city":"Ujjain","state":"Madhya Pradesh","latitude":23.1765,"longitude":75.7885,"temp":32.3,"humidity":38,"rain":0.0,"pressure":953.3,"uv_index":8.6,"wind_gusts":42.1,"aqi":71,"pm10":51.0,"pm2_5":30.7,"no2":4.3,"co":299.0,"o3":87.0,"so2":7.0,"mosquito_risk":0,"arthritis_risk":5,"migraine_risk":7,"frizz_risk":1,"updated_at":"2026-05-26T23:58:46.730126+05:30"},{"city":"Visakhapatnam","state":"Andhra Pradesh","latitude":17.6868,"longitude":83.2185,"temp":30.1,"humidity":85,"rain":0.0,"pressure":1001.9,"uv_index":9.0,"wind_gusts":40.7,"aqi":131,"pm10":55.2,"pm2_5":42.1,"no2":35.7,"co":344.0,"o3":98.0,"so2":55.5,"mosquito_risk":3,"arthritis_risk":5,"migraine_risk":4,"frizz_risk":1,"updated_at":"2026-05-26T23:58:46.730132+05:30"},{"city":"Vijayawada","state":"Andhra Pradesh","latitude":16.5062,"longitude":80.648,"temp":29.5,"humidity":74,"rain":0.0,"pressure":1001.0,"uv_index":9.1,"wind_gusts":41.0,"aqi":141,"pm10":72.4,"pm2_5":59.8,"no2":23.8,"co":267.0,"o3":65.0,"so2":8.4,"mosquito_risk":7,"arthritis_risk":5,"migraine_risk":4,"frizz_risk":1,"updated_at":"2026-05-26T23:58:46.730139+05:30"},{"city":"Guntur","state":"Andhra Pradesh","latitude":16.3067,"longitude":80.4365,"temp":28.0,"humidity":80,"rain":0.0,"pressure":1002.8,"uv_index":9.1,"wind_gusts":43.2,"aqi":135,"pm10":73.3,"pm2_5":60.1,"no2":26.1,"co":303.0,"o3":58.0,"so2":8.1,"mosquito_risk":7,"arthritis_risk":5,"migraine_risk":4,"frizz_risk":1,"updated_at":"2026-05-26T23:58:46.730145+05:30"},{"city":"Nellore","state":"Andhra Pradesh","latitude":14.4426,"longitude":79.9865,"temp":29.8,"humidity":69,"rain":0.0,"pressure":1005.5,"uv_index":9.05,"wind_gusts":42.1,"aqi":116,"pm10":28.3,"pm2_5":24.0,"no2":7.0,"co":383.0,"o3":103.0,"so2":5.6,"mosquito_risk":7,"arthritis_risk":5,"migraine_risk":4,"frizz_risk":1,"updated_at":"2026-05-26T23:58:46.730153+05:30"},{"city":"Kurnool","state":"Andhra Pradesh","latitude":15.8281,"longitude":78.0373,"temp":27.3,"humidity":79,"rain":0.0,"pressure":978.6,"uv_index":9.0,"wind_gusts":67.0,"aqi":75,"pm10":16.8,"pm2_5":14.5,"no2":8.4,"co":216.0,"o3":89.0,"so2":5.0,"mosquito_risk":7,"arthritis_risk":5,"migraine_risk":7,"frizz_risk":1,"updated_at":"2026-05-26T23:58:46.730161+05:30"},{"city":"Kakinada","state":"Andhra Pradesh","latitude":16.9891,"longitude":82.2475,"temp":32.2,"humidity":69,"rain":0.0,"pressure":1005.3,"uv_index":8.95,"wind_gusts":36.0,"aqi":133,"pm10":43.8,"pm2_5":32.7,"no2":7.1,"co":299.0,"o3":122.0,"so2":5.3,"mosquito_risk":3,"arthritis_risk":5,"migraine_risk":4,"frizz_risk":1,"updated_at":"2026-05-26T23:58:46.730167+05:30"},{"city":"Tirupati","state":"Andhra Pradesh","latitude":13.6288,"longitude":79.4192,"temp":27.7,"humidity":72,"rain":0.0,"pressure":991.8,"uv_index":9.1,"wind_gusts":29.9,"aqi":83,"pm10":35.0,"pm2_5":31.5,"no2":29.3,"co":233.0,"o3":40.0,"so2":4.6,"mosquito_risk":7,"arthritis_risk":5,"migraine_risk":7,"frizz_risk":1,"updated_at":"2026-05-26T23:58:46.730174+05:30"},{"city":"Warangal","state":"Telangana","latitude":17.9689,"longitude":79.5941,"temp":33.1,"humidity":47,"rain":0.0,"pressure":977.7,"uv_index":9.1,"wind_gusts":38.2,"aqi":110,"pm10":91.5,"pm2_5":68.5,"no2":33.5,"co":305.0,"o3":36.0,"so2":7.5,"mosquito_risk":0,"arthritis_risk":5,"migraine_risk":7,"frizz_risk":1,"updated_at":"2026-05-26T23:58:46.730180+05:30"},{"city":"Nizamabad","state":"Telangana","latitude":18.6725,"longitude":78.0941,"temp":32.5,"humidity":46,"rain":0.0,"pressure":964.3,"uv_index":9.1,"wind_gusts":34.9,"aqi":91,"pm10":68.7,"pm2_5":42.1,"no2":14.6,"co":502.0,"o3":72.0,"so2":5.8,"mosquito_risk":0,"arthritis_risk":5,"migraine_risk":7,"frizz_risk":1,"updated_at":"2026-05-26T23:58:46.730187+05:30"},{"city":"Mysore","state":"Karnataka","latitude":12.2958,"longitude":76.6396,"temp":22.6,"humidity":92,"rain":0.0,"pressure":931.6,"uv_index":9.15,"wind_gusts":42.8,"aqi":57,"pm10":15.9,"pm2_5":14.8,"no2":17.9,"co":239.0,"o3":54.0,"so2":3.5,"mosquito_risk":3,"arthritis_risk":5,"migraine_risk":7,"frizz_risk":1,"updated_at":"2026-05-26T23:58:46.730193+05:30"},{"city":"Mangalore","state":"Karnataka","latitude":12.9141,"longitude":74.856,"temp":25.8,"humidity":97,"rain":0.0,"pressure":1009.6,"uv_index":7.55,"wind_gusts":24.1,"aqi":62,"pm10":17.4,"pm2_5":14.6,"no2":12.0,"co":547.0,"o3":41.0,"so2":4.4,"mosquito_risk":7,"arthritis_risk":0,"migraine_risk":4,"frizz_risk":1,"updated_at":"2026-05-26T23:58:46.730199+05:30"},{"city":"Hubli-Dharwad","state":"Karnataka","latitude":15.3647,"longitude":75.124,"temp":24.2,"humidity":94,"rain":0.0,"pressure":943.2,"uv_index":9.0,"wind_gusts":47.2,"aqi":32,"pm10":6.9,"pm2_5":6.3,"no2":7.8,"co":181.0,"o3":45.0,"so2":1.6,"mosquito_risk":3,"arthritis_risk":5,"migraine_risk":7,"frizz_risk":1,"updated_at":"2026-05-26T23:58:46.730206+05:30"},{"city":"Belgaum","state":"Karnataka","latitude":15.8497,"longitude":74.4977,"temp":23.1,"humidity":98,"rain":0.0,"pressure":927.9,"uv_index":9.05,"wind_gusts":43.2,"aqi":26,"pm10":10.2,"pm2_5":8.8,"no2":8.7,"co":134.0,"o3":41.0,"so2":1.9,"mosquito_risk":3,"arthritis_risk":5,"migraine_risk":7,"frizz_risk":1,"updated_at":"2026-05-26T23:58:49.962790+05:30"},{"city":"Coimbatore","state":"Tamil Nadu","latitude":11.0168,"longitude":76.9558,"temp":25.5,"humidity":83,"rain":0.0,"pressure":964.1,"uv_index":9.05,"wind_gusts":50.0,"aqi":45,"pm10":7.5,"pm2_5":6.8,"no2":7.8,"co":193.0,"o3":56.0,"so2":3.8,"mosquito_risk":7,"arthritis_risk":5,"migraine_risk":7,"frizz_risk":1,"updated_at":"2026-05-26T23:58:49.962842+05:30"},{"city":"Madurai","state":"Tamil Nadu","latitude":9.9252,"longitude":78.1198,"temp":28.5,"humidity":72,"rain":0.0,"pressure":994.5,"uv_index":8.9,"wind_gusts":34.2,"aqi":102,"pm10":44.2,"pm2_5":39.2,"no2":37.2,"co":322.0,"o3":30.0,"so2":7.6,"mosquito_risk":7,"arthritis_risk":5,"migraine_risk":7,"frizz_risk":1,"updated_at":"2026-05-26T23:58:49.962853+05:30"},{"city":"Trichy","state":"Tamil Nadu","latitude":10.7905,"longitude":78.7047,"temp":28.8,"humidity":70,"rain":0.0,"pressure":1000.9,"uv_index":8.95,"wind_gusts":42.1,"aqi":63,"pm10":27.3,"pm2_5":24.5,"no2":20.9,"co":390.0,"o3":53.0,"so2":5.5,"mosquito_risk":7,"arthritis_risk":5,"migraine_risk":4,"frizz_risk":1,"updated_at":"2026-05-26T23:58:49.962862+05:30"},{"city":"Salem","state":"Tamil Nadu","latitude":11.6643,"longitude":78.146,"temp":26.7,"humidity":73,"rain":0.0,"pressure":978.9,"uv_index":9.05,"wind_gusts":40.0,"aqi":75,"pm10":28.0,"pm2_5":23.9,"no2":20.8,"co":414.0,"o3":57.0,"so2":7.7,"mosquito_risk":7,"arthritis_risk":5,"migraine_risk":7,"frizz_risk":1,"updated_at":"2026-05-26T23:58:49.962870+05:30"},{"city":"Tirunelveli","state":"Tamil Nadu","latitude":8.7139,"longitude":77.7567,"temp":29.5,"humidity":66,"rain":0.0,"pressure":1005.0,"uv_index":8.8,"wind_gusts":34.2,"aqi":31,"pm10":9.7,"pm2_5":8.4,"no2":9.6,"co":201.0,"o3":41.0,"so2":2.1,"mosquito_risk":7,"arthritis_risk":5,"migraine_risk":4,"frizz_risk":1,"updated_at":"2026-05-26T23:58:49.962878+05:30"},{"city":"Vellore","state":"Tamil Nadu","latitude":12.9165,"longitude":79.1325,"temp":27.4,"humidity":68,"rain":0.0,"pressure":985.6,"uv_index":8.75,"wind_gusts":38.9,"aqi":99,"pm10":39.3,"pm2_5":36.3,"no2":19.6,"co":309.0,"o3":62.0,"so2":6.3,"mosquito_risk":7,"arthritis_risk":5,"migraine_risk":7,"frizz_risk":1,"updated_at":"2026-05-26T23:58:49.962885+05:30"},{"city":"Erode","state":"Tamil Nadu","latitude":11.341,"longitude":77.7172,"temp":26.5,"humidity":91,"rain":0.0,"pressure":990.9,"uv_index":9.0,"wind_gusts":51.8,"aqi":57,"pm10":15.1,"pm2_5":13.9,"no2":19.3,"co":261.0,"o3":44.0,"so2":4.7,"mosquito_risk":7,"arthritis_risk":5,"migraine_risk":7,"frizz_risk":1,"updated_at":"2026-05-26T23:58:49.962893+05:30"},{"city":"Kochi","state":"Kerala","latitude":9.9312,"longitude":76.2673,"temp":26.7,"humidity":96,"rain":0.1,"pressure":1011.7,"uv_index":8.75,"wind_gusts":34.6,"aqi":56,"pm10":28.0,"pm2_5":26.0,"no2":30.1,"co":316.0,"o3":12.0,"so2":7.1,"mosquito_risk":10,"arthritis_risk":0,"migraine_risk":4,"frizz_risk":1,"updated_at":"2026-05-26T23:58:49.962900+05:30"},{"city":"Thiruvananthapuram","state":"Kerala","latitude":8.5241,"longitude":76.9366,"temp":25.4,"humidity":96,"rain":0.0,"pressure":1011.5,"uv_index":8.4,"wind_gusts":38.2,"aqi":30,"pm10":8.0,"pm2_5":4.8,"no2":2.5,"co":416.0,"o3":58.0,"so2":0.8,"mosquito_risk":7,"arthritis_risk":0,"migraine_risk":4,"frizz_risk":1,"updated_at":"2026-05-26T23:58:49.962907+05:30"},{"city":"Kozhikode","state":"Kerala","latitude":11.2588,"longitude":75.7804,"temp":25.1,"humidity":99,"rain":0.0,"pressure":1010.9,"uv_index":8.0,"wind_gusts":34.9,"aqi":30,"pm10":9.3,"pm2_5":6.4,"no2":2.6,"co":445.0,"o3":61.0,"so2":1.2,"mosquito_risk":7,"arthritis_risk":0,"migraine_risk":4,"frizz_risk":1,"updated_at":"2026-05-26T23:58:49.962915+05:30"},{"city":"Thrissur","state":"Kerala","latitude":10.5276,"longitude":76.2144,"temp":25.5,"humidity":98,"rain":0.0,"pressure":1010.1,"uv_index":8.05,"wind_gusts":32.8,"aqi":55,"pm10":24.9,"pm2_5":23.5,"no2":23.0,"co":298.0,"o3":17.0,"so2":6.0,"mosquito_risk":7,"arthritis_risk":0,"migraine_risk":4,"frizz_risk":1,"updated_at":"2026-05-26T23:58:49.962923+05:30"},{"city":"Kannur","state":"Kerala","latitude":11.8745,"longitude":75.3704,"temp":25.9,"humidity":98,"rain":0.0,"pressure":1010.1,"uv_index":8.6,"wind_gusts":40.0,"aqi":66,"pm10":22.2,"pm2_5":20.1,"no2":23.2,"co":240.0,"o3":24.0,"so2":4.5,"mosquito_risk":7,"arthritis_risk":0,"migraine_risk":4,"frizz_risk":1,"updated_at":"2026-05-26T23:58:49.962930+05:30"},{"city":"Patna","state":"Bihar","latitude":25.5941,"longitude":85.1376,"temp":29.1,"humidity":71,"rain":0.0,"pressure":996.6,"uv_index":8.8,"wind_gusts":33.8,"aqi":135,"pm10":48.4,"pm2_5":38.0,"no2":15.4,"co":427.0,"o3":96.0,"so2":15.8,"mosquito_risk":7,"arthritis_risk":5,"migraine_risk":7,"frizz_risk":1,"updated_at":"2026-05-26T23:58:49.962936+05:30"},{"city":"Gaya","state":"Bihar","latitude":24.7914,"longitude":85.0002,"temp":30.0,"humidity":65,"rain":0.0,"pressure":989.6,"uv_index":8.85,"wind_gusts":33.1,"aqi":156,"pm10":53.6,"pm2_5":46.2,"no2":12.8,"co":434.0,"o3":117.0,"so2":16.9,"mosquito_risk":7,"arthritis_risk":5,"migraine_risk":7,"frizz_risk":1,"updated_at":"2026-05-26T23:58:49.962943+05:30"},{"city":"Muzaffarpur","state":"Bihar","latitude":26.1209,"longitude":85.3647,"temp":27.2,"humidity":76,"rain":0.2,"pressure":997.7,"uv_index":8.8,"wind_gusts":33.8,"aqi":98,"pm10":51.2,"pm2_5":39.9,"no2":18.8,"co":416.0,"o3":81.0,"so2":14.6,"mosquito_risk":10,"arthritis_risk":5,"migraine_risk":7,"frizz_risk":1,"updated_at":"2026-05-26T23:58:49.962950+05:30"},{"city":"Bhagalpur","state":"Bihar","latitude":25.2425,"longitude":87.0117,"temp":27.9,"humidity":84,"rain":0.0,"pressure":998.7,"uv_index":8.8,"wind_gusts":34.9,"aqi":90,"pm10":46.3,"pm2_5":40.2,"no2":13.3,"co":392.0,"o3":75.0,"so2":7.2,"mosquito_risk":7,"arthritis_risk":5,"migraine_risk":7,"frizz_risk":1,"updated_at":"2026-05-26T23:58:49.962957+05:30"},{"city":"Ranchi","state":"Jharkhand","latitude":23.3441,"longitude":85.3096,"temp":25.9,"humidity":49,"rain":0.0,"pressure":935.0,"uv_index":9.15,"wind_gusts":33.1,"aqi":99,"pm10":67.5,"pm2_5":38.1,"no2":17.1,"co":345.0,"o3":79.0,"so2":10.5,"mosquito_risk":4,"arthritis_risk":5,"migraine_risk":7,"frizz_risk":0,"updated_at":"2026-05-26T23:58:49.962964+05:30"},{"city":"Jamshedpur","state":"Jharkhand","latitude":22.8046,"longitude":86.2029,"temp":29.4,"humidity":91,"rain":0.0,"pressure":987.6,"uv_index":9.05,"wind_gusts":29.2,"aqi":153,"pm10":84.3,"pm2_5":65.0,"no2":22.2,"co":757.0,"o3":86.0,"so2":26.4,"mosquito_risk":7,"arthritis_risk":5,"migraine_risk":7,"frizz_risk":1,"updated_at":"2026-05-26T23:58:49.962971+05:30"},{"city":"Dhanbad","state":"Jharkhand","latitude":23.7957,"longitude":86.4304,"temp":30.4,"humidity":83,"rain":0.0,"pressure":977.0,"uv_index":9.05,"wind_gusts":29.9,"aqi":163,"pm10":85.7,"pm2_5":76.6,"no2":47.4,"co":380.0,"o3":64.0,"so2":108.4,"mosquito_risk":3,"arthritis_risk":5,"migraine_risk":7,"frizz_risk":1,"updated_at":"2026-05-26T23:58:49.962978+05:30"},{"city":"Bokaro","state":"Jharkhand","latitude":23.6693,"longitude":86.1511,"temp":30.2,"humidity":84,"rain":0.0,"pressure":980.5,"uv_index":9.05,"wind_gusts":27.4,"aqi":156,"pm10":114.3,"pm2_5":83.4,"no2":55.5,"co":1483.0,"o3":37.0,"so2":82.7,"mosquito_risk":3,"arthritis_risk":5,"migraine_risk":7,"frizz_risk":1,"updated_at":"2026-05-26T23:58:49.962985+05:30"},{"city":"Bhubaneswar","state":"Odisha","latitude":20.2961,"longitude":85.8245,"temp":29.9,"humidity":91,"rain":0.0,"pressure":999.7,"uv_index":9.1,"wind_gusts":38.9,"aqi":118,"pm10":31.3,"pm2_5":26.3,"no2":5.2,"co":214.0,"o3":87.0,"so2":5.3,"mosquito_risk":7,"arthritis_risk":5,"migraine_risk":7,"frizz_risk":1,"updated_at":"2026-05-26T23:58:49.962991+05:30"},{"city":"Cuttack","state":"Odisha","latitude":20.4625,"longitude":85.8828,"temp":29.8,"humidity":92,"rain":0.0,"pressure":1001.3,"uv_index":9.15,"wind_gusts":34.6,"aqi":118,"pm10":31.3,"pm2_5":26.3,"no2":5.2,"co":240.0,"o3":87.0,"so2":5.3,"mosquito_risk":7,"arthritis_risk":5,"migraine_risk":4,"frizz_risk":1,"updated_at":"2026-05-26T23:58:49.962998+05:30"},{"city":"Rourkela","state":"Odisha","latitude":22.2604,"longitude":84.8536,"temp":31.4,"humidity":61,"rain":0.0,"pressure":981.7,"uv_index":9.0,"wind_gusts":40.0,"aqi":152,"pm10":94.5,"pm2_5":61.5,"no2":30.9,"co":296.0,"o3":64.0,"so2":15.5,"mosquito_risk":3,"arthritis_risk":5,"migraine_risk":7,"frizz_risk":1,"updated_at":"2026-05-26T23:58:49.963005+05:30"},{"city":"Raipur","state":"Chhattisgarh","latitude":21.2514,"longitude":81.6296,"temp":33.2,"humidity":32,"rain":0.0,"pressure":971.7,"uv_index":8.95,"wind_gusts":36.7,"aqi":119,"pm10":53.8,"pm2_5":37.5,"no2":32.1,"co":663.0,"o3":66.0,"so2":48.0,"mosquito_risk":0,"arthritis_risk":5,"migraine_risk":7,"frizz_risk":0,"updated_at":"2026-05-26T23:58:49.963012+05:30"},{"city":"Bhilai","state":"Chhattisgarh","latitude":21.1938,"longitude":81.3509,"temp":33.2,"humidity":33,"rain":0.0,"pressure":971.9,"uv_index":8.95,"wind_gusts":41.0,"aqi":108,"pm10":53.0,"pm2_5":35.9,"no2":23.7,"co":679.0,"o3":79.0,"so2":36.0,"mosquito_risk":0,"arthritis_risk":5,"migraine_risk":7,"frizz_risk":0,"updated_at":"2026-05-26T23:58:49.963018+05:30"},{"city":"Guwahati","state":"Assam","latitude":26.1158,"longitude":91.7086,"temp":23.9,"humidity":98,"rain":0.0,"pressure":1001.3,"uv_index":8.75,"wind_gusts":24.1,"aqi":63,"pm10":21.6,"pm2_5":10.9,"no2":6.2,"co":486.0,"o3":81.0,"so2":2.3,"mosquito_risk":3,"arthritis_risk":5,"migraine_risk":4,"frizz_risk":1,"updated_at":"2026-05-26T23:58:49.963024+05:30"},{"city":"Agartala","state":"Tripura","latitude":23.8315,"longitude":91.2868,"temp":23.0,"humidity":100,"rain":0.2,"pressure":1006.5,"uv_index":8.8,"wind_gusts":37.4,"aqi":82,"pm10":29.5,"pm2_5":23.9,"no2":12.3,"co":215.0,"o3":50.0,"so2":2.1,"mosquito_risk":6,"arthritis_risk":5,"migraine_risk":4,"frizz_risk":1,"updated_at":"2026-05-26T23:58:49.963031+05:30"},{"city":"Shillong","state":"Meghalaya","latitude":25.5788,"longitude":91.8933,"temp":18.2,"humidity":94,"rain":0.0,"pressure":856.6,"uv_index":8.75,"wind_gusts":39.6,"aqi":41,"pm10":5.5,"pm2_5":2.7,"no2":4.5,"co":233.0,"o3":90.0,"so2":2.3,"mosquito_risk":3,"arthritis_risk":10,"migraine_risk":7,"frizz_risk":1,"updated_at":"2026-05-26T23:58:49.963038+05:30"},{"city":"Imphal","state":"Manipur","latitude":24.817,"longitude":93.9368,"temp":19.8,"humidity":94,"rain":0.0,"pressure":922.7,"uv_index":7.35,"wind_gusts":36.7,"aqi":77,"pm10":68.9,"pm2_5":53.9,"no2":35.2,"co":401.0,"o3":19.0,"so2":5.7,"mosquito_risk":3,"arthritis_risk":10,"migraine_risk":7,"frizz_risk":1,"updated_at":"2026-05-26T23:58:49.963045+05:30"},{"city":"Aizawl","state":"Mizoram","latitude":23.7271,"longitude":92.7176,"temp":16.9,"humidity":100,"rain":0.0,"pressure":891.1,"uv_index":9.05,"wind_gusts":33.8,"aqi":66,"pm10":38.8,"pm2_5":23.9,"no2":5.3,"co":173.0,"o3":62.0,"so2":1.8,"mosquito_risk":3,"arthritis_risk":10,"migraine_risk":7,"frizz_risk":1,"updated_at":"2026-05-26T23:58:49.963052+05:30"},{"city":"Kohima","state":"Nagaland","latitude":25.6701,"longitude":94.1077,"temp":16.0,"humidity":93,"rain":0.0,"pressure":853.6,"uv_index":8.0,"wind_gusts":38.2,"aqi":46,"pm10":30.6,"pm2_5":16.5,"no2":7.4,"co":265.0,"o3":68.0,"so2":1.9,"mosquito_risk":3,"arthritis_risk":10,"migraine_risk":7,"frizz_risk":0,"updated_at":"2026-05-26T23:58:49.963059+05:30"},{"city":"Gangtok","state":"Sikkim","latitude":27.3314,"longitude":88.6138,"temp":14.3,"humidity":97,"rain":0.1,"pressure":836.1,"uv_index":9.2,"wind_gusts":34.9,"aqi":79,"pm10":20.8,"pm2_5":8.9,"no2":4.9,"co":479.0,"o3":130.0,"so2":2.2,"mosquito_risk":6,"arthritis_risk":10,"migraine_risk":7,"frizz_risk":0,"updated_at":"2026-05-26T23:58:49.963065+05:30"},{"city":"Siliguri","state":"West Bengal","latitude":26.7271,"longitude":88.3953,"temp":21.9,"humidity":99,"rain":0.0,"pressure":992.8,"uv_index":8.7,"wind_gusts":30.2,"aqi":93,"pm10":32.7,"pm2_5":21.4,"no2":15.2,"co":438.0,"o3":86.0,"so2":3.6,"mosquito_risk":3,"arthritis_risk":5,"migraine_risk":7,"frizz_risk":1,"updated_at":"2026-05-26T23:58:53.211711+05:30"},{"city":"Durgapur","state":"West Bengal","latitude":23.5204,"longitude":87.3119,"temp":29.0,"humidity":90,"rain":0.0,"pressure":992.0,"uv_index":9.0,"wind_gusts":32.4,"aqi":158,"pm10":55.1,"pm2_5":51.3,"no2":21.2,"co":334.0,"o3":64.0,"so2":29.3,"mosquito_risk":7,"arthritis_risk":5,"migraine_risk":7,"frizz_risk":1,"updated_at":"2026-05-26T23:58:53.211746+05:30"},{"city":"Asansol","state":"West Bengal","latitude":23.6739,"longitude":86.9524,"temp":29.5,"humidity":89,"rain":0.0,"pressure":990.5,"uv_index":9.0,"wind_gusts":28.8,"aqi":160,"pm10":59.6,"pm2_5":54.9,"no2":21.1,"co":675.0,"o3":79.0,"so2":31.7,"mosquito_risk":7,"arthritis_risk":5,"migraine_risk":7,"frizz_risk":1,"updated_at":"2026-05-26T23:58:53.211758+05:30"},{"city":"Pondicherry","state":"Puducherry","latitude":11.9139,"longitude":79.8145,"temp":28.4,"humidity":78,"rain":0.0,"pressure":1009.1,"uv_index":8.65,"wind_gusts":37.1,"aqi":78,"pm10":9.9,"pm2_5":7.9,"no2":11.3,"co":193.0,"o3":54.0,"so2":8.6,"mosquito_risk":7,"arthritis_risk":0,"migraine_risk":4,"frizz_risk":1,"updated_at":"2026-05-26T23:58:53.211766+05:30"},{"city":"Port Blair","state":"Andaman and Nicobar Islands","latitude":11.6234,"longitude":92.7265,"temp":25.7,"humidity":96,"rain":0.0,"pressure":1007.5,"uv_index":7.55,"wind_gusts":29.2,"aqi":31,"pm10":11.8,"pm2_5":6.9,"no2":0.3,"co":103.0,"o3":64.0,"so2":0.3,"mosquito_risk":7,"arthritis_risk":5,"migraine_risk":4,"frizz_risk":1,"updated_at":"2026-05-26T23:58:53.211774+05:30"},{"city":"Haridwar","state":"Uttarakhand","latitude":29.9457,"longitude":78.1642,"temp":26.7,"humidity":33,"rain":0.0,"pressure":969.0,"uv_index":7.55,"wind_gusts":41.4,"aqi":106,"pm10":14.1,"pm2_5":12.0,"no2":9.5,"co":267.0,"o3":106.0,"so2":8.0,"mosquito_risk":4,"arthritis_risk":5,"migraine_risk":7,"frizz_risk":0,"updated_at":"2026-05-26T23:58:53.211782+05:30"},{"city":"Rishikesh","state":"Uttarakhand","latitude":30.0869,"longitude":78.2676,"temp":24.1,"humidity":36,"rain":0.0,"pressure":961.6,"uv_index":7.65,"wind_gusts":34.6,"aqi":124,"pm10":11.2,"pm2_5":10.0,"no2":7.9,"co":303.0,"o3":122.0,"so2":6.6,"mosquito_risk":0,"arthritis_risk":5,"migraine_risk":7,"frizz_risk":0,"updated_at":"2026-05-26T23:58:53.211790+05:30"},{"city":"Nainital","state":"Uttarakhand","latitude":29.3919,"longitude":79.4542,"temp":16.3,"humidity":38,"rain":0.0,"pressure":803.0,"uv_index":8.5,"wind_gusts":52.2,"aqi":132,"pm10":116.9,"pm2_5":26.2,"no2":10.9,"co":242.0,"o3":118.0,"so2":5.6,"mosquito_risk":0,"arthritis_risk":5,"migraine_risk":7,"frizz_risk":0,"updated_at":"2026-05-26T23:58:53.211798+05:30"},{"city":"Mussoorie","state":"Uttarakhand","latitude":30.4599,"longitude":78.0664,"temp":18.5,"humidity":33,"rain":0.0,"pressure":801.8,"uv_index":8.05,"wind_gusts":57.6,"aqi":106,"pm10":16.6,"pm2_5":14.1,"no2":18.4,"co":181.0,"o3":96.0,"so2":6.3,"mosquito_risk":0,"arthritis_risk":5,"migraine_risk":7,"frizz_risk":0,"updated_at":"2026-05-26T23:58:53.211805+05:30"},{"city":"Dharamshala","state":"Himachal Pradesh","latitude":32.219,"longitude":76.3234,"temp":22.7,"humidity":34,"rain":0.0,"pressure":867.7,"uv_index":8.45,"wind_gusts":48.6,"aqi":65,"pm10":17.5,"pm2_5":13.8,"no2":15.4,"co":233.0,"o3":55.0,"so2":0.7,"mosquito_risk":0,"arthritis_risk":5,"migraine_risk":7,"frizz_risk":0,"updated_at":"2026-05-26T23:58:53.211829+05:30"},{"city":"Dalhousie","state":"Himachal Pradesh","latitude":32.5387,"longitude":75.971,"temp":14.4,"humidity":55,"rain":0.0,"pressure":801.8,"uv_index":8.7,"wind_gusts":44.6,"aqi":59,"pm10":32.7,"pm2_5":27.7,"no2":52.9,"co":478.0,"o3":18.0,"so2":2.5,"mosquito_risk":0,"arthritis_risk":5,"migraine_risk":7,"frizz_risk":0,"updated_at":"2026-05-26T23:58:53.211837+05:30"},{"city":"Patiala","state":"Punjab","latitude":30.3398,"longitude":76.3869,"temp":32.4,"humidity":21,"rain":0.0,"pressure":974.0,"uv_index":7.65,"wind_gusts":56.2,"aqi":451,"pm10":464.7,"pm2_5":78.7,"no2":14.5,"co":301.0,"o3":78.0,"so2":6.2,"mosquito_risk":0,"arthritis_risk":5,"migraine_risk":7,"frizz_risk":0,"updated_at":"2026-05-26T23:58:53.211845+05:30"},{"city":"Bhatinda","state":"Punjab","latitude":30.211,"longitude":74.9455,"temp":33.1,"humidity":26,"rain":0.0,"pressure":979.5,"uv_index":8.3,"wind_gusts":31.7,"aqi":95,"pm10":37.6,"pm2_5":31.0,"no2":16.6,"co":339.0,"o3":93.0,"so2":9.6,"mosquito_risk":0,"arthritis_risk":5,"migraine_risk":7,"frizz_risk":0,"updated_at":"2026-05-26T23:58:53.211852+05:30"},{"city":"Rohtak","state":"Haryana","latitude":28.8955,"longitude":76.6066,"temp":31.6,"humidity":27,"rain":0.0,"pressure":977.2,"uv_index":7.75,"wind_gusts":41.0,"aqi":638,"pm10":901.5,"pm2_5":163.4,"no2":32.1,"co":332.0,"o3":66.0,"so2":11.0,"mosquito_risk":0,"arthritis_risk":5,"migraine_risk":7,"frizz_risk":0,"updated_at":"2026-05-26T23:58:53.211859+05:30"},{"city":"Panipat","state":"Haryana","latitude":29.3909,"longitude":76.9635,"temp":33.0,"humidity":20,"rain":0.0,"pressure":975.8,"uv_index":7.6,"wind_gusts":48.6,"aqi":1512,"pm10":1665.2,"pm2_5":265.4,"no2":17.6,"co":301.0,"o3":81.0,"so2":7.6,"mosquito_risk":0,"arthritis_risk":5,"migraine_risk":7,"frizz_risk":0,"updated_at":"2026-05-26T23:58:53.211868+05:30"},{"city":"Mathura","state":"Uttar Pradesh","latitude":27.4924,"longitude":77.6737,"temp":35.3,"humidity":20,"rain":0.0,"pressure":982.3,"uv_index":8.0,"wind_gusts":37.1,"aqi":659,"pm10":287.8,"pm2_5":92.2,"no2":74.6,"co":513.0,"o3":14.0,"so2":14.9,"mosquito_risk":0,"arthritis_risk":5,"migraine_risk":10,"frizz_risk":0,"updated_at":"2026-05-26T23:58:53.211875+05:30"},{"city":"Vrindavan","state":"Uttar Pradesh","latitude":27.5823,"longitude":77.7027,"temp":33.8,"humidity":23,"rain":0.0,"pressure":982.6,"uv_index":8.0,"wind_gusts":31.3,"aqi":659,"pm10":287.8,"pm2_5":92.2,"no2":74.6,"co":441.0,"o3":14.0,"so2":14.9,"mosquito_risk":0,"arthritis_risk":5,"migraine_risk":7,"frizz_risk":0,"updated_at":"2026-05-26T23:58:53.211883+05:30"},{"city":"Ayodhya","state":"Uttar Pradesh","latitude":26.7922,"longitude":82.1998,"temp":30.2,"humidity":60,"rain":0.0,"pressure":991.4,"uv_index":8.35,"wind_gusts":37.4,"aqi":147,"pm10":60.1,"pm2_5":41.3,"no2":12.1,"co":434.0,"o3":112.0,"so2":9.7,"mosquito_risk":0,"arthritis_risk":5,"migraine_risk":7,"frizz_risk":1,"updated_at":"2026-05-26T23:58:53.211890+05:30"},{"city":"Ratlam","state":"Madhya Pradesh","latitude":23.3315,"longitude":75.0367,"temp":31.5,"humidity":40,"rain":0.0,"pressure":954.2,"uv_index":8.55,"wind_gusts":41.4,"aqi":71,"pm10":49.1,"pm2_5":29.6,"no2":4.2,"co":209.0,"o3":82.0,"so2":6.4,"mosquito_risk":0,"arthritis_risk":5,"migraine_risk":7,"frizz_risk":1,"updated_at":"2026-05-26T23:58:53.211897+05:30"},{"city":"Sagar","state":"Madhya Pradesh","latitude":23.8388,"longitude":78.7378,"temp":33.2,"humidity":22,"rain":0.0,"pressure":948.1,"uv_index":8.75,"wind_gusts":42.5,"aqi":79,"pm10":85.2,"pm2_5":38.2,"no2":22.9,"co":200.0,"o3":46.0,"so2":4.7,"mosquito_risk":0,"arthritis_risk":5,"migraine_risk":7,"frizz_risk":0,"updated_at":"2026-05-26T23:58:53.211903+05:30"},{"city":"Satna","state":"Madhya Pradesh","latitude":24.6005,"longitude":80.8322,"temp":32.3,"humidity":28,"rain":0.0,"pressure":967.8,"uv_index":8.8,"wind_gusts":52.2,"aqi":77,"pm10":92.7,"pm2_5":30.3,"no2":20.7,"co":267.0,"o3":78.0,"so2":4.5,"mosquito_risk":0,"arthritis_risk":5,"migraine_risk":7,"frizz_risk":0,"updated_at":"2026-05-26T23:58:53.211910+05:30"},{"city":"Akola","state":"Maharashtra","latitude":20.7002,"longitude":77.0082,"temp":34.9,"humidity":38,"rain":0.0,"pressure":973.9,"uv_index":8.5,"wind_gusts":42.1,"aqi":59,"pm10":28.8,"pm2_5":20.0,"no2":10.6,"co":266.0,"o3":80.0,"so2":8.1,"mosquito_risk":0,"arthritis_risk":5,"migraine_risk":7,"frizz_risk":1,"updated_at":"2026-05-26T23:58:53.211918+05:30"},{"city":"Amravati","state":"Maharashtra","latitude":20.9374,"longitude":77.7796,"temp":34.5,"humidity":36,"rain":0.0,"pressure":966.1,"uv_index":8.85,"wind_gusts":42.5,"aqi":62,"pm10":30.4,"pm2_5":21.4,"no2":13.2,"co":253.0,"o3":69.0,"so2":7.9,"mosquito_risk":0,"arthritis_risk":5,"migraine_risk":7,"frizz_risk":1,"updated_at":"2026-05-26T23:58:53.211926+05:30"},{"city":"Latur","state":"Maharashtra","latitude":18.4088,"longitude":76.5604,"temp":26.6,"humidity":69,"rain":0.1,"pressure":940.0,"uv_index":8.8,"wind_gusts":34.2,"aqi":76,"pm10":27.9,"pm2_5":23.1,"no2":13.9,"co":212.0,"o3":68.0,"so2":4.2,"mosquito_risk":10,"arthritis_risk":5,"migraine_risk":7,"frizz_risk":1,"updated_at":"2026-05-26T23:58:53.211933+05:30"},{"city":"Nanded","state":"Maharashtra","latitude":19.1383,"longitude":77.3091,"temp":34.3,"humidity":40,"rain":0.0,"pressure":967.9,"uv_index":8.85,"wind_gusts":33.8,"aqi":79,"pm10":44.5,"pm2_5":29.0,"no2":12.9,"co":377.0,"o3":71.0,"so2":5.9,"mosquito_risk":0,"arthritis_risk":5,"migraine_risk":7,"frizz_risk":1,"updated_at":"2026-05-26T23:58:53.211941+05:30"},{"city":"Gulbarga","state":"Karnataka","latitude":17.3297,"longitude":76.8343,"temp":28.8,"humidity":62,"rain":0.0,"pressure":959.8,"uv_index":7.5,"wind_gusts":37.4,"aqi":57,"pm10":17.8,"pm2_5":14.7,"no2":11.5,"co":261.0,"o3":75.0,"so2":3.9,"mosquito_risk":7,"arthritis_risk":5,"migraine_risk":7,"frizz_risk":1,"updated_at":"2026-05-26T23:58:53.211948+05:30"},{"city":"Bidar","state":"Karnataka","latitude":17.9104,"longitude":77.5199,"temp":29.5,"humidity":55,"rain":0.0,"pressure":935.9,"uv_index":8.95,"wind_gusts":33.1,"aqi":90,"pm10":68.7,"pm2_5":53.0,"no2":43.6,"co":253.0,"o3":30.0,"so2":6.6,"mosquito_risk":4,"arthritis_risk":5,"migraine_risk":7,"frizz_risk":1,"updated_at":"2026-05-26T23:58:53.211955+05:30"},{"city":"Hospet","state":"Karnataka","latitude":15.2689,"longitude":76.3909,"temp":26.4,"humidity":83,"rain":0.0,"pressure":958.2,"uv_index":7.95,"wind_gusts":41.4,"aqi":42,"pm10":12.2,"pm2_5":11.5,"no2":13.1,"co":192.0,"o3":51.0,"so2":2.0,"mosquito_risk":7,"arthritis_risk":5,"migraine_risk":7,"frizz_risk":1,"updated_at":"2026-05-26T23:58:53.211961+05:30"},{"city":"Tirupur","state":"Tamil Nadu","latitude":11.1085,"longitude":77.3411,"temp":26.5,"humidity":82,"rain":0.0,"pressure":977.5,"uv_index":9.1,"wind_gusts":58.0,"aqi":58,"pm10":19.0,"pm2_5":17.5,"no2":23.1,"co":191.0,"o3":40.0,"so2":5.7,"mosquito_risk":7,"arthritis_risk":5,"migraine_risk":7,"frizz_risk":1,"updated_at":"2026-05-26T23:58:53.211967+05:30"},{"city":"Alappuzha","state":"Kerala","latitude":9.4981,"longitude":76.3388,"temp":26.6,"humidity":93,"rain":0.1,"pressure":1011.8,"uv_index":8.55,"wind_gusts":37.1,"aqi":43,"pm10":23.2,"pm2_5":20.9,"no2":13.1,"co":114.0,"o3":44.0,"so2":4.1,"mosquito_risk":10,"arthritis_risk":0,"migraine_risk":4,"frizz_risk":1,"updated_at":"2026-05-26T23:58:53.211975+05:30"},{"city":"Munnar","state":"Kerala","latitude":10.0889,"longitude":77.0595,"temp":17.7,"humidity":98,"rain":0.0,"pressure":859.0,"uv_index":9.2,"wind_gusts":28.4,"aqi":44,"pm10":11.5,"pm2_5":11.2,"no2":11.1,"co":165.0,"o3":35.0,"so2":1.8,"mosquito_risk":3,"arthritis_risk":10,"migraine_risk":7,"frizz_risk":1,"updated_at":"2026-05-26T23:58:53.211983+05:30"},{"city":"Silchar","state":"Assam","latitude":24.8333,"longitude":92.7789,"temp":24.7,"humidity":96,"rain":0.1,"pressure":1004.7,"uv_index":8.9,"wind_gusts":23.8,"aqi":78,"pm10":52.7,"pm2_5":31.9,"no2":8.0,"co":246.0,"o3":81.0,"so2":4.0,"mosquito_risk":6,"arthritis_risk":5,"migraine_risk":4,"frizz_risk":1,"updated_at":"2026-05-26T23:58:53.211989+05:30"},{"city":"Dibrugarh","state":"Assam","latitude":27.4728,"longitude":94.912,"temp":23.8,"humidity":92,"rain":0.0,"pressure":995.0,"uv_index":8.2,"wind_gusts":23.4,"aqi":86,"pm10":23.8,"pm2_5":19.4,"no2":15.9,"co":208.0,"o3":38.0,"so2":1.6,"mosquito_risk":3,"arthritis_risk":5,"migraine_risk":7,"frizz_risk":1,"updated_at":"2026-05-26T23:58:53.211996+05:30"}]