[{"city":"Delhi","state":"Delhi","latitude":28.6139,"longitude":77.209,"temp":37.3,"humidity":38,"rain":0.0,"pressure":974.5,"uv_index":7.75,"wind_gusts":35.3,"aqi":168,"pm10":232.8,"pm2_5":87.5,"no2":24.9,"co":431.0,"o3":108.0,"so2":20.6,"mosquito_risk":0,"arthritis_risk":5,"migraine_risk":10,"frizz_risk":1,"updated_at":"2026-06-28T20:49:26.441078+05:30"},{"city":"Mumbai","state":"Maharashtra","latitude":19.076,"longitude":72.8777,"temp":26.0,"humidity":93,"rain":0.3,"pressure":1005.6,"uv_index":7.5,"wind_gusts":35.6,"aqi":55,"pm10":18.7,"pm2_5":10.1,"no2":6.9,"co":273.0,"o3":46.0,"so2":4.5,"mosquito_risk":10,"arthritis_risk":5,"migraine_risk":4,"frizz_risk":1,"updated_at":"2026-06-28T20:49:26.441121+05:30"},{"city":"Bangalore","state":"Karnataka","latitude":12.9716,"longitude":77.5946,"temp":23.1,"humidity":80,"rain":0.0,"pressure":909.8,"uv_index":8.1,"wind_gusts":55.8,"aqi":39,"pm10":5.9,"pm2_5":5.6,"no2":13.6,"co":376.0,"o3":42.0,"so2":5.1,"mosquito_risk":3,"arthritis_risk":5,"migraine_risk":7,"frizz_risk":1,"updated_at":"2026-06-28T20:49:26.441138+05:30"},{"city":"Hyderabad","state":"Telangana","latitude":17.385,"longitude":78.4867,"temp":26.4,"humidity":83,"rain":0.0,"pressure":949.7,"uv_index":8.55,"wind_gusts":41.4,"aqi":58,"pm10":22.9,"pm2_5":21.5,"no2":29.1,"co":316.0,"o3":47.0,"so2":8.8,"mosquito_risk":7,"arthritis_risk":5,"migraine_risk":7,"frizz_risk":1,"updated_at":"2026-06-28T20:49:26.441148+05:30"},{"city":"Chennai","state":"Tamil Nadu","latitude":13.0827,"longitude":80.2707,"temp":25.3,"humidity":96,"rain":0.6,"pressure":1005.5,"uv_index":8.9,"wind_gusts":40.7,"aqi":83,"pm10":29.5,"pm2_5":21.2,"no2":6.2,"co":259.0,"o3":106.0,"so2":6.4,"mosquito_risk":10,"arthritis_risk":5,"migraine_risk":4,"frizz_risk":1,"updated_at":"2026-06-28T20:49:26.441157+05:30"},{"city":"Kolkata","state":"West Bengal","latitude":22.5726,"longitude":88.3639,"temp":28.7,"humidity":88,"rain":0.0,"pressure":1000.4,"uv_index":8.85,"wind_gusts":33.1,"aqi":70,"pm10":30.3,"pm2_5":25.9,"no2":8.5,"co":323.0,"o3":69.0,"so2":7.5,"mosquito_risk":7,"arthritis_risk":5,"migraine_risk":4,"frizz_risk":1,"updated_at":"2026-06-28T20:49:26.441165+05:30"},{"city":"Pune","state":"Maharashtra","latitude":18.5204,"longitude":73.8567,"temp":23.8,"humidity":93,"rain":0.0,"pressure":945.1,"uv_index":6.1,"wind_gusts":43.6,"aqi":39,"pm10":7.8,"pm2_5":7.2,"no2":12.2,"co":166.0,"o3":52.0,"so2":7.3,"mosquito_risk":3,"arthritis_risk":5,"migraine_risk":7,"frizz_risk":1,"updated_at":"2026-06-28T20:49:26.441172+05:30"},{"city":"Ahmedabad","state":"Gujarat","latitude":23.0225,"longitude":72.5714,"temp":34.3,"humidity":49,"rain":0.0,"pressure":995.6,"uv_index":7.6,"wind_gusts":34.9,"aqi":71,"pm10":44.1,"pm2_5":22.9,"no2":9.9,"co":153.0,"o3":64.0,"so2":4.6,"mosquito_risk":0,"arthritis_risk":5,"migraine_risk":7,"frizz_risk":1,"updated_at":"2026-06-28T20:49:26.441179+05:30"},{"city":"Jaipur","state":"Rajasthan","latitude":26.9124,"longitude":75.7873,"temp":34.5,"humidity":44,"rain":0.0,"pressure":953.1,"uv_index":7.55,"wind_gusts":36.0,"aqi":144,"pm10":86.1,"pm2_5":43.7,"no2":14.0,"co":339.0,"o3":53.0,"so2":6.4,"mosquito_risk":0,"arthritis_risk":5,"migraine_risk":7,"frizz_risk":1,"updated_at":"2026-06-28T20:49:26.441185+05:30"},{"city":"Lucknow","state":"Uttar Pradesh","latitude":26.8467,"longitude":80.9462,"temp":36.3,"humidity":44,"rain":0.0,"pressure":985.6,"uv_index":8.3,"wind_gusts":33.8,"aqi":111,"pm10":122.5,"pm2_5":54.2,"no2":19.7,"co":219.0,"o3":73.0,"so2":9.5,"mosquito_risk":0,"arthritis_risk":5,"migraine_risk":10,"frizz_risk":1,"updated_at":"2026-06-28T20:49:26.441196+05:30"},{"city":"Kanpur","state":"Uttar Pradesh","latitude":26.4499,"longitude":80.3319,"temp":37.7,"humidity":39,"rain":0.0,"pressure":983.9,"uv_index":8.3,"wind_gusts":31.3,"aqi":107,"pm10":123.4,"pm2_5":44.2,"no2":14.6,"co":242.0,"o3":75.0,"so2":6.3,"mosquito_risk":0,"arthritis_risk":5,"migraine_risk":10,"frizz_risk":1,"updated_at":"2026-06-28T20:49:26.441203+05:30"},{"city":"Chandigarh","state":"Chandigarh","latitude":30.7333,"longitude":76.7794,"temp":32.2,"humidity":61,"rain":0.0,"pressure":960.1,"uv_index":7.8,"wind_gusts":28.1,"aqi":167,"pm10":57.5,"pm2_5":50.9,"no2":23.3,"co":522.0,"o3":95.0,"so2":11.3,"mosquito_risk":3,"arthritis_risk":5,"migraine_risk":7,"frizz_risk":1,"updated_at":"2026-06-28T20:49:26.441210+05:30"},{"city":"Srinagar","state":"Jammu and Kashmir","latitude":34.0837,"longitude":74.7973,"temp":28.5,"humidity":46,"rain":0.0,"pressure":837.7,"uv_index":9.1,"wind_gusts":28.1,"aqi":98,"pm10":34.9,"pm2_5":29.4,"no2":21.8,"co":472.0,"o3":71.0,"so2":3.3,"mosquito_risk":4,"arthritis_risk":5,"migraine_risk":7,"frizz_risk":0,"updated_at":"2026-06-28T20:49:26.441217+05:30"},{"city":"Jammu","state":"Jammu and Kashmir","latitude":32.7266,"longitude":74.857,"temp":35.3,"humidity":46,"rain":0.0,"pressure":963.1,"uv_index":8.65,"wind_gusts":31.0,"aqi":117,"pm10":59.5,"pm2_5":46.2,"no2":21.8,"co":408.0,"o3":82.0,"so2":6.7,"mosquito_risk":0,"arthritis_risk":5,"migraine_risk":10,"frizz_risk":1,"updated_at":"2026-06-28T20:49:26.441224+05:30"},{"city":"Amritsar","state":"Punjab","latitude":31.634,"longitude":74.8723,"temp":32.4,"humidity":75,"rain":0.0,"pressure":970.6,"uv_index":8.5,"wind_gusts":44.6,"aqi":157,"pm10":84.3,"pm2_5":69.2,"no2":40.7,"co":667.0,"o3":80.0,"so2":12.0,"mosquito_risk":3,"arthritis_risk":5,"migraine_risk":7,"frizz_risk":1,"updated_at":"2026-06-28T20:49:26.441231+05:30"},{"city":"Ludhiana","state":"Punjab","latitude":30.901,"longitude":75.8573,"temp":34.7,"humidity":56,"rain":0.0,"pressure":969.3,"uv_index":8.0,"wind_gusts":60.8,"aqi":164,"pm10":71.7,"pm2_5":60.8,"no2":22.3,"co":473.0,"o3":101.0,"so2":8.4,"mosquito_risk":0,"arthritis_risk":5,"migraine_risk":7,"frizz_risk":1,"updated_at":"2026-06-28T20:49:26.441237+05:30"},{"city":"Jalandhar","state":"Punjab","latitude":31.326,"longitude":75.5762,"temp":33.0,"humidity":70,"rain":0.0,"pressure":970.1,"uv_index":8.25,"wind_gusts":56.9,"aqi":165,"pm10":88.0,"pm2_5":68.2,"no2":27.3,"co":556.0,"o3":99.0,"so2":8.3,"mosquito_risk":3,"arthritis_risk":5,"migraine_risk":7,"frizz_risk":1,"updated_at":"2026-06-28T20:49:26.441243+05:30"},{"city":"Dehradun","state":"Uttarakhand","latitude":30.6284,"longitude":78.0322,"temp":19.5,"humidity":93,"rain":0.0,"pressure":826.2,"uv_index":7.05,"wind_gusts":34.9,"aqi":117,"pm10":42.0,"pm2_5":31.4,"no2":12.9,"co":264.0,"o3":111.0,"so2":3.0,"mosquito_risk":3,"arthritis_risk":10,"migraine_risk":7,"frizz_risk":1,"updated_at":"2026-06-28T20:49:26.441252+05:30"},{"city":"Shimla","state":"Himachal Pradesh","latitude":31.1048,"longitude":77.1734,"temp":17.8,"humidity":85,"rain":0.0,"pressure":781.2,"uv_index":7.5,"wind_gusts":32.0,"aqi":127,"pm10":45.2,"pm2_5":37.3,"no2":18.4,"co":404.0,"o3":77.0,"so2":2.5,"mosquito_risk":3,"arthritis_risk":10,"migraine_risk":7,"frizz_risk":0,"updated_at":"2026-06-28T20:49:26.441259+05:30"},{"city":"Manali","state":"Himachal Pradesh","latitude":32.2396,"longitude":77.1887,"temp":19.0,"humidity":96,"rain":0.0,"pressure":815.5,"uv_index":9.05,"wind_gusts":35.3,"aqi":56,"pm10":35.7,"pm2_5":31.2,"no2":76.5,"co":288.0,"o3":29.0,"so2":0.0,"mosquito_risk":3,"arthritis_risk":10,"migraine_risk":7,"frizz_risk":1,"updated_at":"2026-06-28T20:49:26.441268+05:30"},{"city":"Gurgaon","state":"Haryana","latitude":28.4595,"longitude":77.0266,"temp":35.0,"humidity":49,"rain":0.0,"pressure":973.1,"uv_index":7.8,"wind_gusts":37.1,"aqi":173,"pm10":301.7,"pm2_5":92.2,"no2":30.0,"co":566.0,"o3":109.0,"so2":19.6,"mosquito_risk":0,"arthritis_risk":5,"migraine_risk":7,"frizz_risk":1,"updated_at":"2026-06-28T20:49:26.441275+05:30"},{"city":"Noida","state":"Uttar Pradesh","latitude":28.5355,"longitude":77.391,"temp":33.5,"humidity":65,"rain":0.0,"pressure":975.7,"uv_index":7.8,"wind_gusts":23.4,"aqi":173,"pm10":301.7,"pm2_5":92.2,"no2":30.0,"co":819.0,"o3":109.0,"so2":19.6,"mosquito_risk":3,"arthritis_risk":5,"migraine_risk":7,"frizz_risk":1,"updated_at":"2026-06-28T20:49:26.441281+05:30"},{"city":"Ghaziabad","state":"Uttar Pradesh","latitude":28.6692,"longitude":77.4538,"temp":34.4,"humidity":56,"rain":0.0,"pressure":974.0,"uv_index":7.75,"wind_gusts":26.3,"aqi":190,"pm10":157.4,"pm2_5":81.5,"no2":23.8,"co":565.0,"o3":124.0,"so2":23.2,"mosquito_risk":0,"arthritis_risk":5,"migraine_risk":7,"frizz_risk":1,"updated_at":"2026-06-28T20:49:26.441287+05:30"},{"city":"Faridabad","state":"Haryana","latitude":28.4089,"longitude":77.3178,"temp":36.6,"humidity":38,"rain":0.0,"pressure":975.1,"uv_index":7.8,"wind_gusts":28.8,"aqi":173,"pm10":301.7,"pm2_5":92.2,"no2":30.0,"co":723.0,"o3":109.0,"so2":19.6,"mosquito_risk":0,"arthritis_risk":5,"migraine_risk":10,"frizz_risk":1,"updated_at":"2026-06-28T20:49:26.441293+05:30"},{"city":"Meerut","state":"Uttar Pradesh","latitude":28.9845,"longitude":77.7064,"temp":35.1,"humidity":50,"rain":0.0,"pressure":972.9,"uv_index":7.6,"wind_gusts":28.1,"aqi":190,"pm10":157.4,"pm2_5":81.5,"no2":23.8,"co":398.0,"o3":124.0,"so2":23.2,"mosquito_risk":0,"arthritis_risk":5,"migraine_risk":10,"frizz_risk":1,"updated_at":"2026-06-28T20:49:26.441300+05:30"},{"city":"Agra","state":"Uttar Pradesh","latitude":27.1767,"longitude":78.0081,"temp":35.6,"humidity":47,"rain":0.0,"pressure":979.3,"uv_index":7.9,"wind_gusts":44.3,"aqi":197,"pm10":266.4,"pm2_5":71.7,"no2":27.1,"co":254.0,"o3":57.0,"so2":10.9,"mosquito_risk":0,"arthritis_risk":5,"migraine_risk":10,"frizz_risk":1,"updated_at":"2026-06-28T20:49:26.441306+05:30"},{"city":"Varanasi","state":"Uttar Pradesh","latitude":25.3176,"longitude":82.9739,"temp":34.8,"humidity":56,"rain":0.0,"pressure":990.5,"uv_index":8.8,"wind_gusts":33.8,"aqi":118,"pm10":84.8,"pm2_5":66.8,"no2":31.0,"co":510.0,"o3":70.0,"so2":14.0,"mosquito_risk":0,"arthritis_risk":5,"migraine_risk":7,"frizz_risk":1,"updated_at":"2026-06-28T20:49:26.441313+05:30"},{"city":"Prayagraj","state":"Uttar Pradesh","latitude":25.4358,"longitude":81.8463,"temp":35.6,"humidity":47,"rain":0.0,"pressure":988.7,"uv_index":8.7,"wind_gusts":34.9,"aqi":109,"pm10":61.0,"pm2_5":40.5,"no2":14.0,"co":231.0,"o3":89.0,"so2":9.4,"mosquito_risk":0,"arthritis_risk":5,"migraine_risk":10,"frizz_risk":1,"updated_at":"2026-06-28T20:49:26.441319+05:30"},{"city":"Gorakhpur","state":"Uttar Pradesh","latitude":26.7606,"longitude":83.3732,"temp":31.7,"humidity":73,"rain":0.0,"pressure":990.0,"uv_index":8.4,"wind_gusts":33.5,"aqi":156,"pm10":87.8,"pm2_5":70.3,"no2":37.9,"co":561.0,"o3":41.0,"so2":12.2,"mosquito_risk":3,"arthritis_risk":5,"migraine_risk":7,"frizz_risk":1,"updated_at":"2026-06-28T20:49:26.441325+05:30"},{"city":"Bareilly","state":"Uttar Pradesh","latitude":28.367,"longitude":79.4304,"temp":34.3,"humidity":56,"rain":0.0,"pressure":978.4,"uv_index":8.1,"wind_gusts":24.1,"aqi":153,"pm10":82.2,"pm2_5":51.3,"no2":19.8,"co":468.0,"o3":80.0,"so2":7.4,"mosquito_risk":0,"arthritis_risk":5,"migraine_risk":7,"frizz_risk":1,"updated_at":"2026-06-28T20:49:26.441335+05:30"},{"city":"Aligarh","state":"Uttar Pradesh","latitude":27.8974,"longitude":78.088,"temp":34.8,"humidity":59,"rain":0.0,"pressure":976.8,"uv_index":7.35,"wind_gusts":30.6,"aqi":170,"pm10":282.2,"pm2_5":92.0,"no2":35.9,"co":544.0,"o3":60.0,"so2":11.9,"mosquito_risk":0,"arthritis_risk":5,"migraine_risk":7,"frizz_risk":1,"updated_at":"2026-06-28T20:49:26.441341+05:30"},{"city":"Moradabad","state":"Uttar Pradesh","latitude":28.8386,"longitude":78.7733,"temp":36.1,"humidity":49,"rain":0.0,"pressure":975.1,"uv_index":7.7,"wind_gusts":28.8,"aqi":164,"pm10":154.6,"pm2_5":71.9,"no2":21.0,"co":523.0,"o3":104.0,"so2":12.6,"mosquito_risk":0,"arthritis_risk":5,"migraine_risk":10,"frizz_risk":1,"updated_at":"2026-06-28T20:49:26.441347+05:30"},{"city":"Saharanpur","state":"Uttar Pradesh","latitude":29.9637,"longitude":77.546,"temp":33.0,"humidity":62,"rain":0.0,"pressure":966.9,"uv_index":7.45,"wind_gusts":44.3,"aqi":180,"pm10":130.4,"pm2_5":91.5,"no2":34.3,"co":453.0,"o3":123.0,"so2":21.7,"mosquito_risk":3,"arthritis_risk":5,"migraine_risk":7,"frizz_risk":1,"updated_at":"2026-06-28T20:49:26.441354+05:30"},{"city":"Jhansi","state":"Uttar Pradesh","latitude":25.4484,"longitude":78.5685,"temp":34.6,"humidity":48,"rain":0.0,"pressure":970.9,"uv_index":3.75,"wind_gusts":47.2,"aqi":74,"pm10":38.0,"pm2_5":22.8,"no2":7.6,"co":194.0,"o3":65.0,"so2":3.3,"mosquito_risk":0,"arthritis_risk":5,"migraine_risk":3,"frizz_risk":1,"updated_at":"2026-06-28T20:49:29.692958+05:30"},{"city":"Surat","state":"Gujarat","latitude":21.1702,"longitude":72.8311,"temp":30.7,"humidity":72,"rain":0.0,"pressure":1002.0,"uv_index":7.55,"wind_gusts":44.3,"aqi":77,"pm10":38.6,"pm2_5":22.1,"no2":19.3,"co":182.0,"o3":37.0,"so2":33.0,"mosquito_risk":3,"arthritis_risk":5,"migraine_risk":4,"frizz_risk":1,"updated_at":"2026-06-28T20:49:29.692996+05:30"},{"city":"Vadodara","state":"Gujarat","latitude":22.3072,"longitude":73.1812,"temp":32.2,"humidity":59,"rain":0.1,"pressure":998.5,"uv_index":8.0,"wind_gusts":44.3,"aqi":75,"pm10":41.4,"pm2_5":24.3,"no2":13.6,"co":133.0,"o3":62.0,"so2":15.9,"mosquito_risk":3,"arthritis_risk":5,"migraine_risk":7,"frizz_risk":1,"updated_at":"2026-06-28T20:49:29.693008+05:30"},{"city":"Rajkot","state":"Gujarat","latitude":22.3039,"longitude":70.8022,"temp":32.3,"humidity":58,"rain":0.0,"pressure":988.7,"uv_index":7.55,"wind_gusts":39.6,"aqi":66,"pm10":30.7,"pm2_5":15.0,"no2":3.8,"co":112.0,"o3":64.0,"so2":5.0,"mosquito_risk":0,"arthritis_risk":5,"migraine_risk":7,"frizz_risk":1,"updated_at":"2026-06-28T20:49:29.693016+05:30"},{"city":"Thane","state":"Maharashtra","latitude":19.2183,"longitude":72.9781,"temp":25.1,"humidity":97,"rain":0.3,"pressure":1005.1,"uv_index":5.15,"wind_gusts":25.9,"aqi":55,"pm10":18.7,"pm2_5":10.1,"no2":6.9,"co":261.0,"o3":46.0,"so2":4.5,"mosquito_risk":10,"arthritis_risk":5,"migraine_risk":0,"frizz_risk":1,"updated_at":"2026-06-28T20:49:29.693025+05:30"},{"city":"Nagpur","state":"Maharashtra","latitude":21.1458,"longitude":79.0882,"temp":29.0,"humidity":82,"rain":0.0,"pressure":968.6,"uv_index":8.85,"wind_gusts":38.9,"aqi":96,"pm10":38.9,"pm2_5":33.5,"no2":15.7,"co":405.0,"o3":80.0,"so2":18.8,"mosquito_risk":7,"arthritis_risk":5,"migraine_risk":7,"frizz_risk":1,"updated_at":"2026-06-28T20:49:29.693032+05:30"},{"city":"Nashik","state":"Maharashtra","latitude":19.9975,"longitude":73.7898,"temp":24.6,"humidity":88,"rain":0.0,"pressure":942.1,"uv_index":7.35,"wind_gusts":36.7,"aqi":50,"pm10":15.3,"pm2_5":8.6,"no2":5.5,"co":157.0,"o3":51.0,"so2":1.7,"mosquito_risk":3,"arthritis_risk":5,"migraine_risk":7,"frizz_risk":1,"updated_at":"2026-06-28T20:49:29.693040+05:30"},{"city":"Aurangabad","state":"Maharashtra","latitude":19.8762,"longitude":75.3433,"temp":26.5,"humidity":75,"rain":0.0,"pressure":940.6,"uv_index":6.9,"wind_gusts":28.8,"aqi":60,"pm10":27.9,"pm2_5":19.4,"no2":11.1,"co":185.0,"o3":54.0,"so2":3.8,"mosquito_risk":7,"arthritis_risk":5,"migraine_risk":7,"frizz_risk":1,"updated_at":"2026-06-28T20:49:29.693046+05:30"},{"city":"Solapur","state":"Maharashtra","latitude":17.6599,"longitude":75.9064,"temp":25.0,"humidity":93,"rain":0.2,"pressure":954.7,"uv_index":8.55,"wind_gusts":27.7,"aqi":47,"pm10":10.7,"pm2_5":8.6,"no2":5.6,"co":163.0,"o3":76.0,"so2":2.0,"mosquito_risk":10,"arthritis_risk":5,"migraine_risk":7,"frizz_risk":1,"updated_at":"2026-06-28T20:49:29.693054+05:30"},{"city":"Kolhapur","state":"Maharashtra","latitude":16.705,"longitude":74.2433,"temp":23.3,"humidity":93,"rain":0.0,"pressure":945.2,"uv_index":7.2,"wind_gusts":42.8,"aqi":27,"pm10":5.0,"pm2_5":4.8,"no2":6.6,"co":154.0,"o3":39.0,"so2":2.4,"mosquito_risk":3,"arthritis_risk":5,"migraine_risk":7,"frizz_risk":1,"updated_at":"2026-06-28T20:49:29.693062+05:30"},{"city":"Goa","state":"Goa","latitude":15.2993,"longitude":74.124,"temp":24.6,"humidity":99,"rain":0.1,"pressure":996.6,"uv_index":4.55,"wind_gusts":31.3,"aqi":31,"pm10":13.2,"pm2_5":7.9,"no2":2.6,"co":201.0,"o3":52.0,"so2":0.9,"mosquito_risk":6,"arthritis_risk":5,"migraine_risk":3,"frizz_risk":1,"updated_at":"2026-06-28T20:49:29.693068+05:30"},{"city":"Jodhpur","state":"Rajasthan","latitude":26.2389,"longitude":73.0243,"temp":35.4,"humidity":37,"rain":0.0,"pressure":975.4,"uv_index":8.4,"wind_gusts":38.9,"aqi":131,"pm10":236.1,"pm2_5":51.2,"no2":5.0,"co":139.0,"o3":64.0,"so2":1.7,"mosquito_risk":0,"arthritis_risk":5,"migraine_risk":10,"frizz_risk":1,"updated_at":"2026-06-28T20:49:29.693075+05:30"},{"city":"Udaipur","state":"Rajasthan","latitude":24.5854,"longitude":73.7125,"temp":28.4,"humidity":76,"rain":0.0,"pressure":940.7,"uv_index":8.65,"wind_gusts":28.1,"aqi":66,"pm10":33.3,"pm2_5":18.0,"no2":5.9,"co":165.0,"o3":65.0,"so2":2.2,"mosquito_risk":7,"arthritis_risk":5,"migraine_risk":7,"frizz_risk":1,"updated_at":"2026-06-28T20:49:29.693083+05:30"},{"city":"Kota","state":"Rajasthan","latitude":25.2138,"longitude":75.8648,"temp":31.7,"humidity":62,"rain":0.0,"pressure":972.6,"uv_index":8.3,"wind_gusts":36.7,"aqi":74,"pm10":26.5,"pm2_5":17.4,"no2":5.1,"co":193.0,"o3":75.0,"so2":3.2,"mosquito_risk":3,"arthritis_risk":5,"migraine_risk":7,"frizz_risk":1,"updated_at":"2026-06-28T20:49:29.693090+05:30"},{"city":"Bikaner","state":"Rajasthan","latitude":28.0229,"longitude":73.3119,"temp":37.7,"humidity":33,"rain":0.0,"pressure":973.1,"uv_index":8.45,"wind_gusts":37.4,"aqi":121,"pm10":98.5,"pm2_5":39.0,"no2":2.6,"co":134.0,"o3":67.0,"so2":2.1,"mosquito_risk":0,"arthritis_risk":5,"migraine_risk":10,"frizz_risk":1,"updated_at":"2026-06-28T20:49:29.693097+05:30"},{"city":"Ajmer","state":"Rajasthan","latitude":26.4499,"longitude":74.6399,"temp":32.6,"humidity":49,"rain":0.0,"pressure":948.4,"uv_index":8.35,"wind_gusts":47.2,"aqi":94,"pm10":77.3,"pm2_5":36.0,"no2":6.8,"co":181.0,"o3":62.0,"so2":3.5,"mosquito_risk":0,"arthritis_risk":5,"migraine_risk":7,"frizz_risk":1,"updated_at":"2026-06-28T20:49:29.693103+05:30"},{"city":"Gwalior","state":"Madhya Pradesh","latitude":26.2183,"longitude":78.1828,"temp":34.1,"humidity":53,"rain":0.0,"pressure":975.7,"uv_index":8.25,"wind_gusts":52.2,"aqi":83,"pm10":94.1,"pm2_5":41.1,"no2":7.2,"co":179.0,"o3":71.0,"so2":4.6,"mosquito_risk":0,"arthritis_risk":5,"migraine_risk":7,"frizz_risk":1,"updated_at":"2026-06-28T20:49:29.693110+05:30"},{"city":"Indore","state":"Madhya Pradesh","latitude":22.7196,"longitude":75.8577,"temp":27.2,"humidity":75,"rain":0.0,"pressure":943.4,"uv_index":8.3,"wind_gusts":34.6,"aqi":85,"pm10":50.8,"pm2_5":34.8,"no2":13.5,"co":460.0,"o3":62.0,"so2":6.3,"mosquito_risk":7,"arthritis_risk":5,"migraine_risk":7,"frizz_risk":1,"updated_at":"2026-06-28T20:49:29.693117+05:30"},{"city":"Bhopal","state":"Madhya Pradesh","latitude":23.2599,"longitude":77.4126,"temp":27.9,"humidity":88,"rain":0.0,"pressure":948.6,"uv_index":8.5,"wind_gusts":37.1,"aqi":86,"pm10":37.0,"pm2_5":28.8,"no2":7.3,"co":299.0,"o3":77.0,"so2":3.9,"mosquito_risk":7,"arthritis_risk":5,"migraine_risk":7,"frizz_risk":1,"updated_at":"2026-06-28T20:49:29.693123+05:30"},{"city":"Jabalpur","state":"Madhya Pradesh","latitude":23.1815,"longitude":79.9864,"temp":30.7,"humidity":66,"rain":0.0,"pressure":956.3,"uv_index":8.85,"wind_gusts":25.6,"aqi":80,"pm10":30.9,"pm2_5":26.5,"no2":8.1,"co":252.0,"o3":93.0,"so2":3.9,"mosquito_risk":3,"arthritis_risk":5,"migraine_risk":7,"frizz_risk":1,"updated_at":"2026-06-28T20:49:29.693130+05:30"},{"city":"Ujjain","state":"Madhya Pradesh","latitude":23.1765,"longitude":75.7885,"temp":27.8,"humidity":74,"rain":0.0,"pressure":948.9,"uv_index":8.5,"wind_gusts":37.1,"aqi":80,"pm10":39.3,"pm2_5":27.1,"no2":6.5,"co":407.0,"o3":68.0,"so2":3.2,"mosquito_risk":7,"arthritis_risk":5,"migraine_risk":7,"frizz_risk":1,"updated_at":"2026-06-28T20:49:29.693138+05:30"},{"city":"Visakhapatnam","state":"Andhra Pradesh","latitude":17.6868,"longitude":83.2185,"temp":28.6,"humidity":89,"rain":0.0,"pressure":999.7,"uv_index":8.25,"wind_gusts":46.1,"aqi":79,"pm10":32.6,"pm2_5":26.1,"no2":21.1,"co":268.0,"o3":87.0,"so2":34.5,"mosquito_risk":7,"arthritis_risk":5,"migraine_risk":7,"frizz_risk":1,"updated_at":"2026-06-28T20:49:29.693145+05:30"},{"city":"Vijayawada","state":"Andhra Pradesh","latitude":16.5062,"longitude":80.648,"temp":30.8,"humidity":74,"rain":0.0,"pressure":998.1,"uv_index":7.45,"wind_gusts":40.3,"aqi":82,"pm10":29.5,"pm2_5":27.0,"no2":12.5,"co":442.0,"o3":72.0,"so2":7.7,"mosquito_risk":3,"arthritis_risk":5,"migraine_risk":7,"frizz_risk":1,"updated_at":"2026-06-28T20:49:29.693152+05:30"},{"city":"Guntur","state":"Andhra Pradesh","latitude":16.3067,"longitude":80.4365,"temp":31.2,"humidity":70,"rain":0.0,"pressure":999.4,"uv_index":6.6,"wind_gusts":44.3,"aqi":76,"pm10":27.7,"pm2_5":25.0,"no2":13.2,"co":596.0,"o3":67.0,"so2":6.1,"mosquito_risk":3,"arthritis_risk":5,"migraine_risk":7,"frizz_risk":1,"updated_at":"2026-06-28T20:49:29.693159+05:30"},{"city":"Nellore","state":"Andhra Pradesh","latitude":14.4426,"longitude":79.9865,"temp":27.5,"humidity":90,"rain":0.3,"pressure":1002.9,"uv_index":8.1,"wind_gusts":33.1,"aqi":67,"pm10":24.9,"pm2_5":19.7,"no2":4.9,"co":270.0,"o3":119.0,"so2":6.7,"mosquito_risk":10,"arthritis_risk":5,"migraine_risk":4,"frizz_risk":1,"updated_at":"2026-06-28T20:49:29.693167+05:30"},{"city":"Kurnool","state":"Andhra Pradesh","latitude":15.8281,"longitude":78.0373,"temp":25.6,"humidity":91,"rain":0.1,"pressure":974.3,"uv_index":7.65,"wind_gusts":55.8,"aqi":44,"pm10":7.2,"pm2_5":6.9,"no2":9.1,"co":169.0,"o3":53.0,"so2":7.6,"mosquito_risk":10,"arthritis_risk":5,"migraine_risk":7,"frizz_risk":1,"updated_at":"2026-06-28T20:49:29.693175+05:30"},{"city":"Kakinada","state":"Andhra Pradesh","latitude":16.9891,"longitude":82.2475,"temp":29.1,"humidity":91,"rain":0.0,"pressure":1003.3,"uv_index":6.85,"wind_gusts":37.4,"aqi":78,"pm10":31.8,"pm2_5":23.3,"no2":3.1,"co":285.0,"o3":121.0,"so2":4.9,"mosquito_risk":7,"arthritis_risk":5,"migraine_risk":4,"frizz_risk":1,"updated_at":"2026-06-28T20:49:29.693182+05:30"},{"city":"Tirupati","state":"Andhra Pradesh","latitude":13.6288,"longitude":79.4192,"temp":26.1,"humidity":95,"rain":0.0,"pressure":988.5,"uv_index":8.75,"wind_gusts":37.4,"aqi":56,"pm10":25.2,"pm2_5":19.6,"no2":18.0,"co":241.0,"o3":53.0,"so2":3.6,"mosquito_risk":7,"arthritis_risk":5,"migraine_risk":7,"frizz_risk":1,"updated_at":"2026-06-28T20:49:29.693189+05:30"},{"city":"Warangal","state":"Telangana","latitude":17.9689,"longitude":79.5941,"temp":27.9,"humidity":81,"rain":0.0,"pressure":975.1,"uv_index":8.2,"wind_gusts":25.9,"aqi":74,"pm10":30.6,"pm2_5":27.0,"no2":16.0,"co":384.0,"o3":49.0,"so2":4.8,"mosquito_risk":7,"arthritis_risk":5,"migraine_risk":7,"frizz_risk":1,"updated_at":"2026-06-28T20:49:29.693195+05:30"},{"city":"Nizamabad","state":"Telangana","latitude":18.6725,"longitude":78.0941,"temp":26.1,"humidity":95,"rain":0.0,"pressure":961.2,"uv_index":8.4,"wind_gusts":36.0,"aqi":86,"pm10":39.0,"pm2_5":32.6,"no2":18.0,"co":297.0,"o3":54.0,"so2":4.9,"mosquito_risk":7,"arthritis_risk":5,"migraine_risk":7,"frizz_risk":1,"updated_at":"2026-06-28T20:49:29.693202+05:30"},{"city":"Mysore","state":"Karnataka","latitude":12.2958,"longitude":76.6396,"temp":23.1,"humidity":86,"rain":0.0,"pressure":927.1,"uv_index":7.45,"wind_gusts":56.2,"aqi":28,"pm10":3.1,"pm2_5":2.9,"no2":6.5,"co":138.0,"o3":42.0,"so2":1.7,"mosquito_risk":3,"arthritis_risk":5,"migraine_risk":7,"frizz_risk":1,"updated_at":"2026-06-28T20:49:29.693209+05:30"},{"city":"Mangalore","state":"Karnataka","latitude":12.9141,"longitude":74.856,"temp":25.2,"humidity":94,"rain":0.1,"pressure":1006.2,"uv_index":8.1,"wind_gusts":45.0,"aqi":39,"pm10":10.7,"pm2_5":7.3,"no2":4.7,"co":163.0,"o3":45.0,"so2":1.6,"mosquito_risk":10,"arthritis_risk":5,"migraine_risk":4,"frizz_risk":1,"updated_at":"2026-06-28T20:49:29.693216+05:30"},{"city":"Hubli-Dharwad","state":"Karnataka","latitude":15.3647,"longitude":75.124,"temp":22.9,"humidity":96,"rain":0.0,"pressure":938.5,"uv_index":7.75,"wind_gusts":40.3,"aqi":24,"pm10":3.5,"pm2_5":2.9,"no2":5.1,"co":128.0,"o3":42.0,"so2":1.4,"mosquito_risk":3,"arthritis_risk":5,"migraine_risk":7,"frizz_risk":1,"updated_at":"2026-06-28T20:49:29.693223+05:30"},{"city":"Belgaum","state":"Karnataka","latitude":15.8497,"longitude":74.4977,"temp":21.9,"humidity":98,"rain":0.0,"pressure":923.2,"uv_index":7.2,"wind_gusts":45.0,"aqi":24,"pm10":4.9,"pm2_5":3.6,"no2":4.4,"co":123.0,"o3":42.0,"so2":1.2,"mosquito_risk":3,"arthritis_risk":5,"migraine_risk":7,"frizz_risk":1,"updated_at":"2026-06-28T20:49:32.960636+05:30"},{"city":"Coimbatore","state":"Tamil Nadu","latitude":11.0168,"longitude":76.9558,"temp":23.8,"humidity":90,"rain":0.0,"pressure":960.0,"uv_index":8.9,"wind_gusts":60.8,"aqi":27,"pm10":4.1,"pm2_5":3.7,"no2":6.2,"co":163.0,"o3":38.0,"so2":2.3,"mosquito_risk":3,"arthritis_risk":5,"migraine_risk":7,"frizz_risk":1,"updated_at":"2026-06-28T20:49:32.960670+05:30"},{"city":"Madurai","state":"Tamil Nadu","latitude":9.9252,"longitude":78.1198,"temp":29.7,"humidity":57,"rain":0.0,"pressure":991.0,"uv_index":8.8,"wind_gusts":57.6,"aqi":65,"pm10":14.5,"pm2_5":11.5,"no2":16.9,"co":130.0,"o3":35.0,"so2":4.6,"mosquito_risk":4,"arthritis_risk":5,"migraine_risk":7,"frizz_risk":1,"updated_at":"2026-06-28T20:49:32.960681+05:30"},{"city":"Trichy","state":"Tamil Nadu","latitude":10.7905,"longitude":78.7047,"temp":26.3,"humidity":97,"rain":0.0,"pressure":998.2,"uv_index":8.65,"wind_gusts":49.3,"aqi":48,"pm10":13.8,"pm2_5":10.7,"no2":7.9,"co":117.0,"o3":70.0,"so2":2.7,"mosquito_risk":7,"arthritis_risk":5,"migraine_risk":7,"frizz_risk":1,"updated_at":"2026-06-28T20:49:32.960690+05:30"},{"city":"Salem","state":"Tamil Nadu","latitude":11.6643,"longitude":78.146,"temp":26.2,"humidity":91,"rain":0.0,"pressure":975.5,"uv_index":8.85,"wind_gusts":43.6,"aqi":54,"pm10":11.9,"pm2_5":9.1,"no2":9.7,"co":354.0,"o3":60.0,"so2":6.7,"mosquito_risk":7,"arthritis_risk":5,"migraine_risk":7,"frizz_risk":1,"updated_at":"2026-06-28T20:49:32.960698+05:30"},{"city":"Tirunelveli","state":"Tamil Nadu","latitude":8.7139,"longitude":77.7567,"temp":30.1,"humidity":59,"rain":0.0,"pressure":1001.9,"uv_index":8.65,"wind_gusts":46.4,"aqi":33,"pm10":4.6,"pm2_5":3.8,"no2":4.7,"co":120.0,"o3":43.0,"so2":1.3,"mosquito_risk":0,"arthritis_risk":5,"migraine_risk":4,"frizz_risk":1,"updated_at":"2026-06-28T20:49:32.960705+05:30"},{"city":"Vellore","state":"Tamil Nadu","latitude":12.9165,"longitude":79.1325,"temp":27.3,"humidity":91,"rain":0.0,"pressure":982.1,"uv_index":8.95,"wind_gusts":31.0,"aqi":58,"pm10":16.6,"pm2_5":12.6,"no2":7.7,"co":185.0,"o3":73.0,"so2":3.4,"mosquito_risk":7,"arthritis_risk":5,"migraine_risk":7,"frizz_risk":1,"updated_at":"2026-06-28T20:49:32.960712+05:30"},{"city":"Erode","state":"Tamil Nadu","latitude":11.341,"longitude":77.7172,"temp":27.6,"humidity":72,"rain":0.0,"pressure":987.4,"uv_index":8.85,"wind_gusts":51.1,"aqi":43,"pm10":8.2,"pm2_5":7.0,"no2":9.4,"co":167.0,"o3":44.0,"so2":2.5,"mosquito_risk":7,"arthritis_risk":5,"migraine_risk":7,"frizz_risk":1,"updated_at":"2026-06-28T20:49:32.960720+05:30"},{"city":"Kochi","state":"Kerala","latitude":9.9312,"longitude":76.2673,"temp":24.9,"humidity":94,"rain":0.3,"pressure":1009.3,"uv_index":8.55,"wind_gusts":43.9,"aqi":49,"pm10":11.8,"pm2_5":8.9,"no2":10.0,"co":123.0,"o3":32.0,"so2":3.0,"mosquito_risk":6,"arthritis_risk":0,"migraine_risk":4,"frizz_risk":1,"updated_at":"2026-06-28T20:49:32.960727+05:30"},{"city":"Thiruvananthapuram","state":"Kerala","latitude":8.5241,"longitude":76.9366,"temp":24.6,"humidity":96,"rain":0.1,"pressure":1008.9,"uv_index":7.65,"wind_gusts":46.8,"aqi":37,"pm10":11.4,"pm2_5":6.3,"no2":2.5,"co":118.0,"o3":51.0,"so2":0.8,"mosquito_risk":6,"arthritis_risk":0,"migraine_risk":4,"frizz_risk":1,"updated_at":"2026-06-28T20:49:32.960734+05:30"},{"city":"Kozhikode","state":"Kerala","latitude":11.2588,"longitude":75.7804,"temp":24.0,"humidity":98,"rain":0.3,"pressure":1008.3,"uv_index":8.55,"wind_gusts":39.2,"aqi":35,"pm10":11.5,"pm2_5":6.0,"no2":1.0,"co":158.0,"o3":55.0,"so2":0.5,"mosquito_risk":6,"arthritis_risk":0,"migraine_risk":4,"frizz_risk":1,"updated_at":"2026-06-28T20:49:32.960740+05:30"},{"city":"Thrissur","state":"Kerala","latitude":10.5276,"longitude":76.2144,"temp":24.4,"humidity":99,"rain":0.1,"pressure":1007.2,"uv_index":8.55,"wind_gusts":39.2,"aqi":51,"pm10":12.3,"pm2_5":9.9,"no2":7.9,"co":179.0,"o3":34.0,"so2":2.3,"mosquito_risk":6,"arthritis_risk":5,"migraine_risk":4,"frizz_risk":1,"updated_at":"2026-06-28T20:49:32.960748+05:30"},{"city":"Kannur","state":"Kerala","latitude":11.8745,"longitude":75.3704,"temp":24.8,"humidity":97,"rain":0.3,"pressure":1006.9,"uv_index":8.6,"wind_gusts":41.8,"aqi":40,"pm10":11.1,"pm2_5":7.3,"no2":5.0,"co":156.0,"o3":43.0,"so2":1.2,"mosquito_risk":6,"arthritis_risk":5,"migraine_risk":4,"frizz_risk":1,"updated_at":"2026-06-28T20:49:32.960754+05:30"},{"city":"Patna","state":"Bihar","latitude":25.5941,"longitude":85.1376,"temp":32.9,"humidity":71,"rain":0.0,"pressure":993.3,"uv_index":7.55,"wind_gusts":35.3,"aqi":153,"pm10":80.8,"pm2_5":71.9,"no2":31.2,"co":322.0,"o3":84.0,"so2":16.2,"mosquito_risk":3,"arthritis_risk":5,"migraine_risk":7,"frizz_risk":1,"updated_at":"2026-06-28T20:49:32.960760+05:30"},{"city":"Gaya","state":"Bihar","latitude":24.7914,"longitude":85.0002,"temp":32.9,"humidity":65,"rain":0.0,"pressure":986.9,"uv_index":8.6,"wind_gusts":35.6,"aqi":120,"pm10":70.3,"pm2_5":65.9,"no2":31.4,"co":289.0,"o3":67.0,"so2":15.1,"mosquito_risk":3,"arthritis_risk":5,"migraine_risk":7,"frizz_risk":1,"updated_at":"2026-06-28T20:49:32.960767+05:30"},{"city":"Muzaffarpur","state":"Bihar","latitude":26.1209,"longitude":85.3647,"temp":29.1,"humidity":89,"rain":0.0,"pressure":993.6,"uv_index":8.2,"wind_gusts":29.5,"aqi":157,"pm10":79.6,"pm2_5":73.6,"no2":29.9,"co":457.0,"o3":85.0,"so2":15.0,"mosquito_risk":7,"arthritis_risk":5,"migraine_risk":7,"frizz_risk":1,"updated_at":"2026-06-28T20:49:32.960773+05:30"},{"city":"Bhagalpur","state":"Bihar","latitude":25.2425,"longitude":87.0117,"temp":31.7,"humidity":74,"rain":0.3,"pressure":994.2,"uv_index":7.75,"wind_gusts":30.6,"aqi":149,"pm10":50.6,"pm2_5":48.3,"no2":13.4,"co":305.0,"o3":114.0,"so2":14.2,"mosquito_risk":6,"arthritis_risk":5,"migraine_risk":7,"frizz_risk":1,"updated_at":"2026-06-28T20:49:32.960780+05:30"},{"city":"Ranchi","state":"Jharkhand","latitude":23.3441,"longitude":85.3096,"temp":25.9,"humidity":87,"rain":0.0,"pressure":932.8,"uv_index":9.0,"wind_gusts":31.3,"aqi":115,"pm10":44.7,"pm2_5":43.9,"no2":11.1,"co":261.0,"o3":94.0,"so2":7.2,"mosquito_risk":7,"arthritis_risk":5,"migraine_risk":7,"frizz_risk":1,"updated_at":"2026-06-28T20:49:32.960786+05:30"},{"city":"Jamshedpur","state":"Jharkhand","latitude":22.8046,"longitude":86.2029,"temp":29.7,"humidity":83,"rain":0.0,"pressure":985.1,"uv_index":8.85,"wind_gusts":31.3,"aqi":159,"pm10":48.5,"pm2_5":47.1,"no2":17.0,"co":700.0,"o3":109.0,"so2":26.0,"mosquito_risk":7,"arthritis_risk":5,"migraine_risk":7,"frizz_risk":1,"updated_at":"2026-06-28T20:49:32.960792+05:30"},{"city":"Dhanbad","state":"Jharkhand","latitude":23.7957,"longitude":86.4304,"temp":30.2,"humidity":80,"rain":0.0,"pressure":973.9,"uv_index":8.85,"wind_gusts":38.9,"aqi":155,"pm10":67.1,"pm2_5":66.1,"no2":42.6,"co":828.0,"o3":87.0,"so2":111.7,"mosquito_risk":3,"arthritis_risk":5,"migraine_risk":7,"frizz_risk":1,"updated_at":"2026-06-28T20:49:32.960798+05:30"},{"city":"Bokaro","state":"Jharkhand","latitude":23.6693,"longitude":86.1511,"temp":30.9,"humidity":73,"rain":0.0,"pressure":977.8,"uv_index":8.95,"wind_gusts":35.3,"aqi":153,"pm10":52.9,"pm2_5":52.0,"no2":27.7,"co":634.0,"o3":90.0,"so2":71.4,"mosquito_risk":3,"arthritis_risk":5,"migraine_risk":7,"frizz_risk":1,"updated_at":"2026-06-28T20:49:32.960805+05:30"},{"city":"Bhubaneswar","state":"Odisha","latitude":20.2961,"longitude":85.8245,"temp":28.1,"humidity":93,"rain":0.0,"pressure":997.6,"uv_index":8.35,"wind_gusts":35.3,"aqi":115,"pm10":36.4,"pm2_5":35.3,"no2":9.6,"co":210.0,"o3":112.0,"so2":8.5,"mosquito_risk":7,"arthritis_risk":5,"migraine_risk":7,"frizz_risk":1,"updated_at":"2026-06-28T20:49:32.960812+05:30"},{"city":"Cuttack","state":"Odisha","latitude":20.4625,"longitude":85.8828,"temp":28.3,"humidity":96,"rain":0.0,"pressure":999.3,"uv_index":8.85,"wind_gusts":27.4,"aqi":115,"pm10":36.4,"pm2_5":35.3,"no2":9.6,"co":259.0,"o3":112.0,"so2":8.5,"mosquito_risk":7,"arthritis_risk":5,"migraine_risk":7,"frizz_risk":1,"updated_at":"2026-06-28T20:49:32.960818+05:30"},{"city":"Rourkela","state":"Odisha","latitude":22.2604,"longitude":84.8536,"temp":29.5,"humidity":78,"rain":0.0,"pressure":979.8,"uv_index":9.0,"wind_gusts":31.3,"aqi":149,"pm10":49.4,"pm2_5":47.4,"no2":12.0,"co":525.0,"o3":138.0,"so2":21.9,"mosquito_risk":7,"arthritis_risk":5,"migraine_risk":7,"frizz_risk":1,"updated_at":"2026-06-28T20:49:32.960825+05:30"},{"city":"Raipur","state":"Chhattisgarh","latitude":21.2514,"longitude":81.6296,"temp":27.4,"humidity":93,"rain":0.0,"pressure":969.7,"uv_index":8.95,"wind_gusts":31.0,"aqi":114,"pm10":41.1,"pm2_5":38.3,"no2":23.9,"co":436.0,"o3":81.0,"so2":46.3,"mosquito_risk":7,"arthritis_risk":5,"migraine_risk":7,"frizz_risk":1,"updated_at":"2026-06-28T20:49:32.960831+05:30"},{"city":"Bhilai","state":"Chhattisgarh","latitude":21.1938,"longitude":81.3509,"temp":28.0,"humidity":87,"rain":0.0,"pressure":970.3,"uv_index":8.65,"wind_gusts":31.3,"aqi":111,"pm10":38.5,"pm2_5":35.5,"no2":21.2,"co":1102.0,"o3":86.0,"so2":40.7,"mosquito_risk":7,"arthritis_risk":5,"migraine_risk":7,"frizz_risk":1,"updated_at":"2026-06-28T20:49:32.960837+05:30"},{"city":"Guwahati","state":"Assam","latitude":26.1158,"longitude":91.7086,"temp":28.0,"humidity":91,"rain":0.0,"pressure":995.4,"uv_index":7.05,"wind_gusts":46.4,"aqi":66,"pm10":18.6,"pm2_5":17.9,"no2":7.8,"co":318.0,"o3":63.0,"so2":3.0,"mosquito_risk":7,"arthritis_risk":5,"migraine_risk":7,"frizz_risk":1,"updated_at":"2026-06-28T20:49:32.960843+05:30"},{"city":"Agartala","state":"Tripura","latitude":23.8315,"longitude":91.2868,"temp":28.6,"humidity":82,"rain":0.0,"pressure":1001.8,"uv_index":7.5,"wind_gusts":40.7,"aqi":49,"pm10":12.7,"pm2_5":11.7,"no2":7.8,"co":190.0,"o3":45.0,"so2":1.9,"mosquito_risk":7,"arthritis_risk":5,"migraine_risk":4,"frizz_risk":1,"updated_at":"2026-06-28T20:49:32.960849+05:30"},{"city":"Shillong","state":"Meghalaya","latitude":25.5788,"longitude":91.8933,"temp":21.2,"humidity":92,"rain":0.0,"pressure":854.4,"uv_index":6.65,"wind_gusts":42.1,"aqi":38,"pm10":8.6,"pm2_5":8.4,"no2":6.1,"co":207.0,"o3":68.0,"so2":1.5,"mosquito_risk":3,"arthritis_risk":5,"migraine_risk":7,"frizz_risk":1,"updated_at":"2026-06-28T20:49:32.960855+05:30"},{"city":"Imphal","state":"Manipur","latitude":24.817,"longitude":93.9368,"temp":24.7,"humidity":88,"rain":0.0,"pressure":919.8,"uv_index":8.85,"wind_gusts":36.7,"aqi":51,"pm10":19.4,"pm2_5":19.1,"no2":14.5,"co":350.0,"o3":26.0,"so2":3.4,"mosquito_risk":3,"arthritis_risk":5,"migraine_risk":7,"frizz_risk":1,"updated_at":"2026-06-28T20:49:32.960861+05:30"},{"city":"Aizawl","state":"Mizoram","latitude":23.7271,"longitude":92.7176,"temp":20.9,"humidity":90,"rain":0.0,"pressure":890.0,"uv_index":8.35,"wind_gusts":34.2,"aqi":30,"pm10":5.2,"pm2_5":4.8,"no2":3.1,"co":129.0,"o3":53.0,"so2":1.0,"mosquito_risk":3,"arthritis_risk":5,"migraine_risk":7,"frizz_risk":1,"updated_at":"2026-06-28T20:49:32.960868+05:30"},{"city":"Kohima","state":"Nagaland","latitude":25.6701,"longitude":94.1077,"temp":20.6,"humidity":96,"rain":0.0,"pressure":852.3,"uv_index":9.0,"wind_gusts":28.8,"aqi":36,"pm10":12.0,"pm2_5":11.4,"no2":9.7,"co":327.0,"o3":36.0,"so2":1.7,"mosquito_risk":3,"arthritis_risk":5,"migraine_risk":7,"frizz_risk":1,"updated_at":"2026-06-28T20:49:32.960874+05:30"},{"city":"Gangtok","state":"Sikkim","latitude":27.3314,"longitude":88.6138,"temp":19.1,"humidity":93,"rain":1.4,"pressure":834.2,"uv_index":5.95,"wind_gusts":36.0,"aqi":65,"pm10":13.4,"pm2_5":12.3,"no2":11.3,"co":340.0,"o3":93.0,"so2":2.6,"mosquito_risk":6,"arthritis_risk":10,"migraine_risk":3,"frizz_risk":1,"updated_at":"2026-06-28T20:49:32.960880+05:30"},{"city":"Siliguri","state":"West Bengal","latitude":26.7271,"longitude":88.3953,"temp":26.3,"humidity":98,"rain":0.1,"pressure":987.3,"uv_index":6.9,"wind_gusts":27.0,"aqi":78,"pm10":33.4,"pm2_5":30.6,"no2":13.0,"co":547.0,"o3":100.0,"so2":5.2,"mosquito_risk":10,"arthritis_risk":5,"migraine_risk":7,"frizz_risk":1,"updated_at":"2026-06-28T20:49:36.224920+05:30"},{"city":"Durgapur","state":"West Bengal","latitude":23.5204,"longitude":87.3119,"temp":29.7,"humidity":86,"rain":0.0,"pressure":989.0,"uv_index":8.85,"wind_gusts":30.2,"aqi":163,"pm10":77.8,"pm2_5":76.6,"no2":28.7,"co":616.0,"o3":112.0,"so2":62.3,"mosquito_risk":7,"arthritis_risk":5,"migraine_risk":7,"frizz_risk":1,"updated_at":"2026-06-28T20:49:36.224956+05:30"},{"city":"Asansol","state":"West Bengal","latitude":23.6739,"longitude":86.9524,"temp":30.1,"humidity":82,"rain":0.0,"pressure":987.6,"uv_index":8.85,"wind_gusts":36.7,"aqi":158,"pm10":66.1,"pm2_5":65.2,"no2":31.4,"co":429.0,"o3":104.0,"so2":67.1,"mosquito_risk":3,"arthritis_risk":5,"migraine_risk":7,"frizz_risk":1,"updated_at":"2026-06-28T20:49:36.224968+05:30"},{"city":"Pondicherry","state":"Puducherry","latitude":11.9139,"longitude":79.8145,"temp":28.5,"humidity":79,"rain":0.0,"pressure":1006.8,"uv_index":8.7,"wind_gusts":43.9,"aqi":81,"pm10":25.2,"pm2_5":17.6,"no2":6.3,"co":213.0,"o3":95.0,"so2":4.4,"mosquito_risk":7,"arthritis_risk":5,"migraine_risk":4,"frizz_risk":1,"updated_at":"2026-06-28T20:49:36.224977+05:30"},{"city":"Port Blair","state":"Andaman and Nicobar Islands","latitude":11.6234,"longitude":92.7265,"temp":25.6,"humidity":96,"rain":0.0,"pressure":1007.3,"uv_index":3.8,"wind_gusts":39.6,"aqi":21,"pm10":8.0,"pm2_5":4.8,"no2":0.3,"co":88.0,"o3":48.0,"so2":0.2,"mosquito_risk":7,"arthritis_risk":5,"migraine_risk":0,"frizz_risk":1,"updated_at":"2026-06-28T20:49:36.224986+05:30"},{"city":"Haridwar","state":"Uttarakhand","latitude":29.9457,"longitude":78.1642,"temp":31.7,"humidity":64,"rain":0.0,"pressure":965.6,"uv_index":7.6,"wind_gusts":36.7,"aqi":168,"pm10":92.2,"pm2_5":66.4,"no2":11.7,"co":326.0,"o3":150.0,"so2":12.3,"mosquito_risk":3,"arthritis_risk":5,"migraine_risk":7,"frizz_risk":1,"updated_at":"2026-06-28T20:49:36.224994+05:30"},{"city":"Rishikesh","state":"Uttarakhand","latitude":30.0869,"longitude":78.2676,"temp":29.7,"humidity":72,"rain":0.0,"pressure":958.6,"uv_index":7.7,"wind_gusts":26.3,"aqi":136,"pm10":78.9,"pm2_5":50.6,"no2":9.9,"co":308.0,"o3":111.0,"so2":6.3,"mosquito_risk":7,"arthritis_risk":5,"migraine_risk":7,"frizz_risk":1,"updated_at":"2026-06-28T20:49:36.225001+05:30"},{"city":"Nainital","state":"Uttarakhand","latitude":29.3919,"longitude":79.4542,"temp":17.9,"humidity":100,"rain":0.0,"pressure":802.2,"uv_index":8.0,"wind_gusts":32.0,"aqi":151,"pm10":99.0,"pm2_5":47.1,"no2":5.8,"co":359.0,"o3":138.0,"so2":9.6,"mosquito_risk":3,"arthritis_risk":10,"migraine_risk":7,"frizz_risk":1,"updated_at":"2026-06-28T20:49:36.225009+05:30"},{"city":"Mussoorie","state":"Uttarakhand","latitude":30.4599,"longitude":78.0664,"temp":18.7,"humidity":89,"rain":0.0,"pressure":799.6,"uv_index":7.35,"wind_gusts":39.2,"aqi":157,"pm10":75.7,"pm2_5":53.6,"no2":9.7,"co":378.0,"o3":138.0,"so2":8.2,"mosquito_risk":3,"arthritis_risk":10,"migraine_risk":7,"frizz_risk":1,"updated_at":"2026-06-28T20:49:36.225016+05:30"},{"city":"Dharamshala","state":"Himachal Pradesh","latitude":32.219,"longitude":76.3234,"temp":23.5,"humidity":85,"rain":0.0,"pressure":864.1,"uv_index":7.55,"wind_gusts":33.8,"aqi":84,"pm10":16.5,"pm2_5":13.9,"no2":11.2,"co":362.0,"o3":75.0,"so2":0.7,"mosquito_risk":3,"arthritis_risk":5,"migraine_risk":7,"frizz_risk":1,"updated_at":"2026-06-28T20:49:36.225023+05:30"},{"city":"Dalhousie","state":"Himachal Pradesh","latitude":32.5387,"longitude":75.971,"temp":18.5,"humidity":94,"rain":0.0,"pressure":800.6,"uv_index":7.85,"wind_gusts":30.2,"aqi":125,"pm10":47.3,"pm2_5":35.7,"no2":15.2,"co":552.0,"o3":122.0,"so2":3.5,"mosquito_risk":3,"arthritis_risk":10,"migraine_risk":7,"frizz_risk":1,"updated_at":"2026-06-28T20:49:36.225030+05:30"},{"city":"Patiala","state":"Punjab","latitude":30.3398,"longitude":76.3869,"temp":34.7,"humidity":53,"rain":0.0,"pressure":969.2,"uv_index":7.6,"wind_gusts":38.2,"aqi":169,"pm10":114.1,"pm2_5":63.1,"no2":17.0,"co":497.0,"o3":94.0,"so2":7.4,"mosquito_risk":0,"arthritis_risk":5,"migraine_risk":7,"frizz_risk":1,"updated_at":"2026-06-28T20:49:36.225038+05:30"},{"city":"Bhatinda","state":"Punjab","latitude":30.211,"longitude":74.9455,"temp":35.7,"humidity":54,"rain":0.0,"pressure":974.2,"uv_index":8.3,"wind_gusts":46.1,"aqi":158,"pm10":81.3,"pm2_5":60.3,"no2":40.7,"co":439.0,"o3":59.0,"so2":9.1,"mosquito_risk":0,"arthritis_risk":5,"migraine_risk":10,"frizz_risk":1,"updated_at":"2026-06-28T20:49:36.225045+05:30"},{"city":"Rohtak","state":"Haryana","latitude":28.8955,"longitude":76.6066,"temp":33.6,"humidity":60,"rain":0.0,"pressure":973.0,"uv_index":7.75,"wind_gusts":36.7,"aqi":166,"pm10":233.3,"pm2_5":84.1,"no2":22.3,"co":563.0,"o3":98.0,"so2":11.1,"mosquito_risk":0,"arthritis_risk":5,"migraine_risk":7,"frizz_risk":1,"updated_at":"2026-06-28T20:49:36.225053+05:30"},{"city":"Panipat","state":"Haryana","latitude":29.3909,"longitude":76.9635,"temp":33.7,"humidity":62,"rain":0.0,"pressure":971.6,"uv_index":7.6,"wind_gusts":33.8,"aqi":181,"pm10":288.7,"pm2_5":91.5,"no2":20.1,"co":517.0,"o3":98.0,"so2":10.0,"mosquito_risk":3,"arthritis_risk":5,"migraine_risk":7,"frizz_risk":1,"updated_at":"2026-06-28T20:49:36.225060+05:30"},{"city":"Mathura","state":"Uttar Pradesh","latitude":27.4924,"longitude":77.6737,"temp":34.6,"humidity":55,"rain":0.0,"pressure":978.2,"uv_index":7.45,"wind_gusts":32.4,"aqi":194,"pm10":144.8,"pm2_5":63.3,"no2":43.2,"co":474.0,"o3":48.0,"so2":8.1,"mosquito_risk":0,"arthritis_risk":5,"migraine_risk":7,"frizz_risk":1,"updated_at":"2026-06-28T20:49:36.225066+05:30"},{"city":"Vrindavan","state":"Uttar Pradesh","latitude":27.5823,"longitude":77.7027,"temp":34.1,"humidity":59,"rain":0.0,"pressure":978.5,"uv_index":7.4,"wind_gusts":28.8,"aqi":194,"pm10":144.8,"pm2_5":63.3,"no2":43.2,"co":432.0,"o3":48.0,"so2":8.1,"mosquito_risk":0,"arthritis_risk":5,"migraine_risk":7,"frizz_risk":1,"updated_at":"2026-06-28T20:49:36.225073+05:30"},{"city":"Ayodhya","state":"Uttar Pradesh","latitude":26.7922,"longitude":82.1998,"temp":31.9,"humidity":74,"rain":0.0,"pressure":987.9,"uv_index":8.45,"wind_gusts":22.0,"aqi":136,"pm10":103.4,"pm2_5":71.2,"no2":36.8,"co":409.0,"o3":53.0,"so2":11.1,"mosquito_risk":3,"arthritis_risk":5,"migraine_risk":7,"frizz_risk":1,"updated_at":"2026-06-28T20:49:36.225079+05:30"},{"city":"Ratlam","state":"Madhya Pradesh","latitude":23.3315,"longitude":75.0367,"temp":27.1,"humidity":77,"rain":0.0,"pressure":949.6,"uv_index":8.4,"wind_gusts":31.0,"aqi":78,"pm10":43.1,"pm2_5":27.8,"no2":5.5,"co":303.0,"o3":71.0,"so2":3.5,"mosquito_risk":7,"arthritis_risk":5,"migraine_risk":7,"frizz_risk":1,"updated_at":"2026-06-28T20:49:36.225086+05:30"},{"city":"Sagar","state":"Madhya Pradesh","latitude":23.8388,"longitude":78.7378,"temp":28.6,"humidity":74,"rain":0.0,"pressure":945.1,"uv_index":8.4,"wind_gusts":36.0,"aqi":74,"pm10":31.9,"pm2_5":22.6,"no2":6.3,"co":194.0,"o3":78.0,"so2":2.3,"mosquito_risk":7,"arthritis_risk":5,"migraine_risk":7,"frizz_risk":1,"updated_at":"2026-06-28T20:49:36.225093+05:30"},{"city":"Satna","state":"Madhya Pradesh","latitude":24.6005,"longitude":80.8322,"temp":33.5,"humidity":53,"rain":0.0,"pressure":965.3,"uv_index":8.8,"wind_gusts":32.0,"aqi":75,"pm10":43.3,"pm2_5":28.8,"no2":11.0,"co":265.0,"o3":71.0,"so2":3.7,"mosquito_risk":0,"arthritis_risk":5,"migraine_risk":7,"frizz_risk":1,"updated_at":"2026-06-28T20:49:36.225100+05:30"},{"city":"Akola","state":"Maharashtra","latitude":20.7002,"longitude":77.0082,"temp":28.7,"humidity":78,"rain":0.0,"pressure":970.6,"uv_index":8.2,"wind_gusts":31.7,"aqi":81,"pm10":37.8,"pm2_5":26.5,"no2":14.3,"co":184.0,"o3":59.0,"so2":5.9,"mosquito_risk":7,"arthritis_risk":5,"migraine_risk":7,"frizz_risk":1,"updated_at":"2026-06-28T20:49:36.225107+05:30"},{"city":"Amravati","state":"Maharashtra","latitude":20.9374,"longitude":77.7796,"temp":28.2,"humidity":79,"rain":0.0,"pressure":962.9,"uv_index":8.05,"wind_gusts":26.6,"aqi":78,"pm10":37.4,"pm2_5":28.0,"no2":15.4,"co":220.0,"o3":60.0,"so2":7.1,"mosquito_risk":7,"arthritis_risk":5,"migraine_risk":7,"frizz_risk":1,"updated_at":"2026-06-28T20:49:36.225114+05:30"},{"city":"Latur","state":"Maharashtra","latitude":18.4088,"longitude":76.5604,"temp":24.3,"humidity":93,"rain":0.1,"pressure":936.6,"uv_index":8.1,"wind_gusts":38.9,"aqi":77,"pm10":17.4,"pm2_5":13.8,"no2":5.4,"co":205.0,"o3":82.0,"so2":1.9,"mosquito_risk":6,"arthritis_risk":5,"migraine_risk":7,"frizz_risk":1,"updated_at":"2026-06-28T20:49:36.225121+05:30"},{"city":"Nanded","state":"Maharashtra","latitude":19.1383,"longitude":77.3091,"temp":26.5,"humidity":93,"rain":0.2,"pressure":965.0,"uv_index":7.2,"wind_gusts":36.0,"aqi":73,"pm10":22.1,"pm2_5":16.6,"no2":6.7,"co":242.0,"o3":85.0,"so2":2.8,"mosquito_risk":10,"arthritis_risk":5,"migraine_risk":7,"frizz_risk":1,"updated_at":"2026-06-28T20:49:36.225127+05:30"},{"city":"Gulbarga","state":"Karnataka","latitude":17.3297,"longitude":76.8343,"temp":24.6,"humidity":94,"rain":0.2,"pressure":956.0,"uv_index":7.95,"wind_gusts":26.3,"aqi":51,"pm10":9.0,"pm2_5":7.1,"no2":7.3,"co":163.0,"o3":66.0,"so2":1.9,"mosquito_risk":6,"arthritis_risk":5,"migraine_risk":7,"frizz_risk":1,"updated_at":"2026-06-28T20:49:36.225133+05:30"},{"city":"Bidar","state":"Karnataka","latitude":17.9104,"longitude":77.5199,"temp":24.2,"humidity":96,"rain":0.0,"pressure":932.4,"uv_index":8.15,"wind_gusts":26.3,"aqi":60,"pm10":13.4,"pm2_5":11.4,"no2":9.0,"co":191.0,"o3":75.0,"so2":1.4,"mosquito_risk":3,"arthritis_risk":5,"migraine_risk":7,"frizz_risk":1,"updated_at":"2026-06-28T20:49:36.225141+05:30"},{"city":"Hospet","state":"Karnataka","latitude":15.2689,"longitude":76.3909,"temp":23.9,"humidity":93,"rain":0.0,"pressure":953.5,"uv_index":8.9,"wind_gusts":47.2,"aqi":28,"pm10":4.4,"pm2_5":3.5,"no2":5.3,"co":141.0,"o3":44.0,"so2":1.5,"mosquito_risk":3,"arthritis_risk":5,"migraine_risk":7,"frizz_risk":1,"updated_at":"2026-06-28T20:49:36.225147+05:30"},{"city":"Tirupur","state":"Tamil Nadu","latitude":11.1085,"longitude":77.3411,"temp":24.9,"humidity":85,"rain":0.0,"pressure":973.2,"uv_index":8.9,"wind_gusts":63.4,"aqi":45,"pm10":9.2,"pm2_5":8.3,"no2":12.0,"co":143.0,"o3":39.0,"so2":3.6,"mosquito_risk":3,"arthritis_risk":5,"migraine_risk":7,"frizz_risk":1,"updated_at":"2026-06-28T20:49:36.225153+05:30"},{"city":"Alappuzha","state":"Kerala","latitude":9.4981,"longitude":76.3388,"temp":25.9,"humidity":95,"rain":0.1,"pressure":1009.3,"uv_index":8.5,"wind_gusts":42.1,"aqi":45,"pm10":13.6,"pm2_5":8.6,"no2":5.7,"co":87.0,"o3":44.0,"so2":1.8,"mosquito_risk":10,"arthritis_risk":0,"migraine_risk":4,"frizz_risk":1,"updated_at":"2026-06-28T20:49:36.225159+05:30"},{"city":"Munnar","state":"Kerala","latitude":10.0889,"longitude":77.0595,"temp":17.2,"humidity":100,"rain":0.1,"pressure":856.0,"uv_index":8.25,"wind_gusts":41.4,"aqi":25,"pm10":3.2,"pm2_5":3.0,"no2":6.3,"co":95.0,"o3":35.0,"so2":1.3,"mosquito_risk":6,"arthritis_risk":10,"migraine_risk":7,"frizz_risk":1,"updated_at":"2026-06-28T20:49:36.225165+05:30"},{"city":"Silchar","state":"Assam","latitude":24.8333,"longitude":92.7789,"temp":26.3,"humidity":96,"rain":0.1,"pressure":1001.5,"uv_index":8.3,"wind_gusts":31.7,"aqi":55,"pm10":21.6,"pm2_5":21.1,"no2":11.2,"co":222.0,"o3":46.0,"so2":4.7,"mosquito_risk":10,"arthritis_risk":5,"migraine_risk":4,"frizz_risk":1,"updated_at":"2026-06-28T20:49:36.225173+05:30"},{"city":"Dibrugarh","state":"Assam","latitude":27.4728,"longitude":94.912,"temp":25.1,"humidity":96,"rain":0.0,"pressure":989.8,"uv_index":3.95,"wind_gusts":40.3,"aqi":58,"pm10":13.5,"pm2_5":12.6,"no2":8.0,"co":201.0,"o3":64.0,"so2":1.4,"mosquito_risk":7,"arthritis_risk":5,"migraine_risk":3,"frizz_risk":1,"updated_at":"2026-06-28T20:49:36.225179+05:30"}]