[{"city":"Delhi","state":"Delhi","latitude":28.6139,"longitude":77.209,"temp":31.5,"humidity":23,"rain":0.0,"pressure":986.0,"uv_index":7.15,"wind_gusts":38.5,"aqi":362,"pm10":1382.1,"pm2_5":153.7,"mosquito_risk":0,"arthritis_risk":5,"migraine_risk":7,"frizz_risk":0,"updated_at":"2026-04-10T16:28:14.196036+05:30"},{"city":"Mumbai","state":"Maharashtra","latitude":19.076,"longitude":72.8777,"temp":28.4,"humidity":72,"rain":0.0,"pressure":1008.5,"uv_index":7.95,"wind_gusts":25.2,"aqi":96,"pm10":88.9,"pm2_5":31.4,"mosquito_risk":7,"arthritis_risk":0,"migraine_risk":4,"frizz_risk":1,"updated_at":"2026-04-10T16:28:14.196074+05:30"},{"city":"Bangalore","state":"Karnataka","latitude":12.9716,"longitude":77.5946,"temp":34.7,"humidity":29,"rain":0.0,"pressure":911.6,"uv_index":9.65,"wind_gusts":42.8,"aqi":129,"pm10":38.9,"pm2_5":30.5,"mosquito_risk":0,"arthritis_risk":5,"migraine_risk":7,"frizz_risk":0,"updated_at":"2026-04-10T16:28:14.196089+05:30"},{"city":"Hyderabad","state":"Telangana","latitude":17.385,"longitude":78.4867,"temp":38.1,"humidity":21,"rain":0.0,"pressure":953.3,"uv_index":9.15,"wind_gusts":19.4,"aqi":107,"pm10":63.3,"pm2_5":26.1,"mosquito_risk":0,"arthritis_risk":5,"migraine_risk":10,"frizz_risk":0,"updated_at":"2026-04-10T16:28:14.196099+05:30"},{"city":"Chennai","state":"Tamil Nadu","latitude":13.0827,"longitude":80.2707,"temp":32.9,"humidity":64,"rain":0.0,"pressure":1007.0,"uv_index":9.4,"wind_gusts":36.4,"aqi":67,"pm10":25.3,"pm2_5":18.9,"mosquito_risk":3,"arthritis_risk":5,"migraine_risk":4,"frizz_risk":1,"updated_at":"2026-04-10T16:28:14.196108+05:30"},{"city":"Kolkata","state":"West Bengal","latitude":22.5726,"longitude":88.3639,"temp":30.9,"humidity":50,"rain":0.0,"pressure":1006.5,"uv_index":8.7,"wind_gusts":21.2,"aqi":155,"pm10":81.7,"pm2_5":44.4,"mosquito_risk":0,"arthritis_risk":5,"migraine_risk":4,"frizz_risk":1,"updated_at":"2026-04-10T16:28:14.196116+05:30"},{"city":"Pune","state":"Maharashtra","latitude":18.5204,"longitude":73.8567,"temp":37.4,"humidity":25,"rain":0.0,"pressure":948.8,"uv_index":8.55,"wind_gusts":31.3,"aqi":101,"pm10":37.3,"pm2_5":16.6,"mosquito_risk":0,"arthritis_risk":5,"migraine_risk":10,"frizz_risk":0,"updated_at":"2026-04-10T16:28:14.196127+05:30"},{"city":"Ahmedabad","state":"Gujarat","latitude":23.0225,"longitude":72.5714,"temp":38.1,"humidity":14,"rain":0.0,"pressure":1004.0,"uv_index":8.0,"wind_gusts":36.7,"aqi":92,"pm10":39.2,"pm2_5":13.2,"mosquito_risk":0,"arthritis_risk":5,"migraine_risk":7,"frizz_risk":0,"updated_at":"2026-04-10T16:28:14.196134+05:30"},{"city":"Jaipur","state":"Rajasthan","latitude":26.9124,"longitude":75.7873,"temp":33.0,"humidity":17,"rain":0.0,"pressure":964.1,"uv_index":7.75,"wind_gusts":28.4,"aqi":152,"pm10":255.2,"pm2_5":32.2,"mosquito_risk":0,"arthritis_risk":5,"migraine_risk":7,"frizz_risk":0,"updated_at":"2026-04-10T16:28:14.196142+05:30"},{"city":"Lucknow","state":"Uttar Pradesh","latitude":26.8467,"longitude":80.9462,"temp":31.7,"humidity":24,"rain":0.0,"pressure":995.4,"uv_index":7.65,"wind_gusts":40.0,"aqi":105,"pm10":387.4,"pm2_5":48.8,"mosquito_risk":0,"arthritis_risk":5,"migraine_risk":7,"frizz_risk":0,"updated_at":"2026-04-10T16:28:14.196150+05:30"},{"city":"Kanpur","state":"Uttar Pradesh","latitude":26.4499,"longitude":80.3319,"temp":30.6,"humidity":33,"rain":0.0,"pressure":994.3,"uv_index":7.65,"wind_gusts":35.3,"aqi":174,"pm10":814.0,"pm2_5":84.3,"mosquito_risk":0,"arthritis_risk":5,"migraine_risk":7,"frizz_risk":0,"updated_at":"2026-04-10T16:28:14.196161+05:30"},{"city":"Chandigarh","state":"Chandigarh","latitude":30.7333,"longitude":76.7794,"temp":29.2,"humidity":28,"rain":0.0,"pressure":972.1,"uv_index":7.15,"wind_gusts":42.1,"aqi":111,"pm10":11.1,"pm2_5":9.3,"mosquito_risk":4,"arthritis_risk":5,"migraine_risk":7,"frizz_risk":0,"updated_at":"2026-04-10T16:28:14.196169+05:30"},{"city":"Srinagar","state":"Jammu and Kashmir","latitude":34.0837,"longitude":74.7973,"temp":17.9,"humidity":37,"rain":0.0,"pressure":844.2,"uv_index":8.1,"wind_gusts":12.6,"aqi":88,"pm10":23.7,"pm2_5":8.6,"mosquito_risk":0,"arthritis_risk":5,"migraine_risk":7,"frizz_risk":0,"updated_at":"2026-04-10T16:28:14.196176+05:30"},{"city":"Jammu","state":"Jammu and Kashmir","latitude":32.7266,"longitude":74.857,"temp":29.1,"humidity":28,"rain":0.0,"pressure":976.6,"uv_index":7.75,"wind_gusts":34.2,"aqi":69,"pm10":17.5,"pm2_5":9.1,"mosquito_risk":4,"arthritis_risk":5,"migraine_risk":7,"frizz_risk":0,"updated_at":"2026-04-10T16:28:14.196183+05:30"},{"city":"Amritsar","state":"Punjab","latitude":31.634,"longitude":74.8723,"temp":28.8,"humidity":32,"rain":0.0,"pressure":985.1,"uv_index":7.7,"wind_gusts":29.2,"aqi":99,"pm10":19.2,"pm2_5":13.7,"mosquito_risk":4,"arthritis_risk":5,"migraine_risk":7,"frizz_risk":0,"updated_at":"2026-04-10T16:28:14.196189+05:30"},{"city":"Ludhiana","state":"Punjab","latitude":30.901,"longitude":75.8573,"temp":30.2,"humidity":26,"rain":0.0,"pressure":982.6,"uv_index":7.3,"wind_gusts":32.8,"aqi":84,"pm10":47.7,"pm2_5":12.8,"mosquito_risk":0,"arthritis_risk":5,"migraine_risk":7,"frizz_risk":0,"updated_at":"2026-04-10T16:28:14.196196+05:30"},{"city":"Jalandhar","state":"Punjab","latitude":31.326,"longitude":75.5762,"temp":29.6,"humidity":29,"rain":0.0,"pressure":983.7,"uv_index":7.5,"wind_gusts":29.9,"aqi":89,"pm10":65.2,"pm2_5":16.2,"mosquito_risk":4,"arthritis_risk":5,"migraine_risk":7,"frizz_risk":0,"updated_at":"2026-04-10T16:28:14.196205+05:30"},{"city":"Dehradun","state":"Uttarakhand","latitude":30.6284,"longitude":78.0322,"temp":18.5,"humidity":55,"rain":0.0,"pressure":831.5,"uv_index":7.55,"wind_gusts":29.5,"aqi":123,"pm10":8.4,"pm2_5":3.7,"mosquito_risk":0,"arthritis_risk":5,"migraine_risk":7,"frizz_risk":0,"updated_at":"2026-04-10T16:28:14.196212+05:30"},{"city":"Shimla","state":"Himachal Pradesh","latitude":31.1048,"longitude":77.1734,"temp":15.9,"humidity":46,"rain":0.0,"pressure":786.8,"uv_index":7.6,"wind_gusts":50.8,"aqi":116,"pm10":9.2,"pm2_5":5.2,"mosquito_risk":0,"arthritis_risk":5,"migraine_risk":7,"frizz_risk":0,"updated_at":"2026-04-10T16:28:14.196219+05:30"},{"city":"Manali","state":"Himachal Pradesh","latitude":32.2396,"longitude":77.1887,"temp":19.5,"humidity":39,"rain":0.0,"pressure":821.5,"uv_index":9.9,"wind_gusts":32.4,"aqi":154,"pm10":10.0,"pm2_5":4.9,"mosquito_risk":0,"arthritis_risk":5,"migraine_risk":7,"frizz_risk":0,"updated_at":"2026-04-10T16:28:14.196225+05:30"},{"city":"Gurgaon","state":"Haryana","latitude":28.4595,"longitude":77.0266,"temp":31.4,"humidity":25,"rain":0.0,"pressure":984.7,"uv_index":7.25,"wind_gusts":35.6,"aqi":1252,"pm10":3255.9,"pm2_5":312.9,"mosquito_risk":0,"arthritis_risk":5,"migraine_risk":7,"frizz_risk":0,"updated_at":"2026-04-10T16:28:14.196232+05:30"},{"city":"Noida","state":"Uttar Pradesh","latitude":28.5355,"longitude":77.391,"temp":31.6,"humidity":24,"rain":0.0,"pressure":987.5,"uv_index":7.15,"wind_gusts":37.8,"aqi":1252,"pm10":3255.9,"pm2_5":312.9,"mosquito_risk":0,"arthritis_risk":5,"migraine_risk":7,"frizz_risk":0,"updated_at":"2026-04-10T16:28:14.196239+05:30"},{"city":"Ghaziabad","state":"Uttar Pradesh","latitude":28.6692,"longitude":77.4538,"temp":31.2,"humidity":25,"rain":0.0,"pressure":985.5,"uv_index":7.15,"wind_gusts":37.8,"aqi":182,"pm10":1136.2,"pm2_5":132.7,"mosquito_risk":0,"arthritis_risk":5,"migraine_risk":7,"frizz_risk":0,"updated_at":"2026-04-10T16:28:14.196245+05:30"},{"city":"Faridabad","state":"Haryana","latitude":28.4089,"longitude":77.3178,"temp":31.3,"humidity":25,"rain":0.0,"pressure":987.0,"uv_index":7.2,"wind_gusts":36.4,"aqi":1252,"pm10":3255.9,"pm2_5":312.9,"mosquito_risk":0,"arthritis_risk":5,"migraine_risk":7,"frizz_risk":0,"updated_at":"2026-04-10T16:28:14.196251+05:30"},{"city":"Meerut","state":"Uttar Pradesh","latitude":28.9845,"longitude":77.7064,"temp":30.8,"humidity":25,"rain":0.0,"pressure":984.0,"uv_index":7.05,"wind_gusts":42.5,"aqi":182,"pm10":1136.2,"pm2_5":132.7,"mosquito_risk":0,"arthritis_risk":5,"migraine_risk":7,"frizz_risk":0,"updated_at":"2026-04-10T16:28:14.196257+05:30"},{"city":"Agra","state":"Uttar Pradesh","latitude":27.1767,"longitude":78.0081,"temp":32.3,"humidity":22,"rain":0.0,"pressure":991.2,"uv_index":7.5,"wind_gusts":36.0,"aqi":705,"pm10":1754.6,"pm2_5":154.6,"mosquito_risk":0,"arthritis_risk":5,"migraine_risk":7,"frizz_risk":0,"updated_at":"2026-04-10T16:28:14.196263+05:30"},{"city":"Varanasi","state":"Uttar Pradesh","latitude":25.3176,"longitude":82.9739,"temp":33.0,"humidity":20,"rain":0.0,"pressure":999.0,"uv_index":8.2,"wind_gusts":39.2,"aqi":135,"pm10":81.5,"pm2_5":21.7,"mosquito_risk":0,"arthritis_risk":5,"migraine_risk":7,"frizz_risk":0,"updated_at":"2026-04-10T16:28:14.196272+05:30"},{"city":"Prayagraj","state":"Uttar Pradesh","latitude":25.4358,"longitude":81.8463,"temp":33.1,"humidity":24,"rain":0.0,"pressure":997.8,"uv_index":8.05,"wind_gusts":31.7,"aqi":126,"pm10":107.6,"pm2_5":26.4,"mosquito_risk":0,"arthritis_risk":5,"migraine_risk":7,"frizz_risk":0,"updated_at":"2026-04-10T16:28:14.196279+05:30"},{"city":"Gorakhpur","state":"Uttar Pradesh","latitude":26.7606,"longitude":83.3732,"temp":32.9,"humidity":15,"rain":0.0,"pressure":997.5,"uv_index":8.05,"wind_gusts":43.2,"aqi":117,"pm10":38.0,"pm2_5":13.3,"mosquito_risk":0,"arthritis_risk":5,"migraine_risk":7,"frizz_risk":0,"updated_at":"2026-04-10T16:28:14.196285+05:30"},{"city":"Bareilly","state":"Uttar Pradesh","latitude":28.367,"longitude":79.4304,"temp":30.3,"humidity":29,"rain":0.0,"pressure":988.7,"uv_index":7.4,"wind_gusts":38.2,"aqi":102,"pm10":40.5,"pm2_5":17.8,"mosquito_risk":0,"arthritis_risk":5,"migraine_risk":7,"frizz_risk":0,"updated_at":"2026-04-10T16:28:14.196292+05:30"},{"city":"Aligarh","state":"Uttar Pradesh","latitude":27.8974,"longitude":78.088,"temp":31.5,"humidity":24,"rain":0.0,"pressure":988.6,"uv_index":7.3,"wind_gusts":38.9,"aqi":550,"pm10":2011.7,"pm2_5":207.2,"mosquito_risk":0,"arthritis_risk":5,"migraine_risk":7,"frizz_risk":0,"updated_at":"2026-04-10T16:28:14.196299+05:30"},{"city":"Moradabad","state":"Uttar Pradesh","latitude":28.8386,"longitude":78.7733,"temp":30.2,"humidity":27,"rain":0.0,"pressure":985.6,"uv_index":7.2,"wind_gusts":38.2,"aqi":92,"pm10":173.2,"pm2_5":35.0,"mosquito_risk":0,"arthritis_risk":5,"migraine_risk":7,"frizz_risk":0,"updated_at":"2026-04-10T16:28:14.196305+05:30"},{"city":"Saharanpur","state":"Uttar Pradesh","latitude":29.9637,"longitude":77.546,"temp":29.5,"humidity":26,"rain":0.0,"pressure":978.0,"uv_index":6.85,"wind_gusts":50.4,"aqi":91,"pm10":165.8,"pm2_5":27.1,"mosquito_risk":4,"arthritis_risk":5,"migraine_risk":7,"frizz_risk":0,"updated_at":"2026-04-10T16:28:14.196313+05:30"},{"city":"Jhansi","state":"Uttar Pradesh","latitude":25.4484,"longitude":78.5685,"temp":33.6,"humidity":16,"rain":0.0,"pressure":981.3,"uv_index":8.0,"wind_gusts":33.5,"aqi":102,"pm10":52.7,"pm2_5":16.5,"mosquito_risk":0,"arthritis_risk":5,"migraine_risk":7,"frizz_risk":0,"updated_at":"2026-04-10T16:28:17.512169+05:30"},{"city":"Surat","state":"Gujarat","latitude":21.1702,"longitude":72.8311,"temp":36.4,"humidity":32,"rain":0.0,"pressure":1007.3,"uv_index":7.75,"wind_gusts":19.4,"aqi":135,"pm10":69.4,"pm2_5":44.4,"mosquito_risk":0,"arthritis_risk":5,"migraine_risk":7,"frizz_risk":1,"updated_at":"2026-04-10T16:28:17.512199+05:30"},{"city":"Vadodara","state":"Gujarat","latitude":22.3072,"longitude":73.1812,"temp":38.5,"humidity":17,"rain":0.0,"pressure":1005.4,"uv_index":8.0,"wind_gusts":31.7,"aqi":87,"pm10":35.2,"pm2_5":13.4,"mosquito_risk":0,"arthritis_risk":5,"migraine_risk":7,"frizz_risk":0,"updated_at":"2026-04-10T16:28:17.512210+05:30"},{"city":"Rajkot","state":"Gujarat","latitude":22.3039,"longitude":70.8022,"temp":37.8,"humidity":22,"rain":0.0,"pressure":995.8,"uv_index":7.7,"wind_gusts":25.9,"aqi":94,"pm10":37.5,"pm2_5":17.7,"mosquito_risk":0,"arthritis_risk":5,"migraine_risk":10,"frizz_risk":0,"updated_at":"2026-04-10T16:28:17.512219+05:30"},{"city":"Thane","state":"Maharashtra","latitude":19.2183,"longitude":72.9781,"temp":31.0,"humidity":59,"rain":0.0,"pressure":1008.2,"uv_index":7.95,"wind_gusts":37.8,"aqi":96,"pm10":88.9,"pm2_5":31.4,"mosquito_risk":0,"arthritis_risk":0,"migraine_risk":4,"frizz_risk":1,"updated_at":"2026-04-10T16:28:17.512228+05:30"},{"city":"Nagpur","state":"Maharashtra","latitude":21.1458,"longitude":79.0882,"temp":34.6,"humidity":32,"rain":0.0,"pressure":974.2,"uv_index":8.75,"wind_gusts":24.1,"aqi":123,"pm10":60.1,"pm2_5":25.9,"mosquito_risk":0,"arthritis_risk":5,"migraine_risk":7,"frizz_risk":0,"updated_at":"2026-04-10T16:28:17.512235+05:30"},{"city":"Nashik","state":"Maharashtra","latitude":19.9975,"longitude":73.7898,"temp":34.8,"humidity":24,"rain":0.0,"pressure":946.7,"uv_index":8.2,"wind_gusts":28.1,"aqi":111,"pm10":33.9,"pm2_5":19.4,"mosquito_risk":0,"arthritis_risk":5,"migraine_risk":7,"frizz_risk":0,"updated_at":"2026-04-10T16:28:17.512244+05:30"},{"city":"Aurangabad","state":"Maharashtra","latitude":19.8762,"longitude":75.3433,"temp":36.8,"humidity":20,"rain":0.0,"pressure":945.1,"uv_index":8.9,"wind_gusts":28.4,"aqi":126,"pm10":35.3,"pm2_5":18.9,"mosquito_risk":0,"arthritis_risk":5,"migraine_risk":10,"frizz_risk":0,"updated_at":"2026-04-10T16:28:17.512251+05:30"},{"city":"Solapur","state":"Maharashtra","latitude":17.6599,"longitude":75.9064,"temp":39.0,"humidity":20,"rain":0.0,"pressure":956.8,"uv_index":9.0,"wind_gusts":23.4,"aqi":98,"pm10":42.6,"pm2_5":18.0,"mosquito_risk":0,"arthritis_risk":5,"migraine_risk":10,"frizz_risk":0,"updated_at":"2026-04-10T16:28:17.512260+05:30"},{"city":"Kolhapur","state":"Maharashtra","latitude":16.705,"longitude":74.2433,"temp":36.0,"humidity":28,"rain":0.0,"pressure":947.9,"uv_index":9.0,"wind_gusts":34.6,"aqi":85,"pm10":39.7,"pm2_5":17.6,"mosquito_risk":0,"arthritis_risk":5,"migraine_risk":10,"frizz_risk":0,"updated_at":"2026-04-10T16:28:17.512268+05:30"},{"city":"Goa","state":"Goa","latitude":15.2993,"longitude":74.124,"temp":31.3,"humidity":61,"rain":0.0,"pressure":997.1,"uv_index":9.0,"wind_gusts":37.1,"aqi":70,"pm10":103.1,"pm2_5":35.2,"mosquito_risk":3,"arthritis_risk":5,"migraine_risk":7,"frizz_risk":1,"updated_at":"2026-04-10T16:28:17.512276+05:30"},{"city":"Jodhpur","state":"Rajasthan","latitude":26.2389,"longitude":73.0243,"temp":34.9,"humidity":18,"rain":0.0,"pressure":986.9,"uv_index":8.0,"wind_gusts":22.7,"aqi":79,"pm10":77.8,"pm2_5":14.3,"mosquito_risk":0,"arthritis_risk":5,"migraine_risk":7,"frizz_risk":0,"updated_at":"2026-04-10T16:28:17.512284+05:30"},{"city":"Udaipur","state":"Rajasthan","latitude":24.5854,"longitude":73.7125,"temp":33.3,"humidity":15,"rain":0.0,"pressure":950.6,"uv_index":8.55,"wind_gusts":29.9,"aqi":92,"pm10":24.2,"pm2_5":7.7,"mosquito_risk":0,"arthritis_risk":5,"migraine_risk":7,"frizz_risk":0,"updated_at":"2026-04-10T16:28:17.512293+05:30"},{"city":"Kota","state":"Rajasthan","latitude":25.2138,"longitude":75.8648,"temp":33.2,"humidity":19,"rain":0.0,"pressure":983.1,"uv_index":8.0,"wind_gusts":23.8,"aqi":89,"pm10":53.4,"pm2_5":15.9,"mosquito_risk":0,"arthritis_risk":5,"migraine_risk":7,"frizz_risk":0,"updated_at":"2026-04-10T16:28:17.512301+05:30"},{"city":"Bikaner","state":"Rajasthan","latitude":28.0229,"longitude":73.3119,"temp":34.1,"humidity":18,"rain":0.0,"pressure":986.0,"uv_index":7.85,"wind_gusts":19.8,"aqi":108,"pm10":48.2,"pm2_5":13.1,"mosquito_risk":0,"arthritis_risk":5,"migraine_risk":7,"frizz_risk":0,"updated_at":"2026-04-10T16:28:17.512309+05:30"},{"city":"Ajmer","state":"Rajasthan","latitude":26.4499,"longitude":74.6399,"temp":32.9,"humidity":18,"rain":0.0,"pressure":958.9,"uv_index":7.95,"wind_gusts":20.2,"aqi":89,"pm10":40.2,"pm2_5":11.4,"mosquito_risk":0,"arthritis_risk":5,"migraine_risk":7,"frizz_risk":0,"updated_at":"2026-04-10T16:28:17.512317+05:30"},{"city":"Gwalior","state":"Madhya Pradesh","latitude":26.2183,"longitude":78.1828,"temp":31.8,"humidity":25,"rain":0.0,"pressure":987.1,"uv_index":7.75,"wind_gusts":33.1,"aqi":117,"pm10":37.4,"pm2_5":11.6,"mosquito_risk":0,"arthritis_risk":5,"migraine_risk":7,"frizz_risk":0,"updated_at":"2026-04-10T16:28:17.512324+05:30"},{"city":"Indore","state":"Madhya Pradesh","latitude":22.7196,"longitude":75.8577,"temp":33.9,"humidity":19,"rain":0.0,"pressure":950.9,"uv_index":8.45,"wind_gusts":31.0,"aqi":113,"pm10":21.3,"pm2_5":9.5,"mosquito_risk":0,"arthritis_risk":5,"migraine_risk":7,"frizz_risk":0,"updated_at":"2026-04-10T16:28:17.512333+05:30"},{"city":"Bhopal","state":"Madhya Pradesh","latitude":23.2599,"longitude":77.4126,"temp":35.2,"humidity":14,"rain":0.0,"pressure":956.5,"uv_index":8.45,"wind_gusts":30.2,"aqi":99,"pm10":30.2,"pm2_5":10.0,"mosquito_risk":0,"arthritis_risk":5,"migraine_risk":10,"frizz_risk":0,"updated_at":"2026-04-10T16:28:17.512341+05:30"},{"city":"Jabalpur","state":"Madhya Pradesh","latitude":23.1815,"longitude":79.9864,"temp":34.3,"humidity":17,"rain":0.0,"pressure":963.6,"uv_index":8.55,"wind_gusts":24.5,"aqi":105,"pm10":71.5,"pm2_5":20.5,"mosquito_risk":0,"arthritis_risk":5,"migraine_risk":7,"frizz_risk":0,"updated_at":"2026-04-10T16:28:17.512349+05:30"},{"city":"Ujjain","state":"Madhya Pradesh","latitude":23.1765,"longitude":75.7885,"temp":34.1,"humidity":20,"rain":0.0,"pressure":956.8,"uv_index":8.35,"wind_gusts":29.5,"aqi":100,"pm10":24.4,"pm2_5":9.3,"mosquito_risk":0,"arthritis_risk":5,"migraine_risk":7,"frizz_risk":0,"updated_at":"2026-04-10T16:28:17.512357+05:30"},{"city":"Visakhapatnam","state":"Andhra Pradesh","latitude":17.6868,"longitude":83.2185,"temp":31.9,"humidity":67,"rain":0.0,"pressure":1003.9,"uv_index":9.1,"wind_gusts":37.1,"aqi":97,"pm10":42.3,"pm2_5":36.2,"mosquito_risk":3,"arthritis_risk":5,"migraine_risk":4,"frizz_risk":1,"updated_at":"2026-04-10T16:28:17.512365+05:30"},{"city":"Vijayawada","state":"Andhra Pradesh","latitude":16.5062,"longitude":80.648,"temp":38.7,"humidity":33,"rain":0.0,"pressure":1000.9,"uv_index":9.2,"wind_gusts":35.6,"aqi":89,"pm10":42.8,"pm2_5":30.3,"mosquito_risk":0,"arthritis_risk":5,"migraine_risk":7,"frizz_risk":1,"updated_at":"2026-04-10T16:28:17.512373+05:30"},{"city":"Guntur","state":"Andhra Pradesh","latitude":16.3067,"longitude":80.4365,"temp":35.3,"humidity":52,"rain":0.0,"pressure":1002.9,"uv_index":9.2,"wind_gusts":33.8,"aqi":90,"pm10":41.0,"pm2_5":26.4,"mosquito_risk":0,"arthritis_risk":5,"migraine_risk":7,"frizz_risk":1,"updated_at":"2026-04-10T16:28:17.512380+05:30"},{"city":"Nellore","state":"Andhra Pradesh","latitude":14.4426,"longitude":79.9865,"temp":34.8,"humidity":55,"rain":0.0,"pressure":1005.0,"uv_index":9.3,"wind_gusts":34.9,"aqi":87,"pm10":31.7,"pm2_5":24.8,"mosquito_risk":0,"arthritis_risk":5,"migraine_risk":4,"frizz_risk":1,"updated_at":"2026-04-10T16:28:17.512389+05:30"},{"city":"Kurnool","state":"Andhra Pradesh","latitude":15.8281,"longitude":78.0373,"temp":39.5,"humidity":28,"rain":0.0,"pressure":975.2,"uv_index":9.15,"wind_gusts":25.2,"aqi":102,"pm10":44.0,"pm2_5":26.3,"mosquito_risk":0,"arthritis_risk":5,"migraine_risk":10,"frizz_risk":1,"updated_at":"2026-04-10T16:28:17.512397+05:30"},{"city":"Kakinada","state":"Andhra Pradesh","latitude":16.9891,"longitude":82.2475,"temp":34.4,"humidity":55,"rain":0.0,"pressure":1006.7,"uv_index":9.15,"wind_gusts":37.1,"aqi":76,"pm10":27.4,"pm2_5":19.3,"mosquito_risk":0,"arthritis_risk":5,"migraine_risk":4,"frizz_risk":1,"updated_at":"2026-04-10T16:28:17.512405+05:30"},{"city":"Tirupati","state":"Andhra Pradesh","latitude":13.6288,"longitude":79.4192,"temp":35.6,"humidity":43,"rain":0.0,"pressure":990.6,"uv_index":9.15,"wind_gusts":30.6,"aqi":94,"pm10":38.9,"pm2_5":32.2,"mosquito_risk":0,"arthritis_risk":5,"migraine_risk":10,"frizz_risk":1,"updated_at":"2026-04-10T16:28:17.512413+05:30"},{"city":"Warangal","state":"Telangana","latitude":17.9689,"longitude":79.5941,"temp":38.1,"humidity":29,"rain":0.0,"pressure":977.9,"uv_index":9.05,"wind_gusts":23.4,"aqi":116,"pm10":60.1,"pm2_5":25.6,"mosquito_risk":0,"arthritis_risk":5,"migraine_risk":10,"frizz_risk":1,"updated_at":"2026-04-10T16:28:17.512421+05:30"},{"city":"Nizamabad","state":"Telangana","latitude":18.6725,"longitude":78.0941,"temp":36.8,"humidity":28,"rain":0.0,"pressure":965.0,"uv_index":8.95,"wind_gusts":29.5,"aqi":108,"pm10":38.8,"pm2_5":18.7,"mosquito_risk":0,"arthritis_risk":5,"migraine_risk":10,"frizz_risk":0,"updated_at":"2026-04-10T16:28:17.512429+05:30"},{"city":"Mysore","state":"Karnataka","latitude":12.2958,"longitude":76.6396,"temp":36.0,"humidity":28,"rain":0.0,"pressure":927.7,"uv_index":9.55,"wind_gusts":37.4,"aqi":96,"pm10":37.4,"pm2_5":24.7,"mosquito_risk":0,"arthritis_risk":5,"migraine_risk":10,"frizz_risk":0,"updated_at":"2026-04-10T16:28:17.512437+05:30"},{"city":"Mangalore","state":"Karnataka","latitude":12.9141,"longitude":74.856,"temp":29.3,"humidity":80,"rain":0.0,"pressure":1005.2,"uv_index":9.05,"wind_gusts":32.4,"aqi":66,"pm10":59.1,"pm2_5":20.2,"mosquito_risk":7,"arthritis_risk":5,"migraine_risk":4,"frizz_risk":1,"updated_at":"2026-04-10T16:28:17.512444+05:30"},{"city":"Hubli-Dharwad","state":"Karnataka","latitude":15.3647,"longitude":75.124,"temp":37.5,"humidity":22,"rain":0.0,"pressure":940.4,"uv_index":9.2,"wind_gusts":36.0,"aqi":75,"pm10":53.1,"pm2_5":21.9,"mosquito_risk":0,"arthritis_risk":5,"migraine_risk":10,"frizz_risk":0,"updated_at":"2026-04-10T16:28:17.512452+05:30"},{"city":"Belgaum","state":"Karnataka","latitude":15.8497,"longitude":74.4977,"temp":35.5,"humidity":26,"rain":0.0,"pressure":926.0,"uv_index":9.25,"wind_gusts":35.3,"aqi":77,"pm10":50.2,"pm2_5":21.1,"mosquito_risk":0,"arthritis_risk":5,"migraine_risk":10,"frizz_risk":0,"updated_at":"2026-04-10T16:28:20.828335+05:30"},{"city":"Coimbatore","state":"Tamil Nadu","latitude":11.0168,"longitude":76.9558,"temp":36.4,"humidity":33,"rain":0.0,"pressure":960.6,"uv_index":9.5,"wind_gusts":36.7,"aqi":114,"pm10":29.0,"pm2_5":19.4,"mosquito_risk":0,"arthritis_risk":5,"migraine_risk":10,"frizz_risk":1,"updated_at":"2026-04-10T16:28:20.828363+05:30"},{"city":"Madurai","state":"Tamil Nadu","latitude":9.9252,"longitude":78.1198,"temp":37.8,"humidity":33,"rain":0.0,"pressure":991.1,"uv_index":9.4,"wind_gusts":41.0,"aqi":114,"pm10":29.6,"pm2_5":26.0,"mosquito_risk":0,"arthritis_risk":5,"migraine_risk":10,"frizz_risk":1,"updated_at":"2026-04-10T16:28:20.828373+05:30"},{"city":"Trichy","state":"Tamil Nadu","latitude":10.7905,"longitude":78.7047,"temp":37.8,"humidity":34,"rain":0.0,"pressure":997.8,"uv_index":9.4,"wind_gusts":31.7,"aqi":82,"pm10":25.4,"pm2_5":21.2,"mosquito_risk":0,"arthritis_risk":5,"migraine_risk":10,"frizz_risk":1,"updated_at":"2026-04-10T16:28:20.828381+05:30"},{"city":"Salem","state":"Tamil Nadu","latitude":11.6643,"longitude":78.146,"temp":35.9,"humidity":45,"rain":0.0,"pressure":976.0,"uv_index":9.05,"wind_gusts":24.1,"aqi":118,"pm10":32.7,"pm2_5":28.2,"mosquito_risk":0,"arthritis_risk":5,"migraine_risk":10,"frizz_risk":1,"updated_at":"2026-04-10T16:28:20.828388+05:30"},{"city":"Tirunelveli","state":"Tamil Nadu","latitude":8.7139,"longitude":77.7567,"temp":35.8,"humidity":42,"rain":0.0,"pressure":1001.7,"uv_index":9.35,"wind_gusts":38.2,"aqi":112,"pm10":29.0,"pm2_5":26.1,"mosquito_risk":0,"arthritis_risk":5,"migraine_risk":7,"frizz_risk":1,"updated_at":"2026-04-10T16:28:20.828395+05:30"},{"city":"Vellore","state":"Tamil Nadu","latitude":12.9165,"longitude":79.1325,"temp":36.0,"humidity":38,"rain":0.0,"pressure":983.5,"uv_index":9.5,"wind_gusts":35.3,"aqi":100,"pm10":36.7,"pm2_5":31.7,"mosquito_risk":0,"arthritis_risk":5,"migraine_risk":10,"frizz_risk":1,"updated_at":"2026-04-10T16:28:20.828402+05:30"},{"city":"Erode","state":"Tamil Nadu","latitude":11.341,"longitude":77.7172,"temp":37.7,"humidity":37,"rain":0.0,"pressure":987.0,"uv_index":9.45,"wind_gusts":34.9,"aqi":109,"pm10":28.8,"pm2_5":22.9,"mosquito_risk":0,"arthritis_risk":5,"migraine_risk":10,"frizz_risk":1,"updated_at":"2026-04-10T16:28:20.828409+05:30"},{"city":"Kochi","state":"Kerala","latitude":9.9312,"longitude":76.2673,"temp":30.1,"humidity":81,"rain":0.0,"pressure":1007.1,"uv_index":9.25,"wind_gusts":31.7,"aqi":72,"pm10":39.5,"pm2_5":21.9,"mosquito_risk":3,"arthritis_risk":5,"migraine_risk":4,"frizz_risk":1,"updated_at":"2026-04-10T16:28:20.828416+05:30"},{"city":"Thiruvananthapuram","state":"Kerala","latitude":8.5241,"longitude":76.9366,"temp":29.8,"humidity":79,"rain":0.0,"pressure":1007.0,"uv_index":8.95,"wind_gusts":28.1,"aqi":74,"pm10":40.2,"pm2_5":20.3,"mosquito_risk":7,"arthritis_risk":5,"migraine_risk":4,"frizz_risk":1,"updated_at":"2026-04-10T16:28:20.828423+05:30"},{"city":"Kozhikode","state":"Kerala","latitude":11.2588,"longitude":75.7804,"temp":30.7,"humidity":75,"rain":0.0,"pressure":1006.4,"uv_index":9.15,"wind_gusts":30.2,"aqi":68,"pm10":51.9,"pm2_5":16.5,"mosquito_risk":3,"arthritis_risk":5,"migraine_risk":4,"frizz_risk":1,"updated_at":"2026-04-10T16:28:20.828429+05:30"},{"city":"Thrissur","state":"Kerala","latitude":10.5276,"longitude":76.2144,"temp":32.9,"humidity":63,"rain":0.0,"pressure":1005.5,"uv_index":9.2,"wind_gusts":36.0,"aqi":79,"pm10":35.5,"pm2_5":21.2,"mosquito_risk":3,"arthritis_risk":5,"migraine_risk":4,"frizz_risk":1,"updated_at":"2026-04-10T16:28:20.828436+05:30"},{"city":"Kannur","state":"Kerala","latitude":11.8745,"longitude":75.3704,"temp":31.3,"humidity":70,"rain":0.0,"pressure":1005.8,"uv_index":9.15,"wind_gusts":36.4,"aqi":68,"pm10":51.3,"pm2_5":18.8,"mosquito_risk":3,"arthritis_risk":5,"migraine_risk":4,"frizz_risk":1,"updated_at":"2026-04-10T16:28:20.828442+05:30"},{"city":"Patna","state":"Bihar","latitude":25.5941,"longitude":85.1376,"temp":32.9,"humidity":20,"rain":0.0,"pressure":1000.6,"uv_index":8.35,"wind_gusts":38.9,"aqi":121,"pm10":45.2,"pm2_5":15.1,"mosquito_risk":0,"arthritis_risk":5,"migraine_risk":4,"frizz_risk":0,"updated_at":"2026-04-10T16:28:20.828449+05:30"},{"city":"Gaya","state":"Bihar","latitude":24.7914,"longitude":85.0002,"temp":32.0,"humidity":23,"rain":0.0,"pressure":994.7,"uv_index":8.45,"wind_gusts":37.8,"aqi":126,"pm10":49.0,"pm2_5":15.7,"mosquito_risk":0,"arthritis_risk":5,"migraine_risk":7,"frizz_risk":0,"updated_at":"2026-04-10T16:28:20.828455+05:30"},{"city":"Muzaffarpur","state":"Bihar","latitude":26.1209,"longitude":85.3647,"temp":32.5,"humidity":21,"rain":0.0,"pressure":1000.4,"uv_index":8.35,"wind_gusts":36.0,"aqi":116,"pm10":35.4,"pm2_5":13.6,"mosquito_risk":0,"arthritis_risk":5,"migraine_risk":4,"frizz_risk":0,"updated_at":"2026-04-10T16:28:20.828461+05:30"},{"city":"Bhagalpur","state":"Bihar","latitude":25.2425,"longitude":87.0117,"temp":30.3,"humidity":31,"rain":0.0,"pressure":1001.8,"uv_index":8.4,"wind_gusts":34.2,"aqi":127,"pm10":24.9,"pm2_5":12.2,"mosquito_risk":0,"arthritis_risk":5,"migraine_risk":4,"frizz_risk":0,"updated_at":"2026-04-10T16:28:20.828468+05:30"},{"city":"Ranchi","state":"Jharkhand","latitude":23.3441,"longitude":85.3096,"temp":29.8,"humidity":27,"rain":0.0,"pressure":939.0,"uv_index":9.0,"wind_gusts":37.4,"aqi":111,"pm10":54.8,"pm2_5":16.7,"mosquito_risk":4,"arthritis_risk":5,"migraine_risk":7,"frizz_risk":0,"updated_at":"2026-04-10T16:28:20.828474+05:30"},{"city":"Jamshedpur","state":"Jharkhand","latitude":22.8046,"longitude":86.2029,"temp":32.1,"humidity":36,"rain":0.0,"pressure":991.5,"uv_index":8.85,"wind_gusts":16.9,"aqi":140,"pm10":61.7,"pm2_5":20.7,"mosquito_risk":0,"arthritis_risk":5,"migraine_risk":7,"frizz_risk":0,"updated_at":"2026-04-10T16:28:20.828481+05:30"},{"city":"Dhanbad","state":"Jharkhand","latitude":23.7957,"longitude":86.4304,"temp":32.6,"humidity":21,"rain":0.0,"pressure":980.5,"uv_index":8.75,"wind_gusts":31.0,"aqi":151,"pm10":43.5,"pm2_5":15.7,"mosquito_risk":0,"arthritis_risk":5,"migraine_risk":7,"frizz_risk":0,"updated_at":"2026-04-10T16:28:20.828488+05:30"},{"city":"Bokaro","state":"Jharkhand","latitude":23.6693,"longitude":86.1511,"temp":32.1,"humidity":21,"rain":0.0,"pressure":984.5,"uv_index":8.8,"wind_gusts":32.8,"aqi":132,"pm10":45.2,"pm2_5":15.8,"mosquito_risk":0,"arthritis_risk":5,"migraine_risk":7,"frizz_risk":0,"updated_at":"2026-04-10T16:28:20.828494+05:30"},{"city":"Bhubaneswar","state":"Odisha","latitude":20.2961,"longitude":85.8245,"temp":33.5,"humidity":52,"rain":0.0,"pressure":1003.0,"uv_index":9.0,"wind_gusts":24.5,"aqi":128,"pm10":78.2,"pm2_5":49.9,"mosquito_risk":0,"arthritis_risk":5,"migraine_risk":4,"frizz_risk":1,"updated_at":"2026-04-10T16:28:20.828500+05:30"},{"city":"Cuttack","state":"Odisha","latitude":20.4625,"longitude":85.8828,"temp":34.6,"humidity":44,"rain":0.0,"pressure":1004.7,"uv_index":9.05,"wind_gusts":22.7,"aqi":128,"pm10":78.2,"pm2_5":49.9,"mosquito_risk":0,"arthritis_risk":5,"migraine_risk":4,"frizz_risk":1,"updated_at":"2026-04-10T16:28:20.828507+05:30"},{"city":"Rourkela","state":"Odisha","latitude":22.2604,"longitude":84.8536,"temp":33.6,"humidity":31,"rain":0.0,"pressure":985.8,"uv_index":8.75,"wind_gusts":20.2,"aqi":112,"pm10":59.6,"pm2_5":19.9,"mosquito_risk":0,"arthritis_risk":5,"migraine_risk":7,"frizz_risk":0,"updated_at":"2026-04-10T16:28:20.828514+05:30"},{"city":"Raipur","state":"Chhattisgarh","latitude":21.2514,"longitude":81.6296,"temp":36.7,"humidity":23,"rain":0.0,"pressure":975.2,"uv_index":8.8,"wind_gusts":24.1,"aqi":132,"pm10":69.8,"pm2_5":34.8,"mosquito_risk":0,"arthritis_risk":5,"migraine_risk":10,"frizz_risk":0,"updated_at":"2026-04-10T16:28:20.828520+05:30"},{"city":"Bhilai","state":"Chhattisgarh","latitude":21.1938,"longitude":81.3509,"temp":36.7,"humidity":24,"rain":0.0,"pressure":975.4,"uv_index":8.8,"wind_gusts":22.3,"aqi":119,"pm10":71.2,"pm2_5":35.3,"mosquito_risk":0,"arthritis_risk":5,"migraine_risk":10,"frizz_risk":0,"updated_at":"2026-04-10T16:28:20.828526+05:30"},{"city":"Guwahati","state":"Assam","latitude":26.1158,"longitude":91.7086,"temp":26.1,"humidity":67,"rain":0.0,"pressure":1001.8,"uv_index":8.2,"wind_gusts":32.4,"aqi":109,"pm10":39.2,"pm2_5":28.3,"mosquito_risk":7,"arthritis_risk":5,"migraine_risk":4,"frizz_risk":1,"updated_at":"2026-04-10T16:28:20.828533+05:30"},{"city":"Agartala","state":"Tripura","latitude":23.8315,"longitude":91.2868,"temp":28.4,"humidity":61,"rain":0.0,"pressure":1006.4,"uv_index":8.55,"wind_gusts":28.8,"aqi":155,"pm10":66.6,"pm2_5":42.5,"mosquito_risk":7,"arthritis_risk":5,"migraine_risk":4,"frizz_risk":1,"updated_at":"2026-04-10T16:28:20.828539+05:30"},{"city":"Shillong","state":"Meghalaya","latitude":25.5788,"longitude":91.8933,"temp":14.7,"humidity":64,"rain":0.0,"pressure":854.9,"uv_index":7.05,"wind_gusts":50.4,"aqi":111,"pm10":33.9,"pm2_5":24.4,"mosquito_risk":3,"arthritis_risk":5,"migraine_risk":7,"frizz_risk":0,"updated_at":"2026-04-10T16:28:20.828546+05:30"},{"city":"Imphal","state":"Manipur","latitude":24.817,"longitude":93.9368,"temp":18.2,"humidity":66,"rain":0.0,"pressure":922.7,"uv_index":8.9,"wind_gusts":57.6,"aqi":103,"pm10":29.6,"pm2_5":16.8,"mosquito_risk":3,"arthritis_risk":5,"migraine_risk":7,"frizz_risk":0,"updated_at":"2026-04-10T16:28:20.828553+05:30"},{"city":"Aizawl","state":"Mizoram","latitude":23.7271,"longitude":92.7176,"temp":22.1,"humidity":53,"rain":0.0,"pressure":893.4,"uv_index":8.8,"wind_gusts":58.0,"aqi":75,"pm10":43.0,"pm2_5":18.7,"mosquito_risk":0,"arthritis_risk":5,"migraine_risk":7,"frizz_risk":0,"updated_at":"2026-04-10T16:28:20.828559+05:30"},{"city":"Kohima","state":"Nagaland","latitude":25.6701,"longitude":94.1077,"temp":14.1,"humidity":85,"rain":0.0,"pressure":853.3,"uv_index":8.45,"wind_gusts":72.0,"aqi":87,"pm10":27.5,"pm2_5":17.1,"mosquito_risk":3,"arthritis_risk":10,"migraine_risk":7,"frizz_risk":0,"updated_at":"2026-04-10T16:28:20.828566+05:30"},{"city":"Gangtok","state":"Sikkim","latitude":27.3314,"longitude":88.6138,"temp":15.4,"humidity":68,"rain":0.0,"pressure":836.0,"uv_index":8.4,"wind_gusts":15.1,"aqi":103,"pm10":35.6,"pm2_5":24.8,"mosquito_risk":3,"arthritis_risk":5,"migraine_risk":7,"frizz_risk":0,"updated_at":"2026-04-10T16:28:20.828572+05:30"},{"city":"Siliguri","state":"West Bengal","latitude":26.7271,"longitude":88.3953,"temp":22.6,"humidity":58,"rain":0.0,"pressure":994.1,"uv_index":8.2,"wind_gusts":26.6,"aqi":118,"pm10":39.0,"pm2_5":26.4,"mosquito_risk":0,"arthritis_risk":5,"migraine_risk":7,"frizz_risk":0,"updated_at":"2026-04-10T16:28:24.142594+05:30"},{"city":"Durgapur","state":"West Bengal","latitude":23.5204,"longitude":87.3119,"temp":31.3,"humidity":33,"rain":0.0,"pressure":995.8,"uv_index":8.7,"wind_gusts":20.9,"aqi":151,"pm10":42.0,"pm2_5":15.4,"mosquito_risk":0,"arthritis_risk":5,"migraine_risk":7,"frizz_risk":0,"updated_at":"2026-04-10T16:28:24.142624+05:30"},{"city":"Asansol","state":"West Bengal","latitude":23.6739,"longitude":86.9524,"temp":31.9,"humidity":28,"rain":0.0,"pressure":994.2,"uv_index":8.75,"wind_gusts":23.0,"aqi":132,"pm10":44.0,"pm2_5":15.9,"mosquito_risk":0,"arthritis_risk":5,"migraine_risk":7,"frizz_risk":0,"updated_at":"2026-04-10T16:28:24.142633+05:30"},{"city":"Pondicherry","state":"Puducherry","latitude":11.9139,"longitude":79.8145,"temp":34.3,"humidity":57,"rain":0.0,"pressure":1007.5,"uv_index":8.9,"wind_gusts":33.8,"aqi":64,"pm10":22.1,"pm2_5":16.0,"mosquito_risk":0,"arthritis_risk":5,"migraine_risk":4,"frizz_risk":1,"updated_at":"2026-04-10T16:28:24.142641+05:30"},{"city":"Port Blair","state":"Andaman and Nicobar Islands","latitude":11.6234,"longitude":92.7265,"temp":28.5,"humidity":80,"rain":0.0,"pressure":1007.9,"uv_index":9.15,"wind_gusts":16.6,"aqi":37,"pm10":2.2,"pm2_5":2.1,"mosquito_risk":7,"arthritis_risk":5,"migraine_risk":4,"frizz_risk":1,"updated_at":"2026-04-10T16:28:24.142649+05:30"},{"city":"Haridwar","state":"Uttarakhand","latitude":29.9457,"longitude":78.1642,"temp":29.7,"humidity":26,"rain":0.0,"pressure":976.0,"uv_index":6.95,"wind_gusts":45.4,"aqi":114,"pm10":27.1,"pm2_5":11.7,"mosquito_risk":4,"arthritis_risk":5,"migraine_risk":7,"frizz_risk":0,"updated_at":"2026-04-10T16:28:24.142656+05:30"},{"city":"Rishikesh","state":"Uttarakhand","latitude":30.0869,"longitude":78.2676,"temp":28.8,"humidity":31,"rain":0.0,"pressure":968.7,"uv_index":7.0,"wind_gusts":37.1,"aqi":126,"pm10":12.5,"pm2_5":11.7,"mosquito_risk":4,"arthritis_risk":5,"migraine_risk":7,"frizz_risk":0,"updated_at":"2026-04-10T16:28:24.142663+05:30"},{"city":"Nainital","state":"Uttarakhand","latitude":29.3919,"longitude":79.4542,"temp":20.0,"humidity":41,"rain":0.0,"pressure":807.6,"uv_index":7.85,"wind_gusts":57.2,"aqi":119,"pm10":17.6,"pm2_5":13.1,"mosquito_risk":0,"arthritis_risk":5,"migraine_risk":7,"frizz_risk":0,"updated_at":"2026-04-10T16:28:24.142670+05:30"},{"city":"Mussoorie","state":"Uttarakhand","latitude":30.4599,"longitude":78.0664,"temp":19.0,"humidity":51,"rain":0.0,"pressure":804.4,"uv_index":7.4,"wind_gusts":37.8,"aqi":123,"pm10":10.0,"pm2_5":9.4,"mosquito_risk":0,"arthritis_risk":5,"migraine_risk":7,"frizz_risk":0,"updated_at":"2026-04-10T16:28:24.142677+05:30"},{"city":"Dharamshala","state":"Himachal Pradesh","latitude":32.219,"longitude":76.3234,"temp":21.2,"humidity":49,"rain":0.0,"pressure":872.1,"uv_index":7.6,"wind_gusts":24.8,"aqi":149,"pm10":10.2,"pm2_5":5.3,"mosquito_risk":0,"arthritis_risk":5,"migraine_risk":7,"frizz_risk":0,"updated_at":"2026-04-10T16:28:24.142683+05:30"},{"city":"Dalhousie","state":"Himachal Pradesh","latitude":32.5387,"longitude":75.971,"temp":19.4,"humidity":48,"rain":0.0,"pressure":806.8,"uv_index":7.85,"wind_gusts":19.4,"aqi":106,"pm10":9.8,"pm2_5":6.8,"mosquito_risk":0,"arthritis_risk":5,"migraine_risk":7,"frizz_risk":0,"updated_at":"2026-04-10T16:28:24.142691+05:30"},{"city":"Patiala","state":"Punjab","latitude":30.3398,"longitude":76.3869,"temp":30.4,"humidity":25,"rain":0.0,"pressure":981.6,"uv_index":7.0,"wind_gusts":38.5,"aqi":534,"pm10":1151.1,"pm2_5":102.4,"mosquito_risk":0,"arthritis_risk":5,"migraine_risk":7,"frizz_risk":0,"updated_at":"2026-04-10T16:28:24.142698+05:30"},{"city":"Bhatinda","state":"Punjab","latitude":30.211,"longitude":74.9455,"temp":31.1,"humidity":26,"rain":0.0,"pressure":987.9,"uv_index":7.65,"wind_gusts":31.7,"aqi":104,"pm10":41.7,"pm2_5":13.1,"mosquito_risk":0,"arthritis_risk":5,"migraine_risk":7,"frizz_risk":0,"updated_at":"2026-04-10T16:28:24.142705+05:30"},{"city":"Rohtak","state":"Haryana","latitude":28.8955,"longitude":76.6066,"temp":32.1,"humidity":22,"rain":0.0,"pressure":985.1,"uv_index":7.15,"wind_gusts":38.5,"aqi":659,"pm10":1847.7,"pm2_5":180.2,"mosquito_risk":0,"arthritis_risk":5,"migraine_risk":7,"frizz_risk":0,"updated_at":"2026-04-10T16:28:24.142711+05:30"},{"city":"Panipat","state":"Haryana","latitude":29.3909,"longitude":76.9635,"temp":31.3,"humidity":24,"rain":0.0,"pressure":983.5,"uv_index":7.0,"wind_gusts":41.0,"aqi":1362,"pm10":3039.8,"pm2_5":277.5,"mosquito_risk":0,"arthritis_risk":5,"migraine_risk":7,"frizz_risk":0,"updated_at":"2026-04-10T16:28:24.142718+05:30"},{"city":"Mathura","state":"Uttar Pradesh","latitude":27.4924,"longitude":77.6737,"temp":32.5,"humidity":22,"rain":0.0,"pressure":990.3,"uv_index":7.45,"wind_gusts":34.2,"aqi":717,"pm10":1929.7,"pm2_5":174.6,"mosquito_risk":0,"arthritis_risk":5,"migraine_risk":7,"frizz_risk":0,"updated_at":"2026-04-10T16:28:24.142724+05:30"},{"city":"Vrindavan","state":"Uttar Pradesh","latitude":27.5823,"longitude":77.7027,"temp":31.9,"humidity":23,"rain":0.0,"pressure":990.5,"uv_index":7.4,"wind_gusts":37.4,"aqi":717,"pm10":1929.7,"pm2_5":174.6,"mosquito_risk":0,"arthritis_risk":5,"migraine_risk":7,"frizz_risk":0,"updated_at":"2026-04-10T16:28:24.142730+05:30"},{"city":"Ayodhya","state":"Uttar Pradesh","latitude":26.7922,"longitude":82.1998,"temp":32.4,"humidity":20,"rain":0.0,"pressure":996.5,"uv_index":7.8,"wind_gusts":49.7,"aqi":108,"pm10":71.5,"pm2_5":18.2,"mosquito_risk":0,"arthritis_risk":5,"migraine_risk":7,"frizz_risk":0,"updated_at":"2026-04-10T16:28:24.142736+05:30"},{"city":"Ratlam","state":"Madhya Pradesh","latitude":23.3315,"longitude":75.0367,"temp":33.8,"humidity":24,"rain":0.0,"pressure":957.7,"uv_index":8.3,"wind_gusts":32.4,"aqi":100,"pm10":20.8,"pm2_5":7.6,"mosquito_risk":0,"arthritis_risk":5,"migraine_risk":7,"frizz_risk":0,"updated_at":"2026-04-10T16:28:24.142743+05:30"},{"city":"Sagar","state":"Madhya Pradesh","latitude":23.8388,"longitude":78.7378,"temp":34.1,"humidity":18,"rain":0.0,"pressure":953.0,"uv_index":8.4,"wind_gusts":29.9,"aqi":105,"pm10":35.3,"pm2_5":10.7,"mosquito_risk":0,"arthritis_risk":5,"migraine_risk":7,"frizz_risk":0,"updated_at":"2026-04-10T16:28:24.142749+05:30"},{"city":"Satna","state":"Madhya Pradesh","latitude":24.6005,"longitude":80.8322,"temp":33.8,"humidity":17,"rain":0.0,"pressure":973.5,"uv_index":8.45,"wind_gusts":34.6,"aqi":113,"pm10":51.0,"pm2_5":15.0,"mosquito_risk":0,"arthritis_risk":5,"migraine_risk":7,"frizz_risk":0,"updated_at":"2026-04-10T16:28:24.142755+05:30"},{"city":"Akola","state":"Maharashtra","latitude":20.7002,"longitude":77.0082,"temp":39.0,"humidity":19,"rain":0.0,"pressure":975.2,"uv_index":8.7,"wind_gusts":24.5,"aqi":109,"pm10":52.2,"pm2_5":22.6,"mosquito_risk":0,"arthritis_risk":5,"migraine_risk":10,"frizz_risk":0,"updated_at":"2026-04-10T16:28:24.142762+05:30"},{"city":"Amravati","state":"Maharashtra","latitude":20.9374,"longitude":77.7796,"temp":37.2,"humidity":23,"rain":0.0,"pressure":968.0,"uv_index":8.7,"wind_gusts":28.4,"aqi":107,"pm10":51.1,"pm2_5":21.0,"mosquito_risk":0,"arthritis_risk":5,"migraine_risk":10,"frizz_risk":0,"updated_at":"2026-04-10T16:28:24.142769+05:30"},{"city":"Latur","state":"Maharashtra","latitude":18.4088,"longitude":76.5604,"temp":35.2,"humidity":29,"rain":0.0,"pressure":940.5,"uv_index":8.95,"wind_gusts":30.2,"aqi":102,"pm10":41.9,"pm2_5":21.4,"mosquito_risk":0,"arthritis_risk":5,"migraine_risk":10,"frizz_risk":0,"updated_at":"2026-04-10T16:28:24.142776+05:30"},{"city":"Nanded","state":"Maharashtra","latitude":19.1383,"longitude":77.3091,"temp":37.5,"humidity":24,"rain":0.0,"pressure":968.9,"uv_index":8.85,"wind_gusts":19.4,"aqi":103,"pm10":36.9,"pm2_5":17.8,"mosquito_risk":0,"arthritis_risk":5,"migraine_risk":10,"frizz_risk":0,"updated_at":"2026-04-10T16:28:24.142782+05:30"},{"city":"Gulbarga","state":"Karnataka","latitude":17.3297,"longitude":76.8343,"temp":38.8,"humidity":21,"rain":0.0,"pressure":958.3,"uv_index":9.05,"wind_gusts":26.3,"aqi":92,"pm10":42.6,"pm2_5":18.6,"mosquito_risk":0,"arthritis_risk":5,"migraine_risk":10,"frizz_risk":0,"updated_at":"2026-04-10T16:28:24.142789+05:30"},{"city":"Bidar","state":"Karnataka","latitude":17.9104,"longitude":77.5199,"temp":36.5,"humidity":24,"rain":0.0,"pressure":936.2,"uv_index":9.05,"wind_gusts":28.8,"aqi":101,"pm10":40.0,"pm2_5":19.3,"mosquito_risk":0,"arthritis_risk":5,"migraine_risk":10,"frizz_risk":0,"updated_at":"2026-04-10T16:28:24.142795+05:30"},{"city":"Hospet","state":"Karnataka","latitude":15.2689,"longitude":76.3909,"temp":37.9,"humidity":26,"rain":0.0,"pressure":954.9,"uv_index":9.25,"wind_gusts":23.4,"aqi":109,"pm10":40.7,"pm2_5":24.4,"mosquito_risk":0,"arthritis_risk":5,"migraine_risk":10,"frizz_risk":0,"updated_at":"2026-04-10T16:28:24.142801+05:30"},{"city":"Tirupur","state":"Tamil Nadu","latitude":11.1085,"longitude":77.3411,"temp":38.1,"humidity":31,"rain":0.0,"pressure":973.4,"uv_index":9.5,"wind_gusts":30.2,"aqi":132,"pm10":29.3,"pm2_5":20.5,"mosquito_risk":0,"arthritis_risk":5,"migraine_risk":10,"frizz_risk":1,"updated_at":"2026-04-10T16:28:24.142807+05:30"},{"city":"Alappuzha","state":"Kerala","latitude":9.4981,"longitude":76.3388,"temp":30.4,"humidity":79,"rain":0.0,"pressure":1007.2,"uv_index":9.2,"wind_gusts":26.6,"aqi":74,"pm10":47.6,"pm2_5":23.6,"mosquito_risk":3,"arthritis_risk":5,"migraine_risk":4,"frizz_risk":1,"updated_at":"2026-04-10T16:28:24.142813+05:30"},{"city":"Munnar","state":"Kerala","latitude":10.0889,"longitude":77.0595,"temp":29.5,"humidity":53,"rain":0.0,"pressure":858.8,"uv_index":8.1,"wind_gusts":31.3,"aqi":101,"pm10":30.7,"pm2_5":26.9,"mosquito_risk":4,"arthritis_risk":5,"migraine_risk":7,"frizz_risk":1,"updated_at":"2026-04-10T16:28:24.142820+05:30"},{"city":"Silchar","state":"Assam","latitude":24.8333,"longitude":92.7789,"temp":27.2,"humidity":57,"rain":0.0,"pressure":1005.5,"uv_index":8.55,"wind_gusts":25.9,"aqi":128,"pm10":45.9,"pm2_5":33.3,"mosquito_risk":4,"arthritis_risk":5,"migraine_risk":4,"frizz_risk":1,"updated_at":"2026-04-10T16:28:24.142827+05:30"},{"city":"Dibrugarh","state":"Assam","latitude":27.4728,"longitude":94.912,"temp":22.2,"humidity":77,"rain":0.0,"pressure":996.8,"uv_index":8.35,"wind_gusts":16.2,"aqi":99,"pm10":26.6,"pm2_5":18.6,"mosquito_risk":3,"arthritis_risk":5,"migraine_risk":7,"frizz_risk":1,"updated_at":"2026-04-10T16:28:24.142833+05:30"}]