[{"city":"Delhi","state":"Delhi","latitude":28.6139,"longitude":77.209,"temp":28.8,"humidity":39,"rain":0.0,"pressure":979.6,"uv_index":7.4,"wind_gusts":27.7,"aqi":177,"pm10":218.9,"pm2_5":59.3,"mosquito_risk":4,"arthritis_risk":5,"migraine_risk":7,"frizz_risk":0,"updated_at":"2026-04-24T04:20:35.323789+05:30"},{"city":"Mumbai","state":"Maharashtra","latitude":19.076,"longitude":72.8777,"temp":28.9,"humidity":81,"rain":0.0,"pressure":1005.9,"uv_index":8.05,"wind_gusts":24.5,"aqi":82,"pm10":27.9,"pm2_5":15.7,"mosquito_risk":7,"arthritis_risk":5,"migraine_risk":4,"frizz_risk":1,"updated_at":"2026-04-24T04:20:35.323828+05:30"},{"city":"Bangalore","state":"Karnataka","latitude":12.9716,"longitude":77.5946,"temp":23.9,"humidity":68,"rain":0.0,"pressure":909.3,"uv_index":9.6,"wind_gusts":34.9,"aqi":78,"pm10":32.9,"pm2_5":30.3,"mosquito_risk":3,"arthritis_risk":5,"migraine_risk":7,"frizz_risk":1,"updated_at":"2026-04-24T04:20:35.323843+05:30"},{"city":"Hyderabad","state":"Telangana","latitude":17.385,"longitude":78.4867,"temp":25.8,"humidity":67,"rain":0.0,"pressure":950.9,"uv_index":9.3,"wind_gusts":40.3,"aqi":124,"pm10":51.3,"pm2_5":44.5,"mosquito_risk":7,"arthritis_risk":5,"migraine_risk":7,"frizz_risk":1,"updated_at":"2026-04-24T04:20:35.323853+05:30"},{"city":"Chennai","state":"Tamil Nadu","latitude":13.0827,"longitude":80.2707,"temp":28.0,"humidity":87,"rain":0.0,"pressure":1004.5,"uv_index":8.9,"wind_gusts":33.5,"aqi":30,"pm10":10.8,"pm2_5":7.4,"mosquito_risk":7,"arthritis_risk":5,"migraine_risk":4,"frizz_risk":1,"updated_at":"2026-04-24T04:20:35.323862+05:30"},{"city":"Kolkata","state":"West Bengal","latitude":22.5726,"longitude":88.3639,"temp":27.8,"humidity":93,"rain":0.0,"pressure":1003.9,"uv_index":8.9,"wind_gusts":25.2,"aqi":97,"pm10":29.3,"pm2_5":25.6,"mosquito_risk":7,"arthritis_risk":5,"migraine_risk":4,"frizz_risk":1,"updated_at":"2026-04-24T04:20:35.323873+05:30"},{"city":"Pune","state":"Maharashtra","latitude":18.5204,"longitude":73.8567,"temp":25.3,"humidity":78,"rain":0.0,"pressure":946.5,"uv_index":8.6,"wind_gusts":28.1,"aqi":108,"pm10":64.5,"pm2_5":57.7,"mosquito_risk":7,"arthritis_risk":5,"migraine_risk":7,"frizz_risk":1,"updated_at":"2026-04-24T04:20:35.323882+05:30"},{"city":"Ahmedabad","state":"Gujarat","latitude":23.0225,"longitude":72.5714,"temp":26.8,"humidity":60,"rain":0.0,"pressure":1000.3,"uv_index":8.2,"wind_gusts":23.4,"aqi":51,"pm10":7.7,"pm2_5":5.2,"mosquito_risk":4,"arthritis_risk":5,"migraine_risk":4,"frizz_risk":1,"updated_at":"2026-04-24T04:20:35.323889+05:30"},{"city":"Jaipur","state":"Rajasthan","latitude":26.9124,"longitude":75.7873,"temp":28.7,"humidity":30,"rain":0.0,"pressure":957.9,"uv_index":8.05,"wind_gusts":29.9,"aqi":78,"pm10":96.6,"pm2_5":18.9,"mosquito_risk":4,"arthritis_risk":5,"migraine_risk":7,"frizz_risk":0,"updated_at":"2026-04-24T04:20:35.323898+05:30"},{"city":"Lucknow","state":"Uttar Pradesh","latitude":26.8467,"longitude":80.9462,"temp":25.8,"humidity":48,"rain":0.0,"pressure":990.3,"uv_index":7.9,"wind_gusts":19.8,"aqi":180,"pm10":192.8,"pm2_5":41.0,"mosquito_risk":4,"arthritis_risk":5,"migraine_risk":7,"frizz_risk":0,"updated_at":"2026-04-24T04:20:35.323906+05:30"},{"city":"Kanpur","state":"Uttar Pradesh","latitude":26.4499,"longitude":80.3319,"temp":24.6,"humidity":59,"rain":0.0,"pressure":988.5,"uv_index":7.95,"wind_gusts":18.4,"aqi":278,"pm10":222.6,"pm2_5":42.4,"mosquito_risk":0,"arthritis_risk":5,"migraine_risk":7,"frizz_risk":1,"updated_at":"2026-04-24T04:20:35.323913+05:30"},{"city":"Chandigarh","state":"Chandigarh","latitude":30.7333,"longitude":76.7794,"temp":25.6,"humidity":50,"rain":0.0,"pressure":965.3,"uv_index":7.35,"wind_gusts":28.8,"aqi":69,"pm10":24.6,"pm2_5":20.1,"mosquito_risk":4,"arthritis_risk":5,"migraine_risk":7,"frizz_risk":0,"updated_at":"2026-04-24T04:20:35.323923+05:30"},{"city":"Srinagar","state":"Jammu and Kashmir","latitude":34.0837,"longitude":74.7973,"temp":11.5,"humidity":80,"rain":0.0,"pressure":839.9,"uv_index":8.6,"wind_gusts":29.5,"aqi":74,"pm10":49.1,"pm2_5":35.5,"mosquito_risk":3,"arthritis_risk":5,"migraine_risk":7,"frizz_risk":0,"updated_at":"2026-04-24T04:20:35.323930+05:30"},{"city":"Jammu","state":"Jammu and Kashmir","latitude":32.7266,"longitude":74.857,"temp":24.3,"humidity":61,"rain":0.0,"pressure":969.6,"uv_index":8.2,"wind_gusts":36.7,"aqi":70,"pm10":24.0,"pm2_5":19.2,"mosquito_risk":3,"arthritis_risk":5,"migraine_risk":7,"frizz_risk":1,"updated_at":"2026-04-24T04:20:35.323937+05:30"},{"city":"Amritsar","state":"Punjab","latitude":31.634,"longitude":74.8723,"temp":24.9,"humidity":66,"rain":0.0,"pressure":977.5,"uv_index":8.1,"wind_gusts":38.5,"aqi":92,"pm10":44.1,"pm2_5":31.0,"mosquito_risk":3,"arthritis_risk":5,"migraine_risk":7,"frizz_risk":1,"updated_at":"2026-04-24T04:20:35.323944+05:30"},{"city":"Ludhiana","state":"Punjab","latitude":30.901,"longitude":75.8573,"temp":26.1,"humidity":63,"rain":0.0,"pressure":975.6,"uv_index":7.6,"wind_gusts":35.3,"aqi":86,"pm10":33.2,"pm2_5":29.0,"mosquito_risk":7,"arthritis_risk":5,"migraine_risk":7,"frizz_risk":1,"updated_at":"2026-04-24T04:20:35.323953+05:30"},{"city":"Jalandhar","state":"Punjab","latitude":31.326,"longitude":75.5762,"temp":25.3,"humidity":67,"rain":0.0,"pressure":976.5,"uv_index":7.85,"wind_gusts":30.6,"aqi":88,"pm10":45.3,"pm2_5":37.3,"mosquito_risk":7,"arthritis_risk":5,"migraine_risk":7,"frizz_risk":1,"updated_at":"2026-04-24T04:20:35.323960+05:30"},{"city":"Dehradun","state":"Uttarakhand","latitude":30.6284,"longitude":78.0322,"temp":18.0,"humidity":52,"rain":0.0,"pressure":830.1,"uv_index":7.85,"wind_gusts":45.4,"aqi":53,"pm10":13.5,"pm2_5":11.8,"mosquito_risk":0,"arthritis_risk":5,"migraine_risk":7,"frizz_risk":0,"updated_at":"2026-04-24T04:20:35.323967+05:30"},{"city":"Shimla","state":"Himachal Pradesh","latitude":31.1048,"longitude":77.1734,"temp":16.0,"humidity":60,"rain":0.0,"pressure":784.3,"uv_index":7.95,"wind_gusts":49.0,"aqi":55,"pm10":25.8,"pm2_5":18.0,"mosquito_risk":0,"arthritis_risk":5,"migraine_risk":7,"frizz_risk":0,"updated_at":"2026-04-24T04:20:35.323974+05:30"},{"city":"Manali","state":"Himachal Pradesh","latitude":32.2396,"longitude":77.1887,"temp":18.2,"humidity":51,"rain":0.0,"pressure":821.9,"uv_index":9.3,"wind_gusts":33.5,"aqi":53,"pm10":24.1,"pm2_5":16.3,"mosquito_risk":0,"arthritis_risk":5,"migraine_risk":7,"frizz_risk":0,"updated_at":"2026-04-24T04:20:35.323981+05:30"},{"city":"Gurgaon","state":"Haryana","latitude":28.4595,"longitude":77.0266,"temp":23.7,"humidity":60,"rain":0.0,"pressure":977.8,"uv_index":7.55,"wind_gusts":23.0,"aqi":678,"pm10":504.8,"pm2_5":76.8,"mosquito_risk":0,"arthritis_risk":5,"migraine_risk":7,"frizz_risk":0,"updated_at":"2026-04-24T04:20:35.323987+05:30"},{"city":"Noida","state":"Uttar Pradesh","latitude":28.5355,"longitude":77.391,"temp":28.2,"humidity":43,"rain":0.0,"pressure":981.0,"uv_index":7.45,"wind_gusts":27.4,"aqi":678,"pm10":504.8,"pm2_5":76.8,"mosquito_risk":4,"arthritis_risk":5,"migraine_risk":7,"frizz_risk":0,"updated_at":"2026-04-24T04:20:35.323994+05:30"},{"city":"Ghaziabad","state":"Uttar Pradesh","latitude":28.6692,"longitude":77.4538,"temp":27.7,"humidity":47,"rain":0.0,"pressure":979.4,"uv_index":7.4,"wind_gusts":27.0,"aqi":169,"pm10":256.1,"pm2_5":70.8,"mosquito_risk":4,"arthritis_risk":5,"migraine_risk":7,"frizz_risk":0,"updated_at":"2026-04-24T04:20:35.324000+05:30"},{"city":"Faridabad","state":"Haryana","latitude":28.4089,"longitude":77.3178,"temp":28.5,"humidity":35,"rain":0.0,"pressure":980.1,"uv_index":7.5,"wind_gusts":25.9,"aqi":678,"pm10":504.8,"pm2_5":76.8,"mosquito_risk":4,"arthritis_risk":5,"migraine_risk":7,"frizz_risk":0,"updated_at":"2026-04-24T04:20:35.324006+05:30"},{"city":"Meerut","state":"Uttar Pradesh","latitude":28.9845,"longitude":77.7064,"temp":25.2,"humidity":59,"rain":0.0,"pressure":978.3,"uv_index":7.35,"wind_gusts":25.6,"aqi":169,"pm10":256.1,"pm2_5":70.8,"mosquito_risk":4,"arthritis_risk":5,"migraine_risk":7,"frizz_risk":1,"updated_at":"2026-04-24T04:20:35.324013+05:30"},{"city":"Agra","state":"Uttar Pradesh","latitude":27.1767,"longitude":78.0081,"temp":23.6,"humidity":57,"rain":0.0,"pressure":984.7,"uv_index":7.8,"wind_gusts":28.1,"aqi":573,"pm10":825.2,"pm2_5":80.3,"mosquito_risk":0,"arthritis_risk":5,"migraine_risk":7,"frizz_risk":0,"updated_at":"2026-04-24T04:20:35.324021+05:30"},{"city":"Varanasi","state":"Uttar Pradesh","latitude":25.3176,"longitude":82.9739,"temp":24.0,"humidity":54,"rain":0.0,"pressure":994.6,"uv_index":8.5,"wind_gusts":22.0,"aqi":138,"pm10":245.9,"pm2_5":66.1,"mosquito_risk":0,"arthritis_risk":5,"migraine_risk":7,"frizz_risk":0,"updated_at":"2026-04-24T04:20:35.324027+05:30"},{"city":"Prayagraj","state":"Uttar Pradesh","latitude":25.4358,"longitude":81.8463,"temp":26.5,"humidity":47,"rain":0.0,"pressure":993.3,"uv_index":8.35,"wind_gusts":19.8,"aqi":145,"pm10":255.2,"pm2_5":65.4,"mosquito_risk":4,"arthritis_risk":5,"migraine_risk":7,"frizz_risk":0,"updated_at":"2026-04-24T04:20:35.324035+05:30"},{"city":"Gorakhpur","state":"Uttar Pradesh","latitude":26.7606,"longitude":83.3732,"temp":24.2,"humidity":78,"rain":0.0,"pressure":993.9,"uv_index":8.3,"wind_gusts":24.5,"aqi":120,"pm10":164.8,"pm2_5":45.3,"mosquito_risk":3,"arthritis_risk":5,"migraine_risk":7,"frizz_risk":1,"updated_at":"2026-04-24T04:20:35.324042+05:30"},{"city":"Bareilly","state":"Uttar Pradesh","latitude":28.367,"longitude":79.4304,"temp":24.9,"humidity":60,"rain":0.0,"pressure":983.5,"uv_index":7.7,"wind_gusts":22.3,"aqi":120,"pm10":156.9,"pm2_5":46.4,"mosquito_risk":0,"arthritis_risk":5,"migraine_risk":7,"frizz_risk":1,"updated_at":"2026-04-24T04:20:35.324048+05:30"},{"city":"Aligarh","state":"Uttar Pradesh","latitude":27.8974,"longitude":78.088,"temp":23.9,"humidity":53,"rain":0.0,"pressure":982.0,"uv_index":7.6,"wind_gusts":25.6,"aqi":458,"pm10":323.2,"pm2_5":51.5,"mosquito_risk":0,"arthritis_risk":5,"migraine_risk":7,"frizz_risk":0,"updated_at":"2026-04-24T04:20:35.324054+05:30"},{"city":"Moradabad","state":"Uttar Pradesh","latitude":28.8386,"longitude":78.7733,"temp":25.1,"humidity":61,"rain":0.0,"pressure":980.3,"uv_index":7.5,"wind_gusts":33.5,"aqi":140,"pm10":217.9,"pm2_5":79.9,"mosquito_risk":7,"arthritis_risk":5,"migraine_risk":7,"frizz_risk":1,"updated_at":"2026-04-24T04:20:35.324060+05:30"},{"city":"Saharanpur","state":"Uttar Pradesh","latitude":29.9637,"longitude":77.546,"temp":22.8,"humidity":72,"rain":0.0,"pressure":972.3,"uv_index":7.15,"wind_gusts":25.9,"aqi":103,"pm10":46.7,"pm2_5":43.1,"mosquito_risk":3,"arthritis_risk":5,"migraine_risk":7,"frizz_risk":1,"updated_at":"2026-04-24T04:20:35.324068+05:30"},{"city":"Jhansi","state":"Uttar Pradesh","latitude":25.4484,"longitude":78.5685,"temp":26.7,"humidity":35,"rain":0.0,"pressure":975.5,"uv_index":8.3,"wind_gusts":31.0,"aqi":43,"pm10":13.6,"pm2_5":13.2,"mosquito_risk":4,"arthritis_risk":5,"migraine_risk":7,"frizz_risk":0,"updated_at":"2026-04-24T04:20:38.573036+05:30"},{"city":"Surat","state":"Gujarat","latitude":21.1702,"longitude":72.8311,"temp":28.3,"humidity":83,"rain":0.0,"pressure":1004.7,"uv_index":7.9,"wind_gusts":21.2,"aqi":101,"pm10":33.4,"pm2_5":25.7,"mosquito_risk":7,"arthritis_risk":5,"migraine_risk":4,"frizz_risk":1,"updated_at":"2026-04-24T04:20:38.573065+05:30"},{"city":"Vadodara","state":"Gujarat","latitude":22.3072,"longitude":73.1812,"temp":28.1,"humidity":59,"rain":0.0,"pressure":1002.7,"uv_index":8.2,"wind_gusts":23.8,"aqi":77,"pm10":37.5,"pm2_5":29.0,"mosquito_risk":4,"arthritis_risk":5,"migraine_risk":4,"frizz_risk":1,"updated_at":"2026-04-24T04:20:38.573076+05:30"},{"city":"Rajkot","state":"Gujarat","latitude":22.3039,"longitude":70.8022,"temp":24.1,"humidity":93,"rain":0.0,"pressure":993.6,"uv_index":7.9,"wind_gusts":32.0,"aqi":34,"pm10":7.0,"pm2_5":4.8,"mosquito_risk":3,"arthritis_risk":5,"migraine_risk":7,"frizz_risk":1,"updated_at":"2026-04-24T04:20:38.573085+05:30"},{"city":"Thane","state":"Maharashtra","latitude":19.2183,"longitude":72.9781,"temp":27.1,"humidity":85,"rain":0.0,"pressure":1005.4,"uv_index":8.05,"wind_gusts":37.8,"aqi":82,"pm10":27.9,"pm2_5":15.7,"mosquito_risk":7,"arthritis_risk":5,"migraine_risk":4,"frizz_risk":1,"updated_at":"2026-04-24T04:20:38.573093+05:30"},{"city":"Nagpur","state":"Maharashtra","latitude":21.1458,"longitude":79.0882,"temp":27.6,"humidity":62,"rain":0.0,"pressure":970.6,"uv_index":8.95,"wind_gusts":32.4,"aqi":107,"pm10":61.7,"pm2_5":58.4,"mosquito_risk":7,"arthritis_risk":5,"migraine_risk":7,"frizz_risk":1,"updated_at":"2026-04-24T04:20:38.573101+05:30"},{"city":"Nashik","state":"Maharashtra","latitude":19.9975,"longitude":73.7898,"temp":26.2,"humidity":58,"rain":0.0,"pressure":944.1,"uv_index":8.35,"wind_gusts":36.7,"aqi":81,"pm10":32.4,"pm2_5":28.1,"mosquito_risk":4,"arthritis_risk":5,"migraine_risk":7,"frizz_risk":1,"updated_at":"2026-04-24T04:20:38.573109+05:30"},{"city":"Aurangabad","state":"Maharashtra","latitude":19.8762,"longitude":75.3433,"temp":27.9,"humidity":45,"rain":0.0,"pressure":943.2,"uv_index":9.05,"wind_gusts":33.1,"aqi":85,"pm10":38.8,"pm2_5":33.9,"mosquito_risk":4,"arthritis_risk":5,"migraine_risk":7,"frizz_risk":0,"updated_at":"2026-04-24T04:20:38.573117+05:30"},{"city":"Solapur","state":"Maharashtra","latitude":17.6599,"longitude":75.9064,"temp":26.1,"humidity":67,"rain":0.0,"pressure":955.0,"uv_index":9.1,"wind_gusts":31.7,"aqi":102,"pm10":45.3,"pm2_5":42.0,"mosquito_risk":7,"arthritis_risk":5,"migraine_risk":7,"frizz_risk":1,"updated_at":"2026-04-24T04:20:38.573125+05:30"},{"city":"Kolhapur","state":"Maharashtra","latitude":16.705,"longitude":74.2433,"temp":23.7,"humidity":87,"rain":0.0,"pressure":945.2,"uv_index":9.0,"wind_gusts":46.4,"aqi":131,"pm10":71.5,"pm2_5":68.7,"mosquito_risk":3,"arthritis_risk":5,"migraine_risk":7,"frizz_risk":1,"updated_at":"2026-04-24T04:20:38.573132+05:30"},{"city":"Goa","state":"Goa","latitude":15.2993,"longitude":74.124,"temp":28.1,"humidity":92,"rain":0.0,"pressure":994.4,"uv_index":9.0,"wind_gusts":28.4,"aqi":82,"pm10":41.7,"pm2_5":33.2,"mosquito_risk":7,"arthritis_risk":5,"migraine_risk":7,"frizz_risk":1,"updated_at":"2026-04-24T04:20:38.573140+05:30"},{"city":"Jodhpur","state":"Rajasthan","latitude":26.2389,"longitude":73.0243,"temp":29.5,"humidity":47,"rain":0.0,"pressure":980.4,"uv_index":8.25,"wind_gusts":29.5,"aqi":54,"pm10":78.0,"pm2_5":14.2,"mosquito_risk":4,"arthritis_risk":5,"migraine_risk":7,"frizz_risk":1,"updated_at":"2026-04-24T04:20:38.573148+05:30"},{"city":"Udaipur","state":"Rajasthan","latitude":24.5854,"longitude":73.7125,"temp":24.8,"humidity":52,"rain":0.0,"pressure":945.3,"uv_index":8.8,"wind_gusts":33.1,"aqi":44,"pm10":36.7,"pm2_5":12.3,"mosquito_risk":0,"arthritis_risk":5,"migraine_risk":7,"frizz_risk":0,"updated_at":"2026-04-24T04:20:38.573155+05:30"},{"city":"Kota","state":"Rajasthan","latitude":25.2138,"longitude":75.8648,"temp":26.3,"humidity":41,"rain":0.0,"pressure":976.5,"uv_index":8.3,"wind_gusts":22.0,"aqi":53,"pm10":19.9,"pm2_5":11.3,"mosquito_risk":4,"arthritis_risk":5,"migraine_risk":7,"frizz_risk":0,"updated_at":"2026-04-24T04:20:38.573163+05:30"},{"city":"Bikaner","state":"Rajasthan","latitude":28.0229,"longitude":73.3119,"temp":32.0,"humidity":37,"rain":0.0,"pressure":978.6,"uv_index":8.0,"wind_gusts":30.6,"aqi":63,"pm10":25.2,"pm2_5":8.6,"mosquito_risk":0,"arthritis_risk":5,"migraine_risk":7,"frizz_risk":0,"updated_at":"2026-04-24T04:20:38.573171+05:30"},{"city":"Ajmer","state":"Rajasthan","latitude":26.4499,"longitude":74.6399,"temp":25.8,"humidity":50,"rain":0.0,"pressure":952.8,"uv_index":8.25,"wind_gusts":31.3,"aqi":37,"pm10":16.0,"pm2_5":7.8,"mosquito_risk":4,"arthritis_risk":5,"migraine_risk":7,"frizz_risk":0,"updated_at":"2026-04-24T04:20:38.573178+05:30"},{"city":"Gwalior","state":"Madhya Pradesh","latitude":26.2183,"longitude":78.1828,"temp":27.8,"humidity":43,"rain":0.0,"pressure":980.6,"uv_index":8.05,"wind_gusts":27.4,"aqi":37,"pm10":10.1,"pm2_5":5.2,"mosquito_risk":4,"arthritis_risk":5,"migraine_risk":7,"frizz_risk":0,"updated_at":"2026-04-24T04:20:38.573186+05:30"},{"city":"Indore","state":"Madhya Pradesh","latitude":22.7196,"longitude":75.8577,"temp":25.7,"humidity":42,"rain":0.0,"pressure":946.4,"uv_index":8.65,"wind_gusts":29.5,"aqi":62,"pm10":20.3,"pm2_5":11.6,"mosquito_risk":4,"arthritis_risk":5,"migraine_risk":7,"frizz_risk":0,"updated_at":"2026-04-24T04:20:38.573194+05:30"},{"city":"Bhopal","state":"Madhya Pradesh","latitude":23.2599,"longitude":77.4126,"temp":26.6,"humidity":39,"rain":0.0,"pressure":951.9,"uv_index":8.65,"wind_gusts":22.7,"aqi":67,"pm10":14.2,"pm2_5":10.5,"mosquito_risk":4,"arthritis_risk":5,"migraine_risk":7,"frizz_risk":0,"updated_at":"2026-04-24T04:20:38.573201+05:30"},{"city":"Jabalpur","state":"Madhya Pradesh","latitude":23.1815,"longitude":79.9864,"temp":27.6,"humidity":43,"rain":0.0,"pressure":958.9,"uv_index":8.8,"wind_gusts":22.7,"aqi":68,"pm10":27.6,"pm2_5":24.9,"mosquito_risk":4,"arthritis_risk":5,"migraine_risk":7,"frizz_risk":0,"updated_at":"2026-04-24T04:20:38.573208+05:30"},{"city":"Ujjain","state":"Madhya Pradesh","latitude":23.1765,"longitude":75.7885,"temp":26.5,"humidity":35,"rain":0.0,"pressure":952.2,"uv_index":8.55,"wind_gusts":29.5,"aqi":62,"pm10":28.8,"pm2_5":15.1,"mosquito_risk":4,"arthritis_risk":5,"migraine_risk":7,"frizz_risk":0,"updated_at":"2026-04-24T04:20:38.573216+05:30"},{"city":"Visakhapatnam","state":"Andhra Pradesh","latitude":17.6868,"longitude":83.2185,"temp":26.8,"humidity":88,"rain":0.0,"pressure":1000.6,"uv_index":9.15,"wind_gusts":40.0,"aqi":64,"pm10":20.1,"pm2_5":16.6,"mosquito_risk":7,"arthritis_risk":5,"migraine_risk":4,"frizz_risk":1,"updated_at":"2026-04-24T04:20:38.573224+05:30"},{"city":"Vijayawada","state":"Andhra Pradesh","latitude":16.5062,"longitude":80.648,"temp":26.4,"humidity":94,"rain":0.0,"pressure":1000.1,"uv_index":9.2,"wind_gusts":29.2,"aqi":53,"pm10":13.2,"pm2_5":11.0,"mosquito_risk":7,"arthritis_risk":5,"migraine_risk":4,"frizz_risk":1,"updated_at":"2026-04-24T04:20:38.573231+05:30"},{"city":"Guntur","state":"Andhra Pradesh","latitude":16.3067,"longitude":80.4365,"temp":26.5,"humidity":93,"rain":0.0,"pressure":1001.2,"uv_index":9.25,"wind_gusts":30.2,"aqi":55,"pm10":12.1,"pm2_5":10.0,"mosquito_risk":7,"arthritis_risk":5,"migraine_risk":4,"frizz_risk":1,"updated_at":"2026-04-24T04:20:38.573238+05:30"},{"city":"Nellore","state":"Andhra Pradesh","latitude":14.4426,"longitude":79.9865,"temp":26.6,"humidity":90,"rain":0.0,"pressure":1003.0,"uv_index":9.3,"wind_gusts":35.6,"aqi":41,"pm10":9.3,"pm2_5":7.3,"mosquito_risk":7,"arthritis_risk":5,"migraine_risk":4,"frizz_risk":1,"updated_at":"2026-04-24T04:20:38.573246+05:30"},{"city":"Kurnool","state":"Andhra Pradesh","latitude":15.8281,"longitude":78.0373,"temp":29.9,"humidity":56,"rain":0.0,"pressure":974.2,"uv_index":9.25,"wind_gusts":26.3,"aqi":91,"pm10":28.3,"pm2_5":22.8,"mosquito_risk":4,"arthritis_risk":5,"migraine_risk":7,"frizz_risk":1,"updated_at":"2026-04-24T04:20:38.573254+05:30"},{"city":"Kakinada","state":"Andhra Pradesh","latitude":16.9891,"longitude":82.2475,"temp":26.5,"humidity":93,"rain":0.0,"pressure":1004.8,"uv_index":9.25,"wind_gusts":32.8,"aqi":43,"pm10":13.4,"pm2_5":9.4,"mosquito_risk":7,"arthritis_risk":5,"migraine_risk":4,"frizz_risk":1,"updated_at":"2026-04-24T04:20:38.573262+05:30"},{"city":"Tirupati","state":"Andhra Pradesh","latitude":13.6288,"longitude":79.4192,"temp":25.1,"humidity":86,"rain":0.0,"pressure":989.3,"uv_index":9.35,"wind_gusts":34.2,"aqi":55,"pm10":13.9,"pm2_5":12.2,"mosquito_risk":7,"arthritis_risk":5,"migraine_risk":7,"frizz_risk":1,"updated_at":"2026-04-24T04:20:38.573269+05:30"},{"city":"Warangal","state":"Telangana","latitude":17.9689,"longitude":79.5941,"temp":27.5,"humidity":64,"rain":0.0,"pressure":976.0,"uv_index":9.2,"wind_gusts":19.1,"aqi":119,"pm10":31.1,"pm2_5":28.6,"mosquito_risk":7,"arthritis_risk":5,"migraine_risk":7,"frizz_risk":1,"updated_at":"2026-04-24T04:20:38.573277+05:30"},{"city":"Nizamabad","state":"Telangana","latitude":18.6725,"longitude":78.0941,"temp":27.9,"humidity":61,"rain":0.0,"pressure":962.9,"uv_index":9.05,"wind_gusts":42.1,"aqi":116,"pm10":49.2,"pm2_5":45.3,"mosquito_risk":7,"arthritis_risk":5,"migraine_risk":7,"frizz_risk":1,"updated_at":"2026-04-24T04:20:38.573284+05:30"},{"city":"Mysore","state":"Karnataka","latitude":12.2958,"longitude":76.6396,"temp":23.8,"humidity":89,"rain":0.0,"pressure":926.3,"uv_index":9.5,"wind_gusts":40.3,"aqi":92,"pm10":44.7,"pm2_5":41.0,"mosquito_risk":3,"arthritis_risk":5,"migraine_risk":7,"frizz_risk":1,"updated_at":"2026-04-24T04:20:38.573292+05:30"},{"city":"Mangalore","state":"Karnataka","latitude":12.9141,"longitude":74.856,"temp":29.4,"humidity":81,"rain":0.0,"pressure":1003.8,"uv_index":9.1,"wind_gusts":32.4,"aqi":83,"pm10":28.7,"pm2_5":22.1,"mosquito_risk":7,"arthritis_risk":5,"migraine_risk":4,"frizz_risk":1,"updated_at":"2026-04-24T04:20:38.573299+05:30"},{"city":"Hubli-Dharwad","state":"Karnataka","latitude":15.3647,"longitude":75.124,"temp":23.6,"humidity":75,"rain":0.0,"pressure":938.2,"uv_index":9.2,"wind_gusts":50.0,"aqi":93,"pm10":40.2,"pm2_5":37.4,"mosquito_risk":3,"arthritis_risk":5,"migraine_risk":7,"frizz_risk":1,"updated_at":"2026-04-24T04:20:38.573307+05:30"},{"city":"Belgaum","state":"Karnataka","latitude":15.8497,"longitude":74.4977,"temp":23.4,"humidity":85,"rain":0.0,"pressure":922.9,"uv_index":9.25,"wind_gusts":41.0,"aqi":99,"pm10":44.0,"pm2_5":39.9,"mosquito_risk":3,"arthritis_risk":5,"migraine_risk":7,"frizz_risk":1,"updated_at":"2026-04-24T04:20:41.819433+05:30"},{"city":"Coimbatore","state":"Tamil Nadu","latitude":11.0168,"longitude":76.9558,"temp":24.4,"humidity":91,"rain":0.0,"pressure":959.4,"uv_index":9.45,"wind_gusts":34.6,"aqi":93,"pm10":48.3,"pm2_5":44.2,"mosquito_risk":3,"arthritis_risk":5,"migraine_risk":7,"frizz_risk":1,"updated_at":"2026-04-24T04:20:41.819470+05:30"},{"city":"Madurai","state":"Tamil Nadu","latitude":9.9252,"longitude":78.1198,"temp":27.1,"humidity":90,"rain":0.0,"pressure":990.5,"uv_index":9.3,"wind_gusts":29.5,"aqi":51,"pm10":18.4,"pm2_5":17.3,"mosquito_risk":7,"arthritis_risk":5,"migraine_risk":7,"frizz_risk":1,"updated_at":"2026-04-24T04:20:41.819481+05:30"},{"city":"Trichy","state":"Tamil Nadu","latitude":10.7905,"longitude":78.7047,"temp":27.6,"humidity":91,"rain":0.0,"pressure":997.4,"uv_index":9.15,"wind_gusts":24.1,"aqi":46,"pm10":18.1,"pm2_5":16.2,"mosquito_risk":7,"arthritis_risk":5,"migraine_risk":7,"frizz_risk":1,"updated_at":"2026-04-24T04:20:41.819490+05:30"},{"city":"Salem","state":"Tamil Nadu","latitude":11.6643,"longitude":78.146,"temp":25.9,"humidity":89,"rain":0.0,"pressure":975.0,"uv_index":9.4,"wind_gusts":27.7,"aqi":62,"pm10":21.2,"pm2_5":19.8,"mosquito_risk":7,"arthritis_risk":5,"migraine_risk":7,"frizz_risk":1,"updated_at":"2026-04-24T04:20:41.819498+05:30"},{"city":"Tirunelveli","state":"Tamil Nadu","latitude":8.7139,"longitude":77.7567,"temp":26.4,"humidity":83,"rain":0.0,"pressure":1000.5,"uv_index":9.25,"wind_gusts":41.8,"aqi":70,"pm10":31.1,"pm2_5":28.9,"mosquito_risk":7,"arthritis_risk":5,"migraine_risk":4,"frizz_risk":1,"updated_at":"2026-04-24T04:20:41.819506+05:30"},{"city":"Vellore","state":"Tamil Nadu","latitude":12.9165,"longitude":79.1325,"temp":24.4,"humidity":91,"rain":0.0,"pressure":982.3,"uv_index":9.4,"wind_gusts":31.3,"aqi":73,"pm10":29.3,"pm2_5":26.8,"mosquito_risk":3,"arthritis_risk":5,"migraine_risk":7,"frizz_risk":1,"updated_at":"2026-04-24T04:20:41.819514+05:30"},{"city":"Erode","state":"Tamil Nadu","latitude":11.341,"longitude":77.7172,"temp":27.6,"humidity":82,"rain":0.0,"pressure":986.7,"uv_index":9.35,"wind_gusts":27.7,"aqi":48,"pm10":9.8,"pm2_5":9.1,"mosquito_risk":7,"arthritis_risk":5,"migraine_risk":7,"frizz_risk":1,"updated_at":"2026-04-24T04:20:41.819522+05:30"},{"city":"Kochi","state":"Kerala","latitude":9.9312,"longitude":76.2673,"temp":28.8,"humidity":81,"rain":0.0,"pressure":1005.7,"uv_index":9.05,"wind_gusts":32.4,"aqi":79,"pm10":28.2,"pm2_5":26.5,"mosquito_risk":7,"arthritis_risk":5,"migraine_risk":4,"frizz_risk":1,"updated_at":"2026-04-24T04:20:41.819529+05:30"},{"city":"Thiruvananthapuram","state":"Kerala","latitude":8.5241,"longitude":76.9366,"temp":28.5,"humidity":84,"rain":0.0,"pressure":1004.9,"uv_index":9.05,"wind_gusts":24.8,"aqi":65,"pm10":25.4,"pm2_5":21.4,"mosquito_risk":7,"arthritis_risk":5,"migraine_risk":4,"frizz_risk":1,"updated_at":"2026-04-24T04:20:41.819536+05:30"},{"city":"Kozhikode","state":"Kerala","latitude":11.2588,"longitude":75.7804,"temp":28.8,"humidity":83,"rain":0.0,"pressure":1005.0,"uv_index":9.1,"wind_gusts":33.1,"aqi":87,"pm10":37.7,"pm2_5":29.3,"mosquito_risk":7,"arthritis_risk":5,"migraine_risk":4,"frizz_risk":1,"updated_at":"2026-04-24T04:20:41.819543+05:30"},{"city":"Thrissur","state":"Kerala","latitude":10.5276,"longitude":76.2144,"temp":27.9,"humidity":88,"rain":0.0,"pressure":1004.2,"uv_index":9.1,"wind_gusts":36.7,"aqi":84,"pm10":35.5,"pm2_5":32.1,"mosquito_risk":7,"arthritis_risk":5,"migraine_risk":4,"frizz_risk":1,"updated_at":"2026-04-24T04:20:41.819551+05:30"},{"city":"Kannur","state":"Kerala","latitude":11.8745,"longitude":75.3704,"temp":29.1,"humidity":81,"rain":0.0,"pressure":1004.2,"uv_index":9.1,"wind_gusts":31.0,"aqi":89,"pm10":32.6,"pm2_5":26.7,"mosquito_risk":7,"arthritis_risk":5,"migraine_risk":4,"frizz_risk":1,"updated_at":"2026-04-24T04:20:41.819559+05:30"},{"city":"Patna","state":"Bihar","latitude":25.5941,"longitude":85.1376,"temp":26.8,"humidity":88,"rain":0.0,"pressure":997.8,"uv_index":8.6,"wind_gusts":25.2,"aqi":155,"pm10":102.7,"pm2_5":76.1,"mosquito_risk":7,"arthritis_risk":5,"migraine_risk":7,"frizz_risk":1,"updated_at":"2026-04-24T04:20:41.819566+05:30"},{"city":"Gaya","state":"Bihar","latitude":24.7914,"longitude":85.0002,"temp":26.1,"humidity":55,"rain":0.0,"pressure":990.9,"uv_index":8.7,"wind_gusts":18.7,"aqi":140,"pm10":189.1,"pm2_5":71.0,"mosquito_risk":4,"arthritis_risk":5,"migraine_risk":7,"frizz_risk":1,"updated_at":"2026-04-24T04:20:41.819573+05:30"},{"city":"Muzaffarpur","state":"Bihar","latitude":26.1209,"longitude":85.3647,"temp":26.0,"humidity":91,"rain":0.0,"pressure":998.1,"uv_index":8.6,"wind_gusts":32.4,"aqi":153,"pm10":83.1,"pm2_5":68.2,"mosquito_risk":7,"arthritis_risk":5,"migraine_risk":7,"frizz_risk":1,"updated_at":"2026-04-24T04:20:41.819580+05:30"},{"city":"Bhagalpur","state":"Bihar","latitude":25.2425,"longitude":87.0117,"temp":27.0,"humidity":94,"rain":0.0,"pressure":998.9,"uv_index":8.6,"wind_gusts":22.0,"aqi":153,"pm10":75.9,"pm2_5":60.8,"mosquito_risk":7,"arthritis_risk":5,"migraine_risk":7,"frizz_risk":1,"updated_at":"2026-04-24T04:20:41.819587+05:30"},{"city":"Ranchi","state":"Jharkhand","latitude":23.3441,"longitude":85.3096,"temp":24.2,"humidity":42,"rain":0.0,"pressure":936.3,"uv_index":9.2,"wind_gusts":25.6,"aqi":98,"pm10":217.5,"pm2_5":56.0,"mosquito_risk":0,"arthritis_risk":5,"migraine_risk":7,"frizz_risk":0,"updated_at":"2026-04-24T04:20:41.819594+05:30"},{"city":"Jamshedpur","state":"Jharkhand","latitude":22.8046,"longitude":86.2029,"temp":27.5,"humidity":91,"rain":0.0,"pressure":988.7,"uv_index":9.0,"wind_gusts":32.4,"aqi":152,"pm10":100.1,"pm2_5":73.6,"mosquito_risk":7,"arthritis_risk":5,"migraine_risk":7,"frizz_risk":1,"updated_at":"2026-04-24T04:20:41.819601+05:30"},{"city":"Dhanbad","state":"Jharkhand","latitude":23.7957,"longitude":86.4304,"temp":28.6,"humidity":82,"rain":0.0,"pressure":977.9,"uv_index":8.95,"wind_gusts":35.6,"aqi":161,"pm10":190.5,"pm2_5":111.3,"mosquito_risk":7,"arthritis_risk":5,"migraine_risk":7,"frizz_risk":1,"updated_at":"2026-04-24T04:20:41.819629+05:30"},{"city":"Bokaro","state":"Jharkhand","latitude":23.6693,"longitude":86.1511,"temp":26.2,"humidity":74,"rain":0.0,"pressure":982.1,"uv_index":8.95,"wind_gusts":24.1,"aqi":157,"pm10":236.1,"pm2_5":106.9,"mosquito_risk":7,"arthritis_risk":5,"migraine_risk":7,"frizz_risk":1,"updated_at":"2026-04-24T04:20:41.819637+05:30"},{"city":"Bhubaneswar","state":"Odisha","latitude":20.2961,"longitude":85.8245,"temp":26.4,"humidity":94,"rain":0.0,"pressure":999.5,"uv_index":9.15,"wind_gusts":34.6,"aqi":91,"pm10":26.9,"pm2_5":22.8,"mosquito_risk":7,"arthritis_risk":5,"migraine_risk":7,"frizz_risk":1,"updated_at":"2026-04-24T04:20:41.819644+05:30"},{"city":"Cuttack","state":"Odisha","latitude":20.4625,"longitude":85.8828,"temp":27.0,"humidity":90,"rain":0.0,"pressure":1001.4,"uv_index":9.15,"wind_gusts":34.9,"aqi":91,"pm10":26.9,"pm2_5":22.8,"mosquito_risk":7,"arthritis_risk":5,"migraine_risk":4,"frizz_risk":1,"updated_at":"2026-04-24T04:20:41.819651+05:30"},{"city":"Rourkela","state":"Odisha","latitude":22.2604,"longitude":84.8536,"temp":26.0,"humidity":71,"rain":0.0,"pressure":982.3,"uv_index":8.65,"wind_gusts":30.2,"aqi":112,"pm10":102.7,"pm2_5":51.9,"mosquito_risk":7,"arthritis_risk":5,"migraine_risk":7,"frizz_risk":1,"updated_at":"2026-04-24T04:20:41.819658+05:30"},{"city":"Raipur","state":"Chhattisgarh","latitude":21.2514,"longitude":81.6296,"temp":28.8,"humidity":45,"rain":0.0,"pressure":971.7,"uv_index":9.0,"wind_gusts":24.5,"aqi":105,"pm10":51.9,"pm2_5":49.1,"mosquito_risk":4,"arthritis_risk":5,"migraine_risk":7,"frizz_risk":0,"updated_at":"2026-04-24T04:20:41.819665+05:30"},{"city":"Bhilai","state":"Chhattisgarh","latitude":21.1938,"longitude":81.3509,"temp":27.4,"humidity":50,"rain":0.0,"pressure":972.0,"uv_index":9.0,"wind_gusts":21.2,"aqi":109,"pm10":56.2,"pm2_5":53.2,"mosquito_risk":4,"arthritis_risk":5,"migraine_risk":7,"frizz_risk":1,"updated_at":"2026-04-24T04:20:41.819672+05:30"},{"city":"Guwahati","state":"Assam","latitude":26.1158,"longitude":91.7086,"temp":26.7,"humidity":87,"rain":0.0,"pressure":1001.2,"uv_index":8.55,"wind_gusts":23.4,"aqi":132,"pm10":75.9,"pm2_5":56.2,"mosquito_risk":7,"arthritis_risk":5,"migraine_risk":4,"frizz_risk":1,"updated_at":"2026-04-24T04:20:41.819679+05:30"},{"city":"Agartala","state":"Tripura","latitude":23.8315,"longitude":91.2868,"temp":27.0,"humidity":95,"rain":0.0,"pressure":1005.2,"uv_index":8.75,"wind_gusts":25.9,"aqi":107,"pm10":47.1,"pm2_5":41.2,"mosquito_risk":7,"arthritis_risk":5,"migraine_risk":4,"frizz_risk":1,"updated_at":"2026-04-24T04:20:41.819686+05:30"},{"city":"Shillong","state":"Meghalaya","latitude":25.5788,"longitude":91.8933,"temp":12.9,"humidity":87,"rain":0.0,"pressure":854.8,"uv_index":6.35,"wind_gusts":27.0,"aqi":117,"pm10":65.7,"pm2_5":45.6,"mosquito_risk":3,"arthritis_risk":10,"migraine_risk":7,"frizz_risk":0,"updated_at":"2026-04-24T04:20:41.819693+05:30"},{"city":"Imphal","state":"Manipur","latitude":24.817,"longitude":93.9368,"temp":18.8,"humidity":89,"rain":0.0,"pressure":923.1,"uv_index":9.1,"wind_gusts":35.3,"aqi":146,"pm10":123.9,"pm2_5":79.9,"mosquito_risk":3,"arthritis_risk":10,"migraine_risk":7,"frizz_risk":1,"updated_at":"2026-04-24T04:20:41.819700+05:30"},{"city":"Aizawl","state":"Mizoram","latitude":23.7271,"longitude":92.7176,"temp":20.2,"humidity":81,"rain":0.0,"pressure":892.0,"uv_index":8.45,"wind_gusts":37.1,"aqi":125,"pm10":92.7,"pm2_5":47.1,"mosquito_risk":3,"arthritis_risk":5,"migraine_risk":7,"frizz_risk":1,"updated_at":"2026-04-24T04:20:41.819707+05:30"},{"city":"Kohima","state":"Nagaland","latitude":25.6701,"longitude":94.1077,"temp":16.9,"humidity":92,"rain":0.0,"pressure":855.0,"uv_index":9.05,"wind_gusts":38.9,"aqi":117,"pm10":78.9,"pm2_5":56.3,"mosquito_risk":3,"arthritis_risk":10,"migraine_risk":7,"frizz_risk":0,"updated_at":"2026-04-24T04:20:41.819714+05:30"},{"city":"Gangtok","state":"Sikkim","latitude":27.3314,"longitude":88.6138,"temp":17.2,"humidity":97,"rain":0.0,"pressure":837.8,"uv_index":8.85,"wind_gusts":24.5,"aqi":104,"pm10":36.4,"pm2_5":28.1,"mosquito_risk":3,"arthritis_risk":10,"migraine_risk":7,"frizz_risk":1,"updated_at":"2026-04-24T04:20:41.819721+05:30"},{"city":"Siliguri","state":"West Bengal","latitude":26.7271,"longitude":88.3953,"temp":22.9,"humidity":84,"rain":0.0,"pressure":993.7,"uv_index":8.4,"wind_gusts":19.1,"aqi":151,"pm10":99.2,"pm2_5":79.4,"mosquito_risk":3,"arthritis_risk":5,"migraine_risk":7,"frizz_risk":1,"updated_at":"2026-04-24T04:20:45.070926+05:30"},{"city":"Durgapur","state":"West Bengal","latitude":23.5204,"longitude":87.3119,"temp":27.8,"humidity":89,"rain":0.0,"pressure":993.0,"uv_index":8.9,"wind_gusts":37.4,"aqi":156,"pm10":53.3,"pm2_5":50.3,"mosquito_risk":7,"arthritis_risk":5,"migraine_risk":7,"frizz_risk":1,"updated_at":"2026-04-24T04:20:45.070958+05:30"},{"city":"Asansol","state":"West Bengal","latitude":23.6739,"longitude":86.9524,"temp":28.7,"humidity":83,"rain":0.0,"pressure":991.4,"uv_index":8.9,"wind_gusts":39.6,"aqi":154,"pm10":85.4,"pm2_5":65.2,"mosquito_risk":7,"arthritis_risk":5,"migraine_risk":7,"frizz_risk":1,"updated_at":"2026-04-24T04:20:45.070970+05:30"},{"city":"Pondicherry","state":"Puducherry","latitude":11.9139,"longitude":79.8145,"temp":26.9,"humidity":95,"rain":0.0,"pressure":1006.0,"uv_index":8.6,"wind_gusts":29.5,"aqi":25,"pm10":8.6,"pm2_5":5.5,"mosquito_risk":7,"arthritis_risk":5,"migraine_risk":4,"frizz_risk":1,"updated_at":"2026-04-24T04:20:45.070979+05:30"},{"city":"Port Blair","state":"Andaman and Nicobar Islands","latitude":11.6234,"longitude":92.7265,"temp":29.5,"humidity":72,"rain":0.0,"pressure":1004.4,"uv_index":9.15,"wind_gusts":23.8,"aqi":31,"pm10":7.3,"pm2_5":3.6,"mosquito_risk":7,"arthritis_risk":5,"migraine_risk":4,"frizz_risk":1,"updated_at":"2026-04-24T04:20:45.070988+05:30"},{"city":"Haridwar","state":"Uttarakhand","latitude":29.9457,"longitude":78.1642,"temp":23.3,"humidity":66,"rain":0.0,"pressure":971.3,"uv_index":7.25,"wind_gusts":33.8,"aqi":83,"pm10":31.8,"pm2_5":29.7,"mosquito_risk":3,"arthritis_risk":5,"migraine_risk":7,"frizz_risk":1,"updated_at":"2026-04-24T04:20:45.070996+05:30"},{"city":"Rishikesh","state":"Uttarakhand","latitude":30.0869,"longitude":78.2676,"temp":23.8,"humidity":59,"rain":0.0,"pressure":964.5,"uv_index":7.35,"wind_gusts":37.8,"aqi":77,"pm10":28.0,"pm2_5":26.3,"mosquito_risk":0,"arthritis_risk":5,"migraine_risk":7,"frizz_risk":0,"updated_at":"2026-04-24T04:20:45.071004+05:30"},{"city":"Nainital","state":"Uttarakhand","latitude":29.3919,"longitude":79.4542,"temp":23.4,"humidity":39,"rain":0.0,"pressure":806.8,"uv_index":8.2,"wind_gusts":46.1,"aqi":96,"pm10":27.1,"pm2_5":22.2,"mosquito_risk":0,"arthritis_risk":5,"migraine_risk":7,"frizz_risk":0,"updated_at":"2026-04-24T04:20:45.071013+05:30"},{"city":"Mussoorie","state":"Uttarakhand","latitude":30.4599,"longitude":78.0664,"temp":21.1,"humidity":43,"rain":0.0,"pressure":803.5,"uv_index":7.75,"wind_gusts":49.3,"aqi":72,"pm10":23.7,"pm2_5":23.0,"mosquito_risk":0,"arthritis_risk":5,"migraine_risk":7,"frizz_risk":0,"updated_at":"2026-04-24T04:20:45.071021+05:30"},{"city":"Dharamshala","state":"Himachal Pradesh","latitude":32.219,"longitude":76.3234,"temp":25.3,"humidity":31,"rain":0.0,"pressure":869.2,"uv_index":8.05,"wind_gusts":33.8,"aqi":43,"pm10":15.3,"pm2_5":9.6,"mosquito_risk":4,"arthritis_risk":5,"migraine_risk":7,"frizz_risk":0,"updated_at":"2026-04-24T04:20:45.071029+05:30"},{"city":"Dalhousie","state":"Himachal Pradesh","latitude":32.5387,"longitude":75.971,"temp":21.3,"humidity":30,"rain":0.0,"pressure":804.1,"uv_index":8.3,"wind_gusts":35.3,"aqi":60,"pm10":19.8,"pm2_5":17.2,"mosquito_risk":0,"arthritis_risk":5,"migraine_risk":7,"frizz_risk":0,"updated_at":"2026-04-24T04:20:45.071038+05:30"},{"city":"Patiala","state":"Punjab","latitude":30.3398,"longitude":76.3869,"temp":24.1,"humidity":67,"rain":0.0,"pressure":974.9,"uv_index":7.35,"wind_gusts":24.8,"aqi":157,"pm10":183.5,"pm2_5":48.8,"mosquito_risk":3,"arthritis_risk":5,"migraine_risk":7,"frizz_risk":1,"updated_at":"2026-04-24T04:20:45.071046+05:30"},{"city":"Bhatinda","state":"Punjab","latitude":30.211,"longitude":74.9455,"temp":26.8,"humidity":52,"rain":0.0,"pressure":980.5,"uv_index":8.0,"wind_gusts":27.7,"aqi":80,"pm10":39.8,"pm2_5":27.6,"mosquito_risk":4,"arthritis_risk":5,"migraine_risk":7,"frizz_risk":1,"updated_at":"2026-04-24T04:20:45.071053+05:30"},{"city":"Rohtak","state":"Haryana","latitude":28.8955,"longitude":76.6066,"temp":25.2,"humidity":64,"rain":0.0,"pressure":978.3,"uv_index":7.45,"wind_gusts":25.9,"aqi":202,"pm10":266.4,"pm2_5":56.3,"mosquito_risk":7,"arthritis_risk":5,"migraine_risk":7,"frizz_risk":1,"updated_at":"2026-04-24T04:20:45.071061+05:30"},{"city":"Panipat","state":"Haryana","latitude":29.3909,"longitude":76.9635,"temp":25.5,"humidity":62,"rain":0.0,"pressure":977.0,"uv_index":7.3,"wind_gusts":26.6,"aqi":532,"pm10":446.1,"pm2_5":90.6,"mosquito_risk":7,"arthritis_risk":5,"migraine_risk":7,"frizz_risk":1,"updated_at":"2026-04-24T04:20:45.071069+05:30"},{"city":"Mathura","state":"Uttar Pradesh","latitude":27.4924,"longitude":77.6737,"temp":23.2,"humidity":62,"rain":0.0,"pressure":983.4,"uv_index":7.7,"wind_gusts":26.3,"aqi":441,"pm10":406.1,"pm2_5":46.3,"mosquito_risk":3,"arthritis_risk":5,"migraine_risk":7,"frizz_risk":0,"updated_at":"2026-04-24T04:20:45.071077+05:30"},{"city":"Vrindavan","state":"Uttar Pradesh","latitude":27.5823,"longitude":77.7027,"temp":23.1,"humidity":62,"rain":0.0,"pressure":983.8,"uv_index":7.7,"wind_gusts":22.0,"aqi":441,"pm10":406.1,"pm2_5":46.3,"mosquito_risk":3,"arthritis_risk":5,"migraine_risk":7,"frizz_risk":0,"updated_at":"2026-04-24T04:20:45.071085+05:30"},{"city":"Ayodhya","state":"Uttar Pradesh","latitude":26.7922,"longitude":82.1998,"temp":24.3,"humidity":52,"rain":0.0,"pressure":992.2,"uv_index":8.05,"wind_gusts":20.2,"aqi":137,"pm10":260.8,"pm2_5":51.5,"mosquito_risk":0,"arthritis_risk":5,"migraine_risk":7,"frizz_risk":0,"updated_at":"2026-04-24T04:20:45.071093+05:30"},{"city":"Ratlam","state":"Madhya Pradesh","latitude":23.3315,"longitude":75.0367,"temp":26.9,"humidity":39,"rain":0.0,"pressure":952.9,"uv_index":8.5,"wind_gusts":25.9,"aqi":62,"pm10":33.5,"pm2_5":17.8,"mosquito_risk":4,"arthritis_risk":5,"migraine_risk":7,"frizz_risk":0,"updated_at":"2026-04-24T04:20:45.071100+05:30"},{"city":"Sagar","state":"Madhya Pradesh","latitude":23.8388,"longitude":78.7378,"temp":28.4,"humidity":37,"rain":0.0,"pressure":948.7,"uv_index":8.65,"wind_gusts":27.7,"aqi":55,"pm10":20.1,"pm2_5":19.4,"mosquito_risk":4,"arthritis_risk":5,"migraine_risk":7,"frizz_risk":0,"updated_at":"2026-04-24T04:20:45.071109+05:30"},{"city":"Satna","state":"Madhya Pradesh","latitude":24.6005,"longitude":80.8322,"temp":26.6,"humidity":41,"rain":0.0,"pressure":969.3,"uv_index":8.65,"wind_gusts":20.9,"aqi":66,"pm10":28.3,"pm2_5":27.6,"mosquito_risk":4,"arthritis_risk":5,"migraine_risk":7,"frizz_risk":0,"updated_at":"2026-04-24T04:20:45.071117+05:30"},{"city":"Akola","state":"Maharashtra","latitude":20.7002,"longitude":77.0082,"temp":28.9,"humidity":48,"rain":0.0,"pressure":973.2,"uv_index":8.9,"wind_gusts":28.8,"aqi":87,"pm10":28.9,"pm2_5":25.4,"mosquito_risk":4,"arthritis_risk":5,"migraine_risk":7,"frizz_risk":1,"updated_at":"2026-04-24T04:20:45.071125+05:30"},{"city":"Amravati","state":"Maharashtra","latitude":20.9374,"longitude":77.7796,"temp":27.5,"humidity":53,"rain":0.0,"pressure":965.1,"uv_index":8.9,"wind_gusts":23.0,"aqi":86,"pm10":31.9,"pm2_5":28.2,"mosquito_risk":4,"arthritis_risk":5,"migraine_risk":7,"frizz_risk":1,"updated_at":"2026-04-24T04:20:45.071134+05:30"},{"city":"Latur","state":"Maharashtra","latitude":18.4088,"longitude":76.5604,"temp":24.7,"humidity":64,"rain":0.0,"pressure":938.2,"uv_index":9.1,"wind_gusts":34.6,"aqi":101,"pm10":42.4,"pm2_5":39.0,"mosquito_risk":3,"arthritis_risk":5,"migraine_risk":7,"frizz_risk":1,"updated_at":"2026-04-24T04:20:45.071142+05:30"},{"city":"Nanded","state":"Maharashtra","latitude":19.1383,"longitude":77.3091,"temp":27.1,"humidity":58,"rain":0.0,"pressure":966.5,"uv_index":9.05,"wind_gusts":34.6,"aqi":116,"pm10":43.0,"pm2_5":40.0,"mosquito_risk":4,"arthritis_risk":5,"migraine_risk":7,"frizz_risk":1,"updated_at":"2026-04-24T04:20:45.071150+05:30"},{"city":"Gulbarga","state":"Karnataka","latitude":17.3297,"longitude":76.8343,"temp":27.0,"humidity":60,"rain":0.0,"pressure":956.2,"uv_index":9.15,"wind_gusts":32.4,"aqi":116,"pm10":56.7,"pm2_5":49.6,"mosquito_risk":4,"arthritis_risk":5,"migraine_risk":7,"frizz_risk":1,"updated_at":"2026-04-24T04:20:45.071158+05:30"},{"city":"Bidar","state":"Karnataka","latitude":17.9104,"longitude":77.5199,"temp":26.9,"humidity":60,"rain":0.0,"pressure":933.5,"uv_index":8.5,"wind_gusts":37.8,"aqi":114,"pm10":51.1,"pm2_5":46.1,"mosquito_risk":4,"arthritis_risk":5,"migraine_risk":7,"frizz_risk":1,"updated_at":"2026-04-24T04:20:45.071166+05:30"},{"city":"Hospet","state":"Karnataka","latitude":15.2689,"longitude":76.3909,"temp":26.7,"humidity":68,"rain":0.0,"pressure":953.5,"uv_index":9.25,"wind_gusts":60.8,"aqi":101,"pm10":44.7,"pm2_5":41.4,"mosquito_risk":7,"arthritis_risk":5,"migraine_risk":7,"frizz_risk":1,"updated_at":"2026-04-24T04:20:45.071173+05:30"},{"city":"Tirupur","state":"Tamil Nadu","latitude":11.1085,"longitude":77.3411,"temp":26.5,"humidity":86,"rain":0.0,"pressure":972.9,"uv_index":9.45,"wind_gusts":32.8,"aqi":67,"pm10":24.3,"pm2_5":21.5,"mosquito_risk":7,"arthritis_risk":5,"migraine_risk":7,"frizz_risk":1,"updated_at":"2026-04-24T04:20:45.071181+05:30"},{"city":"Alappuzha","state":"Kerala","latitude":9.4981,"longitude":76.3388,"temp":28.1,"humidity":83,"rain":0.0,"pressure":1005.9,"uv_index":9.0,"wind_gusts":27.0,"aqi":78,"pm10":28.5,"pm2_5":25.4,"mosquito_risk":7,"arthritis_risk":5,"migraine_risk":4,"frizz_risk":1,"updated_at":"2026-04-24T04:20:45.071189+05:30"},{"city":"Munnar","state":"Kerala","latitude":10.0889,"longitude":77.0595,"temp":20.4,"humidity":82,"rain":0.0,"pressure":854.0,"uv_index":9.65,"wind_gusts":25.6,"aqi":70,"pm10":28.1,"pm2_5":26.4,"mosquito_risk":3,"arthritis_risk":5,"migraine_risk":7,"frizz_risk":1,"updated_at":"2026-04-24T04:20:45.071197+05:30"},{"city":"Silchar","state":"Assam","latitude":24.8333,"longitude":92.7789,"temp":25.1,"humidity":86,"rain":0.0,"pressure":1004.1,"uv_index":8.75,"wind_gusts":22.0,"aqi":154,"pm10":115.9,"pm2_5":76.1,"mosquito_risk":7,"arthritis_risk":5,"migraine_risk":4,"frizz_risk":1,"updated_at":"2026-04-24T04:20:45.071205+05:30"},{"city":"Dibrugarh","state":"Assam","latitude":27.4728,"longitude":94.912,"temp":25.7,"humidity":82,"rain":0.0,"pressure":995.1,"uv_index":8.65,"wind_gusts":11.9,"aqi":77,"pm10":30.9,"pm2_5":28.2,"mosquito_risk":7,"arthritis_risk":5,"migraine_risk":7,"frizz_risk":1,"updated_at":"2026-04-24T04:20:45.071213+05:30"}]