[{"city":"Delhi","state":"Delhi","latitude":28.6139,"longitude":77.209,"temp":21.1,"humidity":68,"rain":0.0,"pressure":986.3,"uv_index":6.6,"wind_gusts":26.3,"aqi":232,"pm10":203.0,"pm2_5":83.1,"mosquito_risk":3,"arthritis_risk":5,"migraine_risk":7,"frizz_risk":0,"updated_at":"2026-03-25T08:01:44.432218+05:30"},{"city":"Mumbai","state":"Maharashtra","latitude":19.076,"longitude":72.8777,"temp":27.5,"humidity":84,"rain":0.0,"pressure":1010.1,"uv_index":7.95,"wind_gusts":20.9,"aqi":91,"pm10":39.8,"pm2_5":26.4,"mosquito_risk":7,"arthritis_risk":0,"migraine_risk":4,"frizz_risk":1,"updated_at":"2026-03-25T08:01:44.432256+05:30"},{"city":"Bangalore","state":"Karnataka","latitude":12.9716,"longitude":77.5946,"temp":23.0,"humidity":80,"rain":0.0,"pressure":913.9,"uv_index":9.5,"wind_gusts":32.0,"aqi":74,"pm10":45.3,"pm2_5":44.2,"mosquito_risk":3,"arthritis_risk":5,"migraine_risk":7,"frizz_risk":1,"updated_at":"2026-03-25T08:01:44.432271+05:30"},{"city":"Hyderabad","state":"Telangana","latitude":17.385,"longitude":78.4867,"temp":25.2,"humidity":70,"rain":0.0,"pressure":955.8,"uv_index":9.0,"wind_gusts":18.7,"aqi":90,"pm10":25.5,"pm2_5":21.3,"mosquito_risk":7,"arthritis_risk":5,"migraine_risk":7,"frizz_risk":1,"updated_at":"2026-03-25T08:01:44.432281+05:30"},{"city":"Chennai","state":"Tamil Nadu","latitude":13.0827,"longitude":80.2707,"temp":27.3,"humidity":75,"rain":0.0,"pressure":1010.7,"uv_index":9.2,"wind_gusts":31.7,"aqi":30,"pm10":16.7,"pm2_5":11.8,"mosquito_risk":7,"arthritis_risk":0,"migraine_risk":4,"frizz_risk":1,"updated_at":"2026-03-25T08:01:44.432289+05:30"},{"city":"Kolkata","state":"West Bengal","latitude":22.5726,"longitude":88.3639,"temp":26.7,"humidity":82,"rain":0.0,"pressure":1010.1,"uv_index":8.4,"wind_gusts":25.6,"aqi":91,"pm10":24.8,"pm2_5":18.8,"mosquito_risk":7,"arthritis_risk":0,"migraine_risk":4,"frizz_risk":1,"updated_at":"2026-03-25T08:01:44.432298+05:30"},{"city":"Pune","state":"Maharashtra","latitude":18.5204,"longitude":73.8567,"temp":24.2,"humidity":63,"rain":0.0,"pressure":949.9,"uv_index":8.5,"wind_gusts":36.7,"aqi":92,"pm10":60.8,"pm2_5":55.5,"mosquito_risk":3,"arthritis_risk":5,"migraine_risk":7,"frizz_risk":1,"updated_at":"2026-03-25T08:01:44.432310+05:30"},{"city":"Ahmedabad","state":"Gujarat","latitude":23.0225,"longitude":72.5714,"temp":24.5,"humidity":76,"rain":0.0,"pressure":1004.8,"uv_index":7.9,"wind_gusts":24.1,"aqi":66,"pm10":17.1,"pm2_5":13.2,"mosquito_risk":3,"arthritis_risk":5,"migraine_risk":4,"frizz_risk":1,"updated_at":"2026-03-25T08:01:44.432317+05:30"},{"city":"Jaipur","state":"Rajasthan","latitude":26.9124,"longitude":75.7873,"temp":22.7,"humidity":53,"rain":0.0,"pressure":963.1,"uv_index":7.35,"wind_gusts":25.9,"aqi":104,"pm10":353.0,"pm2_5":54.9,"mosquito_risk":0,"arthritis_risk":5,"migraine_risk":7,"frizz_risk":0,"updated_at":"2026-03-25T08:01:44.432325+05:30"},{"city":"Lucknow","state":"Uttar Pradesh","latitude":26.8467,"longitude":80.9462,"temp":22.0,"humidity":64,"rain":0.0,"pressure":997.8,"uv_index":7.15,"wind_gusts":34.6,"aqi":113,"pm10":140.2,"pm2_5":53.8,"mosquito_risk":3,"arthritis_risk":5,"migraine_risk":7,"frizz_risk":0,"updated_at":"2026-03-25T08:01:44.432332+05:30"},{"city":"Kanpur","state":"Uttar Pradesh","latitude":26.4499,"longitude":80.3319,"temp":21.8,"humidity":75,"rain":0.0,"pressure":996.0,"uv_index":7.15,"wind_gusts":25.6,"aqi":147,"pm10":240.3,"pm2_5":64.5,"mosquito_risk":3,"arthritis_risk":5,"migraine_risk":7,"frizz_risk":1,"updated_at":"2026-03-25T08:01:44.432339+05:30"},{"city":"Chandigarh","state":"Chandigarh","latitude":30.7333,"longitude":76.7794,"temp":19.4,"humidity":74,"rain":0.0,"pressure":970.9,"uv_index":6.55,"wind_gusts":29.2,"aqi":71,"pm10":33.4,"pm2_5":29.9,"mosquito_risk":3,"arthritis_risk":5,"migraine_risk":7,"frizz_risk":0,"updated_at":"2026-03-25T08:01:44.432346+05:30"},{"city":"Srinagar","state":"Jammu and Kashmir","latitude":34.0837,"longitude":74.7973,"temp":7.2,"humidity":73,"rain":0.0,"pressure":839.9,"uv_index":7.5,"wind_gusts":13.0,"aqi":78,"pm10":53.3,"pm2_5":42.6,"mosquito_risk":3,"arthritis_risk":5,"migraine_risk":7,"frizz_risk":0,"updated_at":"2026-03-25T08:01:44.432352+05:30"},{"city":"Jammu","state":"Jammu and Kashmir","latitude":32.7266,"longitude":74.857,"temp":17.9,"humidity":81,"rain":0.0,"pressure":974.7,"uv_index":7.2,"wind_gusts":19.4,"aqi":82,"pm10":37.4,"pm2_5":34.1,"mosquito_risk":3,"arthritis_risk":10,"migraine_risk":7,"frizz_risk":0,"updated_at":"2026-03-25T08:01:44.432359+05:30"},{"city":"Amritsar","state":"Punjab","latitude":31.634,"longitude":74.8723,"temp":18.2,"humidity":83,"rain":0.0,"pressure":982.9,"uv_index":6.35,"wind_gusts":20.9,"aqi":120,"pm10":86.4,"pm2_5":79.2,"mosquito_risk":3,"arthritis_risk":10,"migraine_risk":7,"frizz_risk":0,"updated_at":"2026-03-25T08:01:44.432366+05:30"},{"city":"Ludhiana","state":"Punjab","latitude":30.901,"longitude":75.8573,"temp":19.1,"humidity":81,"rain":0.0,"pressure":981.2,"uv_index":6.7,"wind_gusts":21.6,"aqi":122,"pm10":82.0,"pm2_5":72.6,"mosquito_risk":3,"arthritis_risk":10,"migraine_risk":7,"frizz_risk":0,"updated_at":"2026-03-25T08:01:44.432372+05:30"},{"city":"Jalandhar","state":"Punjab","latitude":31.326,"longitude":75.5762,"temp":18.2,"humidity":86,"rain":0.0,"pressure":982.1,"uv_index":6.85,"wind_gusts":21.2,"aqi":118,"pm10":86.4,"pm2_5":78.5,"mosquito_risk":3,"arthritis_risk":10,"migraine_risk":7,"frizz_risk":0,"updated_at":"2026-03-25T08:01:44.432381+05:30"},{"city":"Dehradun","state":"Uttarakhand","latitude":30.6284,"longitude":78.0322,"temp":11.8,"humidity":64,"rain":0.0,"pressure":829.5,"uv_index":7.0,"wind_gusts":22.7,"aqi":54,"pm10":10.6,"pm2_5":6.8,"mosquito_risk":3,"arthritis_risk":5,"migraine_risk":7,"frizz_risk":0,"updated_at":"2026-03-25T08:01:44.432387+05:30"},{"city":"Shimla","state":"Himachal Pradesh","latitude":31.1048,"longitude":77.1734,"temp":10.3,"humidity":71,"rain":0.0,"pressure":783.1,"uv_index":7.05,"wind_gusts":44.6,"aqi":57,"pm10":24.4,"pm2_5":20.4,"mosquito_risk":3,"arthritis_risk":5,"migraine_risk":7,"frizz_risk":0,"updated_at":"2026-03-25T08:01:44.432394+05:30"},{"city":"Manali","state":"Himachal Pradesh","latitude":32.2396,"longitude":77.1887,"temp":14.3,"humidity":22,"rain":0.0,"pressure":817.8,"uv_index":9.1,"wind_gusts":27.4,"aqi":66,"pm10":19.4,"pm2_5":11.8,"mosquito_risk":0,"arthritis_risk":5,"migraine_risk":7,"frizz_risk":1,"updated_at":"2026-03-25T08:01:44.432400+05:30"},{"city":"Gurgaon","state":"Haryana","latitude":28.4595,"longitude":77.0266,"temp":18.7,"humidity":83,"rain":0.0,"pressure":984.6,"uv_index":6.75,"wind_gusts":20.9,"aqi":676,"pm10":390.2,"pm2_5":104.1,"mosquito_risk":3,"arthritis_risk":10,"migraine_risk":7,"frizz_risk":0,"updated_at":"2026-03-25T08:01:44.432424+05:30"},{"city":"Noida","state":"Uttar Pradesh","latitude":28.5355,"longitude":77.391,"temp":20.9,"humidity":71,"rain":0.0,"pressure":987.9,"uv_index":6.55,"wind_gusts":25.6,"aqi":676,"pm10":390.2,"pm2_5":104.1,"mosquito_risk":3,"arthritis_risk":5,"migraine_risk":7,"frizz_risk":0,"updated_at":"2026-03-25T08:01:44.432431+05:30"},{"city":"Ghaziabad","state":"Uttar Pradesh","latitude":28.6692,"longitude":77.4538,"temp":20.0,"humidity":76,"rain":0.0,"pressure":985.9,"uv_index":6.55,"wind_gusts":26.6,"aqi":159,"pm10":145.3,"pm2_5":64.5,"mosquito_risk":3,"arthritis_risk":5,"migraine_risk":7,"frizz_risk":0,"updated_at":"2026-03-25T08:01:44.432438+05:30"},{"city":"Faridabad","state":"Haryana","latitude":28.4089,"longitude":77.3178,"temp":19.1,"humidity":80,"rain":0.0,"pressure":987.2,"uv_index":6.5,"wind_gusts":23.0,"aqi":676,"pm10":390.2,"pm2_5":104.1,"mosquito_risk":3,"arthritis_risk":5,"migraine_risk":7,"frizz_risk":0,"updated_at":"2026-03-25T08:01:44.432444+05:30"},{"city":"Meerut","state":"Uttar Pradesh","latitude":28.9845,"longitude":77.7064,"temp":19.1,"humidity":79,"rain":0.0,"pressure":984.4,"uv_index":6.3,"wind_gusts":29.9,"aqi":159,"pm10":145.3,"pm2_5":64.5,"mosquito_risk":3,"arthritis_risk":5,"migraine_risk":7,"frizz_risk":0,"updated_at":"2026-03-25T08:01:44.432450+05:30"},{"city":"Agra","state":"Uttar Pradesh","latitude":27.1767,"longitude":78.0081,"temp":21.1,"humidity":69,"rain":0.0,"pressure":991.8,"uv_index":7.0,"wind_gusts":29.2,"aqi":429,"pm10":508.5,"pm2_5":112.0,"mosquito_risk":3,"arthritis_risk":5,"migraine_risk":7,"frizz_risk":0,"updated_at":"2026-03-25T08:01:44.432457+05:30"},{"city":"Varanasi","state":"Uttar Pradesh","latitude":25.3176,"longitude":82.9739,"temp":22.8,"humidity":73,"rain":0.0,"pressure":1001.9,"uv_index":7.75,"wind_gusts":29.2,"aqi":112,"pm10":100.8,"pm2_5":48.3,"mosquito_risk":3,"arthritis_risk":5,"migraine_risk":4,"frizz_risk":1,"updated_at":"2026-03-25T08:01:44.432466+05:30"},{"city":"Prayagraj","state":"Uttar Pradesh","latitude":25.4358,"longitude":81.8463,"temp":23.5,"humidity":65,"rain":0.0,"pressure":1000.3,"uv_index":7.65,"wind_gusts":20.2,"aqi":101,"pm10":129.9,"pm2_5":50.6,"mosquito_risk":3,"arthritis_risk":5,"migraine_risk":4,"frizz_risk":1,"updated_at":"2026-03-25T08:01:44.432472+05:30"},{"city":"Gorakhpur","state":"Uttar Pradesh","latitude":26.7606,"longitude":83.3732,"temp":21.7,"humidity":77,"rain":0.0,"pressure":1001.0,"uv_index":7.25,"wind_gusts":28.1,"aqi":96,"pm10":93.6,"pm2_5":53.0,"mosquito_risk":3,"arthritis_risk":5,"migraine_risk":4,"frizz_risk":1,"updated_at":"2026-03-25T08:01:44.432478+05:30"},{"city":"Bareilly","state":"Uttar Pradesh","latitude":28.367,"longitude":79.4304,"temp":19.7,"humidity":81,"rain":0.0,"pressure":990.0,"uv_index":6.85,"wind_gusts":31.3,"aqi":108,"pm10":54.9,"pm2_5":41.0,"mosquito_risk":3,"arthritis_risk":10,"migraine_risk":7,"frizz_risk":1,"updated_at":"2026-03-25T08:01:44.432485+05:30"},{"city":"Aligarh","state":"Uttar Pradesh","latitude":27.8974,"longitude":78.088,"temp":19.9,"humidity":75,"rain":0.0,"pressure":989.2,"uv_index":6.75,"wind_gusts":25.6,"aqi":360,"pm10":274.7,"pm2_5":86.6,"mosquito_risk":3,"arthritis_risk":5,"migraine_risk":7,"frizz_risk":0,"updated_at":"2026-03-25T08:01:44.432491+05:30"},{"city":"Moradabad","state":"Uttar Pradesh","latitude":28.8386,"longitude":78.7733,"temp":19.1,"humidity":82,"rain":0.0,"pressure":986.6,"uv_index":6.65,"wind_gusts":31.0,"aqi":112,"pm10":69.4,"pm2_5":46.7,"mosquito_risk":3,"arthritis_risk":10,"migraine_risk":7,"frizz_risk":0,"updated_at":"2026-03-25T08:01:44.432500+05:30"},{"city":"Saharanpur","state":"Uttar Pradesh","latitude":29.9637,"longitude":77.546,"temp":17.4,"humidity":86,"rain":0.0,"pressure":978.1,"uv_index":6.3,"wind_gusts":31.3,"aqi":116,"pm10":83.8,"pm2_5":75.7,"mosquito_risk":3,"arthritis_risk":10,"migraine_risk":7,"frizz_risk":0,"updated_at":"2026-03-25T08:01:44.432506+05:30"},{"city":"Jhansi","state":"Uttar Pradesh","latitude":25.4484,"longitude":78.5685,"temp":23.2,"humidity":64,"rain":0.0,"pressure":982.1,"uv_index":7.65,"wind_gusts":28.4,"aqi":86,"pm10":201.2,"pm2_5":39.7,"mosquito_risk":3,"arthritis_risk":5,"migraine_risk":7,"frizz_risk":0,"updated_at":"2026-03-25T08:01:47.766988+05:30"},{"city":"Surat","state":"Gujarat","latitude":21.1702,"longitude":72.8311,"temp":25.9,"humidity":85,"rain":0.0,"pressure":1008.7,"uv_index":7.7,"wind_gusts":19.1,"aqi":103,"pm10":34.3,"pm2_5":29.8,"mosquito_risk":7,"arthritis_risk":0,"migraine_risk":4,"frizz_risk":1,"updated_at":"2026-03-25T08:01:47.767017+05:30"},{"city":"Vadodara","state":"Gujarat","latitude":22.3072,"longitude":73.1812,"temp":25.6,"humidity":67,"rain":0.0,"pressure":1006.9,"uv_index":7.6,"wind_gusts":17.3,"aqi":81,"pm10":39.5,"pm2_5":37.0,"mosquito_risk":7,"arthritis_risk":5,"migraine_risk":4,"frizz_risk":1,"updated_at":"2026-03-25T08:01:47.767027+05:30"},{"city":"Rajkot","state":"Gujarat","latitude":22.3039,"longitude":70.8022,"temp":23.6,"humidity":90,"rain":0.0,"pressure":997.1,"uv_index":7.7,"wind_gusts":26.3,"aqi":35,"pm10":15.7,"pm2_5":8.6,"mosquito_risk":3,"arthritis_risk":5,"migraine_risk":7,"frizz_risk":1,"updated_at":"2026-03-25T08:01:47.767035+05:30"},{"city":"Thane","state":"Maharashtra","latitude":19.2183,"longitude":72.9781,"temp":26.5,"humidity":80,"rain":0.0,"pressure":1009.6,"uv_index":7.95,"wind_gusts":34.2,"aqi":91,"pm10":39.8,"pm2_5":26.4,"mosquito_risk":7,"arthritis_risk":0,"migraine_risk":4,"frizz_risk":1,"updated_at":"2026-03-25T08:01:47.767042+05:30"},{"city":"Nagpur","state":"Maharashtra","latitude":21.1458,"longitude":79.0882,"temp":25.3,"humidity":56,"rain":0.0,"pressure":975.4,"uv_index":8.2,"wind_gusts":26.6,"aqi":110,"pm10":47.4,"pm2_5":40.2,"mosquito_risk":4,"arthritis_risk":5,"migraine_risk":7,"frizz_risk":0,"updated_at":"2026-03-25T08:01:47.767049+05:30"},{"city":"Nashik","state":"Maharashtra","latitude":19.9975,"longitude":73.7898,"temp":24.3,"humidity":64,"rain":0.0,"pressure":947.2,"uv_index":8.15,"wind_gusts":28.4,"aqi":74,"pm10":51.3,"pm2_5":44.2,"mosquito_risk":3,"arthritis_risk":5,"migraine_risk":7,"frizz_risk":1,"updated_at":"2026-03-25T08:01:47.767056+05:30"},{"city":"Aurangabad","state":"Maharashtra","latitude":19.8762,"longitude":75.3433,"temp":23.0,"humidity":61,"rain":0.0,"pressure":946.0,"uv_index":8.7,"wind_gusts":29.9,"aqi":60,"pm10":32.2,"pm2_5":25.8,"mosquito_risk":3,"arthritis_risk":5,"migraine_risk":7,"frizz_risk":0,"updated_at":"2026-03-25T08:01:47.767062+05:30"},{"city":"Solapur","state":"Maharashtra","latitude":17.6599,"longitude":75.9064,"temp":25.7,"humidity":75,"rain":0.0,"pressure":959.2,"uv_index":8.85,"wind_gusts":37.8,"aqi":94,"pm10":41.4,"pm2_5":37.1,"mosquito_risk":7,"arthritis_risk":5,"migraine_risk":7,"frizz_risk":1,"updated_at":"2026-03-25T08:01:47.767070+05:30"},{"city":"Kolhapur","state":"Maharashtra","latitude":16.705,"longitude":74.2433,"temp":23.4,"humidity":81,"rain":0.0,"pressure":949.4,"uv_index":8.95,"wind_gusts":45.4,"aqi":133,"pm10":124.3,"pm2_5":114.6,"mosquito_risk":3,"arthritis_risk":5,"migraine_risk":7,"frizz_risk":1,"updated_at":"2026-03-25T08:01:47.767077+05:30"},{"city":"Goa","state":"Goa","latitude":15.2993,"longitude":74.124,"temp":28.0,"humidity":81,"rain":0.0,"pressure":999.6,"uv_index":8.95,"wind_gusts":28.1,"aqi":99,"pm10":54.5,"pm2_5":46.3,"mosquito_risk":7,"arthritis_risk":5,"migraine_risk":7,"frizz_risk":1,"updated_at":"2026-03-25T08:01:47.767084+05:30"},{"city":"Jodhpur","state":"Rajasthan","latitude":26.2389,"longitude":73.0243,"temp":22.7,"humidity":58,"rain":0.0,"pressure":984.9,"uv_index":7.15,"wind_gusts":25.2,"aqi":56,"pm10":30.3,"pm2_5":18.8,"mosquito_risk":0,"arthritis_risk":5,"migraine_risk":7,"frizz_risk":0,"updated_at":"2026-03-25T08:01:47.767090+05:30"},{"city":"Udaipur","state":"Rajasthan","latitude":24.5854,"longitude":73.7125,"temp":23.6,"humidity":51,"rain":0.0,"pressure":948.7,"uv_index":8.1,"wind_gusts":24.5,"aqi":57,"pm10":37.1,"pm2_5":14.9,"mosquito_risk":0,"arthritis_risk":5,"migraine_risk":7,"frizz_risk":0,"updated_at":"2026-03-25T08:01:47.767096+05:30"},{"city":"Kota","state":"Rajasthan","latitude":25.2138,"longitude":75.8648,"temp":24.3,"humidity":58,"rain":0.0,"pressure":981.8,"uv_index":7.7,"wind_gusts":21.6,"aqi":82,"pm10":48.7,"pm2_5":31.9,"mosquito_risk":0,"arthritis_risk":5,"migraine_risk":7,"frizz_risk":0,"updated_at":"2026-03-25T08:01:47.767103+05:30"},{"city":"Bikaner","state":"Rajasthan","latitude":28.0229,"longitude":73.3119,"temp":24.3,"humidity":40,"rain":0.0,"pressure":984.0,"uv_index":5.95,"wind_gusts":25.6,"aqi":57,"pm10":101.7,"pm2_5":23.3,"mosquito_risk":0,"arthritis_risk":5,"migraine_risk":3,"frizz_risk":0,"updated_at":"2026-03-25T08:01:47.767109+05:30"},{"city":"Ajmer","state":"Rajasthan","latitude":26.4499,"longitude":74.6399,"temp":24.4,"humidity":46,"rain":0.0,"pressure":957.1,"uv_index":7.5,"wind_gusts":33.8,"aqi":67,"pm10":112.9,"pm2_5":26.3,"mosquito_risk":0,"arthritis_risk":5,"migraine_risk":7,"frizz_risk":0,"updated_at":"2026-03-25T08:01:47.767115+05:30"},{"city":"Gwalior","state":"Madhya Pradesh","latitude":26.2183,"longitude":78.1828,"temp":23.7,"humidity":64,"rain":0.0,"pressure":987.2,"uv_index":7.35,"wind_gusts":22.3,"aqi":135,"pm10":558.8,"pm2_5":94.3,"mosquito_risk":3,"arthritis_risk":5,"migraine_risk":7,"frizz_risk":1,"updated_at":"2026-03-25T08:01:47.767122+05:30"},{"city":"Indore","state":"Madhya Pradesh","latitude":22.7196,"longitude":75.8577,"temp":23.9,"humidity":53,"rain":0.0,"pressure":949.8,"uv_index":8.15,"wind_gusts":25.9,"aqi":63,"pm10":35.7,"pm2_5":28.3,"mosquito_risk":0,"arthritis_risk":5,"migraine_risk":7,"frizz_risk":0,"updated_at":"2026-03-25T08:01:47.767128+05:30"},{"city":"Bhopal","state":"Madhya Pradesh","latitude":23.2599,"longitude":77.4126,"temp":24.7,"humidity":51,"rain":0.0,"pressure":956.1,"uv_index":8.05,"wind_gusts":24.1,"aqi":65,"pm10":26.4,"pm2_5":16.6,"mosquito_risk":0,"arthritis_risk":5,"migraine_risk":7,"frizz_risk":0,"updated_at":"2026-03-25T08:01:47.767134+05:30"},{"city":"Jabalpur","state":"Madhya Pradesh","latitude":23.1815,"longitude":79.9864,"temp":23.6,"humidity":63,"rain":0.0,"pressure":964.5,"uv_index":8.2,"wind_gusts":22.0,"aqi":66,"pm10":26.9,"pm2_5":16.9,"mosquito_risk":3,"arthritis_risk":5,"migraine_risk":7,"frizz_risk":1,"updated_at":"2026-03-25T08:01:47.767141+05:30"},{"city":"Ujjain","state":"Madhya Pradesh","latitude":23.1765,"longitude":75.7885,"temp":23.4,"humidity":59,"rain":0.0,"pressure":955.6,"uv_index":8.0,"wind_gusts":23.0,"aqi":73,"pm10":57.5,"pm2_5":49.7,"mosquito_risk":0,"arthritis_risk":5,"migraine_risk":7,"frizz_risk":0,"updated_at":"2026-03-25T08:01:47.767147+05:30"},{"city":"Visakhapatnam","state":"Andhra Pradesh","latitude":17.6868,"longitude":83.2185,"temp":27.4,"humidity":76,"rain":0.0,"pressure":1007.3,"uv_index":8.95,"wind_gusts":36.4,"aqi":75,"pm10":34.8,"pm2_5":26.9,"mosquito_risk":7,"arthritis_risk":5,"migraine_risk":4,"frizz_risk":1,"updated_at":"2026-03-25T08:01:47.767154+05:30"},{"city":"Vijayawada","state":"Andhra Pradesh","latitude":16.5062,"longitude":80.648,"temp":26.2,"humidity":84,"rain":0.0,"pressure":1006.2,"uv_index":9.0,"wind_gusts":25.2,"aqi":60,"pm10":19.4,"pm2_5":15.9,"mosquito_risk":7,"arthritis_risk":5,"migraine_risk":4,"frizz_risk":1,"updated_at":"2026-03-25T08:01:47.767161+05:30"},{"city":"Guntur","state":"Andhra Pradesh","latitude":16.3067,"longitude":80.4365,"temp":26.4,"humidity":85,"rain":0.0,"pressure":1007.2,"uv_index":9.0,"wind_gusts":27.0,"aqi":58,"pm10":14.8,"pm2_5":11.8,"mosquito_risk":7,"arthritis_risk":5,"migraine_risk":4,"frizz_risk":1,"updated_at":"2026-03-25T08:01:47.767167+05:30"},{"city":"Nellore","state":"Andhra Pradesh","latitude":14.4426,"longitude":79.9865,"temp":26.6,"humidity":78,"rain":0.0,"pressure":1009.2,"uv_index":9.1,"wind_gusts":29.5,"aqi":35,"pm10":12.7,"pm2_5":10.5,"mosquito_risk":7,"arthritis_risk":0,"migraine_risk":4,"frizz_risk":1,"updated_at":"2026-03-25T08:01:47.767174+05:30"},{"city":"Kurnool","state":"Andhra Pradesh","latitude":15.8281,"longitude":78.0373,"temp":27.8,"humidity":65,"rain":0.0,"pressure":979.6,"uv_index":8.9,"wind_gusts":32.0,"aqi":67,"pm10":10.5,"pm2_5":8.7,"mosquito_risk":7,"arthritis_risk":5,"migraine_risk":7,"frizz_risk":1,"updated_at":"2026-03-25T08:01:47.767181+05:30"},{"city":"Kakinada","state":"Andhra Pradesh","latitude":16.9891,"longitude":82.2475,"temp":26.9,"humidity":81,"rain":0.0,"pressure":1011.2,"uv_index":8.95,"wind_gusts":26.3,"aqi":52,"pm10":25.2,"pm2_5":15.5,"mosquito_risk":7,"arthritis_risk":0,"migraine_risk":4,"frizz_risk":1,"updated_at":"2026-03-25T08:01:47.767187+05:30"},{"city":"Tirupati","state":"Andhra Pradesh","latitude":13.6288,"longitude":79.4192,"temp":24.5,"humidity":82,"rain":0.0,"pressure":995.1,"uv_index":9.2,"wind_gusts":30.2,"aqi":58,"pm10":21.7,"pm2_5":20.5,"mosquito_risk":3,"arthritis_risk":5,"migraine_risk":7,"frizz_risk":1,"updated_at":"2026-03-25T08:01:47.767194+05:30"},{"city":"Warangal","state":"Telangana","latitude":17.9689,"longitude":79.5941,"temp":25.1,"humidity":81,"rain":0.0,"pressure":981.6,"uv_index":8.85,"wind_gusts":24.5,"aqi":82,"pm10":17.8,"pm2_5":15.4,"mosquito_risk":7,"arthritis_risk":5,"migraine_risk":7,"frizz_risk":1,"updated_at":"2026-03-25T08:01:47.767200+05:30"},{"city":"Nizamabad","state":"Telangana","latitude":18.6725,"longitude":78.0941,"temp":25.6,"humidity":70,"rain":0.0,"pressure":967.7,"uv_index":8.75,"wind_gusts":23.8,"aqi":101,"pm10":43.7,"pm2_5":39.5,"mosquito_risk":7,"arthritis_risk":5,"migraine_risk":7,"frizz_risk":1,"updated_at":"2026-03-25T08:01:47.767206+05:30"},{"city":"Mysore","state":"Karnataka","latitude":12.2958,"longitude":76.6396,"temp":23.9,"humidity":79,"rain":0.0,"pressure":930.4,"uv_index":9.45,"wind_gusts":40.0,"aqi":88,"pm10":42.7,"pm2_5":41.1,"mosquito_risk":3,"arthritis_risk":5,"migraine_risk":7,"frizz_risk":1,"updated_at":"2026-03-25T08:01:47.767212+05:30"},{"city":"Mangalore","state":"Karnataka","latitude":12.9141,"longitude":74.856,"temp":28.6,"humidity":80,"rain":0.0,"pressure":1008.4,"uv_index":9.05,"wind_gusts":25.2,"aqi":102,"pm10":56.0,"pm2_5":48.4,"mosquito_risk":7,"arthritis_risk":0,"migraine_risk":4,"frizz_risk":1,"updated_at":"2026-03-25T08:01:47.767218+05:30"},{"city":"Hubli-Dharwad","state":"Karnataka","latitude":15.3647,"longitude":75.124,"temp":23.7,"humidity":88,"rain":0.0,"pressure":942.8,"uv_index":9.1,"wind_gusts":32.0,"aqi":121,"pm10":70.3,"pm2_5":62.6,"mosquito_risk":3,"arthritis_risk":5,"migraine_risk":7,"frizz_risk":1,"updated_at":"2026-03-25T08:01:47.767225+05:30"},{"city":"Belgaum","state":"Karnataka","latitude":15.8497,"longitude":74.4977,"temp":23.3,"humidity":85,"rain":0.0,"pressure":927.2,"uv_index":9.05,"wind_gusts":29.9,"aqi":111,"pm10":85.0,"pm2_5":75.7,"mosquito_risk":3,"arthritis_risk":5,"migraine_risk":7,"frizz_risk":1,"updated_at":"2026-03-25T08:01:51.095687+05:30"},{"city":"Coimbatore","state":"Tamil Nadu","latitude":11.0168,"longitude":76.9558,"temp":24.9,"humidity":80,"rain":0.0,"pressure":964.5,"uv_index":9.4,"wind_gusts":37.4,"aqi":58,"pm10":15.7,"pm2_5":15.4,"mosquito_risk":3,"arthritis_risk":5,"migraine_risk":7,"frizz_risk":1,"updated_at":"2026-03-25T08:01:51.095719+05:30"},{"city":"Madurai","state":"Tamil Nadu","latitude":9.9252,"longitude":78.1198,"temp":26.1,"humidity":80,"rain":0.0,"pressure":996.1,"uv_index":9.35,"wind_gusts":25.9,"aqi":52,"pm10":30.6,"pm2_5":28.9,"mosquito_risk":7,"arthritis_risk":5,"migraine_risk":7,"frizz_risk":1,"updated_at":"2026-03-25T08:01:51.095731+05:30"},{"city":"Trichy","state":"Tamil Nadu","latitude":10.7905,"longitude":78.7047,"temp":25.7,"humidity":86,"rain":0.0,"pressure":1003.2,"uv_index":9.3,"wind_gusts":23.8,"aqi":52,"pm10":33.6,"pm2_5":31.2,"mosquito_risk":7,"arthritis_risk":5,"migraine_risk":4,"frizz_risk":1,"updated_at":"2026-03-25T08:01:51.095741+05:30"},{"city":"Salem","state":"Tamil Nadu","latitude":11.6643,"longitude":78.146,"temp":25.5,"humidity":80,"rain":0.0,"pressure":980.5,"uv_index":9.35,"wind_gusts":33.1,"aqi":76,"pm10":40.9,"pm2_5":40.3,"mosquito_risk":7,"arthritis_risk":5,"migraine_risk":7,"frizz_risk":1,"updated_at":"2026-03-25T08:01:51.095750+05:30"},{"city":"Tirunelveli","state":"Tamil Nadu","latitude":8.7139,"longitude":77.7567,"temp":27.1,"humidity":75,"rain":0.0,"pressure":1006.0,"uv_index":9.3,"wind_gusts":38.5,"aqi":38,"pm10":17.8,"pm2_5":16.4,"mosquito_risk":7,"arthritis_risk":5,"migraine_risk":4,"frizz_risk":1,"updated_at":"2026-03-25T08:01:51.095759+05:30"},{"city":"Vellore","state":"Tamil Nadu","latitude":12.9165,"longitude":79.1325,"temp":24.3,"humidity":82,"rain":0.0,"pressure":988.1,"uv_index":9.3,"wind_gusts":32.4,"aqi":59,"pm10":40.0,"pm2_5":39.3,"mosquito_risk":3,"arthritis_risk":5,"migraine_risk":7,"frizz_risk":1,"updated_at":"2026-03-25T08:01:51.095767+05:30"},{"city":"Erode","state":"Tamil Nadu","latitude":11.341,"longitude":77.7172,"temp":25.8,"humidity":82,"rain":0.0,"pressure":992.4,"uv_index":9.3,"wind_gusts":25.2,"aqi":52,"pm10":17.5,"pm2_5":15.5,"mosquito_risk":7,"arthritis_risk":5,"migraine_risk":7,"frizz_risk":1,"updated_at":"2026-03-25T08:01:51.095775+05:30"},{"city":"Kochi","state":"Kerala","latitude":9.9312,"longitude":76.2673,"temp":27.6,"humidity":81,"rain":0.0,"pressure":1010.4,"uv_index":9.15,"wind_gusts":32.0,"aqi":83,"pm10":34.6,"pm2_5":31.7,"mosquito_risk":7,"arthritis_risk":0,"migraine_risk":4,"frizz_risk":1,"updated_at":"2026-03-25T08:01:51.095784+05:30"},{"city":"Thiruvananthapuram","state":"Kerala","latitude":8.5241,"longitude":76.9366,"temp":27.1,"humidity":85,"rain":0.0,"pressure":1009.5,"uv_index":9.2,"wind_gusts":30.2,"aqi":65,"pm10":25.8,"pm2_5":20.1,"mosquito_risk":7,"arthritis_risk":0,"migraine_risk":4,"frizz_risk":1,"updated_at":"2026-03-25T08:01:51.095792+05:30"},{"city":"Kozhikode","state":"Kerala","latitude":11.2588,"longitude":75.7804,"temp":28.2,"humidity":81,"rain":0.0,"pressure":1009.9,"uv_index":9.1,"wind_gusts":34.6,"aqi":87,"pm10":51.8,"pm2_5":39.8,"mosquito_risk":7,"arthritis_risk":0,"migraine_risk":4,"frizz_risk":1,"updated_at":"2026-03-25T08:01:51.095800+05:30"},{"city":"Thrissur","state":"Kerala","latitude":10.5276,"longitude":76.2144,"temp":27.6,"humidity":78,"rain":0.0,"pressure":1009.1,"uv_index":9.15,"wind_gusts":38.2,"aqi":82,"pm10":38.6,"pm2_5":35.0,"mosquito_risk":7,"arthritis_risk":0,"migraine_risk":4,"frizz_risk":1,"updated_at":"2026-03-25T08:01:51.095808+05:30"},{"city":"Kannur","state":"Kerala","latitude":11.8745,"longitude":75.3704,"temp":27.9,"humidity":76,"rain":0.0,"pressure":1009.1,"uv_index":9.05,"wind_gusts":28.1,"aqi":101,"pm10":51.5,"pm2_5":44.7,"mosquito_risk":7,"arthritis_risk":0,"migraine_risk":4,"frizz_risk":1,"updated_at":"2026-03-25T08:01:51.095816+05:30"},{"city":"Patna","state":"Bihar","latitude":25.5941,"longitude":85.1376,"temp":24.1,"humidity":66,"rain":0.0,"pressure":1004.5,"uv_index":7.35,"wind_gusts":30.2,"aqi":121,"pm10":59.5,"pm2_5":45.9,"mosquito_risk":3,"arthritis_risk":5,"migraine_risk":4,"frizz_risk":1,"updated_at":"2026-03-25T08:01:51.095824+05:30"},{"city":"Gaya","state":"Bihar","latitude":24.7914,"longitude":85.0002,"temp":24.4,"humidity":70,"rain":0.0,"pressure":998.2,"uv_index":8.05,"wind_gusts":23.4,"aqi":118,"pm10":64.0,"pm2_5":49.8,"mosquito_risk":3,"arthritis_risk":5,"migraine_risk":7,"frizz_risk":1,"updated_at":"2026-03-25T08:01:51.095831+05:30"},{"city":"Muzaffarpur","state":"Bihar","latitude":26.1209,"longitude":85.3647,"temp":22.4,"humidity":79,"rain":0.0,"pressure":1004.5,"uv_index":7.35,"wind_gusts":25.6,"aqi":130,"pm10":61.2,"pm2_5":48.0,"mosquito_risk":3,"arthritis_risk":5,"migraine_risk":4,"frizz_risk":1,"updated_at":"2026-03-25T08:01:51.095839+05:30"},{"city":"Bhagalpur","state":"Bihar","latitude":25.2425,"longitude":87.0117,"temp":22.9,"humidity":89,"rain":0.0,"pressure":1005.4,"uv_index":8.0,"wind_gusts":24.5,"aqi":152,"pm10":87.1,"pm2_5":73.1,"mosquito_risk":3,"arthritis_risk":5,"migraine_risk":4,"frizz_risk":1,"updated_at":"2026-03-25T08:01:51.095846+05:30"},{"city":"Ranchi","state":"Jharkhand","latitude":23.3441,"longitude":85.3096,"temp":23.6,"humidity":60,"rain":0.0,"pressure":941.4,"uv_index":7.95,"wind_gusts":32.8,"aqi":100,"pm10":56.9,"pm2_5":35.6,"mosquito_risk":0,"arthritis_risk":5,"migraine_risk":7,"frizz_risk":0,"updated_at":"2026-03-25T08:01:51.095854+05:30"},{"city":"Jamshedpur","state":"Jharkhand","latitude":22.8046,"longitude":86.2029,"temp":26.6,"humidity":73,"rain":0.0,"pressure":994.9,"uv_index":8.55,"wind_gusts":27.4,"aqi":138,"pm10":83.4,"pm2_5":71.7,"mosquito_risk":7,"arthritis_risk":5,"migraine_risk":7,"frizz_risk":1,"updated_at":"2026-03-25T08:01:51.095861+05:30"},{"city":"Dhanbad","state":"Jharkhand","latitude":23.7957,"longitude":86.4304,"temp":25.9,"humidity":58,"rain":0.0,"pressure":983.7,"uv_index":8.45,"wind_gusts":28.4,"aqi":157,"pm10":75.4,"pm2_5":58.0,"mosquito_risk":4,"arthritis_risk":5,"migraine_risk":7,"frizz_risk":1,"updated_at":"2026-03-25T08:01:51.095869+05:30"},{"city":"Bokaro","state":"Jharkhand","latitude":23.6693,"longitude":86.1511,"temp":25.8,"humidity":66,"rain":0.0,"pressure":988.0,"uv_index":8.4,"wind_gusts":28.8,"aqi":152,"pm10":80.8,"pm2_5":62.6,"mosquito_risk":7,"arthritis_risk":5,"migraine_risk":7,"frizz_risk":1,"updated_at":"2026-03-25T08:01:51.095876+05:30"},{"city":"Bhubaneswar","state":"Odisha","latitude":20.2961,"longitude":85.8245,"temp":26.4,"humidity":85,"rain":0.0,"pressure":1006.5,"uv_index":8.6,"wind_gusts":27.4,"aqi":70,"pm10":28.1,"pm2_5":21.2,"mosquito_risk":7,"arthritis_risk":5,"migraine_risk":4,"frizz_risk":1,"updated_at":"2026-03-25T08:01:51.095884+05:30"},{"city":"Cuttack","state":"Odisha","latitude":20.4625,"longitude":85.8828,"temp":26.0,"humidity":86,"rain":0.0,"pressure":1008.3,"uv_index":8.65,"wind_gusts":27.4,"aqi":70,"pm10":28.1,"pm2_5":21.2,"mosquito_risk":7,"arthritis_risk":0,"migraine_risk":4,"frizz_risk":1,"updated_at":"2026-03-25T08:01:51.095891+05:30"},{"city":"Rourkela","state":"Odisha","latitude":22.2604,"longitude":84.8536,"temp":26.4,"humidity":77,"rain":0.0,"pressure":988.9,"uv_index":8.45,"wind_gusts":18.4,"aqi":138,"pm10":70.5,"pm2_5":58.8,"mosquito_risk":7,"arthritis_risk":5,"migraine_risk":7,"frizz_risk":1,"updated_at":"2026-03-25T08:01:51.095898+05:30"},{"city":"Raipur","state":"Chhattisgarh","latitude":21.2514,"longitude":81.6296,"temp":26.6,"humidity":63,"rain":0.0,"pressure":978.3,"uv_index":8.1,"wind_gusts":45.0,"aqi":144,"pm10":88.0,"pm2_5":82.4,"mosquito_risk":7,"arthritis_risk":5,"migraine_risk":7,"frizz_risk":1,"updated_at":"2026-03-25T08:01:51.095905+05:30"},{"city":"Bhilai","state":"Chhattisgarh","latitude":21.1938,"longitude":81.3509,"temp":25.8,"humidity":71,"rain":0.0,"pressure":978.6,"uv_index":7.7,"wind_gusts":39.2,"aqi":117,"pm10":73.8,"pm2_5":68.7,"mosquito_risk":7,"arthritis_risk":5,"migraine_risk":7,"frizz_risk":1,"updated_at":"2026-03-25T08:01:51.095912+05:30"},{"city":"Guwahati","state":"Assam","latitude":26.1158,"longitude":91.7086,"temp":22.2,"humidity":86,"rain":0.0,"pressure":1006.5,"uv_index":7.85,"wind_gusts":28.1,"aqi":126,"pm10":44.6,"pm2_5":36.8,"mosquito_risk":3,"arthritis_risk":5,"migraine_risk":4,"frizz_risk":1,"updated_at":"2026-03-25T08:01:51.095919+05:30"},{"city":"Agartala","state":"Tripura","latitude":23.8315,"longitude":91.2868,"temp":25.1,"humidity":84,"rain":0.0,"pressure":1011.1,"uv_index":8.2,"wind_gusts":28.8,"aqi":159,"pm10":74.3,"pm2_5":65.9,"mosquito_risk":7,"arthritis_risk":0,"migraine_risk":4,"frizz_risk":1,"updated_at":"2026-03-25T08:01:51.095927+05:30"},{"city":"Shillong","state":"Meghalaya","latitude":25.5788,"longitude":91.8933,"temp":15.1,"humidity":74,"rain":0.0,"pressure":858.3,"uv_index":8.25,"wind_gusts":57.6,"aqi":108,"pm10":62.4,"pm2_5":46.7,"mosquito_risk":3,"arthritis_risk":5,"migraine_risk":7,"frizz_risk":0,"updated_at":"2026-03-25T08:01:51.095934+05:30"},{"city":"Imphal","state":"Manipur","latitude":24.817,"longitude":93.9368,"temp":18.2,"humidity":78,"rain":0.0,"pressure":927.1,"uv_index":8.35,"wind_gusts":72.4,"aqi":110,"pm10":66.8,"pm2_5":52.3,"mosquito_risk":3,"arthritis_risk":5,"migraine_risk":7,"frizz_risk":0,"updated_at":"2026-03-25T08:01:51.095941+05:30"},{"city":"Aizawl","state":"Mizoram","latitude":23.7271,"longitude":92.7176,"temp":20.5,"humidity":64,"rain":0.0,"pressure":896.8,"uv_index":8.4,"wind_gusts":38.2,"aqi":119,"pm10":44.1,"pm2_5":36.7,"mosquito_risk":3,"arthritis_risk":5,"migraine_risk":7,"frizz_risk":0,"updated_at":"2026-03-25T08:01:51.095948+05:30"},{"city":"Kohima","state":"Nagaland","latitude":25.6701,"longitude":94.1077,"temp":16.3,"humidity":70,"rain":0.0,"pressure":857.8,"uv_index":8.1,"wind_gusts":74.2,"aqi":85,"pm10":51.6,"pm2_5":39.1,"mosquito_risk":3,"arthritis_risk":5,"migraine_risk":7,"frizz_risk":0,"updated_at":"2026-03-25T08:01:51.095956+05:30"},{"city":"Gangtok","state":"Sikkim","latitude":27.3314,"longitude":88.6138,"temp":13.7,"humidity":83,"rain":0.0,"pressure":838.2,"uv_index":8.05,"wind_gusts":18.7,"aqi":78,"pm10":22.9,"pm2_5":17.4,"mosquito_risk":3,"arthritis_risk":10,"migraine_risk":7,"frizz_risk":0,"updated_at":"2026-03-25T08:01:51.095964+05:30"},{"city":"Siliguri","state":"West Bengal","latitude":26.7271,"longitude":88.3953,"temp":19.0,"humidity":85,"rain":0.0,"pressure":997.9,"uv_index":7.75,"wind_gusts":25.6,"aqi":155,"pm10":85.4,"pm2_5":66.4,"mosquito_risk":3,"arthritis_risk":10,"migraine_risk":7,"frizz_risk":1,"updated_at":"2026-03-25T08:01:54.427143+05:30"},{"city":"Durgapur","state":"West Bengal","latitude":23.5204,"longitude":87.3119,"temp":26.6,"humidity":82,"rain":0.0,"pressure":998.9,"uv_index":8.4,"wind_gusts":23.0,"aqi":154,"pm10":106.6,"pm2_5":94.5,"mosquito_risk":7,"arthritis_risk":5,"migraine_risk":7,"frizz_risk":1,"updated_at":"2026-03-25T08:01:54.427175+05:30"},{"city":"Asansol","state":"West Bengal","latitude":23.6739,"longitude":86.9524,"temp":26.8,"humidity":80,"rain":0.0,"pressure":997.4,"uv_index":8.4,"wind_gusts":22.3,"aqi":151,"pm10":68.9,"pm2_5":54.0,"mosquito_risk":7,"arthritis_risk":5,"migraine_risk":7,"frizz_risk":1,"updated_at":"2026-03-25T08:01:54.427187+05:30"},{"city":"Pondicherry","state":"Puducherry","latitude":11.9139,"longitude":79.8145,"temp":26.5,"humidity":85,"rain":0.0,"pressure":1011.8,"uv_index":9.2,"wind_gusts":29.5,"aqi":31,"pm10":16.6,"pm2_5":12.3,"mosquito_risk":7,"arthritis_risk":0,"migraine_risk":4,"frizz_risk":1,"updated_at":"2026-03-25T08:01:54.427198+05:30"},{"city":"Port Blair","state":"Andaman and Nicobar Islands","latitude":11.6234,"longitude":92.7265,"temp":27.3,"humidity":82,"rain":0.0,"pressure":1009.5,"uv_index":9.1,"wind_gusts":23.0,"aqi":67,"pm10":22.8,"pm2_5":17.3,"mosquito_risk":7,"arthritis_risk":0,"migraine_risk":4,"frizz_risk":1,"updated_at":"2026-03-25T08:01:54.427207+05:30"},{"city":"Haridwar","state":"Uttarakhand","latitude":29.9457,"longitude":78.1642,"temp":19.7,"humidity":81,"rain":0.0,"pressure":976.7,"uv_index":6.45,"wind_gusts":28.1,"aqi":88,"pm10":44.0,"pm2_5":41.7,"mosquito_risk":3,"arthritis_risk":10,"migraine_risk":7,"frizz_risk":1,"updated_at":"2026-03-25T08:01:54.427216+05:30"},{"city":"Rishikesh","state":"Uttarakhand","latitude":30.0869,"longitude":78.2676,"temp":20.4,"humidity":73,"rain":0.0,"pressure":969.2,"uv_index":6.5,"wind_gusts":24.8,"aqi":77,"pm10":35.2,"pm2_5":32.2,"mosquito_risk":3,"arthritis_risk":5,"migraine_risk":7,"frizz_risk":0,"updated_at":"2026-03-25T08:01:54.427225+05:30"},{"city":"Nainital","state":"Uttarakhand","latitude":29.3919,"longitude":79.4542,"temp":16.1,"humidity":62,"rain":0.0,"pressure":806.3,"uv_index":7.3,"wind_gusts":33.5,"aqi":80,"pm10":29.3,"pm2_5":27.6,"mosquito_risk":3,"arthritis_risk":5,"migraine_risk":7,"frizz_risk":0,"updated_at":"2026-03-25T08:01:54.427233+05:30"},{"city":"Mussoorie","state":"Uttarakhand","latitude":30.4599,"longitude":78.0664,"temp":13.9,"humidity":67,"rain":0.0,"pressure":802.3,"uv_index":6.85,"wind_gusts":26.3,"aqi":74,"pm10":28.9,"pm2_5":27.0,"mosquito_risk":3,"arthritis_risk":5,"migraine_risk":7,"frizz_risk":0,"updated_at":"2026-03-25T08:01:54.427242+05:30"},{"city":"Dharamshala","state":"Himachal Pradesh","latitude":32.219,"longitude":76.3234,"temp":17.4,"humidity":56,"rain":0.0,"pressure":869.0,"uv_index":6.95,"wind_gusts":21.6,"aqi":67,"pm10":14.7,"pm2_5":7.7,"mosquito_risk":0,"arthritis_risk":5,"migraine_risk":7,"frizz_risk":0,"updated_at":"2026-03-25T08:01:54.427250+05:30"},{"city":"Dalhousie","state":"Himachal Pradesh","latitude":32.5387,"longitude":75.971,"temp":13.0,"humidity":51,"rain":0.0,"pressure":802.4,"uv_index":7.35,"wind_gusts":20.5,"aqi":71,"pm10":18.5,"pm2_5":15.0,"mosquito_risk":0,"arthritis_risk":5,"migraine_risk":7,"frizz_risk":0,"updated_at":"2026-03-25T08:01:54.427259+05:30"},{"city":"Patiala","state":"Punjab","latitude":30.3398,"longitude":76.3869,"temp":19.4,"humidity":78,"rain":0.0,"pressure":980.6,"uv_index":6.35,"wind_gusts":24.8,"aqi":151,"pm10":66.4,"pm2_5":61.7,"mosquito_risk":3,"arthritis_risk":5,"migraine_risk":7,"frizz_risk":0,"updated_at":"2026-03-25T08:01:54.427268+05:30"},{"city":"Bhatinda","state":"Punjab","latitude":30.211,"longitude":74.9455,"temp":20.4,"humidity":77,"rain":0.0,"pressure":986.1,"uv_index":6.7,"wind_gusts":25.9,"aqi":142,"pm10":77.3,"pm2_5":71.9,"mosquito_risk":3,"arthritis_risk":5,"migraine_risk":7,"frizz_risk":1,"updated_at":"2026-03-25T08:01:54.427275+05:30"},{"city":"Rohtak","state":"Haryana","latitude":28.8955,"longitude":76.6066,"temp":19.5,"humidity":77,"rain":0.0,"pressure":985.0,"uv_index":6.25,"wind_gusts":22.0,"aqi":384,"pm10":251.5,"pm2_5":89.2,"mosquito_risk":3,"arthritis_risk":5,"migraine_risk":7,"frizz_risk":0,"updated_at":"2026-03-25T08:01:54.427284+05:30"},{"city":"Panipat","state":"Haryana","latitude":29.3909,"longitude":76.9635,"temp":19.2,"humidity":77,"rain":0.0,"pressure":983.3,"uv_index":6.35,"wind_gusts":26.6,"aqi":640,"pm10":175.1,"pm2_5":74.0,"mosquito_risk":3,"arthritis_risk":5,"migraine_risk":7,"frizz_risk":0,"updated_at":"2026-03-25T08:01:54.427292+05:30"},{"city":"Mathura","state":"Uttar Pradesh","latitude":27.4924,"longitude":77.6737,"temp":19.9,"humidity":75,"rain":0.0,"pressure":990.7,"uv_index":6.9,"wind_gusts":18.0,"aqi":471,"pm10":510.4,"pm2_5":119.2,"mosquito_risk":3,"arthritis_risk":5,"migraine_risk":7,"frizz_risk":0,"updated_at":"2026-03-25T08:01:54.427301+05:30"},{"city":"Vrindavan","state":"Uttar Pradesh","latitude":27.5823,"longitude":77.7027,"temp":20.2,"humidity":74,"rain":0.0,"pressure":991.1,"uv_index":6.85,"wind_gusts":20.9,"aqi":471,"pm10":510.4,"pm2_5":119.2,"mosquito_risk":3,"arthritis_risk":5,"migraine_risk":7,"frizz_risk":0,"updated_at":"2026-03-25T08:01:54.427309+05:30"},{"city":"Ayodhya","state":"Uttar Pradesh","latitude":26.7922,"longitude":82.1998,"temp":22.4,"humidity":67,"rain":0.0,"pressure":999.4,"uv_index":7.3,"wind_gusts":34.6,"aqi":97,"pm10":113.2,"pm2_5":53.3,"mosquito_risk":3,"arthritis_risk":5,"migraine_risk":7,"frizz_risk":0,"updated_at":"2026-03-25T08:01:54.427317+05:30"},{"city":"Ratlam","state":"Madhya Pradesh","latitude":23.3315,"longitude":75.0367,"temp":24.6,"humidity":59,"rain":0.0,"pressure":956.1,"uv_index":8.05,"wind_gusts":25.9,"aqi":70,"pm10":49.1,"pm2_5":41.8,"mosquito_risk":0,"arthritis_risk":5,"migraine_risk":7,"frizz_risk":0,"updated_at":"2026-03-25T08:01:54.427324+05:30"},{"city":"Sagar","state":"Madhya Pradesh","latitude":23.8388,"longitude":78.7378,"temp":24.4,"humidity":50,"rain":0.0,"pressure":953.1,"uv_index":8.05,"wind_gusts":27.7,"aqi":63,"pm10":34.8,"pm2_5":18.2,"mosquito_risk":0,"arthritis_risk":5,"migraine_risk":7,"frizz_risk":0,"updated_at":"2026-03-25T08:01:54.427332+05:30"},{"city":"Satna","state":"Madhya Pradesh","latitude":24.6005,"longitude":80.8322,"temp":24.1,"humidity":53,"rain":0.0,"pressure":975.2,"uv_index":7.5,"wind_gusts":25.2,"aqi":75,"pm10":156.5,"pm2_5":35.6,"mosquito_risk":0,"arthritis_risk":5,"migraine_risk":7,"frizz_risk":0,"updated_at":"2026-03-25T08:01:54.427340+05:30"},{"city":"Akola","state":"Maharashtra","latitude":20.7002,"longitude":77.0082,"temp":25.0,"humidity":64,"rain":0.0,"pressure":977.5,"uv_index":8.45,"wind_gusts":24.1,"aqi":59,"pm10":23.1,"pm2_5":19.4,"mosquito_risk":7,"arthritis_risk":5,"migraine_risk":7,"frizz_risk":1,"updated_at":"2026-03-25T08:01:54.427349+05:30"},{"city":"Amravati","state":"Maharashtra","latitude":20.9374,"longitude":77.7796,"temp":24.9,"humidity":62,"rain":0.0,"pressure":969.5,"uv_index":8.45,"wind_gusts":23.0,"aqi":66,"pm10":29.0,"pm2_5":25.1,"mosquito_risk":3,"arthritis_risk":5,"migraine_risk":7,"frizz_risk":1,"updated_at":"2026-03-25T08:01:54.427357+05:30"},{"city":"Latur","state":"Maharashtra","latitude":18.4088,"longitude":76.5604,"temp":23.9,"humidity":76,"rain":0.0,"pressure":942.1,"uv_index":8.8,"wind_gusts":27.4,"aqi":104,"pm10":42.0,"pm2_5":36.9,"mosquito_risk":3,"arthritis_risk":5,"migraine_risk":7,"frizz_risk":1,"updated_at":"2026-03-25T08:01:54.427366+05:30"},{"city":"Nanded","state":"Maharashtra","latitude":19.1383,"longitude":77.3091,"temp":26.2,"humidity":69,"rain":0.0,"pressure":971.3,"uv_index":8.65,"wind_gusts":22.0,"aqi":95,"pm10":47.3,"pm2_5":42.6,"mosquito_risk":7,"arthritis_risk":5,"migraine_risk":7,"frizz_risk":1,"updated_at":"2026-03-25T08:01:54.427373+05:30"},{"city":"Gulbarga","state":"Karnataka","latitude":17.3297,"longitude":76.8343,"temp":26.1,"humidity":68,"rain":0.0,"pressure":961.1,"uv_index":8.85,"wind_gusts":27.7,"aqi":99,"pm10":47.0,"pm2_5":40.6,"mosquito_risk":7,"arthritis_risk":5,"migraine_risk":7,"frizz_risk":1,"updated_at":"2026-03-25T08:01:54.427381+05:30"},{"city":"Bidar","state":"Karnataka","latitude":17.9104,"longitude":77.5199,"temp":25.2,"humidity":67,"rain":0.0,"pressure":937.9,"uv_index":8.85,"wind_gusts":22.7,"aqi":94,"pm10":41.9,"pm2_5":36.8,"mosquito_risk":7,"arthritis_risk":5,"migraine_risk":7,"frizz_risk":1,"updated_at":"2026-03-25T08:01:54.427389+05:30"},{"city":"Hospet","state":"Karnataka","latitude":15.2689,"longitude":76.3909,"temp":25.6,"humidity":81,"rain":0.0,"pressure":958.2,"uv_index":9.05,"wind_gusts":22.0,"aqi":110,"pm10":69.4,"pm2_5":62.4,"mosquito_risk":7,"arthritis_risk":5,"migraine_risk":7,"frizz_risk":1,"updated_at":"2026-03-25T08:01:54.427397+05:30"},{"city":"Tirupur","state":"Tamil Nadu","latitude":11.1085,"longitude":77.3411,"temp":25.5,"humidity":80,"rain":0.0,"pressure":978.4,"uv_index":9.4,"wind_gusts":30.6,"aqi":57,"pm10":16.4,"pm2_5":15.0,"mosquito_risk":7,"arthritis_risk":5,"migraine_risk":7,"frizz_risk":1,"updated_at":"2026-03-25T08:01:54.427421+05:30"},{"city":"Alappuzha","state":"Kerala","latitude":9.4981,"longitude":76.3388,"temp":27.4,"humidity":83,"rain":0.0,"pressure":1010.5,"uv_index":9.15,"wind_gusts":26.6,"aqi":80,"pm10":36.3,"pm2_5":30.2,"mosquito_risk":7,"arthritis_risk":0,"migraine_risk":4,"frizz_risk":1,"updated_at":"2026-03-25T08:01:54.427428+05:30"},{"city":"Munnar","state":"Kerala","latitude":10.0889,"longitude":77.0595,"temp":21.7,"humidity":68,"rain":0.0,"pressure":858.4,"uv_index":9.65,"wind_gusts":30.2,"aqi":57,"pm10":23.2,"pm2_5":22.2,"mosquito_risk":3,"arthritis_risk":5,"migraine_risk":7,"frizz_risk":0,"updated_at":"2026-03-25T08:01:54.427435+05:30"},{"city":"Silchar","state":"Assam","latitude":24.8333,"longitude":92.7789,"temp":23.7,"humidity":77,"rain":0.0,"pressure":1010.0,"uv_index":8.2,"wind_gusts":28.4,"aqi":158,"pm10":85.4,"pm2_5":70.3,"mosquito_risk":3,"arthritis_risk":0,"migraine_risk":4,"frizz_risk":1,"updated_at":"2026-03-25T08:01:54.427442+05:30"},{"city":"Dibrugarh","state":"Assam","latitude":27.4728,"longitude":94.912,"temp":19.7,"humidity":87,"rain":0.0,"pressure":1000.8,"uv_index":5.55,"wind_gusts":23.4,"aqi":74,"pm10":26.0,"pm2_5":20.8,"mosquito_risk":3,"arthritis_risk":10,"migraine_risk":0,"frizz_risk":1,"updated_at":"2026-03-25T08:01:54.427448+05:30"}]