[{"city":"Delhi","state":"Delhi","latitude":28.6139,"longitude":77.209,"temp":40.0,"humidity":13,"rain":0.0,"pressure":980.4,"uv_index":7.75,"wind_gusts":37.1,"aqi":610,"pm10":347.4,"pm2_5":91.3,"no2":13.1,"co":477.0,"o3":168.0,"so2":17.2,"mosquito_risk":0,"arthritis_risk":5,"migraine_risk":10,"frizz_risk":0,"updated_at":"2026-05-27T10:48:10.160812+05:30"},{"city":"Mumbai","state":"Maharashtra","latitude":19.076,"longitude":72.8777,"temp":34.0,"humidity":54,"rain":0.0,"pressure":1011.1,"uv_index":7.8,"wind_gusts":40.3,"aqi":37,"pm10":16.4,"pm2_5":12.7,"no2":6.7,"co":202.0,"o3":93.0,"so2":9.3,"mosquito_risk":0,"arthritis_risk":0,"migraine_risk":4,"frizz_risk":1,"updated_at":"2026-05-27T10:48:10.160857+05:30"},{"city":"Bangalore","state":"Karnataka","latitude":12.9716,"longitude":77.5946,"temp":27.3,"humidity":67,"rain":0.0,"pressure":915.1,"uv_index":9.25,"wind_gusts":27.4,"aqi":78,"pm10":20.9,"pm2_5":17.7,"no2":6.5,"co":375.0,"o3":122.0,"so2":4.7,"mosquito_risk":7,"arthritis_risk":5,"migraine_risk":7,"frizz_risk":1,"updated_at":"2026-05-27T10:48:10.160874+05:30"},{"city":"Hyderabad","state":"Telangana","latitude":17.385,"longitude":78.4867,"temp":33.8,"humidity":43,"rain":0.0,"pressure":955.2,"uv_index":8.55,"wind_gusts":39.2,"aqi":73,"pm10":18.7,"pm2_5":15.9,"no2":5.1,"co":317.0,"o3":129.0,"so2":7.2,"mosquito_risk":0,"arthritis_risk":5,"migraine_risk":7,"frizz_risk":1,"updated_at":"2026-05-27T10:48:10.160883+05:30"},{"city":"Chennai","state":"Tamil Nadu","latitude":13.0827,"longitude":80.2707,"temp":36.6,"humidity":36,"rain":0.0,"pressure":1007.2,"uv_index":9.0,"wind_gusts":37.1,"aqi":88,"pm10":32.9,"pm2_5":29.9,"no2":11.1,"co":379.0,"o3":156.0,"so2":13.1,"mosquito_risk":0,"arthritis_risk":5,"migraine_risk":7,"frizz_risk":1,"updated_at":"2026-05-27T10:48:10.160891+05:30"},{"city":"Kolkata","state":"West Bengal","latitude":22.5726,"longitude":88.3639,"temp":35.0,"humidity":58,"rain":0.0,"pressure":1003.3,"uv_index":8.9,"wind_gusts":47.2,"aqi":122,"pm10":52.7,"pm2_5":36.3,"no2":2.2,"co":298.0,"o3":126.0,"so2":8.4,"mosquito_risk":0,"arthritis_risk":5,"migraine_risk":4,"frizz_risk":1,"updated_at":"2026-05-27T10:48:10.160898+05:30"},{"city":"Pune","state":"Maharashtra","latitude":18.5204,"longitude":73.8567,"temp":32.8,"humidity":46,"rain":0.0,"pressure":951.4,"uv_index":8.4,"wind_gusts":42.8,"aqi":41,"pm10":11.4,"pm2_5":8.0,"no2":2.8,"co":164.0,"o3":85.0,"so2":5.8,"mosquito_risk":0,"arthritis_risk":5,"migraine_risk":7,"frizz_risk":1,"updated_at":"2026-05-27T10:48:10.160904+05:30"},{"city":"Ahmedabad","state":"Gujarat","latitude":23.0225,"longitude":72.5714,"temp":35.1,"humidity":47,"rain":0.0,"pressure":1003.7,"uv_index":8.15,"wind_gusts":35.3,"aqi":76,"pm10":48.4,"pm2_5":21.7,"no2":2.8,"co":165.0,"o3":81.0,"so2":5.7,"mosquito_risk":0,"arthritis_risk":5,"migraine_risk":7,"frizz_risk":1,"updated_at":"2026-05-27T10:48:10.160910+05:30"},{"city":"Jaipur","state":"Rajasthan","latitude":26.9124,"longitude":75.7873,"temp":39.4,"humidity":23,"rain":0.0,"pressure":959.1,"uv_index":8.25,"wind_gusts":47.5,"aqi":165,"pm10":437.7,"pm2_5":77.5,"no2":2.0,"co":165.0,"o3":101.0,"so2":5.7,"mosquito_risk":0,"arthritis_risk":5,"migraine_risk":10,"frizz_risk":0,"updated_at":"2026-05-27T10:48:10.160923+05:30"},{"city":"Lucknow","state":"Uttar Pradesh","latitude":26.8467,"longitude":80.9462,"temp":35.8,"humidity":42,"rain":0.0,"pressure":991.0,"uv_index":8.2,"wind_gusts":31.0,"aqi":152,"pm10":54.4,"pm2_5":32.7,"no2":3.9,"co":421.0,"o3":193.0,"so2":15.3,"mosquito_risk":0,"arthritis_risk":5,"migraine_risk":10,"frizz_risk":1,"updated_at":"2026-05-27T10:48:10.160930+05:30"},{"city":"Kanpur","state":"Uttar Pradesh","latitude":26.4499,"longitude":80.3319,"temp":40.8,"humidity":15,"rain":0.0,"pressure":988.6,"uv_index":8.2,"wind_gusts":40.3,"aqi":374,"pm10":254.3,"pm2_5":61.2,"no2":5.1,"co":305.0,"o3":201.0,"so2":16.0,"mosquito_risk":0,"arthritis_risk":5,"migraine_risk":10,"frizz_risk":0,"updated_at":"2026-05-27T10:48:10.160936+05:30"},{"city":"Chandigarh","state":"Chandigarh","latitude":30.7333,"longitude":76.7794,"temp":37.5,"humidity":16,"rain":0.0,"pressure":966.6,"uv_index":7.75,"wind_gusts":38.5,"aqi":56,"pm10":15.5,"pm2_5":12.4,"no2":4.6,"co":384.0,"o3":186.0,"so2":11.6,"mosquito_risk":0,"arthritis_risk":5,"migraine_risk":10,"frizz_risk":0,"updated_at":"2026-05-27T10:48:10.160943+05:30"},{"city":"Srinagar","state":"Jammu and Kashmir","latitude":34.0837,"longitude":74.7973,"temp":22.5,"humidity":44,"rain":0.0,"pressure":845.5,"uv_index":9.0,"wind_gusts":19.8,"aqi":79,"pm10":35.0,"pm2_5":17.0,"no2":3.6,"co":408.0,"o3":151.0,"so2":4.2,"mosquito_risk":0,"arthritis_risk":5,"migraine_risk":7,"frizz_risk":0,"updated_at":"2026-05-27T10:48:10.160949+05:30"},{"city":"Jammu","state":"Jammu and Kashmir","latitude":32.7266,"longitude":74.857,"temp":37.8,"humidity":19,"rain":0.0,"pressure":969.4,"uv_index":8.6,"wind_gusts":54.7,"aqi":63,"pm10":27.4,"pm2_5":15.0,"no2":6.2,"co":287.0,"o3":165.0,"so2":3.6,"mosquito_risk":0,"arthritis_risk":5,"migraine_risk":10,"frizz_risk":0,"updated_at":"2026-05-27T10:48:10.160956+05:30"},{"city":"Amritsar","state":"Punjab","latitude":31.634,"longitude":74.8723,"temp":38.3,"humidity":20,"rain":0.0,"pressure":977.5,"uv_index":8.45,"wind_gusts":30.6,"aqi":90,"pm10":20.1,"pm2_5":14.0,"no2":8.0,"co":411.0,"o3":173.0,"so2":9.4,"mosquito_risk":0,"arthritis_risk":5,"migraine_risk":10,"frizz_risk":0,"updated_at":"2026-05-27T10:48:10.160962+05:30"},{"city":"Ludhiana","state":"Punjab","latitude":30.901,"longitude":75.8573,"temp":38.1,"humidity":20,"rain":0.0,"pressure":975.7,"uv_index":8.0,"wind_gusts":39.6,"aqi":66,"pm10":22.2,"pm2_5":13.6,"no2":4.6,"co":420.0,"o3":168.0,"so2":6.1,"mosquito_risk":0,"arthritis_risk":5,"migraine_risk":10,"frizz_risk":0,"updated_at":"2026-05-27T10:48:10.160968+05:30"},{"city":"Jalandhar","state":"Punjab","latitude":31.326,"longitude":75.5762,"temp":37.6,"humidity":21,"rain":0.0,"pressure":976.6,"uv_index":8.25,"wind_gusts":36.4,"aqi":77,"pm10":45.2,"pm2_5":21.2,"no2":5.8,"co":471.0,"o3":177.0,"so2":6.7,"mosquito_risk":0,"arthritis_risk":5,"migraine_risk":10,"frizz_risk":0,"updated_at":"2026-05-27T10:48:10.160974+05:30"},{"city":"Dehradun","state":"Uttarakhand","latitude":30.6284,"longitude":78.0322,"temp":26.0,"humidity":29,"rain":0.0,"pressure":832.8,"uv_index":8.2,"wind_gusts":41.8,"aqi":53,"pm10":25.4,"pm2_5":12.1,"no2":0.7,"co":172.0,"o3":164.0,"so2":1.3,"mosquito_risk":4,"arthritis_risk":5,"migraine_risk":7,"frizz_risk":0,"updated_at":"2026-05-27T10:48:10.160980+05:30"},{"city":"Shimla","state":"Himachal Pradesh","latitude":31.1048,"longitude":77.1734,"temp":25.1,"humidity":16,"rain":0.0,"pressure":788.8,"uv_index":8.3,"wind_gusts":54.4,"aqi":51,"pm10":20.1,"pm2_5":10.1,"no2":0.9,"co":163.0,"o3":166.0,"so2":2.3,"mosquito_risk":4,"arthritis_risk":5,"migraine_risk":7,"frizz_risk":1,"updated_at":"2026-05-27T10:48:10.160989+05:30"},{"city":"Manali","state":"Himachal Pradesh","latitude":32.2396,"longitude":77.1887,"temp":27.7,"humidity":16,"rain":0.0,"pressure":821.4,"uv_index":9.65,"wind_gusts":46.4,"aqi":99,"pm10":22.6,"pm2_5":11.0,"no2":8.6,"co":149.0,"o3":156.0,"so2":0.3,"mosquito_risk":4,"arthritis_risk":5,"migraine_risk":7,"frizz_risk":1,"updated_at":"2026-05-27T10:48:10.160994+05:30"},{"city":"Gurgaon","state":"Haryana","latitude":28.4595,"longitude":77.0266,"temp":38.8,"humidity":17,"rain":0.0,"pressure":979.1,"uv_index":7.85,"wind_gusts":34.6,"aqi":936,"pm10":668.7,"pm2_5":117.6,"no2":13.0,"co":435.0,"o3":170.0,"so2":15.9,"mosquito_risk":0,"arthritis_risk":5,"migraine_risk":10,"frizz_risk":0,"updated_at":"2026-05-27T10:48:10.161000+05:30"},{"city":"Noida","state":"Uttar Pradesh","latitude":28.5355,"longitude":77.391,"temp":40.2,"humidity":13,"rain":0.0,"pressure":981.8,"uv_index":7.75,"wind_gusts":31.3,"aqi":936,"pm10":668.7,"pm2_5":117.6,"no2":13.0,"co":544.0,"o3":170.0,"so2":15.9,"mosquito_risk":0,"arthritis_risk":5,"migraine_risk":10,"frizz_risk":0,"updated_at":"2026-05-27T10:48:10.161022+05:30"},{"city":"Ghaziabad","state":"Uttar Pradesh","latitude":28.6692,"longitude":77.4538,"temp":39.5,"humidity":14,"rain":0.0,"pressure":980.1,"uv_index":7.75,"wind_gusts":34.2,"aqi":384,"pm10":268.2,"pm2_5":80.6,"no2":10.9,"co":326.0,"o3":186.0,"so2":20.9,"mosquito_risk":0,"arthritis_risk":5,"migraine_risk":10,"frizz_risk":0,"updated_at":"2026-05-27T10:48:10.161028+05:30"},{"city":"Faridabad","state":"Haryana","latitude":28.4089,"longitude":77.3178,"temp":40.0,"humidity":13,"rain":0.0,"pressure":981.1,"uv_index":7.8,"wind_gusts":38.9,"aqi":936,"pm10":668.7,"pm2_5":117.6,"no2":13.0,"co":447.0,"o3":170.0,"so2":15.9,"mosquito_risk":0,"arthritis_risk":5,"migraine_risk":10,"frizz_risk":0,"updated_at":"2026-05-27T10:48:10.161034+05:30"},{"city":"Meerut","state":"Uttar Pradesh","latitude":28.9845,"longitude":77.7064,"temp":36.7,"humidity":22,"rain":0.0,"pressure":979.1,"uv_index":7.7,"wind_gusts":32.0,"aqi":384,"pm10":268.2,"pm2_5":80.6,"no2":10.9,"co":271.0,"o3":186.0,"so2":20.9,"mosquito_risk":0,"arthritis_risk":5,"migraine_risk":10,"frizz_risk":0,"updated_at":"2026-05-27T10:48:10.161040+05:30"},{"city":"Agra","state":"Uttar Pradesh","latitude":27.1767,"longitude":78.0081,"temp":40.5,"humidity":15,"rain":0.0,"pressure":985.2,"uv_index":8.05,"wind_gusts":38.5,"aqi":610,"pm10":780.4,"pm2_5":129.9,"no2":11.9,"co":313.0,"o3":184.0,"so2":16.0,"mosquito_risk":0,"arthritis_risk":5,"migraine_risk":10,"frizz_risk":0,"updated_at":"2026-05-27T10:48:10.161046+05:30"},{"city":"Varanasi","state":"Uttar Pradesh","latitude":25.3176,"longitude":82.9739,"temp":36.2,"humidity":45,"rain":0.0,"pressure":995.1,"uv_index":8.7,"wind_gusts":40.3,"aqi":138,"pm10":66.6,"pm2_5":47.3,"no2":5.2,"co":666.0,"o3":196.0,"so2":22.1,"mosquito_risk":0,"arthritis_risk":5,"migraine_risk":10,"frizz_risk":1,"updated_at":"2026-05-27T10:48:10.161052+05:30"},{"city":"Prayagraj","state":"Uttar Pradesh","latitude":25.4358,"longitude":81.8463,"temp":39.5,"humidity":30,"rain":0.0,"pressure":992.9,"uv_index":8.55,"wind_gusts":53.6,"aqi":126,"pm10":73.6,"pm2_5":42.4,"no2":5.0,"co":428.0,"o3":204.0,"so2":20.1,"mosquito_risk":0,"arthritis_risk":5,"migraine_risk":10,"frizz_risk":1,"updated_at":"2026-05-27T10:48:10.161058+05:30"},{"city":"Gorakhpur","state":"Uttar Pradesh","latitude":26.7606,"longitude":83.3732,"temp":33.0,"humidity":52,"rain":0.0,"pressure":996.1,"uv_index":8.55,"wind_gusts":43.6,"aqi":84,"pm10":45.9,"pm2_5":29.3,"no2":2.4,"co":352.0,"o3":168.0,"so2":10.7,"mosquito_risk":0,"arthritis_risk":5,"migraine_risk":7,"frizz_risk":1,"updated_at":"2026-05-27T10:48:10.161066+05:30"},{"city":"Bareilly","state":"Uttar Pradesh","latitude":28.367,"longitude":79.4304,"temp":33.8,"humidity":44,"rain":0.0,"pressure":984.6,"uv_index":8.0,"wind_gusts":29.2,"aqi":118,"pm10":153.7,"pm2_5":47.8,"no2":4.9,"co":475.0,"o3":189.0,"so2":14.9,"mosquito_risk":0,"arthritis_risk":5,"migraine_risk":7,"frizz_risk":1,"updated_at":"2026-05-27T10:48:10.161072+05:30"},{"city":"Aligarh","state":"Uttar Pradesh","latitude":27.8974,"longitude":78.088,"temp":39.6,"humidity":16,"rain":0.0,"pressure":983.0,"uv_index":7.9,"wind_gusts":35.6,"aqi":623,"pm10":506.6,"pm2_5":107.3,"no2":9.7,"co":373.0,"o3":172.0,"so2":20.7,"mosquito_risk":0,"arthritis_risk":5,"migraine_risk":10,"frizz_risk":0,"updated_at":"2026-05-27T10:48:10.161078+05:30"},{"city":"Moradabad","state":"Uttar Pradesh","latitude":28.8386,"longitude":78.7733,"temp":34.5,"humidity":38,"rain":0.0,"pressure":981.3,"uv_index":7.85,"wind_gusts":32.4,"aqi":112,"pm10":58.8,"pm2_5":37.3,"no2":6.6,"co":442.0,"o3":195.0,"so2":15.7,"mosquito_risk":0,"arthritis_risk":5,"migraine_risk":7,"frizz_risk":1,"updated_at":"2026-05-27T10:48:10.161084+05:30"},{"city":"Saharanpur","state":"Uttar Pradesh","latitude":29.9637,"longitude":77.546,"temp":34.8,"humidity":23,"rain":0.0,"pressure":973.5,"uv_index":7.5,"wind_gusts":34.2,"aqi":73,"pm10":41.2,"pm2_5":23.2,"no2":6.7,"co":332.0,"o3":187.0,"so2":12.7,"mosquito_risk":0,"arthritis_risk":5,"migraine_risk":7,"frizz_risk":0,"updated_at":"2026-05-27T10:48:10.161090+05:30"},{"city":"Jhansi","state":"Uttar Pradesh","latitude":25.4484,"longitude":78.5685,"temp":40.1,"humidity":24,"rain":0.0,"pressure":976.2,"uv_index":8.45,"wind_gusts":52.9,"aqi":74,"pm10":54.6,"pm2_5":18.0,"no2":1.8,"co":156.0,"o3":103.0,"so2":5.2,"mosquito_risk":0,"arthritis_risk":5,"migraine_risk":10,"frizz_risk":0,"updated_at":"2026-05-27T10:48:13.466959+05:30"},{"city":"Surat","state":"Gujarat","latitude":21.1702,"longitude":72.8311,"temp":34.0,"humidity":57,"rain":0.0,"pressure":1009.2,"uv_index":7.7,"wind_gusts":43.9,"aqi":68,"pm10":71.2,"pm2_5":28.2,"no2":12.5,"co":339.0,"o3":56.0,"so2":38.7,"mosquito_risk":0,"arthritis_risk":0,"migraine_risk":4,"frizz_risk":1,"updated_at":"2026-05-27T10:48:13.466994+05:30"},{"city":"Vadodara","state":"Gujarat","latitude":22.3072,"longitude":73.1812,"temp":35.5,"humidity":49,"rain":0.0,"pressure":1006.0,"uv_index":8.1,"wind_gusts":41.8,"aqi":70,"pm10":60.5,"pm2_5":25.7,"no2":2.7,"co":177.0,"o3":81.0,"so2":5.2,"mosquito_risk":0,"arthritis_risk":5,"migraine_risk":7,"frizz_risk":1,"updated_at":"2026-05-27T10:48:13.467004+05:30"},{"city":"Rajkot","state":"Gujarat","latitude":22.3039,"longitude":70.8022,"temp":35.0,"humidity":44,"rain":0.0,"pressure":996.0,"uv_index":7.75,"wind_gusts":47.2,"aqi":71,"pm10":57.9,"pm2_5":23.0,"no2":1.8,"co":128.0,"o3":78.0,"so2":4.7,"mosquito_risk":0,"arthritis_risk":5,"migraine_risk":7,"frizz_risk":1,"updated_at":"2026-05-27T10:48:13.467013+05:30"},{"city":"Thane","state":"Maharashtra","latitude":19.2183,"longitude":72.9781,"temp":34.9,"humidity":52,"rain":0.0,"pressure":1010.2,"uv_index":7.8,"wind_gusts":37.4,"aqi":37,"pm10":16.4,"pm2_5":12.7,"no2":6.7,"co":206.0,"o3":93.0,"so2":9.3,"mosquito_risk":0,"arthritis_risk":0,"migraine_risk":4,"frizz_risk":1,"updated_at":"2026-05-27T10:48:13.467021+05:30"},{"city":"Nagpur","state":"Maharashtra","latitude":21.1458,"longitude":79.0882,"temp":40.4,"humidity":23,"rain":0.0,"pressure":973.0,"uv_index":8.9,"wind_gusts":44.6,"aqi":74,"pm10":52.2,"pm2_5":25.0,"no2":5.8,"co":202.0,"o3":133.0,"so2":19.0,"mosquito_risk":0,"arthritis_risk":5,"migraine_risk":10,"frizz_risk":0,"updated_at":"2026-05-27T10:48:13.467029+05:30"},{"city":"Nashik","state":"Maharashtra","latitude":19.9975,"longitude":73.7898,"temp":32.2,"humidity":51,"rain":0.0,"pressure":948.9,"uv_index":8.1,"wind_gusts":42.8,"aqi":24,"pm10":10.4,"pm2_5":6.0,"no2":1.5,"co":151.0,"o3":70.0,"so2":1.5,"mosquito_risk":0,"arthritis_risk":5,"migraine_risk":7,"frizz_risk":1,"updated_at":"2026-05-27T10:48:13.467038+05:30"},{"city":"Aurangabad","state":"Maharashtra","latitude":19.8762,"longitude":75.3433,"temp":34.5,"humidity":39,"rain":0.0,"pressure":947.0,"uv_index":9.0,"wind_gusts":42.1,"aqi":36,"pm10":20.7,"pm2_5":10.4,"no2":1.9,"co":147.0,"o3":86.0,"so2":4.1,"mosquito_risk":0,"arthritis_risk":5,"migraine_risk":7,"frizz_risk":1,"updated_at":"2026-05-27T10:48:13.467045+05:30"},{"city":"Solapur","state":"Maharashtra","latitude":17.6599,"longitude":75.9064,"temp":34.3,"humidity":42,"rain":0.0,"pressure":960.1,"uv_index":8.95,"wind_gusts":36.4,"aqi":48,"pm10":14.0,"pm2_5":9.6,"no2":2.1,"co":150.0,"o3":99.0,"so2":4.3,"mosquito_risk":0,"arthritis_risk":5,"migraine_risk":7,"frizz_risk":1,"updated_at":"2026-05-27T10:48:13.467052+05:30"},{"city":"Kolhapur","state":"Maharashtra","latitude":16.705,"longitude":74.2433,"temp":32.8,"humidity":47,"rain":0.0,"pressure":951.4,"uv_index":8.55,"wind_gusts":47.5,"aqi":28,"pm10":11.7,"pm2_5":8.4,"no2":2.2,"co":149.0,"o3":81.0,"so2":2.2,"mosquito_risk":0,"arthritis_risk":5,"migraine_risk":7,"frizz_risk":1,"updated_at":"2026-05-27T10:48:13.467060+05:30"},{"city":"Goa","state":"Goa","latitude":15.2993,"longitude":74.124,"temp":32.1,"humidity":66,"rain":0.1,"pressure":1001.2,"uv_index":6.4,"wind_gusts":27.4,"aqi":37,"pm10":7.5,"pm2_5":5.7,"no2":1.2,"co":170.0,"o3":66.0,"so2":1.5,"mosquito_risk":6,"arthritis_risk":5,"migraine_risk":4,"frizz_risk":1,"updated_at":"2026-05-27T10:48:13.467068+05:30"},{"city":"Jodhpur","state":"Rajasthan","latitude":26.2389,"longitude":73.0243,"temp":36.2,"humidity":41,"rain":0.0,"pressure":983.1,"uv_index":8.45,"wind_gusts":42.5,"aqi":148,"pm10":331.6,"pm2_5":63.8,"no2":1.2,"co":132.0,"o3":81.0,"so2":3.4,"mosquito_risk":0,"arthritis_risk":5,"migraine_risk":10,"frizz_risk":1,"updated_at":"2026-05-27T10:48:13.467075+05:30"},{"city":"Udaipur","state":"Rajasthan","latitude":24.5854,"longitude":73.7125,"temp":35.4,"humidity":34,"rain":0.0,"pressure":948.2,"uv_index":8.85,"wind_gusts":42.8,"aqi":76,"pm10":48.1,"pm2_5":18.7,"no2":1.0,"co":136.0,"o3":88.0,"so2":2.9,"mosquito_risk":0,"arthritis_risk":5,"migraine_risk":10,"frizz_risk":1,"updated_at":"2026-05-27T10:48:13.467082+05:30"},{"city":"Kota","state":"Rajasthan","latitude":25.2138,"longitude":75.8648,"temp":40.8,"humidity":26,"rain":0.0,"pressure":978.2,"uv_index":8.4,"wind_gusts":43.2,"aqi":88,"pm10":56.8,"pm2_5":21.2,"no2":2.4,"co":165.0,"o3":105.0,"so2":7.3,"mosquito_risk":0,"arthritis_risk":5,"migraine_risk":10,"frizz_risk":1,"updated_at":"2026-05-27T10:48:13.467089+05:30"},{"city":"Bikaner","state":"Rajasthan","latitude":28.0229,"longitude":73.3119,"temp":40.2,"humidity":20,"rain":0.0,"pressure":980.5,"uv_index":8.4,"wind_gusts":41.0,"aqi":128,"pm10":267.3,"pm2_5":97.8,"no2":0.7,"co":148.0,"o3":90.0,"so2":3.2,"mosquito_risk":0,"arthritis_risk":5,"migraine_risk":10,"frizz_risk":0,"updated_at":"2026-05-27T10:48:13.467096+05:30"},{"city":"Ajmer","state":"Rajasthan","latitude":26.4499,"longitude":74.6399,"temp":36.0,"humidity":35,"rain":0.0,"pressure":955.3,"uv_index":8.4,"wind_gusts":56.5,"aqi":78,"pm10":82.4,"pm2_5":29.9,"no2":1.3,"co":135.0,"o3":87.0,"so2":3.9,"mosquito_risk":0,"arthritis_risk":5,"migraine_risk":10,"frizz_risk":1,"updated_at":"2026-05-27T10:48:13.467103+05:30"},{"city":"Gwalior","state":"Madhya Pradesh","latitude":26.2183,"longitude":78.1828,"temp":39.7,"humidity":26,"rain":0.0,"pressure":980.9,"uv_index":8.25,"wind_gusts":53.6,"aqi":75,"pm10":181.6,"pm2_5":41.0,"no2":2.0,"co":163.0,"o3":121.0,"so2":6.1,"mosquito_risk":0,"arthritis_risk":5,"migraine_risk":10,"frizz_risk":1,"updated_at":"2026-05-27T10:48:13.467110+05:30"},{"city":"Indore","state":"Madhya Pradesh","latitude":22.7196,"longitude":75.8577,"temp":35.1,"humidity":41,"rain":0.0,"pressure":950.3,"uv_index":8.65,"wind_gusts":46.1,"aqi":67,"pm10":43.5,"pm2_5":21.9,"no2":2.9,"co":202.0,"o3":96.0,"so2":8.6,"mosquito_risk":0,"arthritis_risk":5,"migraine_risk":10,"frizz_risk":1,"updated_at":"2026-05-27T10:48:13.467116+05:30"},{"city":"Bhopal","state":"Madhya Pradesh","latitude":23.2599,"longitude":77.4126,"temp":38.0,"humidity":29,"rain":0.0,"pressure":954.9,"uv_index":8.65,"wind_gusts":41.8,"aqi":69,"pm10":36.3,"pm2_5":18.7,"no2":1.7,"co":198.0,"o3":111.0,"so2":7.0,"mosquito_risk":0,"arthritis_risk":5,"migraine_risk":10,"frizz_risk":1,"updated_at":"2026-05-27T10:48:13.467122+05:30"},{"city":"Jabalpur","state":"Madhya Pradesh","latitude":23.1815,"longitude":79.9864,"temp":40.7,"humidity":19,"rain":0.0,"pressure":961.0,"uv_index":8.8,"wind_gusts":42.8,"aqi":79,"pm10":55.9,"pm2_5":24.3,"no2":1.7,"co":166.0,"o3":124.0,"so2":6.2,"mosquito_risk":0,"arthritis_risk":5,"migraine_risk":10,"frizz_risk":0,"updated_at":"2026-05-27T10:48:13.467129+05:30"},{"city":"Ujjain","state":"Madhya Pradesh","latitude":23.1765,"longitude":75.7885,"temp":35.7,"humidity":40,"rain":0.0,"pressure":955.6,"uv_index":8.55,"wind_gusts":47.5,"aqi":70,"pm10":40.5,"pm2_5":21.7,"no2":2.4,"co":165.0,"o3":94.0,"so2":9.2,"mosquito_risk":0,"arthritis_risk":5,"migraine_risk":10,"frizz_risk":1,"updated_at":"2026-05-27T10:48:13.467152+05:30"},{"city":"Visakhapatnam","state":"Andhra Pradesh","latitude":17.6868,"longitude":83.2185,"temp":40.0,"humidity":35,"rain":0.0,"pressure":1000.8,"uv_index":9.05,"wind_gusts":25.6,"aqi":127,"pm10":83.1,"pm2_5":64.5,"no2":30.1,"co":445.0,"o3":172.0,"so2":82.7,"mosquito_risk":0,"arthritis_risk":5,"migraine_risk":7,"frizz_risk":1,"updated_at":"2026-05-27T10:48:13.467159+05:30"},{"city":"Vijayawada","state":"Andhra Pradesh","latitude":16.5062,"longitude":80.648,"temp":39.5,"humidity":34,"rain":0.0,"pressure":1001.1,"uv_index":9.0,"wind_gusts":45.7,"aqi":105,"pm10":19.8,"pm2_5":16.9,"no2":3.7,"co":224.0,"o3":142.0,"so2":8.3,"mosquito_risk":0,"arthritis_risk":5,"migraine_risk":7,"frizz_risk":1,"updated_at":"2026-05-27T10:48:13.467166+05:30"},{"city":"Guntur","state":"Andhra Pradesh","latitude":16.3067,"longitude":80.4365,"temp":39.7,"humidity":33,"rain":0.0,"pressure":1002.4,"uv_index":8.75,"wind_gusts":45.7,"aqi":93,"pm10":16.8,"pm2_5":14.4,"no2":3.6,"co":214.0,"o3":134.0,"so2":6.8,"mosquito_risk":0,"arthritis_risk":5,"migraine_risk":7,"frizz_risk":1,"updated_at":"2026-05-27T10:48:13.467173+05:30"},{"city":"Nellore","state":"Andhra Pradesh","latitude":14.4426,"longitude":79.9865,"temp":37.2,"humidity":45,"rain":0.0,"pressure":1005.3,"uv_index":9.0,"wind_gusts":37.8,"aqi":72,"pm10":20.3,"pm2_5":17.9,"no2":3.2,"co":182.0,"o3":131.0,"so2":8.2,"mosquito_risk":0,"arthritis_risk":5,"migraine_risk":7,"frizz_risk":1,"updated_at":"2026-05-27T10:48:13.467180+05:30"},{"city":"Kurnool","state":"Andhra Pradesh","latitude":15.8281,"longitude":78.0373,"temp":34.5,"humidity":54,"rain":0.0,"pressure":978.6,"uv_index":4.5,"wind_gusts":46.4,"aqi":59,"pm10":12.6,"pm2_5":11.1,"no2":4.2,"co":183.0,"o3":114.0,"so2":9.5,"mosquito_risk":0,"arthritis_risk":5,"migraine_risk":3,"frizz_risk":1,"updated_at":"2026-05-27T10:48:13.467188+05:30"},{"city":"Kakinada","state":"Andhra Pradesh","latitude":16.9891,"longitude":82.2475,"temp":38.8,"humidity":38,"rain":0.0,"pressure":1004.9,"uv_index":9.05,"wind_gusts":44.3,"aqi":109,"pm10":44.6,"pm2_5":36.1,"no2":5.5,"co":294.0,"o3":184.0,"so2":8.8,"mosquito_risk":0,"arthritis_risk":5,"migraine_risk":7,"frizz_risk":1,"updated_at":"2026-05-27T10:48:13.467195+05:30"},{"city":"Tirupati","state":"Andhra Pradesh","latitude":13.6288,"longitude":79.4192,"temp":36.7,"humidity":39,"rain":0.0,"pressure":991.4,"uv_index":9.05,"wind_gusts":38.9,"aqi":73,"pm10":21.6,"pm2_5":18.0,"no2":2.4,"co":180.0,"o3":127.0,"so2":2.8,"mosquito_risk":0,"arthritis_risk":5,"migraine_risk":10,"frizz_risk":1,"updated_at":"2026-05-27T10:48:13.467203+05:30"},{"city":"Warangal","state":"Telangana","latitude":17.9689,"longitude":79.5941,"temp":38.3,"humidity":34,"rain":0.0,"pressure":979.0,"uv_index":8.75,"wind_gusts":45.0,"aqi":105,"pm10":21.5,"pm2_5":16.1,"no2":3.1,"co":204.0,"o3":131.0,"so2":4.5,"mosquito_risk":0,"arthritis_risk":5,"migraine_risk":10,"frizz_risk":1,"updated_at":"2026-05-27T10:48:13.467209+05:30"},{"city":"Nizamabad","state":"Telangana","latitude":18.6725,"longitude":78.0941,"temp":37.5,"humidity":37,"rain":0.0,"pressure":966.4,"uv_index":8.75,"wind_gusts":38.5,"aqi":81,"pm10":16.0,"pm2_5":12.7,"no2":2.3,"co":194.0,"o3":122.0,"so2":4.4,"mosquito_risk":0,"arthritis_risk":5,"migraine_risk":10,"frizz_risk":1,"updated_at":"2026-05-27T10:48:13.467216+05:30"},{"city":"Mysore","state":"Karnataka","latitude":12.2958,"longitude":76.6396,"temp":29.1,"humidity":58,"rain":0.0,"pressure":932.3,"uv_index":9.05,"wind_gusts":38.5,"aqi":55,"pm10":15.6,"pm2_5":11.8,"no2":2.9,"co":173.0,"o3":98.0,"so2":2.2,"mosquito_risk":4,"arthritis_risk":5,"migraine_risk":7,"frizz_risk":1,"updated_at":"2026-05-27T10:48:13.467223+05:30"},{"city":"Mangalore","state":"Karnataka","latitude":12.9141,"longitude":74.856,"temp":30.2,"humidity":73,"rain":0.0,"pressure":1010.1,"uv_index":7.7,"wind_gusts":27.7,"aqi":55,"pm10":15.8,"pm2_5":10.8,"no2":2.6,"co":182.0,"o3":76.0,"so2":2.4,"mosquito_risk":3,"arthritis_risk":0,"migraine_risk":4,"frizz_risk":1,"updated_at":"2026-05-27T10:48:13.467229+05:30"},{"city":"Hubli-Dharwad","state":"Karnataka","latitude":15.3647,"longitude":75.124,"temp":32.0,"humidity":51,"rain":0.0,"pressure":944.6,"uv_index":6.35,"wind_gusts":40.0,"aqi":27,"pm10":7.2,"pm2_5":5.3,"no2":1.9,"co":158.0,"o3":75.0,"so2":1.1,"mosquito_risk":0,"arthritis_risk":5,"migraine_risk":7,"frizz_risk":1,"updated_at":"2026-05-27T10:48:13.467236+05:30"},{"city":"Belgaum","state":"Karnataka","latitude":15.8497,"longitude":74.4977,"temp":30.9,"humidity":56,"rain":0.0,"pressure":929.7,"uv_index":8.65,"wind_gusts":36.7,"aqi":27,"pm10":10.5,"pm2_5":7.4,"no2":1.8,"co":146.0,"o3":75.0,"so2":1.7,"mosquito_risk":0,"arthritis_risk":5,"migraine_risk":7,"frizz_risk":1,"updated_at":"2026-05-27T10:48:16.774034+05:30"},{"city":"Coimbatore","state":"Tamil Nadu","latitude":11.0168,"longitude":76.9558,"temp":32.0,"humidity":53,"rain":0.0,"pressure":964.5,"uv_index":8.5,"wind_gusts":52.6,"aqi":44,"pm10":10.6,"pm2_5":7.7,"no2":2.0,"co":165.0,"o3":87.0,"so2":2.4,"mosquito_risk":0,"arthritis_risk":5,"migraine_risk":7,"frizz_risk":1,"updated_at":"2026-05-27T10:48:16.774069+05:30"},{"city":"Madurai","state":"Tamil Nadu","latitude":9.9252,"longitude":78.1198,"temp":35.5,"humidity":44,"rain":0.0,"pressure":994.6,"uv_index":8.75,"wind_gusts":29.2,"aqi":98,"pm10":23.2,"pm2_5":17.3,"no2":5.5,"co":184.0,"o3":137.0,"so2":5.4,"mosquito_risk":0,"arthritis_risk":5,"migraine_risk":10,"frizz_risk":1,"updated_at":"2026-05-27T10:48:16.774081+05:30"},{"city":"Trichy","state":"Tamil Nadu","latitude":10.7905,"longitude":78.7047,"temp":35.2,"humidity":47,"rain":0.0,"pressure":1001.0,"uv_index":8.05,"wind_gusts":43.2,"aqi":60,"pm10":10.3,"pm2_5":8.3,"no2":3.0,"co":162.0,"o3":92.0,"so2":3.5,"mosquito_risk":0,"arthritis_risk":5,"migraine_risk":7,"frizz_risk":1,"updated_at":"2026-05-27T10:48:16.774090+05:30"},{"city":"Salem","state":"Tamil Nadu","latitude":11.6643,"longitude":78.146,"temp":34.1,"humidity":46,"rain":0.0,"pressure":979.8,"uv_index":8.75,"wind_gusts":33.5,"aqi":78,"pm10":22.9,"pm2_5":19.5,"no2":5.6,"co":206.0,"o3":137.0,"so2":14.1,"mosquito_risk":0,"arthritis_risk":5,"migraine_risk":7,"frizz_risk":1,"updated_at":"2026-05-27T10:48:16.774099+05:30"},{"city":"Tirunelveli","state":"Tamil Nadu","latitude":8.7139,"longitude":77.7567,"temp":37.2,"humidity":37,"rain":0.0,"pressure":1004.8,"uv_index":8.45,"wind_gusts":31.3,"aqi":25,"pm10":4.3,"pm2_5":3.3,"no2":1.6,"co":134.0,"o3":73.0,"so2":1.1,"mosquito_risk":0,"arthritis_risk":5,"migraine_risk":7,"frizz_risk":1,"updated_at":"2026-05-27T10:48:16.774106+05:30"},{"city":"Vellore","state":"Tamil Nadu","latitude":12.9165,"longitude":79.1325,"temp":34.8,"humidity":42,"rain":0.0,"pressure":985.4,"uv_index":9.05,"wind_gusts":35.3,"aqi":85,"pm10":28.8,"pm2_5":25.1,"no2":4.6,"co":247.0,"o3":143.0,"so2":5.3,"mosquito_risk":0,"arthritis_risk":5,"migraine_risk":7,"frizz_risk":1,"updated_at":"2026-05-27T10:48:16.774114+05:30"},{"city":"Erode","state":"Tamil Nadu","latitude":11.341,"longitude":77.7172,"temp":33.7,"humidity":47,"rain":0.0,"pressure":991.3,"uv_index":8.25,"wind_gusts":48.6,"aqi":55,"pm10":13.5,"pm2_5":10.5,"no2":3.5,"co":204.0,"o3":103.0,"so2":3.0,"mosquito_risk":0,"arthritis_risk":5,"migraine_risk":7,"frizz_risk":1,"updated_at":"2026-05-27T10:48:16.774121+05:30"},{"city":"Kochi","state":"Kerala","latitude":9.9312,"longitude":76.2673,"temp":29.8,"humidity":75,"rain":0.1,"pressure":1012.2,"uv_index":8.2,"wind_gusts":31.7,"aqi":56,"pm10":8.2,"pm2_5":6.7,"no2":3.2,"co":180.0,"o3":84.0,"so2":3.6,"mosquito_risk":10,"arthritis_risk":0,"migraine_risk":4,"frizz_risk":1,"updated_at":"2026-05-27T10:48:16.774130+05:30"},{"city":"Thiruvananthapuram","state":"Kerala","latitude":8.5241,"longitude":76.9366,"temp":29.8,"humidity":72,"rain":0.0,"pressure":1011.6,"uv_index":7.65,"wind_gusts":37.1,"aqi":25,"pm10":9.5,"pm2_5":5.8,"no2":1.5,"co":108.0,"o3":63.0,"so2":1.0,"mosquito_risk":7,"arthritis_risk":0,"migraine_risk":4,"frizz_risk":1,"updated_at":"2026-05-27T10:48:16.774153+05:30"},{"city":"Kozhikode","state":"Kerala","latitude":11.2588,"longitude":75.7804,"temp":29.6,"humidity":79,"rain":0.0,"pressure":1011.5,"uv_index":7.55,"wind_gusts":28.1,"aqi":30,"pm10":8.6,"pm2_5":6.0,"no2":1.2,"co":214.0,"o3":72.0,"so2":1.5,"mosquito_risk":7,"arthritis_risk":0,"migraine_risk":4,"frizz_risk":1,"updated_at":"2026-05-27T10:48:16.774159+05:30"},{"city":"Thrissur","state":"Kerala","latitude":10.5276,"longitude":76.2144,"temp":30.2,"humidity":72,"rain":0.1,"pressure":1010.4,"uv_index":8.35,"wind_gusts":32.4,"aqi":53,"pm10":9.5,"pm2_5":7.7,"no2":3.1,"co":213.0,"o3":89.0,"so2":3.8,"mosquito_risk":6,"arthritis_risk":0,"migraine_risk":4,"frizz_risk":1,"updated_at":"2026-05-27T10:48:16.774167+05:30"},{"city":"Kannur","state":"Kerala","latitude":11.8745,"longitude":75.3704,"temp":30.1,"humidity":74,"rain":0.1,"pressure":1010.7,"uv_index":7.7,"wind_gusts":28.8,"aqi":55,"pm10":13.3,"pm2_5":9.0,"no2":1.7,"co":175.0,"o3":76.0,"so2":1.9,"mosquito_risk":6,"arthritis_risk":0,"migraine_risk":4,"frizz_risk":1,"updated_at":"2026-05-27T10:48:16.774174+05:30"},{"city":"Patna","state":"Bihar","latitude":25.5941,"longitude":85.1376,"temp":31.0,"humidity":61,"rain":0.0,"pressure":999.2,"uv_index":8.75,"wind_gusts":46.8,"aqi":92,"pm10":35.9,"pm2_5":29.8,"no2":3.8,"co":410.0,"o3":152.0,"so2":15.2,"mosquito_risk":3,"arthritis_risk":5,"migraine_risk":7,"frizz_risk":1,"updated_at":"2026-05-27T10:48:16.774180+05:30"},{"city":"Gaya","state":"Bihar","latitude":24.7914,"longitude":85.0002,"temp":34.8,"humidity":52,"rain":0.0,"pressure":991.5,"uv_index":8.8,"wind_gusts":38.9,"aqi":138,"pm10":48.3,"pm2_5":44.0,"no2":4.1,"co":404.0,"o3":158.0,"so2":14.5,"mosquito_risk":0,"arthritis_risk":5,"migraine_risk":7,"frizz_risk":1,"updated_at":"2026-05-27T10:48:16.774187+05:30"},{"city":"Muzaffarpur","state":"Bihar","latitude":26.1209,"longitude":85.3647,"temp":30.6,"humidity":64,"rain":0.0,"pressure":999.6,"uv_index":8.75,"wind_gusts":46.4,"aqi":82,"pm10":38.3,"pm2_5":28.9,"no2":3.3,"co":351.0,"o3":156.0,"so2":12.3,"mosquito_risk":3,"arthritis_risk":5,"migraine_risk":7,"frizz_risk":1,"updated_at":"2026-05-27T10:48:16.774193+05:30"},{"city":"Bhagalpur","state":"Bihar","latitude":25.2425,"longitude":87.0117,"temp":28.0,"humidity":73,"rain":0.0,"pressure":1000.8,"uv_index":8.75,"wind_gusts":41.4,"aqi":96,"pm10":13.0,"pm2_5":10.7,"no2":5.3,"co":345.0,"o3":112.0,"so2":13.2,"mosquito_risk":7,"arthritis_risk":5,"migraine_risk":4,"frizz_risk":1,"updated_at":"2026-05-27T10:48:16.774200+05:30"},{"city":"Ranchi","state":"Jharkhand","latitude":23.3441,"longitude":85.3096,"temp":34.4,"humidity":40,"rain":0.1,"pressure":937.5,"uv_index":9.0,"wind_gusts":54.0,"aqi":121,"pm10":76.4,"pm2_5":41.2,"no2":2.5,"co":213.0,"o3":171.0,"so2":14.2,"mosquito_risk":3,"arthritis_risk":5,"migraine_risk":7,"frizz_risk":1,"updated_at":"2026-05-27T10:48:16.774207+05:30"},{"city":"Jamshedpur","state":"Jharkhand","latitude":22.8046,"longitude":86.2029,"temp":37.0,"humidity":51,"rain":0.0,"pressure":988.1,"uv_index":9.0,"wind_gusts":70.9,"aqi":153,"pm10":93.1,"pm2_5":66.4,"no2":5.8,"co":347.0,"o3":204.0,"so2":30.3,"mosquito_risk":0,"arthritis_risk":5,"migraine_risk":10,"frizz_risk":1,"updated_at":"2026-05-27T10:48:16.774213+05:30"},{"city":"Dhanbad","state":"Jharkhand","latitude":23.7957,"longitude":86.4304,"temp":37.2,"humidity":48,"rain":0.0,"pressure":977.4,"uv_index":9.0,"wind_gusts":44.3,"aqi":161,"pm10":104.3,"pm2_5":82.4,"no2":24.4,"co":368.0,"o3":183.0,"so2":81.1,"mosquito_risk":0,"arthritis_risk":5,"migraine_risk":10,"frizz_risk":1,"updated_at":"2026-05-27T10:48:16.774221+05:30"},{"city":"Bokaro","state":"Jharkhand","latitude":23.6693,"longitude":86.1511,"temp":38.0,"humidity":42,"rain":0.0,"pressure":980.9,"uv_index":9.0,"wind_gusts":49.3,"aqi":158,"pm10":95.9,"pm2_5":68.0,"no2":15.0,"co":291.0,"o3":188.0,"so2":53.0,"mosquito_risk":0,"arthritis_risk":5,"migraine_risk":10,"frizz_risk":1,"updated_at":"2026-05-27T10:48:16.774231+05:30"},{"city":"Bhubaneswar","state":"Odisha","latitude":20.2961,"longitude":85.8245,"temp":37.1,"humidity":51,"rain":0.0,"pressure":1000.1,"uv_index":9.05,"wind_gusts":47.9,"aqi":106,"pm10":52.4,"pm2_5":35.7,"no2":2.3,"co":267.0,"o3":143.0,"so2":9.4,"mosquito_risk":0,"arthritis_risk":5,"migraine_risk":7,"frizz_risk":1,"updated_at":"2026-05-27T10:48:16.774238+05:30"},{"city":"Cuttack","state":"Odisha","latitude":20.4625,"longitude":85.8828,"temp":35.5,"humidity":62,"rain":0.0,"pressure":1002.1,"uv_index":9.1,"wind_gusts":54.0,"aqi":106,"pm10":52.4,"pm2_5":35.7,"no2":2.3,"co":289.0,"o3":143.0,"so2":9.4,"mosquito_risk":3,"arthritis_risk":5,"migraine_risk":7,"frizz_risk":1,"updated_at":"2026-05-27T10:48:16.774245+05:30"},{"city":"Rourkela","state":"Odisha","latitude":22.2604,"longitude":84.8536,"temp":37.0,"humidity":51,"rain":0.0,"pressure":982.5,"uv_index":8.65,"wind_gusts":50.0,"aqi":151,"pm10":99.2,"pm2_5":61.0,"no2":3.6,"co":352.0,"o3":197.0,"so2":18.5,"mosquito_risk":0,"arthritis_risk":5,"migraine_risk":10,"frizz_risk":1,"updated_at":"2026-05-27T10:48:16.774252+05:30"},{"city":"Raipur","state":"Chhattisgarh","latitude":21.2514,"longitude":81.6296,"temp":41.2,"humidity":20,"rain":0.0,"pressure":973.1,"uv_index":8.95,"wind_gusts":44.6,"aqi":102,"pm10":40.0,"pm2_5":29.1,"no2":14.5,"co":280.0,"o3":135.0,"so2":44.4,"mosquito_risk":0,"arthritis_risk":5,"migraine_risk":10,"frizz_risk":0,"updated_at":"2026-05-27T10:48:16.774258+05:30"},{"city":"Bhilai","state":"Chhattisgarh","latitude":21.1938,"longitude":81.3509,"temp":40.0,"humidity":23,"rain":0.0,"pressure":973.6,"uv_index":8.95,"wind_gusts":42.5,"aqi":94,"pm10":35.0,"pm2_5":24.6,"no2":11.6,"co":488.0,"o3":132.0,"so2":35.0,"mosquito_risk":0,"arthritis_risk":5,"migraine_risk":10,"frizz_risk":0,"updated_at":"2026-05-27T10:48:16.774265+05:30"},{"city":"Guwahati","state":"Assam","latitude":26.1158,"longitude":91.7086,"temp":27.8,"humidity":72,"rain":0.0,"pressure":1002.9,"uv_index":8.7,"wind_gusts":24.1,"aqi":75,"pm10":33.5,"pm2_5":21.9,"no2":2.1,"co":284.0,"o3":119.0,"so2":4.3,"mosquito_risk":7,"arthritis_risk":5,"migraine_risk":4,"frizz_risk":1,"updated_at":"2026-05-27T10:48:16.774271+05:30"},{"city":"Agartala","state":"Tripura","latitude":23.8315,"longitude":91.2868,"temp":24.0,"humidity":97,"rain":0.7,"pressure":1007.2,"uv_index":8.85,"wind_gusts":38.2,"aqi":81,"pm10":28.0,"pm2_5":21.4,"no2":4.0,"co":172.0,"o3":103.0,"so2":2.7,"mosquito_risk":6,"arthritis_risk":5,"migraine_risk":4,"frizz_risk":1,"updated_at":"2026-05-27T10:48:16.774278+05:30"},{"city":"Shillong","state":"Meghalaya","latitude":25.5788,"longitude":91.8933,"temp":23.4,"humidity":66,"rain":0.0,"pressure":859.6,"uv_index":9.15,"wind_gusts":33.5,"aqi":46,"pm10":16.7,"pm2_5":10.5,"no2":1.4,"co":216.0,"o3":105.0,"so2":2.8,"mosquito_risk":3,"arthritis_risk":5,"migraine_risk":7,"frizz_risk":1,"updated_at":"2026-05-27T10:48:16.774284+05:30"},{"city":"Imphal","state":"Manipur","latitude":24.817,"longitude":93.9368,"temp":28.5,"humidity":51,"rain":0.0,"pressure":925.0,"uv_index":9.25,"wind_gusts":29.5,"aqi":75,"pm10":32.1,"pm2_5":16.9,"no2":0.7,"co":176.0,"o3":112.0,"so2":2.7,"mosquito_risk":4,"arthritis_risk":5,"migraine_risk":7,"frizz_risk":1,"updated_at":"2026-05-27T10:48:16.774290+05:30"},{"city":"Aizawl","state":"Mizoram","latitude":23.7271,"longitude":92.7176,"temp":25.4,"humidity":62,"rain":0.1,"pressure":895.0,"uv_index":8.9,"wind_gusts":25.6,"aqi":70,"pm10":53.7,"pm2_5":26.6,"no2":0.4,"co":148.0,"o3":97.0,"so2":2.1,"mosquito_risk":10,"arthritis_risk":5,"migraine_risk":7,"frizz_risk":1,"updated_at":"2026-05-27T10:48:16.774297+05:30"},{"city":"Kohima","state":"Nagaland","latitude":25.6701,"longitude":94.1077,"temp":21.1,"humidity":86,"rain":0.1,"pressure":857.6,"uv_index":6.25,"wind_gusts":31.0,"aqi":61,"pm10":38.6,"pm2_5":15.7,"no2":0.4,"co":200.0,"o3":114.0,"so2":2.5,"mosquito_risk":6,"arthritis_risk":5,"migraine_risk":7,"frizz_risk":1,"updated_at":"2026-05-27T10:48:16.774303+05:30"},{"city":"Gangtok","state":"Sikkim","latitude":27.3314,"longitude":88.6138,"temp":21.8,"humidity":56,"rain":0.0,"pressure":839.3,"uv_index":9.1,"wind_gusts":40.7,"aqi":51,"pm10":21.2,"pm2_5":12.4,"no2":1.9,"co":270.0,"o3":133.0,"so2":3.2,"mosquito_risk":0,"arthritis_risk":5,"migraine_risk":7,"frizz_risk":0,"updated_at":"2026-05-27T10:48:16.774310+05:30"},{"city":"Siliguri","state":"West Bengal","latitude":26.7271,"longitude":88.3953,"temp":28.4,"humidity":70,"rain":0.0,"pressure":993.9,"uv_index":8.65,"wind_gusts":34.6,"aqi":72,"pm10":40.9,"pm2_5":24.5,"no2":4.3,"co":363.0,"o3":142.0,"so2":5.4,"mosquito_risk":7,"arthritis_risk":5,"migraine_risk":7,"frizz_risk":1,"updated_at":"2026-05-27T10:48:20.080399+05:30"},{"city":"Durgapur","state":"West Bengal","latitude":23.5204,"longitude":87.3119,"temp":34.7,"humidity":62,"rain":0.0,"pressure":992.8,"uv_index":8.95,"wind_gusts":45.7,"aqi":158,"pm10":89.2,"pm2_5":69.2,"no2":13.8,"co":692.0,"o3":175.0,"so2":58.4,"mosquito_risk":3,"arthritis_risk":5,"migraine_risk":7,"frizz_risk":1,"updated_at":"2026-05-27T10:48:20.080435+05:30"},{"city":"Asansol","state":"West Bengal","latitude":23.6739,"longitude":86.9524,"temp":35.3,"humidity":59,"rain":0.0,"pressure":991.0,"uv_index":9.0,"wind_gusts":40.7,"aqi":158,"pm10":91.3,"pm2_5":73.3,"no2":13.4,"co":579.0,"o3":177.0,"so2":55.0,"mosquito_risk":0,"arthritis_risk":5,"migraine_risk":10,"frizz_risk":1,"updated_at":"2026-05-27T10:48:20.080447+05:30"},{"city":"Pondicherry","state":"Puducherry","latitude":11.9139,"longitude":79.8145,"temp":34.2,"humidity":52,"rain":0.0,"pressure":1008.8,"uv_index":8.3,"wind_gusts":45.4,"aqi":76,"pm10":29.6,"pm2_5":25.6,"no2":9.1,"co":275.0,"o3":134.0,"so2":12.2,"mosquito_risk":0,"arthritis_risk":0,"migraine_risk":4,"frizz_risk":1,"updated_at":"2026-05-27T10:48:20.080456+05:30"},{"city":"Port Blair","state":"Andaman and Nicobar Islands","latitude":11.6234,"longitude":92.7265,"temp":29.0,"humidity":77,"rain":0.1,"pressure":1009.1,"uv_index":7.85,"wind_gusts":34.6,"aqi":35,"pm10":9.3,"pm2_5":6.8,"no2":0.4,"co":122.0,"o3":78.0,"so2":0.4,"mosquito_risk":10,"arthritis_risk":0,"migraine_risk":4,"frizz_risk":1,"updated_at":"2026-05-27T10:48:20.080464+05:30"},{"city":"Haridwar","state":"Uttarakhand","latitude":29.9457,"longitude":78.1642,"temp":33.7,"humidity":40,"rain":0.0,"pressure":971.8,"uv_index":7.55,"wind_gusts":40.0,"aqi":55,"pm10":18.2,"pm2_5":15.2,"no2":2.5,"co":295.0,"o3":187.0,"so2":7.8,"mosquito_risk":0,"arthritis_risk":5,"migraine_risk":7,"frizz_risk":1,"updated_at":"2026-05-27T10:48:20.080471+05:30"},{"city":"Rishikesh","state":"Uttarakhand","latitude":30.0869,"longitude":78.2676,"temp":34.6,"humidity":34,"rain":0.0,"pressure":964.5,"uv_index":7.65,"wind_gusts":37.8,"aqi":53,"pm10":21.2,"pm2_5":13.9,"no2":1.1,"co":258.0,"o3":177.0,"so2":6.4,"mosquito_risk":0,"arthritis_risk":5,"migraine_risk":7,"frizz_risk":1,"updated_at":"2026-05-27T10:48:20.080478+05:30"},{"city":"Nainital","state":"Uttarakhand","latitude":29.3919,"longitude":79.4542,"temp":23.6,"humidity":43,"rain":0.0,"pressure":808.4,"uv_index":8.5,"wind_gusts":31.7,"aqi":71,"pm10":77.1,"pm2_5":30.7,"no2":0.8,"co":237.0,"o3":170.0,"so2":7.0,"mosquito_risk":0,"arthritis_risk":5,"migraine_risk":7,"frizz_risk":0,"updated_at":"2026-05-27T10:48:20.080485+05:30"},{"city":"Mussoorie","state":"Uttarakhand","latitude":30.4599,"longitude":78.0664,"temp":24.4,"humidity":28,"rain":0.0,"pressure":806.0,"uv_index":8.1,"wind_gusts":50.4,"aqi":54,"pm10":17.6,"pm2_5":11.4,"no2":1.2,"co":181.0,"o3":177.0,"so2":5.0,"mosquito_risk":0,"arthritis_risk":5,"migraine_risk":7,"frizz_risk":0,"updated_at":"2026-05-27T10:48:20.080493+05:30"},{"city":"Dharamshala","state":"Himachal Pradesh","latitude":32.219,"longitude":76.3234,"temp":28.8,"humidity":28,"rain":0.0,"pressure":870.1,"uv_index":8.45,"wind_gusts":49.3,"aqi":51,"pm10":21.2,"pm2_5":8.6,"no2":0.8,"co":196.0,"o3":151.0,"so2":0.7,"mosquito_risk":4,"arthritis_risk":5,"migraine_risk":7,"frizz_risk":0,"updated_at":"2026-05-27T10:48:20.080500+05:30"},{"city":"Dalhousie","state":"Himachal Pradesh","latitude":32.5387,"longitude":75.971,"temp":26.9,"humidity":17,"rain":0.0,"pressure":808.1,"uv_index":8.7,"wind_gusts":41.8,"aqi":62,"pm10":24.0,"pm2_5":13.2,"no2":2.8,"co":197.0,"o3":172.0,"so2":1.6,"mosquito_risk":4,"arthritis_risk":5,"migraine_risk":7,"frizz_risk":0,"updated_at":"2026-05-27T10:48:20.080508+05:30"},{"city":"Patiala","state":"Punjab","latitude":30.3398,"longitude":76.3869,"temp":38.7,"humidity":18,"rain":0.0,"pressure":975.5,"uv_index":7.65,"wind_gusts":41.4,"aqi":514,"pm10":410.7,"pm2_5":53.1,"no2":3.7,"co":320.0,"o3":166.0,"so2":7.9,"mosquito_risk":0,"arthritis_risk":5,"migraine_risk":10,"frizz_risk":0,"updated_at":"2026-05-27T10:48:20.080515+05:30"},{"city":"Bhatinda","state":"Punjab","latitude":30.211,"longitude":74.9455,"temp":40.9,"humidity":15,"rain":0.0,"pressure":980.9,"uv_index":8.3,"wind_gusts":33.8,"aqi":85,"pm10":32.9,"pm2_5":18.5,"no2":6.8,"co":290.0,"o3":169.0,"so2":13.0,"mosquito_risk":0,"arthritis_risk":5,"migraine_risk":10,"frizz_risk":0,"updated_at":"2026-05-27T10:48:20.080522+05:30"},{"city":"Rohtak","state":"Haryana","latitude":28.8955,"longitude":76.6066,"temp":38.7,"humidity":18,"rain":0.0,"pressure":979.5,"uv_index":7.8,"wind_gusts":33.5,"aqi":846,"pm10":472.2,"pm2_5":95.9,"no2":7.5,"co":302.0,"o3":156.0,"so2":7.2,"mosquito_risk":0,"arthritis_risk":5,"migraine_risk":10,"frizz_risk":0,"updated_at":"2026-05-27T10:48:20.080529+05:30"},{"city":"Panipat","state":"Haryana","latitude":29.3909,"longitude":76.9635,"temp":39.2,"humidity":16,"rain":0.0,"pressure":977.9,"uv_index":7.6,"wind_gusts":38.2,"aqi":1572,"pm10":905.2,"pm2_5":126.7,"no2":6.7,"co":245.0,"o3":152.0,"so2":11.6,"mosquito_risk":0,"arthritis_risk":5,"migraine_risk":10,"frizz_risk":0,"updated_at":"2026-05-27T10:48:20.080536+05:30"},{"city":"Mathura","state":"Uttar Pradesh","latitude":27.4924,"longitude":77.6737,"temp":40.5,"humidity":14,"rain":0.0,"pressure":984.4,"uv_index":8.0,"wind_gusts":36.4,"aqi":563,"pm10":497.3,"pm2_5":96.2,"no2":9.7,"co":291.0,"o3":160.0,"so2":15.1,"mosquito_risk":0,"arthritis_risk":5,"migraine_risk":10,"frizz_risk":0,"updated_at":"2026-05-27T10:48:20.080543+05:30"},{"city":"Vrindavan","state":"Uttar Pradesh","latitude":27.5823,"longitude":77.7027,"temp":40.0,"humidity":15,"rain":0.0,"pressure":984.8,"uv_index":8.0,"wind_gusts":34.9,"aqi":563,"pm10":497.3,"pm2_5":96.2,"no2":9.7,"co":305.0,"o3":160.0,"so2":15.1,"mosquito_risk":0,"arthritis_risk":5,"migraine_risk":10,"frizz_risk":0,"updated_at":"2026-05-27T10:48:20.080550+05:30"},{"city":"Ayodhya","state":"Uttar Pradesh","latitude":26.7922,"longitude":82.1998,"temp":33.0,"humidity":54,"rain":0.0,"pressure":993.9,"uv_index":8.3,"wind_gusts":33.5,"aqi":103,"pm10":48.4,"pm2_5":30.5,"no2":2.8,"co":348.0,"o3":174.0,"so2":10.8,"mosquito_risk":0,"arthritis_risk":5,"migraine_risk":7,"frizz_risk":1,"updated_at":"2026-05-27T10:48:20.080557+05:30"},{"city":"Ratlam","state":"Madhya Pradesh","latitude":23.3315,"longitude":75.0367,"temp":34.6,"humidity":43,"rain":0.0,"pressure":957.0,"uv_index":8.5,"wind_gusts":47.2,"aqi":69,"pm10":43.5,"pm2_5":22.8,"no2":2.4,"co":154.0,"o3":92.0,"so2":9.5,"mosquito_risk":0,"arthritis_risk":5,"migraine_risk":7,"frizz_risk":1,"updated_at":"2026-05-27T10:48:20.080564+05:30"},{"city":"Sagar","state":"Madhya Pradesh","latitude":23.8388,"longitude":78.7378,"temp":39.2,"humidity":23,"rain":0.0,"pressure":950.7,"uv_index":8.7,"wind_gusts":47.5,"aqi":80,"pm10":48.8,"pm2_5":19.4,"no2":1.2,"co":150.0,"o3":117.0,"so2":4.6,"mosquito_risk":0,"arthritis_risk":5,"migraine_risk":10,"frizz_risk":0,"updated_at":"2026-05-27T10:48:20.080571+05:30"},{"city":"Satna","state":"Madhya Pradesh","latitude":24.6005,"longitude":80.8322,"temp":40.6,"humidity":16,"rain":0.0,"pressure":969.6,"uv_index":8.75,"wind_gusts":52.9,"aqi":66,"pm10":50.6,"pm2_5":24.3,"no2":2.0,"co":161.0,"o3":123.0,"so2":5.7,"mosquito_risk":0,"arthritis_risk":5,"migraine_risk":10,"frizz_risk":0,"updated_at":"2026-05-27T10:48:20.080578+05:30"},{"city":"Akola","state":"Maharashtra","latitude":20.7002,"longitude":77.0082,"temp":37.0,"humidity":36,"rain":0.0,"pressure":976.5,"uv_index":8.85,"wind_gusts":46.4,"aqi":56,"pm10":39.0,"pm2_5":17.7,"no2":2.5,"co":147.0,"o3":101.0,"so2":8.9,"mosquito_risk":0,"arthritis_risk":5,"migraine_risk":10,"frizz_risk":1,"updated_at":"2026-05-27T10:48:20.080585+05:30"},{"city":"Amravati","state":"Maharashtra","latitude":20.9374,"longitude":77.7796,"temp":38.5,"humidity":27,"rain":0.0,"pressure":968.2,"uv_index":8.85,"wind_gusts":45.7,"aqi":58,"pm10":38.8,"pm2_5":18.3,"no2":2.9,"co":176.0,"o3":111.0,"so2":10.7,"mosquito_risk":0,"arthritis_risk":5,"migraine_risk":10,"frizz_risk":1,"updated_at":"2026-05-27T10:48:20.080593+05:30"},{"city":"Latur","state":"Maharashtra","latitude":18.4088,"longitude":76.5604,"temp":35.7,"humidity":37,"rain":0.0,"pressure":942.6,"uv_index":8.25,"wind_gusts":34.6,"aqi":62,"pm10":14.1,"pm2_5":10.9,"no2":1.9,"co":187.0,"o3":113.0,"so2":6.8,"mosquito_risk":0,"arthritis_risk":5,"migraine_risk":10,"frizz_risk":1,"updated_at":"2026-05-27T10:48:20.080600+05:30"},{"city":"Nanded","state":"Maharashtra","latitude":19.1383,"longitude":77.3091,"temp":37.5,"humidity":35,"rain":0.0,"pressure":970.4,"uv_index":8.9,"wind_gusts":38.2,"aqi":72,"pm10":12.4,"pm2_5":9.0,"no2":2.0,"co":189.0,"o3":103.0,"so2":3.5,"mosquito_risk":0,"arthritis_risk":5,"migraine_risk":10,"frizz_risk":1,"updated_at":"2026-05-27T10:48:20.080607+05:30"},{"city":"Gulbarga","state":"Karnataka","latitude":17.3297,"longitude":76.8343,"temp":35.7,"humidity":35,"rain":0.0,"pressure":961.4,"uv_index":6.15,"wind_gusts":41.0,"aqi":48,"pm10":13.9,"pm2_5":10.5,"no2":2.6,"co":180.0,"o3":108.0,"so2":4.9,"mosquito_risk":0,"arthritis_risk":5,"migraine_risk":10,"frizz_risk":1,"updated_at":"2026-05-27T10:48:20.080614+05:30"},{"city":"Bidar","state":"Karnataka","latitude":17.9104,"longitude":77.5199,"temp":34.8,"humidity":41,"rain":0.1,"pressure":938.3,"uv_index":8.65,"wind_gusts":45.0,"aqi":70,"pm10":19.9,"pm2_5":16.8,"no2":3.4,"co":204.0,"o3":130.0,"so2":7.8,"mosquito_risk":3,"arthritis_risk":5,"migraine_risk":7,"frizz_risk":1,"updated_at":"2026-05-27T10:48:20.080621+05:30"},{"city":"Hospet","state":"Karnataka","latitude":15.2689,"longitude":76.3909,"temp":30.8,"humidity":62,"rain":0.0,"pressure":959.0,"uv_index":6.8,"wind_gusts":40.0,"aqi":41,"pm10":7.9,"pm2_5":6.3,"no2":2.2,"co":155.0,"o3":81.0,"so2":2.6,"mosquito_risk":3,"arthritis_risk":5,"migraine_risk":7,"frizz_risk":1,"updated_at":"2026-05-27T10:48:20.080627+05:30"},{"city":"Tirupur","state":"Tamil Nadu","latitude":11.1085,"longitude":77.3411,"temp":33.8,"humidity":47,"rain":0.0,"pressure":977.8,"uv_index":8.0,"wind_gusts":54.0,"aqi":55,"pm10":13.2,"pm2_5":10.1,"no2":3.1,"co":174.0,"o3":99.0,"so2":3.2,"mosquito_risk":0,"arthritis_risk":5,"migraine_risk":7,"frizz_risk":1,"updated_at":"2026-05-27T10:48:20.080634+05:30"},{"city":"Alappuzha","state":"Kerala","latitude":9.4981,"longitude":76.3388,"temp":30.2,"humidity":70,"rain":0.0,"pressure":1012.2,"uv_index":7.85,"wind_gusts":33.1,"aqi":39,"pm10":7.7,"pm2_5":5.8,"no2":2.5,"co":108.0,"o3":77.0,"so2":2.1,"mosquito_risk":3,"arthritis_risk":0,"migraine_risk":4,"frizz_risk":1,"updated_at":"2026-05-27T10:48:20.080641+05:30"},{"city":"Munnar","state":"Kerala","latitude":10.0889,"longitude":77.0595,"temp":22.0,"humidity":77,"rain":0.0,"pressure":861.2,"uv_index":6.55,"wind_gusts":28.1,"aqi":47,"pm10":12.3,"pm2_5":7.9,"no2":1.4,"co":132.0,"o3":85.0,"so2":1.5,"mosquito_risk":3,"arthritis_risk":5,"migraine_risk":7,"frizz_risk":1,"updated_at":"2026-05-27T10:48:20.080648+05:30"},{"city":"Silchar","state":"Assam","latitude":24.8333,"longitude":92.7789,"temp":30.9,"humidity":60,"rain":0.0,"pressure":1006.2,"uv_index":8.85,"wind_gusts":22.0,"aqi":98,"pm10":47.8,"pm2_5":25.4,"no2":0.9,"co":208.0,"o3":112.0,"so2":4.0,"mosquito_risk":0,"arthritis_risk":5,"migraine_risk":4,"frizz_risk":1,"updated_at":"2026-05-27T10:48:20.080654+05:30"},{"city":"Dibrugarh","state":"Assam","latitude":27.4728,"longitude":94.912,"temp":28.2,"humidity":74,"rain":0.0,"pressure":997.1,"uv_index":8.9,"wind_gusts":31.7,"aqi":93,"pm10":44.6,"pm2_5":20.7,"no2":0.7,"co":212.0,"o3":136.0,"so2":2.9,"mosquito_risk":7,"arthritis_risk":5,"migraine_risk":7,"frizz_risk":1,"updated_at":"2026-05-27T10:48:20.080661+05:30"}]